%time,field.header.seq,field.header.stamp,field.header.frame_id,field.vector.x,field.vector.y,field.vector.z
1589275809768802370,8151,1589275809768684428,,0.0343063726614,-0.121951437193,0.858596424988
1589275809771657484,8152,1589275809771574682,,0.0344024389674,-0.122740203948,0.857915840745
1589275809777487680,8153,1589275809777420837,,0.0346890610997,-0.125018724788,0.857748196337
1589275809780381236,8154,1589275809780303046,,0.0351723671468,-0.127319498502,0.857421540915
1589275809786333690,8155,1589275809786275166,,0.0353642171133,-0.130179654526,0.856762740906
1589275809789306829,8156,1589275809789258768,,0.0356797156939,-0.13061754718,0.855712741624
1589275809792877886,8157,1589275809792732224,,0.0361649245847,-0.134091655864,0.85539525711
1589275809795682339,8158,1589275809795623839,,0.0365752788853,-0.134519410532,0.854617714614
1589275809801519378,8159,1589275809801436666,,0.037063946699,-0.138035397389,0.854485992336
1589275809804499352,8160,1589275809804445178,,0.0374257077182,-0.138572502862,0.854014780305
1589275809807590868,8161,1589275809807516166,,0.0377582699734,-0.142206142973,0.854032326197
1589275809813699559,8162,1589275809813625156,,0.0383047467599,-0.146040680374,0.854373583852
1589275809816592048,8163,1589275809816522504,,0.0387012239004,-0.146738940883,0.853518746381
1589275809819399864,8164,1589275809819317619,,0.0392216649092,-0.150841671727,0.853740162423
1589275809825830778,8165,1589275809825733584,,0.039779986882,-0.155550926072,0.853567958091
1589275809828374976,8166,1589275809828208026,,0.0402631934867,-0.155963976227,0.85235349254
1589275809831802529,8167,1589275809831710014,,0.0407669820007,-0.156856639539,0.851395349438
1589275809837785109,8168,1589275809837680710,,0.041409548444,-0.162066088206,0.85175485502
1589275809840731143,8169,1589275809840615669,,0.0421666211409,-0.167028449304,0.852490880795
1589275809846689789,8170,1589275809846580256,,0.0427084889627,-0.173138481064,0.85339525626
1589275809849689786,8171,1589275809849613454,,0.0433216166939,-0.173877480557,0.852889575213
1589275809852617836,8172,1589275809852546710,,0.043982942962,-0.179898864082,0.853562246953
1589275809858685368,8173,1589275809858610898,,0.0445423064946,-0.180577748131,0.852621705331
1589275809861671699,8174,1589275809861604017,,0.0450783393224,-0.186842216316,0.853344627966
1589275809864655912,8175,1589275809864589794,,0.0456916703969,-0.187643370383,0.853018034568
1589275809870758602,8176,1589275809870682064,,0.0463019260724,-0.194089398785,0.854337171127
1589275809873707373,8177,1589275809873628102,,0.046967699861,-0.20096246206,0.855347729453
1589275809876628236,8178,1589275809876553366,,0.0475425999858,-0.201753541141,0.854663969329
1589275809882389043,8179,1589275809882319748,,0.0481184885782,-0.20884577871,0.855686860829
1589275809885662058,8180,1589275809885462014,,0.048712974694,-0.209770444527,0.855386807711
1589275809888622189,8181,1589275809888554768,,0.049354538392,-0.217281220315,0.856786743067
1589275809894677471,8182,1589275809894592309,,0.049901101295,-0.22513247274,0.858200108402
1589275809897631803,8183,1589275809897496650,,0.0503073664755,-0.226009330145,0.85799986762
1589275809903722326,8184,1589275809903646462,,0.0508139681251,-0.234241948104,0.858867895284
1589275809906764745,8185,1589275809906690914,,0.0512981036151,-0.24265977183,0.860253055343
1589275809909516966,8186,1589275809909455544,,0.0518609684163,-0.243585387576,0.85979995323
1589275809912696728,8187,1589275809912638744,,0.0522906808895,-0.252262633787,0.86109587145
1589275809918729874,8188,1589275809918631144,,0.0528082764235,-0.253020042186,0.860793874949
1589275809921445600,8189,1589275809921367387,,0.0532500955086,-0.261883944385,0.86213314858
1589275809927388255,8190,1589275809927306345,,0.0535706541691,-0.271294748707,0.863797139712
1589275809930413566,8191,1589275809930343893,,0.0538792680602,-0.27182136472,0.863066713924
1589275809933413708,8192,1589275809933347413,,0.054404279826,-0.281668569214,0.864916274157
1589275809936663184,8193,1589275809936588316,,0.054722318323,-0.282230361115,0.864365547266
1589275809943017343,8194,1589275809942933607,,0.0551245227768,-0.292052599033,0.866216627738
1589275809946158034,8195,1589275809946075636,,0.0555511053892,-0.302204307525,0.868083758961
1589275809951908791,8196,1589275809951813408,,0.0558770444407,-0.302785263305,0.867427775974
1589275809954697418,8197,1589275809954632565,,0.05619083997,-0.313091573645,0.869049885783
1589275809957773786,8198,1589275809957646647,,0.0566031913754,-0.313451898826,0.868758230881
1589275809960831728,8199,1589275809960723720,,0.0569902578615,-0.324353330692,0.870666357603
1589275809966742505,8200,1589275809966678207,,0.0573172402871,-0.33539962202,0.872726854095
1589275809969708597,8201,1589275809969617092,,0.05769612047,-0.335663196237,0.872146717502
1589275809975737850,8202,1589275809975670358,,0.058000987052,-0.346798313211,0.874238060185
1589275809978822550,8203,1589275809978725049,,0.0583695182793,-0.347033301979,0.873793681907
1589275809981812587,8204,1589275809981721519,,0.0588756165683,-0.358213098258,0.876268427465
1589275809987809509,8205,1589275809987720457,,0.0592426319603,-0.369818012631,0.878462155814
1589275809990821327,8206,1589275809990724252,,0.0595889999418,-0.370068889764,0.877970314325
1589275809993384329,8207,1589275809993299223,,0.0598322571529,-0.381881496132,0.880364687383
1589275809999771826,8208,1589275809999704423,,0.0600931214904,-0.394014662748,0.882692114074
1589275810002335032,8209,1589275810002269480,,0.0604584076607,-0.394236824289,0.882326717609
1589275810005899786,8210,1589275810005817891,,0.0609542703105,-0.406245248214,0.884773125408
1589275810011826806,8211,1589275810011754834,,0.0612110838816,-0.406426360247,0.8843815678
1589275810014787128,8212,1589275810014690805,,0.0614868504736,-0.41931097588,0.886585773655
1589275810017949694,8213,1589275810017830461,,0.0618777051708,-0.419018073688,0.88603552548
1589275810023812120,8214,1589275810023738930,,0.0621403040596,-0.432130631908,0.888587253598
1589275810026729298,8215,1589275810026652523,,0.0624270450856,-0.445435684038,0.890950781986
1589275810029373947,8216,1589275810029298779,,0.0627708672806,-0.445379477243,0.890326092575
1589275810035742957,8217,1589275810035680156,,0.0630402423862,-0.4586551944,0.892938064364
1589275810038715072,8218,1589275810038629979,,0.0632788863176,-0.458535481881,0.892246196419
1589275810042254562,8219,1589275810042159284,,0.0635434820124,-0.472066319941,0.894964700038
1589275810047922583,8220,1589275810047837216,,0.0637591908993,-0.48591639892,0.897628257961
1589275810050705311,8221,1589275810050653947,,0.064051388239,-0.485703057458,0.897051081861
1589275810053614895,8222,1589275810053557967,,0.0643333023395,-0.499636032318,0.899859813876
1589275810059697776,8223,1589275810059634464,,0.064518143705,-0.513800493692,0.902409620706
1589275810062357132,8224,1589275810062241815,,0.0648708730798,-0.513336577017,0.90183265256
1589275810068432977,8225,1589275810068344289,,0.0653818108384,-0.527512396316,0.905022408813
1589275810071647391,8226,1589275810071551647,,0.0655539447979,-0.527188677655,0.904227944892
1589275810077849063,8227,1589275810077754910,,0.0658175552424,-0.541467204065,0.907337742415
1589275810080273955,8228,1589275810080222932,,0.0660483000083,-0.556288591213,0.910392829566
1589275810083310139,8229,1589275810083229057,,0.0664481066264,-0.555702995237,0.909708857287
1589275810086495865,8230,1589275810086443476,,0.0667304264599,-0.570646548099,0.912882429038
1589275810089292229,8231,1589275810089220694,,0.0672524905761,-0.570018028497,0.912055647016
1589275810095416316,8232,1589275810095292928,,0.0676730240944,-0.585038736517,0.915115804577
1589275810098304059,8233,1589275810098245984,,0.068185377053,-0.583883155199,0.914311424869
1589275810104867984,8234,1589275810104767729,,0.0688163324005,-0.598357606988,0.917523617663
1589275810107682965,8235,1589275810107606503,,0.0694035165039,-0.613353690718,0.920786034991
1589275810110682398,8236,1589275810110593267,,0.0701795855232,-0.611694964825,0.920102328246
1589275810116685413,8237,1589275810116612355,,0.0708262642267,-0.626665071236,0.923622626274
1589275810119570230,8238,1589275810119499197,,0.0713502587164,-0.642366042204,0.927215308618
1589275810122336838,8239,1589275810122287497,,0.0718629463622,-0.641078926761,0.926592078558
1589275810128663031,8240,1589275810128584446,,0.0723206836692,-0.656964958662,0.930176345457
1589275810131536457,8241,1589275810131463588,,0.0729022712068,-0.655509431875,0.92961710204
1589275810134467978,8242,1589275810134404126,,0.0733633402307,-0.67140840698,0.933487564761
1589275810140739851,8243,1589275810140677027,,0.0739547794077,-0.687296283268,0.937305811848
1589275810143678575,8244,1589275810143622570,,0.0745140693228,-0.685185528007,0.936810411326
1589275810146476484,8245,1589275810146435282,,0.0754633099929,-0.698567152119,0.939986738167
1589275810152541933,8246,1589275810152485866,,0.0762864383657,-0.712354392016,0.94355301085
1589275810155703632,8247,1589275810155636769,,0.0768267063942,-0.711456179221,0.942858200833
1589275810158593873,8248,1589275810158476529,,0.0773693678423,-0.710121776423,0.942076538498
1589275810164734247,8249,1589275810164624132,,0.077918984671,-0.726946197126,0.946135806762
1589275810167831552,8250,1589275810167761016,,0.078539187808,-0.743856444466,0.950329927009
1589275810173795321,8251,1589275810173733789,,0.0790280640121,-0.761349825316,0.954383571559
1589275810176632744,8252,1589275810176573641,,0.0796223366601,-0.760204318055,0.953559074179
1589275810179725132,8253,1589275810179641494,,0.080208867827,-0.777843281106,0.957496329147
1589275810182726333,8254,1589275810182664669,,0.080736893014,-0.776582567323,0.956780616926
1589275810188812510,8255,1589275810188725163,,0.0810993134396,-0.794596043782,0.96108690144
1589275810191575809,8256,1589275810191383253,,0.0815899837977,-0.793241391252,0.960675674447
1589275810194779149,8257,1589275810194692247,,0.0819595064153,-0.811643191942,0.964860811155
1589275810200640997,8258,1589275810200557637,,0.0824010054893,-0.830260448801,0.969324849292
1589275810203658676,8259,1589275810203581128,,0.0828100619356,-0.829192717066,0.968338350983
1589275810206613461,8260,1589275810206521173,,0.0832922829283,-0.847989641207,0.972579278741
1589275810212747706,8261,1589275810212677091,,0.0837186607502,-0.866900850776,0.97687971515
1589275810215729251,8262,1589275810215657949,,0.0841157754335,-0.865533742683,0.975901178059
1589275810218715808,8263,1589275810218648253,,0.0845491596836,-0.864366417528,0.975402290435
1589275810224710300,8264,1589275810224611761,,0.0850380623219,-0.883625387863,0.97974751212
1589275810227731129,8265,1589275810227672015,,0.085346098571,-0.902458821838,0.983887520863
1589275810233678976,8266,1589275810233586709,,0.0858181787279,-0.921560219944,0.987944669249
1589275810236726195,8267,1589275810236653130,,0.0864277100879,-0.919065683338,0.986970409433
1589275810239724350,8268,1589275810239639146,,0.086968094328,-0.937002061236,0.990937739279
1589275810246314254,8269,1589275810246181632,,0.08740319783,-0.956409125101,0.995007417139
1589275810248650494,8270,1589275810248570814,,0.0877389170726,-0.954916186838,0.994355824851
1589275810251585942,8271,1589275810251507631,,0.0882155256035,-0.953445130718,0.993793232375
1589275810257669085,8272,1589275810257497641,,0.0884194921571,-0.973548525847,0.997967030443
1589275810260671677,8273,1589275810260594920,,0.0888196210945,-0.994365692551,1.00275302739
1589275810263895164,8274,1589275810263766914,,0.0891846498028,-0.993052889838,1.00184736105
1589275810269576761,8275,1589275810269441020,,0.0895875592322,-1.01403446421,1.00645463171
1589275810272631787,8276,1589275810272568499,,0.0899036245152,-1.03523281273,1.01087272086
1589275810275564331,8277,1589275810275505167,,0.0902333812266,-1.03416258729,1.0102183917
1589275810281610908,8278,1589275810281493569,,0.0906111912813,-1.05542891493,1.01508406069
1589275810284561891,8279,1589275810284452456,,0.0906791459038,-1.0545931305,1.01399115102
1589275810287752297,8280,1589275810287657595,,0.090996456514,-1.07596069922,1.01888616306
1589275810293596266,8281,1589275810293517062,,0.0912502057557,-1.09717686834,1.02367208387
1589275810296584852,8282,1589275810296490616,,0.0915492124425,-1.09579304764,1.02277704272
1589275810299562602,8283,1589275810299480543,,0.0917517572241,-1.11721470033,1.02730336829
1589275810305487997,8284,1589275810305405886,,0.0916667573794,-1.11573193108,1.02579355742
1589275810308514291,8285,1589275810308364766,,0.091544620691,-1.13744715871,1.03009429533
1589275810314497446,8286,1589275810314419085,,0.0908867024733,-1.15924519316,1.03369528803
1589275810317496376,8287,1589275810317399123,,0.0903099148773,-1.15739921091,1.03141657144
1589275810320493313,8288,1589275810320418996,,0.0898339228936,-1.17947019052,1.0354866227
1589275810323525077,8289,1589275810323432367,,0.0895378157411,-1.17790731123,1.03371667435
1589275810329562712,8290,1589275810329398553,,0.0894823680196,-1.20022246936,1.03829737835
1589275810338708477,8291,1589275810338632507,,0.0894909173272,-1.22036341543,1.04089710408
1589275810341982599,8292,1589275810341897861,,0.0894593356968,-1.24296521135,1.04513656988
1589275810346625749,8293,1589275810346532730,,0.0896945363444,-1.26531581617,1.04996673146
1589275810350547926,8294,1589275810350469995,,0.0897166649076,-1.26398710605,1.04857487584
1589275810353552947,8295,1589275810353467810,,0.0896898851217,-1.28690061236,1.05325005524
1589275810356533027,8296,1589275810356457465,,0.0895662994312,-1.28518640284,1.05199476834
1589275810362560652,8297,1589275810362486268,,0.0896627941728,-1.30881795085,1.05735335234
1589275810365524816,8298,1589275810365452125,,0.0896592455148,-1.3076299055,1.0565662834
1589275810368502092,8299,1589275810368430199,,0.089596858758,-1.33122297257,1.06157930599
1589275810371484509,8300,1589275810371338320,,0.0897498480653,-1.32993715255,1.06071490711
1589275810377490124,8301,1589275810377379428,,0.0896981160655,-1.35372325053,1.06560095241
1589275810380677060,8302,1589275810380566418,,0.0896477423902,-1.37760053964,1.0707203127
1589275810386466901,8303,1589275810386394861,,0.0897573157539,-1.40133978352,1.07566636632
1589275810389674177,8304,1589275810389592824,,0.089894748286,-1.39976152158,1.07426665597
1589275810392607495,8305,1589275810392463004,,0.0899981454672,-1.42413785102,1.07946074796
1589275810398522629,8306,1589275810398446266,,0.0901108659692,-1.42276915195,1.0778244935
1589275810401579062,8307,1589275810401477000,,0.0903733274215,-1.44729827724,1.08344901199
1589275810404644174,8308,1589275810404565914,,0.0903483252517,-1.44567998761,1.08181359965
1589275810410556623,8309,1589275810410481815,,0.0905478677608,-1.47045302601,1.08716424855
1589275810413463529,8310,1589275810413392506,,0.0907872875272,-1.4950478319,1.0927148785
1589275810416533164,8311,1589275810416406268,,0.0911251036991,-1.49332632563,1.09180649505
1589275810422473957,8312,1589275810422393210,,0.0914700370104,-1.51819931299,1.09723926373
1589275810425502687,8313,1589275810425375889,,0.0918524819941,-1.51615430271,1.09611863767
1589275810428540581,8314,1589275810428419210,,0.0921863700048,-1.54113741636,1.10152868093
1589275810434659696,8315,1589275810434575264,,0.0925129701748,-1.5660720942,1.10696507143
1589275810437888187,8316,1589275810437830654,,0.0928662742364,-1.56439752551,1.10600070195
1589275810440675321,8317,1589275810440537481,,0.0931207201938,-1.58987345836,1.1113045127
1589275810446489777,8318,1589275810446392381,,0.0934152847531,-1.61514158432,1.11676191514
1589275810449936463,8319,1589275810449836854,,0.0936483718156,-1.61372759767,1.11545848682
1589275810452863561,8320,1589275810452766692,,0.0937387668333,-1.63937050569,1.12074088304
1589275810459147174,8321,1589275810459038034,,0.0940390518529,-1.65661023979,1.12423533102
1589275810462069976,8322,1589275810461936269,,0.0942132348973,-1.66395181658,1.12487450407
1589275810465005963,8323,1589275810464909165,,0.0944643012402,-1.66218100552,1.12348876796
1589275810474064282,8324,1589275810473933986,,0.0947155141901,-1.71591194417,1.13603035669
1589275810476878957,8325,1589275810476786933,,0.0949230312995,-1.71433322124,1.13454734535
1589275810479869398,8326,1589275810479775377,,0.0950280058595,-1.74035441445,1.13999905984
1589275810482914904,8327,1589275810482730246,,0.0951945615647,-1.73816694572,1.13853769778
1589275810485794024,8328,1589275810485736188,,0.0954011845949,-1.75473417401,1.14202484563
1589275810488912588,8329,1589275810488798576,,0.0956792983232,-1.76072530149,1.14281492284
1589275810494840432,8330,1589275810494735478,,0.0958445802754,-1.78649316218,1.14858276862
1589275810497887979,8331,1589275810497765973,,0.0959988393195,-1.78384946529,1.14688869881
1589275810503860418,8332,1589275810503766946,,0.0961117719457,-1.81005021029,1.152641879
1589275810506789733,8333,1589275810506700415,,0.0962375712525,-1.83616575941,1.15843379911
1589275810509842357,8334,1589275810509734007,,0.0963107764384,-1.83330610417,1.15666740517
1589275810515838102,8335,1589275810515753879,,0.0963742295353,-1.85937181873,1.16227643408
1589275810519021003,8336,1589275810518870145,,0.0967896424539,-1.85591105695,1.16086407464
1589275810521741005,8337,1589275810521653585,,0.0970447240654,-1.88128819247,1.16627177321
1589275810527726752,8338,1589275810527643989,,0.0971776048091,-1.90727358742,1.17157276331
1589275810530745218,8339,1589275810530658706,,0.0973108395959,-1.90416886128,1.16988698163
1589275810533711189,8340,1589275810533618172,,0.0973313306866,-1.93062675003,1.1756088878
1589275810539998455,8341,1589275810539913755,,0.0974982684364,-1.95656540706,1.18116687981
1589275810542916061,8342,1589275810542831496,,0.097605813107,-1.95361868362,1.17961053112
1589275810546212710,8343,1589275810546130262,,0.0976683984472,-1.98002390167,1.18500892577
1589275810551941853,8344,1589275810551795741,,0.0980125005913,-1.97661448492,1.18342977648
1589275810554889881,8345,1589275810554797483,,0.0981748497431,-2.0026434676,1.18905336628
1589275810557722260,8346,1589275810557600260,,0.0984635624899,-1.99921777319,1.1874457767
1589275810563892087,8347,1589275810563796045,,0.098740592572,-2.02575449016,1.19294212272
1589275810566750490,8348,1589275810566631259,,0.0988119079537,-2.05184323451,1.19838441952
1589275810569592598,8349,1589275810569515167,,0.0989449164644,-2.04846308947,1.19647083831
1589275810575717038,8350,1589275810575634017,,0.0992886156271,-2.07456847827,1.20257101141
1589275810578765287,8351,1589275810578643412,,0.0994377309327,-2.07013876534,1.20033523304
1589275810581736417,8352,1589275810581636004,,0.0997720623942,-2.09612083328,1.20619827744
1589275810587856850,8353,1589275810587771284,,0.0999081965763,-2.12223559503,1.21147210609
1589275810590661940,8354,1589275810590591921,,0.100320240347,-2.11808531642,1.20989861232
1589275810593762049,8355,1589275810593700588,,0.100733472029,-2.14403793847,1.21565750228
1589275810599754336,8356,1589275810599682450,,0.10114781265,-2.17003807753,1.22143879946
1589275810602788149,8357,1589275810602664961,,0.101594887998,-2.16542704393,1.21971179382
1589275810605707940,8358,1589275810605604787,,0.101863275895,-2.16100598953,1.2178889183
1589275810611757347,8359,1589275810611662000,,0.102242557659,-2.18724155226,1.22378562998
1589275810614728536,8360,1589275810614618369,,0.102578313249,-2.21351368049,1.22982349144
1589275810617663940,8361,1589275810617576837,,0.103067893151,-2.20858994253,1.22847221482
1589275810623770396,8362,1589275810623659568,,0.103463371371,-2.23500288148,1.23451855785
1589275810626756219,8363,1589275810626661273,,0.103980780079,-2.26103314193,1.24093136652
1589275810635763222,8364,1589275810635648427,,0.104716622686,-2.28367064505,1.24597480448
1589275810638750393,8365,1589275810638674521,,0.10497095945,-2.27878181312,1.24477141824
1589275810645055259,8366,1589275810644982026,,0.105061612207,-2.30495105242,1.25185663052
1589275810647793839,8367,1589275810647727652,,0.105411423503,-2.33151439403,1.25909236869
1589275810650625295,8368,1589275810650553749,,0.105700602728,-2.32683139127,1.25843248511
1589275810656967684,8369,1589275810656899281,,0.105973113628,-2.35336964089,1.26519940846
1589275810659682655,8370,1589275810659603364,,0.106357707632,-2.3801235289,1.27200788523
1589275810662669500,8371,1589275810662585907,,0.10679109982,-2.37573021155,1.27085368459
1589275810668669175,8372,1589275810668568634,,0.107187190798,-2.40267445261,1.277260436
1589275810671848182,8373,1589275810671745970,,0.107684062876,-2.39722588442,1.27619567663
1589275810674720067,8374,1589275810674617286,,0.10798430004,-2.42486729017,1.28301150274
1589275810680877851,8375,1589275810680760717,,0.108434403261,-2.45186524108,1.28982978137
1589275810683899209,8376,1589275810683769069,,0.108693582788,-2.44682178504,1.28856273732
1589275810686618807,8377,1589275810686548345,,0.10906727183,-2.47351157201,1.29500960583
1589275810696021091,8378,1589275810695917516,,0.10976569982,-2.49599222732,1.30016197656
1589275810701990721,8379,1589275810701853527,,0.110296510347,-2.52332085403,1.30675123291
1589275810704937263,8380,1589275810704839686,,0.110674502223,-2.51840252006,1.30524163516
1589275810707892536,8381,1589275810707796422,,0.111137532603,-2.54562417537,1.31161912488
1589275810710771914,8382,1589275810710682432,,0.111426606496,-2.54090326462,1.30978629668
1589275810716890463,8383,1589275810716798893,,0.112028889246,-2.56824875621,1.31652014584
1589275810720027657,8384,1589275810719921011,,0.112451630413,-2.5954336277,1.32290202045
1589275810725817996,8385,1589275810725744135,,0.112732565303,-2.59084022423,1.32166610799
1589275810728756123,8386,1589275810728691684,,0.113003245174,-2.61831944485,1.32798445674
1589275810731823105,8387,1589275810731749933,,0.113301723095,-2.61301316001,1.32627335194
1589275810734727273,8388,1589275810734664369,,0.113749018289,-2.64107446237,1.33314958415
1589275810740779355,8389,1589275810740687757,,0.114444421658,-2.6684792883,1.3401297254
1589275810743908490,8390,1589275810743847037,,0.115023068203,-2.66274551518,1.33882608548
1589275810749759547,8391,1589275810749672661,,0.115721384367,-2.68990316129,1.34514233327
1589275810755832171,8392,1589275810755769467,,0.117012421667,-2.71201546475,1.35024893706
1589275810758804707,8393,1589275810758742457,,0.117237333921,-2.70699895091,1.34837513899
1589275810764889387,8394,1589275810764773072,,0.117694658565,-2.7340350846,1.35496848973
1589275810767839849,8395,1589275810767750412,,0.118302278255,-2.76066677945,1.36181546719
1589275810776836782,8396,1589275810776755619,,0.118808431655,-2.78808931504,1.36891267458
1589275810779877259,8397,1589275810779812837,,0.11940590028,-2.81529461714,1.37577872287
1589275810782900774,8398,1589275810782733665,,0.119917745644,-2.80989246235,1.37436948888
1589275810785887576,8399,1589275810785797076,,0.120391213661,-2.80447467163,1.37310874012
1589275810788765268,8400,1589275810788686348,,0.120951921911,-2.83178779526,1.37948691277
1589275810791767120,8401,1589275810791662448,,0.121681440946,-2.82493468838,1.37755274653
1589275810797730522,8402,1589275810797659015,,0.122125301833,-2.85332027354,1.38442263754
1589275810800712418,8403,1589275810800629675,,0.122685938484,-2.88057675878,1.39088432514
1589275810803733954,8404,1589275810803660569,,0.123153840229,-2.87450801739,1.38911894504
1589275810809678765,8405,1589275810809605464,,0.12377040515,-2.90190852713,1.39576093371
1589275810812769709,8406,1589275810812651575,,0.124382529788,-2.92905521706,1.40269236516
1589275810815660228,8407,1589275810815569934,,0.124870261264,-2.92302855294,1.40126689475
1589275810821846837,8408,1589275810821767036,,0.12538039403,-2.95043690028,1.40838791267
1589275810824802317,8409,1589275810824712696,,0.125694896738,-2.94512591764,1.40640074037
1589275810827844046,8410,1589275810827715515,,0.126187750459,-2.97242029965,1.41298059947
1589275810833781623,8411,1589275810833666098,,0.126948106314,-3.00007143466,1.42037401863
1589275810836757543,8412,1589275810836664629,,0.127753849666,-2.99376249599,1.41876409844
1589275810839903355,8413,1589275810839807005,,0.128635641088,-3.02083916148,1.42592231661
1589275810846311989,8414,1589275810846218674,,0.129150833126,-3.04861787528,1.43230638088
1589275810848770412,8415,1589275810848679266,,0.129821542418,-3.04228097009,1.43075745514
1589275810852002301,8416,1589275810851849968,,0.130658851349,-3.03495926675,1.42885980868
1589275810857601254,8417,1589275810857524855,,0.131192367484,-3.06240157395,1.43541436644
1589275810860716627,8418,1589275810860640193,,0.13178226811,-3.08973752528,1.44203036935
1589275810863674212,8419,1589275810863604762,,0.132703811329,-3.08239384899,1.44026542774
1589275810869587895,8420,1589275810869476304,,0.133397615369,-3.10956321966,1.44704592324
1589275810872604462,8421,1589275810872495133,,0.134017886969,-3.10275255516,1.4450517549
1589275810875585874,8422,1589275810875518441,,0.135011492303,-3.12921000579,1.45147391508
1589275810881554794,8423,1589275810881485059,,0.135588991722,-3.15644006601,1.45780317549
1589275810884619366,8424,1589275810884524473,,0.136333002542,-3.14990966262,1.45599455146
1589275810890594306,8425,1589275810890518374,,0.136841168272,-3.1775340103,1.4626236924
1589275810893617111,8426,1589275810893536631,,0.137790439675,-3.204353418,1.46945492153
1589275810896659295,8427,1589275810896528736,,0.138720155193,-3.19739761619,1.46782791084
1589275810899694293,8428,1589275810899624293,,0.139559766311,-3.22444756002,1.47469661143
1589275810905531070,8429,1589275810905446689,,0.140595317529,-3.2178044365,1.47320413407
1589275810908621620,8430,1589275810908488832,,0.141491763297,-3.24592784952,1.48017644381
1589275810914602189,8431,1589275810914502257,,0.142251266279,-3.27337431753,1.48699217437
1589275810917784400,8432,1589275810917702411,,0.143251344461,-3.26623384334,1.48558096533
1589275810920555419,8433,1589275810920488078,,0.143883844151,-3.29466330089,1.49267152255
1589275810926621659,8434,1589275810926523771,,0.144826496539,-3.32181994893,1.49988629628
1589275810929739903,8435,1589275810929518367,,0.145488976306,-3.31523469498,1.49818763525
1589275810932815613,8436,1589275810932748746,,0.145979910701,-3.34377184548,1.50510140915
1589275810938600419,8437,1589275810938479672,,0.146688708078,-3.33699857167,1.50330577198
1589275810942042967,8438,1589275810941953748,,0.147677525137,-3.36448315991,1.51041676289
1589275810945156131,8439,1589275810945076648,,0.148443998325,-3.35780402015,1.50869746002
1589275810950669186,8440,1589275810950554410,,0.149044688034,-3.3854014612,1.5152474748
1589275810953637652,8441,1589275810953554948,,0.149831590038,-3.41287540214,1.52224798893
1589275810956627546,8442,1589275810956551812,,0.150591696431,-3.40614153987,1.52085963325
1589275810962822523,8443,1589275810962708519,,0.151540740715,-3.43317560057,1.5279138909
1589275810966007415,8444,1589275810965910461,,0.152011186433,-3.44282330666,1.53003467159
1589275810968940091,8445,1589275810968808174,,0.15293866748,-3.45311890954,1.53324225553
1589275810977791271,8446,1589275810977711329,,0.153976209801,-3.48001331933,1.54089570608
1589275810980841548,8447,1589275810980726847,,0.154716137522,-3.50735309645,1.54819398181
1589275810983871065,8448,1589275810983745111,,0.155698521424,-3.49889365567,1.54637993196
1589275810986783843,8449,1589275810986693877,,0.15661992896,-3.52522060679,1.55340069051
1589275810989879259,8450,1589275810989779434,,0.157193036878,-3.51825585293,1.55183587751
1589275810995919917,8451,1589275810995824918,,0.158097071087,-3.54505905329,1.55888423139
1589275810998706312,8452,1589275810998571826,,0.1589749198,-3.5362576743,1.55732946393
1589275811001570670,8453,1589275811001466928,,0.159631489158,-3.56288447026,1.56453424313
1589275811004534311,8454,1589275811004466309,,0.160272078307,-3.5558939169,1.56272566267
1589275811010783160,8455,1589275811010699591,,0.161256423923,-3.58219831904,1.56987887102
1589275811013917953,8456,1589275811013767818,,0.162228662708,-3.60834828123,1.57644405815
1589275811019563588,8457,1589275811019481641,,0.163050905506,-3.63550175012,1.58346038427
1589275811022841062,8458,1589275811022754111,,0.163787524622,-3.62779109643,1.58185956593
1589275811025844254,8459,1589275811025740574,,0.164691078082,-3.61964350237,1.58038820681
1589275811032065870,8460,1589275811031905941,,0.165332284656,-3.64671698859,1.58764171803
1589275811034893025,8461,1589275811034766392,,0.166324453916,-3.67324878125,1.59506509839
1589275811037839199,8462,1589275811037739714,,0.16697790603,-3.66531288751,1.59332540314
1589275811044180568,8463,1589275811044063323,,0.167771376297,-3.69234375058,1.60073589166
1589275811046863979,8464,1589275811046762846,,0.168455446302,-3.7190683724,1.60759058428
1589275811049989752,8465,1589275811049887135,,0.169449286735,-3.71118199578,1.60673683538
1589275811055948279,8466,1589275811055844960,,0.170354194297,-3.73773884958,1.61400099203
1589275811058870211,8467,1589275811058784045,,0.171156734296,-3.72972006853,1.61246036826
1589275811061764613,8468,1589275811061678801,,0.172103436577,-3.75650579296,1.61942724879
1589275811067816708,8469,1589275811067723328,,0.172813674155,-3.78310881605,1.62658897108
1589275811073865173,8470,1589275811073772993,,0.17366052788,-3.81003864948,1.63392489595
1589275811076788544,8471,1589275811076712894,,0.174447178605,-3.80200490604,1.63221764456
1589275811079913516,8472,1589275811079787771,,0.175249320896,-3.82828563494,1.63964640099
1589275811082751884,8473,1589275811082651136,,0.175906423633,-3.81983669606,1.63821612076
1589275811088747363,8474,1589275811088660325,,0.176720067224,-3.84585816348,1.64567693449
1589275811091796218,8475,1589275811091705486,,0.177479963749,-3.83762763779,1.64424065387
1589275811094716819,8476,1589275811094631574,,0.178474803183,-3.86446852727,1.65163696758
1589275811097785516,8477,1589275811097695677,,0.179265205146,-3.85692509132,1.65017151336
1589275811104033586,8478,1589275811103903670,,0.179905320452,-3.88304271989,1.65669783667
1589275811106876165,8479,1589275811106771092,,0.180964762719,-3.90880861447,1.6637959237
1589275811112922087,8480,1589275811112805318,,0.18195448751,-3.93574020335,1.67144064866
1589275811115960185,8481,1589275811115837387,,0.182673340099,-3.92781701819,1.67033730786
1589275811118842690,8482,1589275811118753358,,0.183297303952,-3.91961372727,1.66934459602
1589275811121783389,8483,1589275811121707601,,0.184039977929,-3.94691818202,1.67665452607
1589275811127690007,8484,1589275811127611720,,0.184693979503,-3.97325293071,1.68327470485
1589275811130909408,8485,1589275811130812854,,0.185158667337,-3.96540164777,1.68164231524
1589275811136718661,8486,1589275811136641926,,0.185908473179,-3.99212410971,1.68908782495
1589275811139885710,8487,1589275811139799449,,0.186464363731,-4.0181706114,1.69546057011
1589275811142974579,8488,1589275811142885951,,0.187042993236,-4.01058932726,1.69379516116
1589275811146125911,8489,1589275811146050546,,0.187618181404,-4.0038211873,1.69277344165
1589275811152131622,8490,1589275811151984739,,0.188267678901,-4.03053012208,1.6997084827
1589275811155023190,8491,1589275811154915043,,0.188528145135,-4.05695136485,1.70687313387
1589275811160580909,8492,1589275811160495423,,0.189026536566,-4.08311322401,1.7137312409
1589275811163800693,8493,1589275811163699445,,0.189512514448,-4.0753093132,1.71284479665
1589275811166872292,8494,1589275811166795778,,0.1897342632,-4.10257696433,1.719979641
1589275811175911139,8495,1589275811175839575,,0.189977786837,-4.12932628614,1.72722624761
1589275811178848362,8496,1589275811178751262,,0.190678640421,-4.12133846908,1.72583939051
1589275811181762201,8497,1589275811181674035,,0.191156552893,-4.14766196011,1.73335721222
1589275811184872862,8498,1589275811184811789,,0.191373616125,-4.14082903879,1.7316208789
1589275811187957835,8499,1589275811187868615,,0.191816770492,-4.16719909742,1.73877777746
1589275811190910029,8500,1589275811190776961,,0.192422843076,-4.15933232763,1.73756534898
1589275811196848426,8501,1589275811196769216,,0.192660017202,-4.18568242656,1.74435796536
1589275811199909121,8502,1589275811199818833,,0.192956805616,-4.21254638343,1.75208556728
1589275811202771866,8503,1589275811202667894,,0.193219338591,-4.20525952473,1.75051518954
1589275811208820672,8504,1589275811208707381,,0.193573230901,-4.23195200173,1.75773353204
1589275811211798311,8505,1589275811211712384,,0.193871347438,-4.22432352014,1.75650739825
1589275811214811496,8506,1589275811214675426,,0.194058082707,-4.25129470214,1.76416701998
1589275811220766472,8507,1589275811220690264,,0.194429685493,-4.27828130859,1.77097533032
1589275811223804030,8508,1589275811223646882,,0.194674758366,-4.27124827322,1.76960530302
1589275811226698482,8509,1589275811226616264,,0.194997206239,-4.29797415001,1.77718973014
1589275811233100961,8510,1589275811232999787,,0.19522858843,-4.3249622055,1.78488843369
1589275811235775114,8511,1589275811235675700,,0.195395810872,-4.3178754931,1.78361607212
1589275811238784860,8512,1589275811238689347,,0.195558810004,-4.31108597394,1.78270728828
1589275811245198222,8513,1589275811245113780,,0.195745461291,-4.33769719838,1.79016854902
1589275811247774154,8514,1589275811247684100,,0.195734172661,-4.36406757276,1.79751473022
1589275811253835718,8515,1589275811253716444,,0.19602440511,-4.39045209708,1.80516792857
1589275811256839056,8516,1589275811256728061,,0.196183667611,-4.38292709473,1.80408884345
1589275811259955510,8517,1589275811259861236,,0.196233479748,-4.40912588099,1.81127857422
1589275811262765162,8518,1589275811262687725,,0.196405758418,-4.40140810439,1.80972833813
1589275811268784968,8519,1589275811268703972,,0.196545685696,-4.42737273361,1.81722529903
1589275811274858582,8520,1589275811274766363,,0.196663192502,-4.45337041551,1.8247118519
1589275811277781820,8521,1589275811277694087,,0.196844253117,-4.44527358107,1.82367267569
1589275811280695695,8522,1589275811280604297,,0.196846817268,-4.47058890986,1.83045563666
1589275811283727560,8523,1589275811283639068,,0.196712475519,-4.46329991612,1.82977429847
1589275811286669435,8524,1589275811286612988,,0.196644104457,-4.48842292586,1.83714262158
1589275811295825679,8525,1589275811295747492,,0.196858204349,-4.50585425662,1.84385092485
1589275811304740940,8526,1589275811304561756,,0.197052979258,-4.53121136232,1.85139237348
1589275811307696841,8527,1589275811307594835,,0.19689234559,-4.55630191906,1.85853525325
1589275811310668585,8528,1589275811310592962,,0.196929604269,-4.54864056241,1.85771188093
1589275811313732722,8529,1589275811313628445,,0.197015569789,-4.57400903773,1.86573265024
1589275811316706829,8530,1589275811316601015,,0.196668900637,-4.56648552111,1.86467109077
1589275811319751524,8531,1589275811319639094,,0.196571256798,-4.59150543561,1.8721646864
1589275811325700921,8532,1589275811325614420,,0.196393616632,-4.58385541158,1.87113117675
1589275811331775775,8533,1589275811331696448,,0.196141450293,-4.6082969236,1.87761589649
1589275811334719553,8534,1589275811334579147,,0.196348430228,-4.63272527436,1.8853611961
1589275811337699224,8535,1589275811337596746,,0.196346978413,-4.62499735243,1.88419935048
1589275811340728288,8536,1589275811340597857,,0.196307581492,-4.65007865662,1.89151952036
1589275811343912025,8537,1589275811343834658,,0.196131108353,-4.64181723578,1.89021508839
1589275811349692218,8538,1589275811349616638,,0.196047383522,-4.66634548605,1.89787069345
1589275811355741829,8539,1589275811355633312,,0.195849027461,-4.68384550942,1.90412007137
1589275811361888238,8540,1589275811361813624,,0.195717358255,-4.70796954862,1.91153437237
1589275811364650985,8541,1589275811364562756,,0.195693329429,-4.70050735482,1.91092572972
1589275811367831194,8542,1589275811367763037,,0.195690940397,-4.72555998166,1.91844978087
1589275811376716002,8543,1589275811376619336,,0.195524790574,-4.75042446154,1.92572734009
1589275811379869818,8544,1589275811379787537,,0.195449784778,-4.77523585261,1.93279592436
1589275811382607837,8545,1589275811382536897,,0.195236061324,-4.76913067921,1.93194760869
1589275811385747108,8546,1589275811385547018,,0.195405979894,-4.76150878125,1.93145539078
1589275811388701652,8547,1589275811388620494,,0.195382702102,-4.78581582357,1.93900646842
1589275811391705426,8548,1589275811391631410,,0.195628939863,-4.7793440088,1.93800575899
1589275811397832263,8549,1589275811397753050,,0.19552756268,-4.80267164535,1.94476485488
1589275811401122890,8550,1589275811401007312,,0.195495479381,-4.82572526587,1.95166328066
1589275811404069502,8551,1589275811403972960,,0.195513827653,-4.81768014481,1.95080618759
1589275811410061926,8552,1589275811409946139,,0.195547722399,-4.84108522668,1.95747576393
1589275811416021740,8553,1589275811415920431,,0.195494599762,-4.85637686265,1.96350586928
1589275811421997878,8554,1589275811421867895,,0.195576494428,-4.87961291517,1.97049015434
1589275811427951796,8555,1589275811427840728,,0.195766031142,-4.90170438604,1.97705761425
1589275811430957190,8556,1589275811430834856,,0.195950638644,-4.89237638729,1.97595438607
1589275811433962757,8557,1589275811433836034,,0.196319298525,-4.91441016471,1.98213557789
1589275811436941926,8558,1589275811436873576,,0.196292619428,-4.90555656395,1.98107282142
1589275811443161381,8559,1589275811443069210,,0.19677390705,-4.92885781467,1.98792533254
1589275811448963193,8560,1589275811448852244,,0.197070005512,-4.94082469263,1.99289934827
1589275811454930619,8561,1589275811454825696,,0.197209709674,-4.96366986445,1.99934056764
1589275811457930255,8562,1589275811457823778,,0.197386587073,-4.95489424787,1.99800016333
1589275811461368730,8563,1589275811461258842,,0.19754451462,-4.97610141032,2.00482639065
1589275811467000384,8564,1589275811466825782,,0.197298327723,-4.99808259271,2.01041784362
1589275811469975566,8565,1589275811469896612,,0.197327231136,-4.99043940814,2.00952431436
1589275811476158104,8566,1589275811476024015,,0.197277337661,-5.01278574091,2.01580841488
1589275811479280674,8567,1589275811479026817,,0.197186388815,-5.00521370167,2.01425740709
1589275811482200349,8568,1589275811482063616,,0.197269806277,-5.02745901353,2.02047785874
1589275811488082222,8569,1589275811487974090,,0.197315469649,-5.04952886089,2.02708000631
1589275811493917777,8570,1589275811493835967,,0.197154290414,-5.07098367365,2.03292892636
1589275811500189190,8571,1589275811500052005,,0.196853283973,-5.09331764973,2.03901708389
1589275811505878799,8572,1589275811505807405,,0.197124999513,-5.0845289939,2.03822273459
1589275811509096832,8573,1589275811508963218,,0.197053454244,-5.10528923428,2.04455131674
1589275811512098983,8574,1589275811512012943,,0.196912715156,-5.09704156747,2.04333261829
1589275811514942379,8575,1589275811514871053,,0.196962010348,-5.11808727624,2.05014308287
1589275811517883751,8576,1589275811517782578,,0.197006775937,-5.10885639557,2.04895494045
1589275811520816781,8577,1589275811520714784,,0.197049749587,-5.12979067454,2.05512753564
1589275811523804378,8578,1589275811523715764,,0.197017049773,-5.12016824249,2.05467269903
1589275811526733784,8579,1589275811526657024,,0.19692931561,-5.13993358548,2.06094198211
1589275811535918210,8580,1589275811535841313,,0.197210499482,-5.14991944464,2.06536845053
1589275811538902624,8581,1589275811538828301,,0.19699407329,-5.14062582293,2.06441448184
1589275811542206579,8582,1589275811542136771,,0.197363265657,-5.15934902719,2.07119736996
1589275811550802144,8583,1589275811550710516,,0.197381789357,-5.17835754354,2.07657838595
1589275811556951202,8584,1589275811556855978,,0.197242682398,-5.19704341848,2.08190816365
1589275811559977850,8585,1589275811559873015,,0.197421414337,-5.21539103431,2.08892476358
1589275811562815378,8586,1589275811562734318,,0.19751495413,-5.20544836563,2.08728777687
1589275811565848326,8587,1589275811565709506,,0.197586303127,-5.19723721145,2.08571392706
1589275811568834969,8588,1589275811568742499,,0.197765107768,-5.21582507826,2.09219151348
1589275811574781045,8589,1589275811574705538,,0.197799616307,-5.23402460149,2.09738586729
1589275811577732204,8590,1589275811577658852,,0.197852816834,-5.22568077177,2.09632881538
1589275811580769399,8591,1589275811580694449,,0.197966546467,-5.24489357066,2.1024347683
1589275811586783708,8592,1589275811586729511,,0.197888270276,-5.26345438696,2.10832983014
1589275811595810450,8593,1589275811595739428,,0.197707273996,-5.27449227047,2.11336078002
1589275811598796260,8594,1589275811598712078,,0.197422844181,-5.26631518618,2.11225356151
1589275811601784726,8595,1589275811601692187,,0.197335759251,-5.28610725501,2.11814982406
1589275811604845978,8596,1589275811604692114,,0.197205174024,-5.2772715387,2.1168673818
1589275811607835163,8597,1589275811607729719,,0.197466322397,-5.29637865437,2.12288341532
1589275811610787601,8598,1589275811610704901,,0.197069419051,-5.28797182888,2.12163988116
1589275811613665645,8599,1589275811613579793,,0.197281441888,-5.3051110438,2.12686829671
1589275811619760586,8600,1589275811619648213,,0.197256710093,-5.32412027469,2.13267905003
1589275811625880388,8601,1589275811625656276,,0.197144518318,-5.31549303742,2.13207696106
1589275811631790109,8602,1589275811631717931,,0.197383219793,-5.33218173947,2.13727693177
1589275811637740399,8603,1589275811637644544,,0.197413449566,-5.34840681658,2.14197253031
1589275811640665868,8604,1589275811640593105,,0.197798179954,-5.36595216793,2.14832949936
1589275811643952803,8605,1589275811643851364,,0.197734060444,-5.35480865315,2.14662025073
1589275811647019448,8606,1589275811646965067,,0.19795090588,-5.36982124401,2.15125499757
1589275811658759651,8607,1589275811658636646,,0.197897173948,-5.37535289772,2.15554273099
1589275811661673914,8608,1589275811661609620,,0.19787025847,-5.3917120326,2.16059616588
1589275811667749695,8609,1589275811667685052,,0.198057638937,-5.40813039704,2.16583842693
1589275811673707609,8610,1589275811673628393,,0.197814074823,-5.42499208237,2.17084889534
1589275811679989786,8611,1589275811679909845,,0.197860974023,-5.44185561154,2.17567655207
1589275811685915801,8612,1589275811685701622,,0.197331281954,-5.43233680376,2.17369908135
1589275811688713268,8613,1589275811688621015,,0.197417849626,-5.4482712023,2.17912982294
1589275811694752045,8614,1589275811694654205,,0.197111530583,-5.46559103515,2.18398023723
1589275811697721634,8615,1589275811697638063,,0.196652621087,-5.45864562948,2.18364189645
1589275811700755930,8616,1589275811700641946,,0.196370998538,-5.47747726711,2.18900094739
1589275811703790560,8617,1589275811703667401,,0.196203609648,-5.46771981166,2.18717810874
1589275811706709415,8618,1589275811706626694,,0.196178238325,-5.48562321196,2.19280049829
1589275811709749831,8619,1589275811709626949,,0.195888550698,-5.47829652259,2.19158500416
1589275811715923030,8620,1589275811715834729,,0.195476030595,-5.49390192527,2.1962784506
1589275811721683485,8621,1589275811721609926,,0.19524566759,-5.50939083501,2.20108505456
1589275811724653501,8622,1589275811724596689,,0.195118240235,-5.50095234574,2.20007585706
1589275811727649511,8623,1589275811727581029,,0.194673478761,-5.51719574369,2.20454766182
1589275811733811576,8624,1589275811733684570,,0.194980540194,-5.53306041858,2.20977061623
1589275811739792705,8625,1589275811739732411,,0.194680446314,-5.54920833735,2.21376130871
1589275811743049288,8626,1589275811742973157,,0.194718569429,-5.53894283091,2.21176565194
1589275811751708582,8627,1589275811751632257,,0.194977431658,-5.54207399718,2.21365529463
1589275811757671726,8628,1589275811757601416,,0.195325627686,-5.55567738272,2.21813574621
1589275811760748250,8629,1589275811760590673,,0.195527347028,-5.56820855255,2.22278019975
1589275811766862407,8630,1589275811766781446,,0.195245348967,-5.58126020751,2.22664857681
1589275811769767006,8631,1589275811769617793,,0.195433915818,-5.57015793666,2.22557041134
1589275811775776142,8632,1589275811775693503,,0.195746518413,-5.5826445774,2.23014106016
1589275811781719005,8633,1589275811781593727,,0.195241771219,-5.59546693604,2.23384994261
1589275811784662208,8634,1589275811784592767,,0.195481464259,-5.58417907422,2.23196826369
1589275811790703028,8635,1589275811790615502,,0.195533893111,-5.59704570156,2.23671069892
1589275811796740229,8636,1589275811796541398,,0.195328321623,-5.61096187866,2.2410023974
1589275811799680208,8637,1589275811799604241,,0.194989053733,-5.62679742772,2.24499742707
1589275811802584151,8638,1589275811802531506,,0.194972040072,-5.61862593601,2.24391439018
1589275811808651833,8639,1589275811808587548,,0.194888731923,-5.63181484232,2.24774643486
1589275811814598527,8640,1589275811814532292,,0.194548143809,-5.64650299352,2.2519243108
1589275811820668038,8641,1589275811820525942,,0.194153592063,-5.66213998007,2.25618664488
1589275811826619366,8642,1589275811826541664,,0.194033123223,-5.67549833675,2.26064598611
1589275811838669586,8643,1589275811838568717,,0.193473724369,-5.68052088707,2.26346146279
1589275811841692695,8644,1589275811841626180,,0.193465159321,-5.69482286222,2.26777391067
1589275811844871389,8645,1589275811844729235,,0.19337886797,-5.68663045698,2.26634642551
1589275811850663464,8646,1589275811850534982,,0.193339883765,-5.69979198454,2.27000785996
1589275811856636188,8647,1589275811856565525,,0.19344632554,-5.71298190727,2.27375987227
1589275811862613210,8648,1589275811862556013,,0.19329491137,-5.72623018813,2.27784945619
1589275811868793386,8649,1589275811868683792,,0.193085795092,-5.73792389572,2.28110230691
1589275811874823064,8650,1589275811874756508,,0.193320688153,-5.74883051454,2.28489178436
1589275811880704895,8651,1589275811880610634,,0.193251023531,-5.75916720832,2.28893663117
1589275811886686050,8652,1589275811886617301,,0.192868996309,-5.76959729233,2.29066495965
1589275811898792445,8653,1589275811898697676,,0.193300055164,-5.76672138561,2.29279652467
1589275811904794703,8654,1589275811904728966,,0.192939820869,-5.77689840172,2.29591165216
1589275811910716734,8655,1589275811910659104,,0.193267095982,-5.7850516764,2.29913674572
1589275811916674557,8656,1589275811916590673,,0.193080364441,-5.79643266001,2.30181104825
1589275811922689134,8657,1589275811922593475,,0.193458429211,-5.80603791151,2.30564674587
1589275811928644629,8658,1589275811928578015,,0.19323185144,-5.8146815978,2.30833307225
1589275811934820804,8659,1589275811934754079,,0.193389836584,-5.82412309785,2.31090587467
1589275811940871554,8660,1589275811940806996,,0.193387870623,-5.83456197295,2.31481836671
1589275811943979568,8661,1589275811943795795,,0.192896539224,-5.82411687983,2.31319418495
1589275811947032827,8662,1589275811946969116,,0.192362419237,-5.83351901563,2.31624403901
1589275811958696482,8663,1589275811958588814,,0.1917737068,-5.83656330243,2.3183570484
1589275811964627236,8664,1589275811964569612,,0.191636918903,-5.84854344155,2.32286341764
1589275811970777700,8665,1589275811970714856,,0.191493703021,-5.86085766017,2.32669305076
1589275811976702501,8666,1589275811976605043,,0.190902617878,-5.8726028286,2.32895844096
1589275811982812797,8667,1589275811982749991,,0.190399054883,-5.88358832615,2.3320183472
1589275811988842368,8668,1589275811988738539,,0.190276218102,-5.89369343733,2.33555491508
1589275811994799379,8669,1589275811994723520,,0.189756368468,-5.90373126066,2.33886145906
1589275812001227640,8670,1589275812001092518,,0.189376864737,-5.91566060062,2.34272993723
1589275812007160847,8671,1589275812007043078,,0.189143497758,-5.92673720725,2.34577877633
1589275812019146209,8672,1589275812019067895,,0.18898185686,-5.92461927938,2.34620223014
1589275812025194114,8673,1589275812025060944,,0.188974059999,-5.93394828174,2.34913816094
1589275812031186431,8674,1589275812031080279,,0.18876262366,-5.93944968164,2.35165502285
1589275812037394046,8675,1589275812037210054,,0.188683673348,-5.94458519242,2.35318798254
1589275812043509192,8676,1589275812043411934,,0.188610379073,-5.9508436089,2.35539839294
1589275812052143727,8677,1589275812052021354,,0.1885254048,-5.94625254365,2.35544064773
1589275812058079997,8678,1589275812057966632,,0.188624841675,-5.95237366627,2.35772806314
1589275812064096984,8679,1589275812064008933,,0.188880862467,-5.95805817603,2.35924291672
1589275812070115771,8680,1589275812069992219,,0.188827790256,-5.9637379682,2.36097314929
1589275812076161117,8681,1589275812076030530,,0.188899767449,-5.96868582129,2.36246785756
1589275812082119653,8682,1589275812082029369,,0.188834285535,-5.97470848446,2.3646225122
1589275812088090286,8683,1589275812087958559,,0.189028013172,-5.98264089823,2.3682916224
1589275812094096534,8684,1589275812093982167,,0.188963216184,-5.9902927851,2.37118479714
1589275812100506824,8685,1589275812100367126,,0.188694567462,-5.99582226858,2.37294964944
1589275812106252776,8686,1589275812106091519,,0.188515112873,-5.98854527876,2.37179649286
1589275812111966886,8687,1589275812111880741,,0.188241780095,-5.99717672899,2.37494867602
1589275812118027630,8688,1589275812117929816,,0.187736377025,-6.00351107317,2.37727153831
1589275812124027286,8689,1589275812123943168,,0.187435003138,-6.01014118206,2.37900591817
1589275812130152412,8690,1589275812130067678,,0.187194528066,-6.01745449984,2.38133319692
1589275812136110421,8691,1589275812135995663,,0.186670861685,-6.02400933346,2.38327007191
1589275812142150415,8692,1589275812142066117,,0.186273944228,-6.03087967297,2.38462281346
1589275812145138532,8693,1589275812145057824,,0.185837165,-6.02404544503,2.38292455012
1589275812151064127,8694,1589275812150981010,,0.185968782673,-6.02974991427,2.38475331444
1589275812157029232,8695,1589275812156954174,,0.185697460412,-6.03448963236,2.38560134515
1589275812163197236,8696,1589275812163067921,,0.185660941658,-6.03880010317,2.38711355015
1589275812169007875,8697,1589275812168918700,,0.185668106046,-6.04238217335,2.38910331258
1589275812175111951,8698,1589275812175006263,,0.185624835011,-6.0473222679,2.39087454965
1589275812180983223,8699,1589275812180881157,,0.185896408305,-6.05135063915,2.39312548526
1589275812187156501,8700,1589275812187023399,,0.185941391597,-6.05199039678,2.39367049189
1589275812193045766,8701,1589275812192946922,,0.186259026913,-6.05427560309,2.39519747096
1589275812199158180,8702,1589275812198969267,,0.186582192967,-6.04562531732,2.3944533177
1589275812205045454,8703,1589275812204954891,,0.18672763361,-6.04620311579,2.39565508384
1589275812210987236,8704,1589275812210890194,,0.186965338509,-6.04671639948,2.39635243968
1589275812216989842,8705,1589275812216898154,,0.186873326003,-6.04875978171,2.39774296765
1589275812222972410,8706,1589275812222865941,,0.186958198852,-6.05283201894,2.39917742127
1589275812228991629,8707,1589275812228896306,,0.187069746496,-6.05730359262,2.40076942181
1589275812234904414,8708,1589275812234757940,,0.186934008715,-6.05964046347,2.40124599329
1589275812240912689,8709,1589275812240819899,,0.186991508755,-6.06354433737,2.40229959552
1589275812244333932,8710,1589275812244220920,,0.187016934231,-6.05866266022,2.40166281168
1589275812247388984,8711,1589275812247288541,,0.186726569646,-6.0619919298,2.40322566625
1589275812258870375,8712,1589275812258747493,,0.186004959411,-6.06044790785,2.40362940425
1589275812264843225,8713,1589275812264695221,,0.185687833732,-6.06514311177,2.40605457449
1589275812270794462,8714,1589275812270635048,,0.185400480821,-6.0692889873,2.40756148198
1589275812276650548,8715,1589275812276576132,,0.185202540038,-6.07349286786,2.4091067243
1589275812283187287,8716,1589275812283083969,,0.185019262959,-6.0768233212,2.41084926824
1589275812289050180,8717,1589275812288933197,,0.184917456715,-6.07954151268,2.41218162758
1589275812294987641,8718,1589275812294895703,,0.185248178005,-6.080654425,2.41339956113
1589275812300893200,8719,1589275812300818974,,0.18516539929,-6.08077815541,2.41446630729
1589275812306891556,8720,1589275812306797273,,0.184999201208,-6.07998756657,2.41465307751
1589275812318948929,8721,1589275812318824954,,0.184802313333,-6.0694397213,2.41334267607
1589275812325110982,8722,1589275812324988615,,0.184873716779,-6.06722821826,2.413150041
1589275812331147675,8723,1589275812331059450,,0.185010614465,-6.06351277702,2.41322528669
1589275812337226103,8724,1589275812337132355,,0.185071582625,-6.05985182335,2.41323766299
1589275812343543106,8725,1589275812343442212,,0.185590620183,-6.05545307991,2.41354709433
1589275812352239585,8726,1589275812352138955,,0.185960044077,-6.03840921164,2.41087536071
1589275812358254961,8727,1589275812358154256,,0.186462820725,-6.03222222071,2.41115010654
1589275812364198688,8728,1589275812364118232,,0.186790309748,-6.02654765047,2.41114665268
1589275812370126156,8729,1589275812369981314,,0.186898348224,-6.02106077903,2.41020728979
1589275812376175498,8730,1589275812376043193,,0.187141744586,-6.01564757657,2.41041345107
1589275812382175347,8731,1589275812382044651,,0.187364326514,-6.00966515677,2.40978283768
1589275812388239145,8732,1589275812388077803,,0.187302522059,-6.0052278048,2.40936920022
1589275812394093010,8733,1589275812393997287,,0.187228625785,-6.00042351722,2.40933514704
1589275812400367694,8734,1589275812400297687,,0.187400130767,-5.99677211199,2.40905681915
1589275812406304978,8735,1589275812406103835,,0.186748252306,-5.98868256453,2.40749179964
1589275812412140199,8736,1589275812412062306,,0.186443797763,-5.98495876588,2.40847067035
1589275812418273430,8737,1589275812418091421,,0.186091537236,-5.98282182182,2.40807582193
1589275812424180357,8738,1589275812424070746,,0.185568127062,-5.98065065346,2.40794792228
1589275812429892823,8739,1589275812429809499,,0.185225456223,-5.97800490727,2.40795226229
1589275812436122372,8740,1589275812436045754,,0.185001439159,-5.97536098555,2.40799301849
1589275812441856533,8741,1589275812441774384,,0.184625940831,-5.97271572819,2.40735037315
1589275812445046647,8742,1589275812444848036,,0.184294065844,-5.96575518881,2.40585588429
1589275812451202797,8743,1589275812451064965,,0.184442889827,-5.96212228925,2.40590883448
1589275812457207727,8744,1589275812457122254,,0.184023277711,-5.95825886348,2.40496470749
1589275812463150266,8745,1589275812463042323,,0.184246710205,-5.95211167575,2.40464303172
1589275812469133250,8746,1589275812469053106,,0.184323492559,-5.94666817193,2.40365702397
1589275812475132858,8747,1589275812475031750,,0.184361189546,-5.9398536081,2.40190437529
1589275812481107154,8748,1589275812481016999,,0.184656384701,-5.93297648562,2.40039287719
1589275812487076299,8749,1589275812487000595,,0.185078454352,-5.92496273817,2.39930992308
1589275812499299578,8750,1589275812499116999,,0.185939723495,-5.90547056489,2.3956661986
1589275812505295469,8751,1589275812505215966,,0.186459165831,-5.89567553137,2.39385856412
1589275812511060446,8752,1589275812510908431,,0.186887539528,-5.88608356466,2.3922799553
1589275812517178076,8753,1589275812517102162,,0.187301276709,-5.87597422809,2.39039427222
1589275812523019987,8754,1589275812522937914,,0.187856624806,-5.86820089626,2.38910678503
1589275812529263848,8755,1589275812529159621,,0.188347778245,-5.85906917391,2.38752554747
1589275812535197341,8756,1589275812535103525,,0.1887588747,-5.84818297033,2.38529346565
1589275812541072675,8757,1589275812540992979,,0.189054411837,-5.84090468412,2.38392263182
1589275812547496791,8758,1589275812547376587,,0.189002925361,-5.83338224856,2.38283168739
1589275812559239977,8759,1589275812559113474,,0.189230228593,-5.81731265524,2.38125280509
1589275812565084695,8760,1589275812564979004,,0.188480936049,-5.81166226114,2.38029184353
1589275812570771905,8761,1589275812570689991,,0.188243348283,-5.80618190572,2.37952114647
1589275812577328109,8762,1589275812577220705,,0.187888454853,-5.8013975938,2.37860007123
1589275812583209501,8763,1589275812583122407,,0.187293504377,-5.79598091986,2.37684309584
1589275812589224212,8764,1589275812589112795,,0.186872310413,-5.7899771687,2.37545077902
1589275812595191890,8765,1589275812595097531,,0.186704532908,-5.78344180999,2.37425108572
1589275812601130472,8766,1589275812601029195,,0.186221029247,-5.77677288442,2.37275515651
1589275812607064712,8767,1589275812606970935,,0.185773134263,-5.76925198035,2.37096535547
1589275812613996020,8768,1589275812613815538,,0.185435259356,-5.76287431799,2.36975012759
1589275812619345844,8769,1589275812619100193,,0.185394711764,-5.754746128,2.36877402777
1589275812625266889,8770,1589275812625105917,,0.185097888634,-5.74444089315,2.3661514593
1589275812631270479,8771,1589275812631119359,,0.185021266952,-5.73524655288,2.36461753854
1589275812637220605,8772,1589275812637037400,,0.185128683898,-5.72377539919,2.36304363434
1589275812643151050,8773,1589275812643081749,,0.185353131031,-5.71150997466,2.36121064093
1589275812652081217,8774,1589275812651887383,,0.185270841979,-5.69048230925,2.35797829409
1589275812657891616,8775,1589275812657814838,,0.185543791856,-5.68022232298,2.35606636279
1589275812663739459,8776,1589275812663645344,,0.185772389009,-5.67000651077,2.35451833201
1589275812670221824,8777,1589275812670095130,,0.185755727341,-5.65635270343,2.35151643718
1589275812676223003,8778,1589275812676127520,,0.186086254061,-5.64453677769,2.34889647738
1589275812682227718,8779,1589275812682084395,,0.18610121053,-5.63419152761,2.34649638923
1589275812688261498,8780,1589275812688145009,,0.185936575123,-5.62152571733,2.34379637452
1589275812694008175,8781,1589275812693914823,,0.185669559767,-5.60991468738,2.34106677483
1589275812700469317,8782,1589275812700333525,,0.18526751574,-5.59881786182,2.33867820099
1589275812706982339,8783,1589275812706638728,,0.184931620056,-5.59216185295,2.33733748557
1589275812712141738,8784,1589275812712063410,,0.18456967564,-5.58347555823,2.33539853542
1589275812718151352,8785,1589275812718053079,,0.183786883466,-5.57489107797,2.33285898647
1589275812724221559,8786,1589275812724070531,,0.183248746018,-5.56660944709,2.33075169935
1589275812729848522,8787,1589275812729764975,,0.182935256991,-5.55826270166,2.32897342974
1589275812736370266,8788,1589275812736223286,,0.182405724137,-5.54935980127,2.32706304852
1589275812742258866,8789,1589275812742175038,,0.182204337122,-5.54044153486,2.32520207226
1589275812748258000,8790,1589275812748151056,,0.1814421082,-5.53056310148,2.3231497845
1589275812754145833,8791,1589275812754052199,,0.180799785297,-5.5199513206,2.32071100335
1589275812760704978,8792,1589275812760595521,,0.180371842308,-5.50888626806,2.31815759326
1589275812767013941,8793,1589275812766745365,,0.180021863547,-5.50330153596,2.31738010191
1589275812772291469,8794,1589275812772189959,,0.17966900459,-5.4913354623,2.31443264435
1589275812778279916,8795,1589275812778167251,,0.179550026556,-5.47875420694,2.31157985663
1589275812784269197,8796,1589275812784153340,,0.179311897522,-5.46510045106,2.30858697271
1589275812790203985,8797,1589275812790094905,,0.17923522748,-5.45163182084,2.30529047508
1589275812796393660,8798,1589275812796252509,,0.178777698619,-5.43822486921,2.30197397209
1589275812802398515,8799,1589275812802279227,,0.178646330301,-5.42349107695,2.29868051905
1589275812808308386,8800,1589275812808201755,,0.178681907989,-5.40819874961,2.29594722079
1589275812814369337,8801,1589275812814212836,,0.17834441192,-5.39367111702,2.29204417467
1589275812820498478,8802,1589275812820387775,,0.178528065768,-5.37815595901,2.28937963318
1589275812826591719,8803,1589275812826339750,,0.178452992665,-5.36952242768,2.28726149068
1589275812832438890,8804,1589275812832288974,,0.178183860543,-5.3546881024,2.28365362964
1589275812838377840,8805,1589275812838230814,,0.178188028652,-5.33849076233,2.28041394197
1589275812844551186,8806,1589275812844425092,,0.178099210772,-5.32314390714,2.27735285046
1589275812847674939,8807,1589275812847565791,,0.177769830982,-5.30782454887,2.27393582425
1589275812859179290,8808,1589275812858994888,,0.177354271208,-5.28466825571,2.26948944331
1589275812865374202,8809,1589275812865248405,,0.176765331005,-5.27022079545,2.26573389375
1589275812871252292,8810,1589275812871133661,,0.176691027877,-5.25763338686,2.26316449136
1589275812877222891,8811,1589275812877103371,,0.176372904869,-5.24563413575,2.2606149301
1589275812883289317,8812,1589275812883174214,,0.175879462901,-5.23279668564,2.25741961188
