%time,field.header.seq,field.header.stamp,field.header.frame_id,field.vector.x,field.vector.y,field.vector.z
1589275809768139491,8151,1589275809768034489,,0.500171531863,-0.200596483701,0.214289663754
1589275809771111967,8152,1589275809771010829,,0.500172012195,-0.200600427535,0.214286260833
1589275809777043276,8153,1589275809776979000,,0.500173445305,-0.200604377468,0.214283561943
1589275809780051421,8154,1589275809779941337,,0.500175861836,-0.200606800469,0.214279658449
1589275809786074355,8155,1589275809785985270,,0.500176821086,-0.200610388038,0.214273686146
1589275809789077971,8156,1589275809789013652,,0.500178398578,-0.200612577501,0.214268436149
1589275809792239126,8157,1589275809792077749,,0.500180824623,-0.2006176084,0.214263763816
1589275809795211496,8158,1589275809795115557,,0.500182876394,-0.200619747174,0.214259876103
1589275809801086279,8159,1589275809800981363,,0.500185319733,-0.200623366992,0.214255727463
1589275809804157109,8160,1589275809804027901,,0.500187128539,-0.20062605252,0.214253371403
1589275809807087267,8161,1589275809807020044,,0.50018879135,-0.200628646147,0.214249565489
1589275809813181603,8162,1589275809813029553,,0.500191523734,-0.20063063587,0.214246976036
1589275809816106529,8163,1589275809816017686,,0.50019350612,-0.200634127173,0.214242701849
1589275809819004487,8164,1589275809818946339,,0.500196108325,-0.200635855591,0.21423911262
1589275809825200691,8165,1589275809825055722,,0.500198899934,-0.200639020524,0.214233156264
1589275809828049904,8166,1589275809827940325,,0.500201315967,-0.200641085775,0.214227083936
1589275809831242345,8167,1589275809831058854,,0.50020383491,-0.200645549091,0.214222293221
1589275809837219408,8168,1589275809837090626,,0.500207047742,-0.200649625114,0.214218597943
1589275809840188002,8169,1589275809840066572,,0.500210833106,-0.20065088209,0.214216389365
1589275809846111356,8170,1589275809845996636,,0.500213542445,-0.200656300132,0.214214628213
1589275809849105743,8171,1589275809848983676,,0.500216608083,-0.200659995129,0.214212099808
1589275809852133220,8172,1589275809852003688,,0.500219914715,-0.200663399015,0.214208787408
1589275809858180230,8173,1589275809858023771,,0.500222711532,-0.200666793435,0.2142040847
1589275809861122497,8174,1589275809861018268,,0.500225391697,-0.20066984825,0.214200632432
1589275809864192728,8175,1589275809864046617,,0.500228458352,-0.20067385402,0.214198999465
1589275809870192251,8176,1589275809870055913,,0.50023150963,-0.200676258613,0.21419813876
1589275809873111443,8177,1589275809873023590,,0.500234838499,-0.200679246878,0.214195347289
1589275809876112098,8178,1589275809876013861,,0.500237713,-0.200683202274,0.214191928489
1589275809882203944,8179,1589275809881992838,,0.500240592443,-0.200685741476,0.21418881245
1589275809885083387,8180,1589275809885002799,,0.500243564873,-0.200690364805,0.214187312184
1589275809888153232,8181,1589275809888034289,,0.500246772692,-0.20069345838,0.214185696785
1589275809894173096,8182,1589275809894040593,,0.500249505506,-0.200696722686,0.214183765623
1589275809897132854,8183,1589275809897020705,,0.500251536832,-0.200701106973,0.214182764419
1589275809903218495,8184,1589275809903041611,,0.500254069841,-0.200704753165,0.214177725332
1589275809906163198,8185,1589275809906063100,,0.500256490518,-0.200707807202,0.214174892362
1589275809909119797,8186,1589275809909019874,,0.500259304842,-0.200712435281,0.214172626852
1589275809912090930,8187,1589275809912024453,,0.500261453404,-0.200715275054,0.214168969828
1589275809918162502,8188,1589275809918029503,,0.500264041382,-0.200719062096,0.214167459846
1589275809921085288,8189,1589275809921025903,,0.500266250478,-0.200721330623,0.214163643468
1589275809927096709,8190,1589275809926983514,,0.500267853271,-0.200724836033,0.214161076271
1589275809930084283,8191,1589275809929995700,,0.50026939634,-0.200727469113,0.214157424142
1589275809933054056,8192,1589275809932979309,,0.500272021399,-0.200731665839,0.214155412119
1589275809936125251,8193,1589275809936032661,,0.500273611592,-0.200734474798,0.214152658484
1589275809942406070,8194,1589275809942315577,,0.500275622614,-0.200737062995,0.214150283139
1589275809945484202,8195,1589275809945395957,,0.500277755527,-0.200739821882,0.214147618881
1589275809951245608,8196,1589275809951087230,,0.500279385222,-0.200742726661,0.214144338966
1589275809954157264,8197,1589275809954064066,,0.5002809542,-0.200744788972,0.214140082205
1589275809957165748,8198,1589275809957045450,,0.500283015957,-0.200746590598,0.21413862393
1589275809960190428,8199,1589275809960075608,,0.500284951289,-0.200750166053,0.214135431638
1589275809966123592,8200,1589275809966033774,,0.500286586201,-0.200753010507,0.21413263737
1589275809969127348,8201,1589275809969014782,,0.500288480602,-0.200754328378,0.214129736687
1589275809975120558,8202,1589275809975027566,,0.500290004935,-0.200756168871,0.214126734627
1589275809978138932,8203,1589275809978049190,,0.500291847591,-0.200757343815,0.214124512736
1589275809981129148,8204,1589275809981027501,,0.500294378083,-0.200757966867,0.214123067481
1589275809987142259,8205,1589275809987038946,,0.50029621316,-0.200759281967,0.214119858755
1589275809990272519,8206,1589275809990101067,,0.500297945,-0.200760536353,0.214117399548
1589275809993080957,8207,1589275809992980464,,0.500299161286,-0.200761463705,0.214114837493
1589275809999136115,8208,1589275809999048636,,0.500300465607,-0.200762575031,0.214111586
1589275810002048638,8209,1589275810001970388,,0.500302292038,-0.200763685839,0.214109759017
1589275810005187313,8210,1589275810005067364,,0.500304771352,-0.200762762044,0.214106749578
1589275810011209641,8211,1589275810011083577,,0.500306055419,-0.200763667604,0.21410479179
1589275810014115821,8212,1589275810014041300,,0.500307434252,-0.200765720819,0.214100220353
1589275810017161765,8213,1589275810017078961,,0.500309388526,-0.200764256308,0.214097469112
1589275810023204130,8214,1589275810023097640,,0.50031070152,-0.200766052792,0.214094286176
1589275810026157969,8215,1589275810026085464,,0.500312135225,-0.200767422841,0.214089815015
1589275810029067519,8216,1589275810028976257,,0.500313854336,-0.200767141807,0.214086691568
1589275810035099565,8217,1589275810035032356,,0.500315201212,-0.20076698386,0.214083117294
1589275810038115829,8218,1589275810038036415,,0.500316394432,-0.200766385298,0.214079657954
1589275810041685370,8219,1589275810041559971,,0.50031771741,-0.200766129256,0.214076272914
1589275810047173472,8220,1589275810047083047,,0.500318795954,-0.20076610338,0.214072271636
1589275810050128819,8221,1589275810050014637,,0.500320256941,-0.200765036673,0.214069385756
1589275810053182458,8222,1589275810053045377,,0.500321666512,-0.200764066939,0.214065770764
1589275810059157477,8223,1589275810059092158,,0.500322590719,-0.200762904036,0.214060523496
1589275810062091931,8224,1589275810061999081,,0.500324354365,-0.200760584453,0.214057638655
1589275810068214796,8225,1589275810068048465,,0.500326909054,-0.200758135517,0.214055255428
1589275810071140164,8226,1589275810071020538,,0.500327769724,-0.200756516924,0.214051283108
1589275810077173968,8227,1589275810077103731,,0.500329087776,-0.200753246514,0.214048166336
1589275810080068017,8228,1589275810079970727,,0.5003302415,-0.200751363251,0.214044444222
1589275810083039975,8229,1589275810082972613,,0.500332240533,-0.200748435271,0.21404102436
1589275810086065688,8230,1589275810085993454,,0.500333652132,-0.200745843568,0.214037564852
1589275810089097350,8231,1589275810088976905,,0.500336262453,-0.20074270097,0.214033430942
1589275810095222928,8232,1589275810095013531,,0.50033836512,-0.200739183699,0.214029076527
1589275810098090898,8233,1589275810097975999,,0.500340926885,-0.200733405792,0.214025054628
1589275810104289940,8234,1589275810104182472,,0.500344081662,-0.200725853859,0.214021134544
1589275810107153095,8235,1589275810107047834,,0.500347017583,-0.200719614702,0.214017141737
1589275810110153904,8236,1589275810110044799,,0.500350897928,-0.200711321072,0.214013723203
1589275810116290001,8237,1589275810116102899,,0.500354131321,-0.200703664678,0.214010697962
1589275810119096448,8238,1589275810119005127,,0.500356751294,-0.200698383324,0.214007714821
1589275810122090908,8239,1589275810121971918,,0.500359314732,-0.200691947747,0.214004598671
1589275810128201174,8240,1589275810128044347,,0.500361603418,-0.200686320519,0.214001255659
1589275810131091139,8241,1589275810131024157,,0.500364511356,-0.200679042885,0.213998459442
1589275810134098409,8242,1589275810134032978,,0.500366816701,-0.200672217333,0.213996231648
1589275810140158947,8243,1589275810140078495,,0.500369773897,-0.200664081416,0.213993429059
1589275810143295692,8244,1589275810143169846,,0.500372570347,-0.20065352764,0.213990952057
1589275810146128819,8245,1589275810146037977,,0.50037731655,-0.200631613799,0.2139846282
1589275810152131500,8246,1589275810152074995,,0.500381432192,-0.200610489612,0.213979944467
1589275810155272905,8247,1589275810155054461,,0.500384133532,-0.200605998548,0.213976470417
1589275810158182138,8248,1589275810158035811,,0.500386846839,-0.200599326534,0.213972562105
1589275810164189729,8249,1589275810164032446,,0.500389594923,-0.200592158097,0.213970035812
1589275810167211462,8250,1589275810167101151,,0.500392695939,-0.200584196945,0.213967878316
1589275810173326959,8251,1589275810173104429,,0.50039514032,-0.200577937948,0.213964715063
1589275810176250605,8252,1589275810176089579,,0.500398111683,-0.200572210412,0.213960592576
1589275810179132873,8253,1589275810179049521,,0.500401044339,-0.200565474182,0.21395654609
1589275810182217977,8254,1589275810182095791,,0.500403684465,-0.200559170613,0.213952967529
1589275810188186444,8255,1589275810188087367,,0.500405496567,-0.200553110205,0.213950467004
1589275810191124994,8256,1589275810191009309,,0.500407949919,-0.200546336943,0.213948410869
1589275810194296683,8257,1589275810194114176,,0.500409797532,-0.200541029844,0.213945007527
1589275810200206364,8258,1589275810200102371,,0.500412005027,-0.200535620174,0.213942703729
1589275810203126132,8259,1589275810203031540,,0.50041405031,-0.200530281516,0.213937771237
1589275810206125593,8260,1589275810206023761,,0.500416461415,-0.200524598823,0.213934059048
1589275810212161118,8261,1589275810212069293,,0.500418593304,-0.200518324721,0.213930353693
1589275810215159142,8262,1589275810215075797,,0.500420578877,-0.200511489181,0.213925461007
1589275810218197525,8263,1589275810218095236,,0.500422745798,-0.200505652555,0.213922966569
1589275810224175703,8264,1589275810224072110,,0.500425190312,-0.200499962971,0.213919196569
1589275810227168719,8265,1589275810227097166,,0.500426730493,-0.200491000002,0.213914114077
1589275810233206169,8266,1589275810233086176,,0.500429090894,-0.200482239758,0.213908333011
1589275810236213692,8267,1589275810236132837,,0.50043213855,-0.200469767075,0.213903461712
1589275810239188358,8268,1589275810239114022,,0.500434840472,-0.200454053275,0.213896949439
1589275810245649228,8269,1589275810245493149,,0.500437015989,-0.200444573115,0.213890668958
1589275810248149503,8270,1589275810248066524,,0.500438694585,-0.200437108424,0.213887410997
1589275810251181816,8271,1589275810251030968,,0.500441077628,-0.200429753143,0.213884598034
1589275810257166480,8272,1589275810257063521,,0.500442097461,-0.200422643545,0.213878560381
1589275810260164888,8273,1589275810260067684,,0.500444098105,-0.200418000431,0.213875308129
1589275810263225694,8274,1589275810263084033,,0.500445923249,-0.200411436417,0.213870779797
1589275810269203316,8275,1589275810269052879,,0.500447937796,-0.200406521717,0.213866360508
1589275810272145522,8276,1589275810272040772,,0.500449518123,-0.200401606039,0.213860724098
1589275810275224946,8277,1589275810275082571,,0.500451166906,-0.200396254912,0.213857452452
1589275810281213488,8278,1589275810281093376,,0.500453055956,-0.200390603082,0.21385378493
1589275810284283863,8279,1589275810284065708,,0.50045339573,-0.20038642416,0.213848320382
1589275810287325518,8280,1589275810287095561,,0.500454982283,-0.200380211316,0.21384453277
1589275810293190803,8281,1589275810293072955,,0.500456251029,-0.200372183107,0.213839935111
1589275810296145887,8282,1589275810296044570,,0.500457746062,-0.200365264004,0.213835459905
1589275810299155343,8283,1589275810299068906,,0.500458758786,-0.200357213726,0.213829301897
1589275810305155358,8284,1589275810305009705,,0.500458333787,-0.200349799879,0.213821752843
1589275810308098637,8285,1589275810308011843,,0.500457723103,-0.200342176891,0.213814206751
1589275810314143895,8286,1589275810314034666,,0.500454433512,-0.20033393628,0.213802904019
1589275810317165455,8287,1589275810317046429,,0.500451549574,-0.200324706369,0.213791510436
1589275810320142677,8288,1589275810320065849,,0.500449169614,-0.200316807778,0.21378229732
1589275810323151844,8289,1589275810323038318,,0.500447689079,-0.200308993382,0.213773447578
1589275810329142293,8290,1589275810329028314,,0.50044741184,-0.200301301954,0.213766534294
1589275810338308866,8291,1589275810338119735,,0.500447454587,-0.200281734736,0.213749464935
1589275810341612678,8292,1589275810341495245,,0.500447296678,-0.200273476057,0.213740345349
1589275810346066079,8293,1589275810345953254,,0.500448472682,-0.200262974758,0.213733932577
1589275810350180665,8294,1589275810350041809,,0.500448583325,-0.200256331207,0.213726973298
1589275810353150734,8295,1589275810353073256,,0.500448449426,-0.200247666817,0.213719541215
1589275810356196315,8296,1589275810356072714,,0.500447831497,-0.20023909577,0.213713264781
1589275810362169450,8297,1589275810362076727,,0.500448313971,-0.200233053079,0.213709007593
1589275810365200272,8298,1589275810365065048,,0.500448296228,-0.200227112852,0.213705072248
1589275810368119405,8299,1589275810368027065,,0.500447984294,-0.200219918356,0.213698847403
1589275810371103168,8300,1589275810370997521,,0.50044874924,-0.200213489256,0.213694525409
1589275810377166925,8301,1589275810377029614,,0.50044849058,-0.200206309646,0.21368742811
1589275810380264485,8302,1589275810380117715,,0.500448238712,-0.200198644874,0.213681262108
1589275810386207812,8303,1589275810386054816,,0.500448786579,-0.200189357931,0.213673996585
1589275810389258422,8304,1589275810389096427,,0.500449473741,-0.200181466622,0.213666998033
1589275810392130364,8305,1589275810392032851,,0.500449990727,-0.200174442354,0.213660742015
1589275810398184304,8306,1589275810398086678,,0.50045055433,-0.200167598859,0.213652560742
1589275810401206430,8307,1589275810401107005,,0.500451866637,-0.200160425029,0.213648228471
1589275810404228947,8308,1589275810404107397,,0.500451741626,-0.200152333581,0.213640051409
1589275810410239721,8309,1589275810410109855,,0.500452739339,-0.200145475007,0.213634123712
1589275810413136776,8310,1589275810413056695,,0.500453936438,-0.20013683021,0.213628972155
1589275810416129794,8311,1589275810416045184,,0.500455625518,-0.200128222678,0.213624430238
1589275810422301450,8312,1589275810422068811,,0.500457350185,-0.200120082997,0.213618467927
1589275810425188536,8313,1589275810425069714,,0.50045926241,-0.200109857946,0.213612864796
1589275810428158221,8314,1589275810428056952,,0.50046093185,-0.20010139239,0.213606569732
1589275810434320551,8315,1589275810434194855,,0.500462564851,-0.200091817455,0.213600189603
1589275810437325961,8316,1589275810437229040,,0.500464331371,-0.200083444612,0.213595367756
1589275810440188834,8317,1589275810440048734,,0.500465603601,-0.200075718073,0.213588110259
1589275810446195519,8318,1589275810446072015,,0.500467076424,-0.200066103959,0.213581408585
1589275810449292116,8319,1589275810449123267,,0.500468241859,-0.200059034026,0.213574891444
1589275810452189914,8320,1589275810452093700,,0.500468693834,-0.200050454638,0.213567104943
1589275810458274079,8321,1589275810458123801,,0.500470195259,-0.200042286422,0.213560985461
1589275810461341615,8322,1589275810461182006,,0.500471066174,-0.200035737451,0.213553367112
1589275810464327807,8323,1589275810464203358,,0.500472321506,-0.200026883396,0.213546438432
1589275810473274717,8324,1589275810473161063,,0.500473577571,-0.200017838733,0.213539721537
1589275810476267450,8325,1589275810476155926,,0.500474615156,-0.200009945119,0.21353230648
1589275810479240978,8326,1589275810479116517,,0.500475140029,-0.199999994292,0.213524550854
1589275810482279089,8327,1589275810482143542,,0.500475972808,-0.199989056948,0.213517244044
1589275810485236488,8328,1589275810485131967,,0.500477005923,-0.199976827129,0.213510913293
1589275810488263028,8329,1589275810488162370,,0.500478396492,-0.199960999764,0.213503417928
1589275810494236558,8330,1589275810494139380,,0.500479222901,-0.199948207382,0.213496849236
1589275810497320417,8331,1589275810497166181,,0.500479994197,-0.199934988897,0.213488378887
1589275810503266207,8332,1589275810503127692,,0.50048055886,-0.199923587675,0.213481543551
1589275810506224908,8333,1589275810506120099,,0.500481187856,-0.199910996689,0.213474710968
1589275810509246516,8334,1589275810509126895,,0.500481553882,-0.199896698412,0.213465878999
1589275810515327983,8335,1589275810515160065,,0.500481871148,-0.199883103956,0.213457943386
1589275810518312884,8336,1589275810518190083,,0.500483948212,-0.199865800147,0.213450881589
1589275810521268270,8337,1589275810521089820,,0.50048522362,-0.199848018001,0.213441753126
1589275810527187139,8338,1589275810527086427,,0.500485888024,-0.199832541871,0.2134319073
1589275810530273364,8339,1589275810530121294,,0.500486554198,-0.19981701824,0.213423478392
1589275810533195987,8340,1589275810533122206,,0.500486656653,-0.199803178825,0.213415555708
1589275810539391160,8341,1589275810539257093,,0.500487491342,-0.199786027035,0.213406634399
1589275810542427775,8342,1589275810542316403,,0.500488029066,-0.199771293418,0.213398852656
1589275810545536699,8343,1589275810545418076,,0.500488341992,-0.199755767768,0.213388956694
1589275810551301072,8344,1589275810551143452,,0.500490062503,-0.199738720684,0.213381060947
1589275810554263132,8345,1589275810554147046,,0.500490874249,-0.199720616753,0.213372116685
1589275810557243046,8346,1589275810557125129,,0.500492317812,-0.199703488281,0.213364078737
1589275810563365870,8347,1589275810563186582,,0.500493702963,-0.199687235488,0.213354326373
1589275810566160013,8348,1589275810566062110,,0.50049405954,-0.199668064881,0.213344134275
1589275810569176628,8349,1589275810569069217,,0.500494724582,-0.199651164155,0.213334566369
1589275810575281090,8350,1589275810575094674,,0.500496443078,-0.199631408412,0.213327496562
1589275810578232464,8351,1589275810578133946,,0.500497188655,-0.199609259847,0.21331631767
1589275810581221978,8352,1589275810581122696,,0.500498860312,-0.199588228742,0.213307897531
1589275810587336152,8353,1589275810587170435,,0.500499540983,-0.199567211961,0.213296369027
1589275810590236048,8354,1589275810590108588,,0.500501601202,-0.199546460568,0.213288501558
1589275810593285892,8355,1589275810593190892,,0.50050366736,-0.199523993562,0.213279238479
1589275810599223615,8356,1589275810599133121,,0.500505739063,-0.199501134243,0.213269929961
1589275810602291181,8357,1589275810602141386,,0.50050797444,-0.199478079075,0.213261294933
1589275810605271187,8358,1589275810605147475,,0.500509316379,-0.199455973803,0.213252180555
1589275810611190005,8359,1589275810611075598,,0.500511212788,-0.199433671342,0.213243294045
1589275810614196557,8360,1589275810614080761,,0.500512891566,-0.199410941091,0.213234960629
1589275810617210798,8361,1589275810617095364,,0.500515339466,-0.199386322401,0.213228204246
1589275810623219289,8362,1589275810623102689,,0.500517316857,-0.199363695239,0.213219762997
1589275810626284459,8363,1589275810626172531,,0.5005199039,-0.199338563379,0.21321300625
1589275810635316283,8364,1589275810635140214,,0.500523583113,-0.199295886091,0.213199257239
1589275810638265037,8365,1589275810638167357,,0.500524854797,-0.199271441932,0.213193240308
1589275810644579679,8366,1589275810644478477,,0.500525308061,-0.199245851356,0.213189557176
1589275810647232981,8367,1589275810647140164,,0.500527057118,-0.199221669,0.213186486101
1589275810650181338,8368,1589275810650104968,,0.500528503014,-0.199198253987,0.213183186683
1589275810656353158,8369,1589275810656135043,,0.500529865568,-0.199173393563,0.213177633382
1589275810659218771,8370,1589275810659140409,,0.500531788538,-0.199149068413,0.213172152118
1589275810662237397,8371,1589275810662124435,,0.500533955499,-0.199127101826,0.213166381115
1589275810668307023,8372,1589275810668107572,,0.500535935954,-0.199103195214,0.213158757918
1589275810671270851,8373,1589275810671143113,,0.500538420314,-0.199075952373,0.213153434121
1589275810674310038,8374,1589275810674165526,,0.5005399215,-0.199055008056,0.213147725415
1589275810680239718,8375,1589275810680147240,,0.500542172016,-0.199030332638,0.213141900515
1589275810683236428,8376,1589275810683113002,,0.500543467914,-0.199005115357,0.213135565295
1589275810686192194,8377,1589275810686086021,,0.500545336359,-0.198978394998,0.213127757314
1589275810695303476,8378,1589275810695192999,,0.500548828499,-0.198930134568,0.213113353241
1589275810701282726,8379,1589275810701152976,,0.500551482552,-0.198905629294,0.213106012421
1589275810704252599,8380,1589275810704132275,,0.500553372511,-0.198881037624,0.213098464432
1589275810707268668,8381,1589275810707133412,,0.500555687663,-0.198855522507,0.213089946032
1589275810710271916,8382,1589275810710121564,,0.500557133032,-0.198831917953,0.213080781891
1589275810716287082,8383,1589275810716165587,,0.500560144446,-0.198806556747,0.213073928971
1589275810719402633,8384,1589275810719311578,,0.500562258152,-0.198779936889,0.21306520229
1589275810725253528,8385,1589275810725130618,,0.500563662827,-0.198756969872,0.213059022728
1589275810728182001,8386,1589275810728108905,,0.500565016226,-0.198731375928,0.21304986696
1589275810731216151,8387,1589275810731121754,,0.500566508615,-0.198704844504,0.213041311436
1589275810734273149,8388,1589275810734131948,,0.500568745091,-0.198681724858,0.213034836057
1589275810740285173,8389,1589275810740134150,,0.500572222108,-0.198654896442,0.213028773627
1589275810743379450,8390,1589275810743288860,,0.500575115341,-0.198626227576,0.213022255427
1589275810749242396,8391,1589275810749134902,,0.500578606922,-0.198597746593,0.213012769363
1589275810755256358,8392,1589275810755180377,,0.500585062108,-0.198543631953,0.212997133343
1589275810758294612,8393,1589275810758172235,,0.50058618667,-0.198518549384,0.212987764352
1589275810764261665,8394,1589275810764142188,,0.500588473293,-0.198488656672,0.212979462761
1589275810767270489,8395,1589275810767118099,,0.500591511391,-0.198456354264,0.212972332428
1589275810776257883,8396,1589275810776137501,,0.500594042158,-0.198427628279,0.212966358799
1589275810779257835,8397,1589275810779184188,,0.500597029501,-0.198397448062,0.212959137358
1589275810782284411,8398,1589275810782164284,,0.500599588728,-0.198370437288,0.212952091188
1589275810785314772,8399,1589275810785141594,,0.500601956068,-0.198343348334,0.212945787445
1589275810788228904,8400,1589275810788144423,,0.50060475961,-0.198313348878,0.212936037039
1589275810791240264,8401,1589275810791129179,,0.500608407205,-0.198279083344,0.212926366208
1589275810797228539,8402,1589275810797145367,,0.500610626509,-0.198254097563,0.212918987236
1589275810800215310,8403,1589275810800133359,,0.500613429692,-0.198223127362,0.212909482518
1589275810803306983,8404,1589275810803148214,,0.500615769201,-0.198192783655,0.212900655617
1589275810809240263,8405,1589275810809109197,,0.500618852026,-0.198162204364,0.212891970101
1589275810812175630,8406,1589275810812104209,,0.500621912649,-0.198130036468,0.212884651921
1589275810815206158,8407,1589275810815102050,,0.500624351306,-0.198099903147,0.212877524569
1589275810821395056,8408,1589275810821247466,,0.50062690197,-0.198068733733,0.212871076871
1589275810824241862,8409,1589275810824153720,,0.500628474484,-0.19804217882,0.21286114101
1589275810827286557,8410,1589275810827131156,,0.500630938752,-0.198010139473,0.212851912491
1589275810833254950,8411,1589275810833151248,,0.500634740532,-0.197979593476,0.212846679169
1589275810836203742,8412,1589275810836098983,,0.500638769248,-0.197948048783,0.212838629568
1589275810839382688,8413,1589275810839252460,,0.500643178205,-0.197914349714,0.21283215006
1589275810845763454,8414,1589275810845679116,,0.500645754166,-0.197883889844,0.212821732021
1589275810848239265,8415,1589275810848136649,,0.500649107712,-0.197852205318,0.212813987393
1589275810851457484,8416,1589275810851208054,,0.500653294257,-0.197815596801,0.21280449916
1589275810857297267,8417,1589275810857134084,,0.500655961837,-0.197783193534,0.212794868248
1589275810860337842,8418,1589275810860247302,,0.500658911341,-0.197750006794,0.212785481639
1589275810863198163,8419,1589275810863103467,,0.500663519057,-0.197713288413,0.212776656931
1589275810869158667,8420,1589275810869087390,,0.500666988077,-0.197679026743,0.212768032277
1589275810872205286,8421,1589275810872100347,,0.500670089435,-0.197644973421,0.212758061436
1589275810875266556,8422,1589275810875111432,,0.500675057462,-0.197606919782,0.212747587014
1589275810881243497,8423,1589275810881103297,,0.500677944959,-0.197572506475,0.212736592414
1589275810884281304,8424,1589275810884122570,,0.500681665013,-0.197539854458,0.212727549294
1589275810890249207,8425,1589275810890122121,,0.500684205841,-0.197507199516,0.212718000828
1589275810893329705,8426,1589275810893123390,,0.500688952198,-0.197470316438,0.212709411945
1589275810896237479,8427,1589275810896127905,,0.500693600776,-0.197435537429,0.212701276891
1589275810899294725,8428,1589275810899205018,,0.500697798832,-0.197399613224,0.212692826913
1589275810905304239,8429,1589275810905088910,,0.500702976588,-0.197366397607,0.212685364526
1589275810908225460,8430,1589275810908097797,,0.500707458816,-0.19733565656,0.212677386547
1589275810914328415,8431,1589275810914108817,,0.500711256331,-0.197301356213,0.212668582028
1589275810917375448,8432,1589275810917171763,,0.500716256722,-0.197265653842,0.212661525983
1589275810920246084,8433,1589275810920126120,,0.500719419221,-0.197236103468,0.212654054354
1589275810926230175,8434,1589275810926138867,,0.500724132483,-0.197200033663,0.212647164961
1589275810929199396,8435,1589275810929126760,,0.500727444882,-0.197167107393,0.212638671656
1589275810932213459,8436,1589275810932128380,,0.500729899554,-0.197137794301,0.212630240814
1589275810938187478,8437,1589275810938094112,,0.50073344354,-0.197103927932,0.212621262628
1589275810941701402,8438,1589275810941576065,,0.500738387626,-0.1970692158,0.212613783814
1589275810944611242,8439,1589275810944519035,,0.500742219992,-0.197035820101,0.2126051873
1589275810950309208,8440,1589275810950147626,,0.50074522344,-0.197001545565,0.212594871939
1589275810953283170,8441,1589275810953173581,,0.50074915795,-0.196966536411,0.212586779795
1589275810956276535,8442,1589275810956161565,,0.500752958482,-0.196932867099,0.212579838016
1589275810962289065,8443,1589275810962168581,,0.500757703704,-0.196895550965,0.212571987695
1589275810965274962,8444,1589275810965171106,,0.500760055932,-0.196861346868,0.212561980942
1589275810968326621,8445,1589275810968154228,,0.500764693337,-0.196822683019,0.212555483395
1589275810977270591,8446,1589275810977161998,,0.500769881049,-0.196784482038,0.212550582391
1589275810980319122,8447,1589275810980160170,,0.500773580688,-0.196748428858,0.212543885753
1589275810983409785,8448,1589275810983170526,,0.500778492607,-0.196706131654,0.212534815504
1589275810986259062,8449,1589275810986171763,,0.500783099645,-0.196664944796,0.212526713893
1589275810989321388,8450,1589275810989173095,,0.500785965184,-0.196630121027,0.212518889828
1589275810995327822,8451,1589275810995217938,,0.500790485355,-0.196591255343,0.212510911176
1589275810998315014,8452,1589275810998152699,,0.500794874599,-0.196547248448,0.212503137339
1589275811001247294,8453,1589275811001137926,,0.500798157446,-0.196507450132,0.212495928161
1589275811004212295,8454,1589275811004098079,,0.500801360392,-0.196472497365,0.212486885258
1589275811010315871,8455,1589275811010154808,,0.50080628212,-0.196431045916,0.212479407935
1589275811013327838,8456,1589275811013177312,,0.500811143314,-0.196388790538,0.212468982574
1589275811019265983,8457,1589275811019136292,,0.500815254528,-0.196351530383,0.212460807329
1589275811022360290,8458,1589275811022190806,,0.500818937623,-0.196312977114,0.212452803238
1589275811025431666,8459,1589275811025212048,,0.50082345539,-0.196272239144,0.212445446442
1589275811031424887,8460,1589275811031243809,,0.500826661423,-0.196234566167,0.212438453896
1589275811034316673,8461,1589275811034172400,,0.50083162227,-0.196194181202,0.212432309816
1589275811037326060,8462,1589275811037159138,,0.50083488953,-0.196154501733,0.21242361134
1589275811043616593,8463,1589275811043454810,,0.500838856881,-0.196116617972,0.212417404263
1589275811046314157,8464,1589275811046200217,,0.500842277232,-0.196077218211,0.212408422009
1589275811049372437,8465,1589275811049189139,,0.500847246434,-0.196037786328,0.212404153264
1589275811055316265,8466,1589275811055193045,,0.500851770971,-0.195997572273,0.212397224466
1589275811058287351,8467,1589275811058168806,,0.500855783671,-0.195957478367,0.212389521347
1589275811061277929,8468,1589275811061182212,,0.500860517183,-0.195918442533,0.212381114636
1589275811067327608,8469,1589275811067194596,,0.500864068371,-0.195878536363,0.212373692926
1589275811073466079,8470,1589275811073245583,,0.500868302639,-0.195840316704,0.212367155344
1589275811076319710,8471,1589275811076191887,,0.500872235893,-0.195800147987,0.212358619087
1589275811079390453,8472,1589275811079260281,,0.500876246604,-0.195758744532,0.212352561094
1589275811082295447,8473,1589275811082186404,,0.500879532118,-0.195716499838,0.212345409693
1589275811088295405,8474,1589275811088191192,,0.500883600336,-0.195673871052,0.212339529731
1589275811091315045,8475,1589275811091194660,,0.500887399819,-0.195632718423,0.212332348328
1589275811094253547,8476,1589275811094153015,,0.500892374016,-0.195594266956,0.212326165918
1589275811097256934,8477,1589275811097145612,,0.500896326026,-0.195556549776,0.212318838647
1589275811103365799,8478,1589275811103228022,,0.500899526602,-0.195514571423,0.212308328639
1589275811106296801,8479,1589275811106166780,,0.500904823814,-0.195470933013,0.212300702104
1589275811112342398,8480,1589275811112202730,,0.500909772438,-0.195433230857,0.212295835703
1589275811115331217,8481,1589275811115185402,,0.5009133667,-0.195393614931,0.212290318999
1589275811118344962,8482,1589275811118211428,,0.50091648652,-0.195352598477,0.21228535544
1589275811121352653,8483,1589275811121191462,,0.50092019989,-0.195316877586,0.212278844299
1589275811127231968,8484,1589275811127137307,,0.500923469898,-0.195276434231,0.212268915919
1589275811130350847,8485,1589275811130185006,,0.500925793337,-0.195237177817,0.212260753971
1589275811136307171,8486,1589275811136181259,,0.500929542366,-0.195198808205,0.212254986039
1589275811139421185,8487,1589275811139323718,,0.500932321819,-0.195157203057,0.212243890351
1589275811142518426,8488,1589275811142432114,,0.500935214966,-0.195119296636,0.212235563306
1589275811145552371,8489,1589275811145478733,,0.500938090907,-0.195085455936,0.212230454708
1589275811151335285,8490,1589275811151209457,,0.500941338395,-0.195047316285,0.212222208832
1589275811154286154,8491,1589275811154200366,,0.500942640726,-0.19500790055,0.212215151601
1589275811160244757,8492,1589275811160133225,,0.500945132683,-0.194967359294,0.212206604498
1589275811163392828,8493,1589275811163168989,,0.500947562572,-0.19492833974,0.212202172277
1589275811166331820,8494,1589275811166196033,,0.500948671316,-0.194893507841,0.21219505396
1589275811175402609,8495,1589275811175220677,,0.500949888934,-0.194856273666,0.212188541797
1589275811178315554,8496,1589275811178208564,,0.500953393202,-0.194816334581,0.212181607512
1589275811181315423,8497,1589275811181167297,,0.500955782764,-0.194777169577,0.212176501005
1589275811184312424,8498,1589275811184225975,,0.500956868081,-0.19474300497,0.212167819339
1589275811187340298,8499,1589275811187223318,,0.500959083852,-0.194704280055,0.212160960029
1589275811190315086,8500,1589275811190212571,,0.500962114215,-0.194664946206,0.212154897887
1589275811196309340,8501,1589275811196200842,,0.500963300086,-0.194626337646,0.212146271205
1589275811199369740,8502,1589275811199262043,,0.500964784028,-0.19459052341,0.21214237571
1589275811202305400,8503,1589275811202170559,,0.500966096693,-0.194554089116,0.212134523821
1589275811208355463,8504,1589275811208187819,,0.500967866155,-0.194517651367,0.2121281405
1589275811211275911,8505,1589275811211181925,,0.500969356737,-0.194479508959,0.212122009831
1589275811214308929,8506,1589275811214190479,,0.500970290414,-0.194444707448,0.212117893584
1589275811220293168,8507,1589275811220197211,,0.500972148427,-0.194410234575,0.21210958366
1589275811223258683,8508,1589275811223157935,,0.500973373792,-0.194375069398,0.212102733523
1589275811226239594,8509,1589275811226171711,,0.500974986031,-0.194339553168,0.212098369255
1589275811232311750,8510,1589275811232218497,,0.500976142942,-0.194305616871,0.212094643629
1589275811235293957,8511,1589275811235202320,,0.500976979054,-0.194270183309,0.212088281822
1589275811238418143,8512,1589275811238251587,,0.50097779405,-0.194236235713,0.212083737902
1589275811244743757,8513,1589275811244611022,,0.500978727306,-0.194200693023,0.212078894503
1589275811247292728,8514,1589275811247215539,,0.500978670863,-0.194164232539,0.21207354732
1589275811253301616,8515,1589275811253159911,,0.500980122026,-0.194128137926,0.212069809003
1589275811256307088,8516,1589275811256171767,,0.500980918338,-0.194090512915,0.212064413577
1589275811259428051,8517,1589275811259333585,,0.500981167399,-0.194053793373,0.212058433863
1589275811262285247,8518,1589275811262183786,,0.500982028792,-0.19401520449,0.212050682683
1589275811268393833,8519,1589275811268195153,,0.500982728428,-0.193977626534,0.212046317212
1589275811274325742,8520,1589275811274233355,,0.500983315963,-0.193940534794,0.212041979939
1589275811277354646,8521,1589275811277212910,,0.500984221266,-0.193900050621,0.212036784057
1589275811280310248,8522,1589275811280201471,,0.500984234086,-0.193859876619,0.212029011201
1589275811283297921,8523,1589275811283194154,,0.500983562378,-0.19382343165,0.21202560451
1589275811286358439,8524,1589275811286217481,,0.500983220522,-0.193782634079,0.21202084297
1589275811295381123,8525,1589275811295205317,,0.500984291022,-0.19370372463,0.212012867961
1589275811304267114,8526,1589275811304167975,,0.500985264896,-0.193664799036,0.212009147423
1589275811307350018,8527,1589275811307180962,,0.500984461728,-0.193624904107,0.212003524894
1589275811310349999,8528,1589275811310205557,,0.500984648021,-0.193586597324,0.211999408033
1589275811313270728,8529,1589275811313198540,,0.500985077849,-0.193548463799,0.211998267904
1589275811316329988,8530,1589275811316191194,,0.500983344503,-0.193510846216,0.211992960107
1589275811319400048,8531,1589275811319206978,,0.500982856284,-0.193471350066,0.211989279154
1589275811325314961,8532,1589275811325187969,,0.500981968083,-0.193433099946,0.211984111606
1589275811331414741,8533,1589275811331239805,,0.500980707251,-0.1933911003,0.211975483403
1589275811334307130,8534,1589275811334178666,,0.500981742151,-0.193349431667,0.211973257304
1589275811337296245,8535,1589275811337182538,,0.500981734892,-0.193310792057,0.211967448076
1589275811340287288,8536,1589275811340183724,,0.500981537907,-0.193272793283,0.211963197602
1589275811343470925,8537,1589275811343330888,,0.500980655542,-0.193231486179,0.211956675442
1589275811349334413,8538,1589275811349194797,,0.500980236918,-0.193191135466,0.211954205476
1589275811355320986,8539,1589275811355208620,,0.500979245137,-0.193116065154,0.211944809759
1589275811361467106,8540,1589275811361275531,,0.500978586791,-0.19307454463,0.211941346084
1589275811364260443,8541,1589275811364177373,,0.500978466647,-0.193037233661,0.21193830287
1589275811367333048,8542,1589275811367222784,,0.500978454702,-0.19300079392,0.211935497407
1589275811376312080,8543,1589275811376208409,,0.500977623953,-0.192963859393,0.211931570972
1589275811379519493,8544,1589275811379425162,,0.500977248924,-0.192927113439,0.211926713166
1589275811382345521,8545,1589275811382175058,,0.500976180307,-0.192896587572,0.211922471587
1589275811385306081,8546,1589275811385177251,,0.500977029899,-0.192858478082,0.211920010498
1589275811388342725,8547,1589275811388196774,,0.500976913511,-0.192819672435,0.211917680671
1589275811391304594,8548,1589275811391206020,,0.500978144699,-0.192787313361,0.211912677124
1589275811397415736,8549,1589275811397258820,,0.500977637813,-0.192744080733,0.211906504901
1589275811400407914,8550,1589275811400279865,,0.500977477397,-0.192699956035,0.21190114883
1589275811403423275,8551,1589275811403277148,,0.500977569138,-0.192659730429,0.211896863364
1589275811409430560,8552,1589275811409249451,,0.500977738612,-0.192617848973,0.21189048453
1589275811415398842,8553,1589275811415276028,,0.500977472999,-0.192535894111,0.211881031796
1589275811421349204,8554,1589275811421228204,,0.500977882472,-0.192494163008,0.21187647538
1589275811427386302,8555,1589275811427245369,,0.500978830156,-0.192447218487,0.21186996221
1589275811430331410,8556,1589275811430241226,,0.500979753193,-0.192400578493,0.211864446069
1589275811433334813,8557,1589275811433241616,,0.500981596493,-0.192353862771,0.211856130876
1589275811436349293,8558,1589275811436252671,,0.500981463097,-0.192309594767,0.211850817094
1589275811442664194,8559,1589275811442485637,,0.500983869535,-0.192269741417,0.211845989749
1589275811448362318,8560,1589275811448271417,,0.500985350028,-0.192173748908,0.211831903103
1589275811454380991,8561,1589275811454254380,,0.500986048548,-0.192132688235,0.211825287566
1589275811457378612,8562,1589275811457252840,,0.500986932935,-0.192088810152,0.211818585545
1589275811460681507,8563,1589275811460597845,,0.500987722573,-0.19204010742,0.211814032045
1589275811466409064,8564,1589275811466258218,,0.500986491639,-0.191995830357,0.211803443566
1589275811469362026,8565,1589275811469273733,,0.500986636156,-0.191957614434,0.21179897592
1589275811475491186,8566,1589275811475316234,,0.500986386688,-0.191915726235,0.211791991457
1589275811478453300,8567,1589275811478342497,,0.500985931944,-0.191877866039,0.211784236418
1589275811481473433,8568,1589275811481349414,,0.500986349031,-0.19183604335,0.211777076364
1589275811487417107,8569,1589275811487251583,,0.500986577348,-0.191793921413,0.211771969309
1589275811493368259,8570,1589275811493216629,,0.500985771452,-0.191749309798,0.211763242489
1589275811499543213,8571,1589275811499455450,,0.50098426642,-0.191709686873,0.211755860075
1589275811505384277,8572,1589275811505242606,,0.500985624998,-0.191665743594,0.211751888329
1589275811508499832,8573,1589275811508309593,,0.500985267271,-0.1916188522,0.211745858091
1589275811511472480,8574,1589275811511320114,,0.500984563576,-0.191577613865,0.211739764598
1589275811514361692,8575,1589275811514273839,,0.500984810052,-0.191532757318,0.211736295648
1589275811517351329,8576,1589275811517253779,,0.50098503388,-0.191486602914,0.211730354936
1589275811520323255,8577,1589275811520233462,,0.500985248748,-0.191441803973,0.211723850328
1589275811523400984,8578,1589275811523216522,,0.500985085249,-0.191393691813,0.211721576145
1589275811526277475,8579,1589275811526203528,,0.500984646578,-0.191343670157,0.211715710468
1589275811535439685,8580,1589275811535286441,,0.500986052497,-0.191245380212,0.211700788
1589275811538397711,8581,1589275811538251705,,0.500984970366,-0.191198912104,0.211696018156
1589275811541789594,8582,1589275811541673056,,0.500986816328,-0.191144945136,0.21169303685
1589275811550386079,8583,1589275811550248036,,0.500986908947,-0.191093048058,0.211683207015
1589275811556458598,8584,1589275811556340272,,0.500986213412,-0.191040188137,0.211673283579
1589275811559440620,8585,1589275811559344309,,0.500987107072,-0.190986294271,0.211671958593
1589275811562380826,8586,1589275811562255726,,0.500987574771,-0.190936580927,0.211663773659
1589275811565324753,8587,1589275811565232173,,0.500987931516,-0.190895525156,0.21165590441
1589275811568347975,8588,1589275811568239358,,0.500988825539,-0.19084349684,0.21165205043
1589275811574330782,8589,1589275811574227063,,0.500988998082,-0.190790197998,0.211641948084
1589275811577315946,8590,1589275811577208550,,0.500989264084,-0.190748478849,0.211636662825
1589275811580304098,8591,1589275811580222038,,0.500989832732,-0.190700924429,0.211631287985
1589275811586372541,8592,1589275811586265005,,0.500989441351,-0.190650794946,0.211625029903
1589275811595367607,8593,1589275811595255591,,0.50098853637,-0.190563742407,0.211614624164
1589275811598317615,8594,1589275811598226485,,0.500987114221,-0.190522856985,0.211609088071
1589275811601355225,8595,1589275811601242964,,0.500986678796,-0.190480273693,0.211603183475
1589275811604332751,8596,1589275811604237594,,0.50098602587,-0.190436095111,0.211596771263
1589275811607384676,8597,1589275811607239054,,0.500987331612,-0.190390792037,0.211591641768
1589275811610482902,8598,1589275811610277004,,0.500985347095,-0.19034875791,0.211585424097
1589275811613302726,8599,1589275811613217991,,0.500986407209,-0.190294326933,0.211576534412
1589275811619335194,8600,1589275811619247974,,0.50098628355,-0.190249964205,0.211570735958
1589275811625338573,8601,1589275811625265599,,0.500985722592,-0.190206828019,0.211567725513
1589275811631336998,8602,1589275811631237065,,0.500986916099,-0.190151587337,0.211559054319
1589275811637382207,8603,1589275811637235569,,0.500987067248,-0.19009475969,0.211548044053
1589275811640380609,8604,1589275811640239819,,0.5009889909,-0.190045270996,0.211545525036
1589275811643610247,8605,1589275811643512709,,0.500988670302,-0.189989553422,0.211536978793
1589275811646709788,8606,1589275811646608845,,0.500989754529,-0.18992814488,0.211526034653
1589275811658399659,8607,1589275811658280980,,0.50098948587,-0.189820081929,0.211513543015
1589275811661341953,8608,1589275811661260327,,0.500989351292,-0.189766912931,0.211505069021
1589275811667403022,8609,1589275811667275928,,0.500990288195,-0.18971480285,0.211497729851
1589275811673308177,8610,1589275811673198756,,0.500989070374,-0.189665678313,0.211489423952
1589275811679606358,8611,1589275811679529521,,0.50098930487,-0.189617338052,0.211480397759
1589275811685432577,8612,1589275811685293331,,0.50098665641,-0.189569744014,0.211470510405
1589275811688426046,8613,1589275811688280930,,0.500987089248,-0.189517539224,0.211464694918
1589275811694402014,8614,1589275811694265616,,0.500985557653,-0.189473048744,0.211456174578
1589275811697389250,8615,1589275811697259316,,0.500983263105,-0.189438321715,0.211454482874
1589275811700403540,8616,1589275811700246781,,0.500981854993,-0.18940218336,0.211448703993
1589275811703401568,8617,1589275811703281591,,0.500981018048,-0.189353396082,0.2114395898
1589275811706384382,8618,1589275811706266558,,0.500980891192,-0.189313415549,0.211435327364
1589275811709381488,8619,1589275811709265019,,0.500979442753,-0.189276782102,0.211429249893
1589275811715520134,8620,1589275811715338746,,0.500977380153,-0.189226116444,0.211420543958
1589275811721461672,8621,1589275811721285711,,0.500976228338,-0.189175678988,0.211412606476
1589275811724346760,8622,1589275811724275437,,0.500975591201,-0.189133486542,0.211407560489
1589275811727386588,8623,1589275811727248681,,0.500973367394,-0.189087637941,0.211398153115
1589275811733455939,8624,1589275811733305755,,0.500974902701,-0.189040717831,0.211392707016
1589275811739521316,8625,1589275811739379203,,0.500973402232,-0.188996041687,0.211381306544
1589275811742735782,8626,1589275811742657004,,0.500973592847,-0.188944714155,0.21137132826
1589275811751413979,8627,1589275811751253955,,0.500974887158,-0.188835787576,0.211349630871
1589275811757361102,8628,1589275811757233473,,0.500976628138,-0.188780060951,0.21134109724
1589275811760417893,8629,1589275811760256339,,0.500977636735,-0.188719817574,0.211333594702
1589275811766513408,8630,1589275811766337045,,0.500976226745,-0.188663026368,0.211322424217
1589275811769364581,8631,1589275811769291308,,0.500977169579,-0.188607515013,0.211317033389
1589275811775394271,8632,1589275811775245441,,0.500978732592,-0.188548753838,0.211309588039
1589275811781354984,8633,1589275811781256846,,0.500976208856,-0.188492531656,0.211298048957
1589275811784382887,8634,1589275811784251190,,0.500977407321,-0.188436092347,0.211288640562
1589275811790352002,8635,1589275811790260482,,0.500977669466,-0.188380957157,0.211282485657
1589275811796337734,8636,1589275811796236183,,0.500976641608,-0.188331940551,0.211274294777
1589275811799372510,8637,1589275811799272202,,0.500974945269,-0.188293396769,0.211264839543
1589275811802345231,8638,1589275811802251822,,0.5009748602,-0.18825253931,0.211259424358
1589275811808393104,8639,1589275811808271682,,0.50097444366,-0.188201643347,0.211249374458
1589275811814416314,8640,1589275811814234319,,0.500972740719,-0.188159129653,0.211241275225
1589275811820355235,8641,1589275811820243063,,0.50097076796,-0.188122251132,0.211233821032
1589275811826486459,8642,1589275811826266589,,0.500970165616,-0.18807487535,0.211227575847
1589275811838459392,8643,1589275811838253022,,0.500967368622,-0.187986721257,0.211213336519
1589275811841508538,8644,1589275811841336731,,0.500967325797,-0.18794586978,0.211206808421
1589275811844536061,8645,1589275811844419086,,0.50096689434,-0.187904907754,0.211199670995
1589275811850368948,8646,1589275811850238566,,0.500966699419,-0.187859264242,0.21119011538
1589275811856378386,8647,1589275811856269546,,0.500967231628,-0.187814677559,0.211181241367
1589275811862469586,8648,1589275811862280291,,0.500966474557,-0.187771302109,0.211174285073
1589275811868421130,8649,1589275811868276827,,0.500965428975,-0.18772107776,0.211163376105
1589275811874592623,8650,1589275811874410278,,0.500966603441,-0.1876678464,0.211155382379
1589275811880420133,8651,1589275811880294799,,0.500966255118,-0.187612698249,0.211148898708
1589275811886387093,8652,1589275811886272291,,0.500964344982,-0.187558954222,0.211131066738
1589275811898442669,8653,1589275811898305277,,0.500966500276,-0.18743962169,0.211115486314
1589275811904476740,8654,1589275811904335830,,0.500964699104,-0.187386499433,0.211105060117
1589275811910381535,8655,1589275811910306785,,0.50096633548,-0.187324208276,0.211095421202
1589275811916437374,8656,1589275811916266843,,0.500965401822,-0.187279009555,0.211083266805
1589275811922425672,8657,1589275811922271006,,0.500967292146,-0.187225890083,0.211077158861
1589275811928462551,8658,1589275811928298174,,0.500966159257,-0.187168924648,0.211065544526
1589275811934552061,8659,1589275811934356346,,0.500966949183,-0.187116914033,0.211053604009
1589275811940622328,8660,1589275811940388861,,0.500966939353,-0.187070859865,0.211048604334
1589275811943564033,8661,1589275811943486123,,0.500964482696,-0.187018634399,0.211040483425
1589275811946749986,8662,1589275811946624380,,0.500961812096,-0.186968369862,0.211031413891
1589275811958410564,8663,1589275811958283237,,0.500958868534,-0.186887293097,0.211017904388
1589275811964413645,8664,1589275811964282027,,0.500958184595,-0.186851876232,0.211016606844
1589275811970454087,8665,1589275811970347915,,0.500957468515,-0.186819113957,0.211012171668
1589275811976406706,8666,1589275811976306338,,0.500954513089,-0.18678449411,0.211000162197
1589275811982413905,8667,1589275811982322460,,0.500951995274,-0.186747067007,0.21099237308
1589275811988528659,8668,1589275811988328378,,0.500951381091,-0.186706232419,0.210987215883
1589275811994519008,8669,1589275811994402915,,0.500948781842,-0.186666059121,0.210981158
1589275812000538921,8670,1589275812000388631,,0.500946884324,-0.186636344346,0.210978160022
1589275812006475886,8671,1589275812006376560,,0.500945717489,-0.186603369987,0.210971314869
1589275812018529760,8672,1589275812018415976,,0.500944909284,-0.18650543011,0.210951594579
1589275812024518729,8673,1589275812024409248,,0.5009448703,-0.186465735041,0.210944689213
1589275812030597158,8674,1589275812030410263,,0.500943813118,-0.186407915046,0.210935941774
1589275812036560808,8675,1589275812036443515,,0.500943418367,-0.186349281554,0.210922528811
1589275812042847365,8676,1589275812042736045,,0.500943051895,-0.186297281326,0.210912757785
1589275812051642737,8677,1589275812051400472,,0.500942627024,-0.186192055141,0.210892401344
1589275812057551252,8678,1589275812057388537,,0.500943124208,-0.186141413993,0.210883526731
1589275812063543574,8679,1589275812063376081,,0.500944404312,-0.186089616448,0.210871045976
1589275812069502945,8680,1589275812069371373,,0.500944138951,-0.186038824483,0.210859899407
1589275812075644036,8681,1589275812075425517,,0.500944498837,-0.185985404415,0.210847833115
1589275812081560831,8682,1589275812081408522,,0.500944171428,-0.185938392342,0.210839325041
1589275812087620099,8683,1589275812087418819,,0.500945140066,-0.185901965244,0.2108386483
1589275812093495878,8684,1589275812093379790,,0.500944816081,-0.185865173937,0.210834351489
1589275812099912915,8685,1589275812099838552,,0.500943472837,-0.185818811167,0.210824673203
1589275812105470501,8686,1589275812105378998,,0.500942575564,-0.185782426218,0.21081890742
1589275812111454793,8687,1589275812111331113,,0.5009412089,-0.185752615888,0.210816426441
1589275812117418438,8688,1589275812117343702,,0.500938681885,-0.185712364613,0.210810060003
1589275812123495322,8689,1589275812123409871,,0.500937175016,-0.185674638649,0.210801012775
1589275812129578786,8690,1589275812129470649,,0.50093597264,-0.18564137704,0.21079519212
1589275812135514009,8691,1589275812135399190,,0.500933354308,-0.185605373071,0.210787681961
1589275812141521605,8692,1589275812141436738,,0.500931369721,-0.185571998365,0.210777514067
1589275812144600625,8693,1589275812144515621,,0.500929185825,-0.185537827225,0.210769022751
1589275812150520646,8694,1589275812150410305,,0.500929843913,-0.185499676494,0.210761498303
1589275812156562764,8695,1589275812156387486,,0.500928487302,-0.185457756851,0.210749333898
1589275812162671780,8696,1589275812162466269,,0.500928304708,-0.185414747253,0.210740754435
1589275812168471114,8697,1589275812168322977,,0.50092834053,-0.185369153293,0.21073482717
1589275812174481486,8698,1589275812174366310,,0.500928124175,-0.185331408378,0.210728072008
1589275812180518795,8699,1589275812180388510,,0.500929482042,-0.185290164972,0.21072398037
1589275812186503453,8700,1589275812186417397,,0.500929706958,-0.185233039744,0.210711624399
1589275812192579975,8701,1589275812192475965,,0.500931295135,-0.185185204048,0.210704443863
1589275812198570949,8702,1589275812198364946,,0.500932910965,-0.185141952619,0.210700723097
1589275812204613395,8703,1589275812204441009,,0.500933638168,-0.185086643134,0.210692182308
1589275812210446399,8704,1589275812210329209,,0.500934826693,-0.185032075207,0.210681385501
1589275812216584108,8705,1589275812216400708,,0.50093436663,-0.184986222705,0.210674320787
1589275812222488657,8706,1589275812222359056,,0.500934790994,-0.184951580127,0.210667742114
1589275812228707851,8707,1589275812228437491,,0.500935348732,-0.184920000518,0.210662217748
1589275812234518155,8708,1589275812234334669,,0.500934670044,-0.184878814235,0.210651382946
1589275812240538142,8709,1589275812240391271,,0.500934957544,-0.184846530281,0.210643700126
1589275812243736515,8710,1589275812243603570,,0.500935084671,-0.184822121895,0.210640516207
1589275812246836815,8711,1589275812246715608,,0.500933632848,-0.18478803262,0.210635646574
1589275812258561068,8712,1589275812258398236,,0.500930024797,-0.184730644894,0.21062524836
1589275812264505483,8713,1589275812264334853,,0.500928439169,-0.184705521527,0.210625224364
1589275812270434953,8714,1589275812270305980,,0.500927002404,-0.184678719884,0.210620876147
1589275812276486001,8715,1589275812276302718,,0.5009260127,-0.184653276685,0.210616986708
1589275812282627737,8716,1589275812282454429,,0.500925096315,-0.184624534738,0.210614350874
1589275812288504686,8717,1589275812288403063,,0.500924587284,-0.184593799753,0.210609931185
1589275812294599109,8718,1589275812294401359,,0.50092624089,-0.184556106442,0.210605206385
1589275812300452023,8719,1589275812300363672,,0.500925826996,-0.184514535001,0.210599992592
1589275812306477394,8720,1589275812306343277,,0.500924996006,-0.18446945937,0.210590645772
1589275812318596950,8721,1589275812318439694,,0.500924011567,-0.184376664402,0.210574079829
1589275812324586486,8722,1589275812324394882,,0.500924368584,-0.184326617542,0.210563369318
1589275812330614895,8723,1589275812330442411,,0.500925053072,-0.184270116752,0.21055426465
1589275812336633919,8724,1589275812336451284,,0.500925357913,-0.184214953437,0.210545111895
1589275812342847855,8725,1589275812342767694,,0.500927953101,-0.1841571654,0.210537710472
1589275812351559629,8726,1589275812351456939,,0.50092980022,-0.184037215064,0.210515669055
1589275812357631222,8727,1589275812357490871,,0.500932314104,-0.183972611452,0.21050862562
1589275812363581228,8728,1589275812363455987,,0.500933951549,-0.183911631202,0.210500456501
1589275812369508828,8729,1589275812369387905,,0.500934491741,-0.183852649536,0.210487872859
1589275812375515724,8730,1589275812375416762,,0.500935708723,-0.183795095049,0.210481281547
1589275812381574573,8731,1589275812381413675,,0.500936821633,-0.18373575196,0.210470770732
1589275812387626843,8732,1589275812387438445,,0.50093651261,-0.183685190255,0.210461608809
1589275812393539302,8733,1589275812393434017,,0.500936143129,-0.183633848389,0.210454608436
1589275812399805408,8734,1589275812399706678,,0.500937000654,-0.183589323828,0.210446649913
1589275812405542522,8735,1589275812405452081,,0.500933741262,-0.18354887609,0.210438824815
1589275812411502048,8736,1589275812411407578,,0.500932218989,-0.183505040743,0.21043741508
1589275812417606253,8737,1589275812417469668,,0.500930457686,-0.183470189044,0.210429399093
1589275812423607050,8738,1589275812423455690,,0.500927840635,-0.183436213699,0.210422979719
1589275812429495590,8739,1589275812429398490,,0.500926127281,-0.183400910952,0.210417482915
1589275812435553780,8740,1589275812435449521,,0.500925007196,-0.183366660727,0.210412429042
1589275812441629655,8741,1589275812441459309,,0.500923129704,-0.183333445047,0.210404218467
1589275812444673807,8742,1589275812444531598,,0.500921470329,-0.18329864235,0.210396746023
1589275812450585567,8743,1589275812450429295,,0.500922214449,-0.18326152741,0.210392273163
1589275812456621197,8744,1589275812456454373,,0.500920116389,-0.183224296422,0.210383074064
1589275812462530244,8745,1589275812462428010,,0.500921233551,-0.183176680747,0.210377245751
1589275812468526921,8746,1589275812468414551,,0.500921617463,-0.183133615056,0.210368353669
1589275812474578256,8747,1589275812474441134,,0.500921805948,-0.183084722979,0.210355885611
1589275812480572404,8748,1589275812480443918,,0.500923281924,-0.183036544273,0.210344879847
1589275812486543276,8749,1589275812486450786,,0.500925392272,-0.182983705762,0.210336272633
1589275812498570102,8750,1589275812498448140,,0.500929698617,-0.182874495502,0.210315116662
1589275812504693910,8751,1589275812504523496,,0.500932295829,-0.182814788281,0.210303395477
1589275812510524625,8752,1589275812510413650,,0.500934437698,-0.182757110599,0.21029307297
1589275812516569446,8753,1589275812516438693,,0.500936506384,-0.18269785704,0.210281467836
1589275812522704711,8754,1589275812522472247,,0.500939283124,-0.182651291145,0.210273105591
1589275812528634539,8755,1589275812528463610,,0.500941738891,-0.182598937507,0.210263525647
1589275812534599382,8756,1589275812534456632,,0.500943794374,-0.182538812144,0.210250941651
1589275812540568020,8757,1589275812540394335,,0.500945272059,-0.182497723421,0.210242913159
1589275812546889507,8758,1589275812546718202,,0.500945014627,-0.182456407276,0.210236532445
1589275812558844690,8759,1589275812558508362,,0.500946151143,-0.182373344839,0.210227959416
1589275812564602111,8760,1589275812564468501,,0.50094240468,-0.182343363967,0.210222722383
1589275812570505956,8761,1589275812570376726,,0.500941216741,-0.182315214829,0.210218682057
1589275812576611705,8762,1589275812576466876,,0.500939442274,-0.182291523318,0.210214134193
1589275812582589938,8763,1589275812582494143,,0.500936467522,-0.182265643175,0.210205650123
1589275812588574043,8764,1589275812588461117,,0.500934361552,-0.182237796491,0.210199231557
1589275812594579372,8765,1589275812594487430,,0.500933522665,-0.182208256178,0.210194017211
1589275812600543640,8766,1589275812600448308,,0.500931105146,-0.182179007902,0.210187561653
1589275812606582145,8767,1589275812606424883,,0.500928865671,-0.182146454963,0.210179875543
1589275812613306098,8768,1589275812613201801,,0.500927176297,-0.182120568718,0.21017529992
1589275812618623142,8769,1589275812618449438,,0.500926973559,-0.182079927768,0.210170419421
1589275812624666119,8770,1589275812624509350,,0.500925489443,-0.182035349298,0.210159043504
1589275812630647043,8771,1589275812630497776,,0.500925106335,-0.181997265985,0.210153345998
1589275812636672412,8772,1589275812636466519,,0.500925643419,-0.181948734232,0.210147682481
1589275812642982734,8773,1589275812642773697,,0.500926765655,-0.181897161592,0.210140956134
1589275812651546602,8774,1589275812651460690,,0.50092635421,-0.181802702947,0.210127464321
1589275812657595317,8775,1589275812657427363,,0.500927718959,-0.181763002525,0.210120804541
1589275812663515448,8776,1589275812663376906,,0.500928861945,-0.181724437322,0.210116192852
1589275812669544736,8777,1589275812669429253,,0.500928778637,-0.181669590908,0.210104539034
1589275812675654301,8778,1589275812675501795,,0.50093043127,-0.181624836975,0.210095020658
1589275812681671036,8779,1589275812681514173,,0.500930506053,-0.181588333695,0.21008682596
1589275812687608540,8780,1589275812687467220,,0.500929682876,-0.181541118984,0.210077354472
1589275812693720602,8781,1589275812693488269,,0.500928347799,-0.18150006353,0.210067956398
1589275812699967909,8782,1589275812699801014,,0.500926337579,-0.181462458333,0.210060483261
1589275812705617256,8783,1589275812705520925,,0.5009246581,-0.181429178289,0.210053779684
1589275812711611108,8784,1589275812711475360,,0.500922848378,-0.18140449875,0.210048772917
1589275812717559939,8785,1589275812717468975,,0.500918934417,-0.181381194949,0.210040979822
1589275812723627526,8786,1589275812723482496,,0.50091624373,-0.181360265611,0.210035563091
1589275812729576755,8787,1589275812729447988,,0.500914676285,-0.18133986436,0.210032004862
1589275812735594055,8788,1589275812735482946,,0.500912028621,-0.181317529326,0.210027997822
1589275812741646290,8789,1589275812741514698,,0.500911021686,-0.181295957674,0.210024447861
1589275812747630375,8790,1589275812747477655,,0.500907210541,-0.181270418512,0.210020149674
1589275812753636048,8791,1589275812753463963,,0.500903998926,-0.181242038936,0.2100141256
1589275812760050085,8792,1589275812759954601,,0.500901859212,-0.181212212215,0.210007733185
1589275812765670843,8793,1589275812765579077,,0.500900109318,-0.181184288554,0.210003845728
1589275812771733121,8794,1589275812771520584,,0.500898345023,-0.181150768716,0.209995686073
1589275812777636353,8795,1589275812777486173,,0.500897750133,-0.181114977622,0.20998820093
1589275812783619585,8796,1589275812783475166,,0.500896559488,-0.181074621231,0.209980214608
1589275812789601966,8797,1589275812789484819,,0.500896176137,-0.181035980113,0.209970907627
1589275812795655664,8798,1589275812795508951,,0.500893888493,-0.180998429356,0.209961696113
1589275812801736025,8799,1589275812801564666,,0.500893231652,-0.180955018578,0.209952793393
1589275812807633435,8800,1589275812807511758,,0.50089340954,-0.180909581402,0.209946883018
1589275812813684464,8801,1589275812813527137,,0.50089172206,-0.180868725963,0.209935313468
1589275812819899751,8802,1589275812819750786,,0.500892640329,-0.180823683027,0.209930123974
1589275812825601383,8803,1589275812825474507,,0.500892264963,-0.18078051537,0.209919533261
