%time,field.header.seq,field.header.stamp,field.header.frame_id,field.wrench.force.x,field.wrench.force.y,field.wrench.force.z,field.wrench.torque.x,field.wrench.torque.y,field.wrench.torque.z
1588857310577302236,749,1588857310577236348,,0.074887789764,-0.248960951842,0.677868418078,0.153450564425,0.00157432643345,-0.0165997754837
1588857310580307884,750,1588857310580246567,,0.0748878685546,-0.248961952471,0.677868041872,0.154382319543,0.0015734605364,-0.0174552142713
1588857310583330621,751,1588857310583223311,,0.0529875839525,-0.248858237285,0.677323616524,0.154363280187,0.00157300424304,-0.0167292332925
1588857310586313798,752,1588857310586210356,,0.0529892146744,-0.248856606669,0.677324088058,0.154340830795,0.00157237103816,-0.0158647756693
1588857310592320048,753,1588857310592253160,,0.0529903223849,-0.248858099779,0.67732345281,0.154340788083,0.00157179326163,-0.0158652484366
1588857310595542572,754,1588857310595415875,,0.030673951636,-0.249254109925,0.699939414839,0.15415904157,0.00157114044293,-0.014263960783
1588857310598351961,755,1588857310598258474,,0.0306749186797,-0.24925447944,0.699939240871,0.154159026202,0.00157133942958,-0.0142641049522
1588857310604914693,756,1588857310604829877,,0.0310103373317,-0.248769935492,0.676818657788,0.153390707359,0.00157194381577,-0.0142732026372
1588857310610415239,757,1588857310610329417,,0.0527002943911,-0.249340771239,0.700438586475,0.153258167297,0.00157271158853,-0.0150036682087
1588857310613318533,758,1588857310613258106,,0.0529929397903,-0.248861595907,0.677321963495,0.152491933595,0.00220275007237,-0.0150117665837
1588857310616379636,759,1588857310616294675,,0.0526972293557,-0.249342478207,0.700438209433,0.154179417815,0.00220033532344,-0.0149927215935
1588857310619282689,760,1588857310619221397,,0.0306740836727,-0.24925471196,0.699939194662,0.153239758441,0.00157204545668,-0.0142745994955
1588857310622380247,761,1588857310622303131,,0.0306697534685,-0.249256078733,0.699938897694,0.153239853388,0.00157236429677,-0.0142735450752
1588857310628508465,762,1588857310628400635,,0.0310056282195,-0.248771721332,0.676818217131,0.153390804537,0.00157189225974,-0.0142721639345
1588857310631415706,763,1588857310631286835,,0.0310018933493,-0.248773163693,0.676817858061,0.153390871462,0.00157142664095,-0.0142714959127
1588857310639123373,764,1588857310639048479,,0.0526891481721,-0.249340053823,0.7004396804,0.154179583352,0.00219991558057,-0.0149910807801
1588857310643306386,765,1588857310643242414,,0.0526877596587,-0.249342640625,0.700438864001,0.154179607011,0.00219967097759,-0.0149908733445
1588857310646379190,766,1588857310646260593,,0.052685757606,-0.249342630033,0.700439018365,0.154179649484,0.00219965220599,-0.0149904392622
1588857310649314147,767,1588857310649252600,,0.0306585369841,-0.249256431542,0.699939263446,0.15415932205,0.00156970450827,-0.014261087275
1588857310652220286,768,1588857310652153299,,0.0306571649835,-0.249257766665,0.699938848086,0.154159355333,0.00156996681228,-0.0142606986126
1588857310655548346,769,1588857310655454842,,0.0301554661095,-0.375848220292,0.725867663335,0.155835154959,0.00092794735458,-0.0142412327123
1588857310661563792,770,1588857310661424515,,0.030156948561,-0.375850427373,0.725866458933,0.15583513552,0.00092822474973,-0.0142414273443
1588857310664571284,771,1588857310664479859,,0.0303166099574,-0.249718545087,0.723073428456,0.154925824689,0.000929642915459,-0.0142520327005
1588857310667370631,772,1588857310667261999,,0.0306565958041,-0.24925553427,0.699939667998,0.154159353148,0.00156931337667,-0.0142607941543
1588857310673562100,773,1588857310673470548,,0.0306548207287,-0.249252902324,0.699940682999,0.154159384409,0.00156904344733,-0.0142604859141
1588857310676272641,774,1588857310676210493,,0.0526809304435,-0.249339696293,0.700440425785,0.156008195709,0.00219637150082,-0.0149691899937
1588857310679280211,775,1588857310679221337,,0.0526797098435,-0.249338210724,0.700441046411,0.156008214008,0.00219594915977,-0.0149690612445
1588857310685437408,776,1588857310685379273,,0.0746186733383,-0.249436792427,0.700979607779,0.155130069731,0.00219800775393,-0.0165796444406
1588857310688410936,777,1588857310688326665,,0.0746168486147,-0.249435468705,0.700980273049,0.155130110084,0.00219785756435,-0.0165792867754
1588857310694364815,778,1588857310694300899,,0.0526169290319,-0.375366700636,0.703356443311,0.155087149113,0.001567624795,-0.0149780916548
1588857310697448419,779,1588857310697345273,,0.0526147730983,-0.375362554161,0.703358817461,0.155087198539,0.00156762197855,-0.0149775801663
1588857310700623919,780,1588857310700554109,,0.0746442815158,-0.375473032938,0.703874356394,0.155107683508,0.00219686556001,-0.0157035478633
1588857310703777676,781,1588857310703676729,,0.0746365177309,-0.375472501731,0.703875463048,0.155107868938,0.00219716397262,-0.0157016744638
1588857310709556014,782,1588857310709459501,,0.0526635122488,-0.249323192882,0.700447610191,0.154158256797,0.00219781029036,-0.0141213137149
1588857310715525390,783,1588857310715417510,,0.0522812790031,-0.37591842558,0.726361188932,0.153985842451,0.00219754384051,-0.0132571031635
1588857310721360827,784,1588857310721278526,,0.0304808364677,-0.375256861729,0.702881615676,0.153220959919,0.00219875397907,-0.0134009006057
1588857310724505894,785,1588857310724433550,,0.0526500205661,-0.249318015519,0.70045046729,0.154158524285,0.00219745994059,-0.0141184478597
1588857310730508734,786,1588857310730409149,,0.0525919881909,-0.37534801497,0.703368280455,0.153215659998,0.00156890801008,-0.013264662509
1588857310736562769,787,1588857310736457387,,0.0304684551434,-0.375247444378,0.702887180172,0.154136630854,0.000928028610041,-0.0133885601091
1588857310741174393,788,1588857310741113096,,0.0304662245643,-0.375247606201,0.702887190467,0.15413667909,0.000928174702582,-0.013387994651
1588857310745399937,789,1588857310745352212,,0.0304630789081,-0.375244569637,0.702888947916,0.154138586628,0.00156669051845,-0.0133871659524
1588857310748305166,790,1588857310748249658,,0.0304563967595,-0.375241489891,0.702890881632,0.154138677269,0.00156561651746,-0.0133862479314
1588857310751378834,791,1588857310751298953,,0.0304519431103,-0.375242854295,0.702890346201,0.154138730798,0.00156477513443,-0.0133857299341
1588857310754356875,792,1588857310754280321,,0.0525652149934,-0.375334604861,0.703377437853,0.154178887594,0.00156521317794,-0.0149786462929
1588857310757432147,793,1588857310757323053,,0.0525573323304,-0.375335455578,0.703377572942,0.155088241333,0.00156267037852,-0.0149672962989
1588857310760316689,794,1588857310760246704,,0.0525479093084,-0.375337358856,0.703377261353,0.155088405164,0.00156181915455,-0.0149656874819
1588857310763575317,795,1588857310763504521,,0.0525381721291,-0.375335241583,0.703379118548,0.154157368606,0.00156044618885,-0.0141104183069
1588857310766354490,796,1588857310766220612,,0.0525310946612,-0.375334885891,0.703379836959,0.154157398371,0.00155752188782,-0.0141104162168
1588857310769272897,797,1588857310769221976,,0.0298962212664,-0.503195565052,0.729084710762,0.155816966523,0.00155292542009,-0.0133606396197
1588857310772375968,798,1588857310772276263,,0.0521442149055,-0.503293353501,0.729551835807,0.15492787941,0.00218573510799,-0.0140996611562
1588857310778329460,799,1588857310778243116,,0.0521609327442,-0.503292831584,0.729551000771,0.154927798832,0.00219074148008,-0.0140997695785
1588857310781374934,800,1588857310781297294,,0.0521526309061,-0.503289669301,0.729553775824,0.156776244001,0.00155730360586,-0.0149431983739
1588857310784609922,801,1588857310784551304,,0.0521444428656,-0.503279532802,0.729561353757,0.157685629031,0.001554831766,-0.0149315648295
1588857310790431832,802,1588857310790341214,,0.0521422720164,-0.503279075388,0.729561824454,0.15768570542,0.00155540260953,-0.0149306986393
1588857310793418737,803,1588857310793319385,,0.0297475997778,-0.631726589876,0.732325207851,0.156780075669,0.00155763197955,-0.015086960671
1588857310796457718,804,1588857310796371907,,0.0520952055839,-0.631831131124,0.732772715995,0.156798662495,0.00155856190562,-0.0158167418375
1588857310802844816,805,1588857310802754603,,0.074025217181,-0.761972186311,0.759033335057,0.15945861752,0.00155374205168,-0.0182510242647
1588857310809699488,806,1588857310809621669,,0.0740274756792,-0.761982076043,0.759023186637,0.159458380813,0.00155222617553,-0.0182532212169
1588857310814515151,807,1588857310814438191,,0.0512940275278,-0.762406114561,0.781442154635,0.16109954904,0.0021793889203,-0.0166409718836
1588857310817392722,808,1588857310817337662,,0.0513026168396,-0.762404141266,0.781443516005,0.162061671287,0.00154929982616,-0.0183752652025
1588857310820324496,809,1588857310820237514,,0.051314416984,-0.762399865057,0.781446913227,0.163003241421,0.00154908777642,-0.0192347689404
1588857310823433260,810,1588857310823282660,,0.05132108044,-0.762389799804,0.781456295437,0.163026138957,0.0015503301576,-0.0201030369867
1588857310826300928,811,1588857310826215107,,0.0512118505578,-0.892550636119,0.784167264565,0.164876899415,0.0015462239132,-0.0209546766306
1588857310829454415,812,1588857310829385262,,0.0512103644969,-0.892556858254,0.784160279433,0.164876787827,0.0015452625538,-0.0209556255268
1588857310835651275,813,1588857310835571237,,0.0733010093332,-0.893133854924,0.80737294848,0.16568776663,0.00154387226694,-0.0225571845081
1588857310841629025,814,1588857310841552227,,0.0962293711851,-0.892781016564,0.785053498111,0.165872266523,0.00154399730096,-0.0241594815712
1588857310847306089,815,1588857310847248860,,0.0732326169241,-1.02381056586,0.809800696425,0.167538668238,0.0015399711149,-0.0234108985552
1588857310850468748,816,1588857310850383256,,0.0732353912284,-1.02380903487,0.809802381117,0.16849536363,0.00153984330415,-0.0251515199837
1588857310853454363,817,1588857310853377911,,0.0732431112382,-1.02380298608,0.809809330166,0.169436271935,0.000897434345468,-0.0260136530295
1588857310856479069,818,1588857310856396350,,0.0732553075866,-1.02380050405,0.809811364886,0.169436313432,0.00089968144244,-0.0260133051233
1588857310859553009,819,1588857310859484943,,0.0728772409262,-1.02422790148,0.832582561798,0.17020416815,0.000899024902927,-0.0260053382394
1588857310862507058,820,1588857310862383143,,0.0727627086452,-1.15530093436,0.834757075255,0.172056040484,0.000896226898825,-0.0268563195613
1588857310865519550,821,1588857310865422332,,0.0727604592812,-1.1553042926,0.834752623517,0.1720560892,0.000896221227529,-0.0268560076456
1588857310871605683,822,1588857310871501644,,0.0946396214173,-1.2875006229,0.88281549586,0.174557691679,0.000892480914818,-0.028442732047
1588857310874370820,823,1588857310874305288,,0.0946413213404,-1.28750052727,0.882815453095,0.17455744648,0.000891644587867,-0.0284442630599
1588857310878272995,824,1588857310878192985,,0.0950401985714,-1.28715835042,0.860012235089,0.175665722813,0.000890839422672,-0.0301918953899
1588857310883409881,825,1588857310883296534,,0.0950487347317,-1.28715760895,0.860012401455,0.175665691525,0.000891897950681,-0.0301920461809
1588857310886392988,826,1588857310886327817,,0.0946843728702,-1.28750003739,0.882811551188,0.177366023907,0.000890881012054,-0.0310522323528
1588857310889388108,827,1588857310889326002,,0.117365595291,-1.28759852186,0.883254673263,0.178355444672,0.00089025056295,-0.0335352967596
1588857310895397869,828,1588857310895318174,,0.117357272739,-1.2876091341,0.883240308531,0.179298904025,0.000888335051085,-0.0344017764149
1588857310898393652,829,1588857310898340538,,0.116976942975,-1.28796426095,0.906035135995,0.181023568264,0.000240259192784,-0.0361486179031
1588857310901454878,830,1588857310901371324,,0.139767714127,-1.2880713206,0.906484029238,0.182014442,0.000239171741302,-0.038631653878
1588857310907548707,831,1588857310907482232,,0.139745460586,-1.41961524058,0.908245766244,0.182922220026,0.000236210055105,-0.0386250074327
1588857310910428711,832,1588857310910348859,,0.162480066553,-1.41971683502,0.908703614569,0.183914359312,0.000234956818003,-0.0411154470077
1588857310913694589,833,1588857310913570633,,0.16209995652,-1.42002104047,0.931538798406,0.185615229845,0.000231282523968,-0.0419799250039
1588857310919399974,834,1588857310919326647,,0.162105923811,-1.42002812345,0.931526962738,0.185615293329,0.000232607447713,-0.0419796369869
1588857310922540758,835,1588857310922447943,,0.13894027966,-1.55195065025,0.955595174466,0.187305930417,-0.000405864896068,-0.0421079890324
1588857310925565765,836,1588857310925449868,,0.138943073122,-1.55195178895,0.95559291896,0.187305835866,-0.000405734463654,-0.042108410872
1588857310931498147,837,1588857310931396348,,0.139010607571,-1.42023147078,0.95401350359,0.188249663938,-0.000405833830289,-0.042979183465
1588857310934432474,838,1588857310934338546,,0.139019473634,-1.42023302697,0.954009894973,0.18824935837,-0.000405480175028,-0.042980525178
1588857310937535557,839,1588857310937339733,,0.139027512929,-1.42022907384,0.954014608437,0.189183441613,-0.000406482862458,-0.043861623893
1588857310943406733,840,1588857310943290907,,0.161742882998,-1.5520437086,0.956046770614,0.191974797665,-0.000412031628513,-0.0454559014535
1588857310946883071,841,1588857310946819050,,0.161767835496,-1.55204760115,0.956036229631,0.191973754754,-0.000411460344607,-0.0454603109469
1588857310952451257,842,1588857310952390400,,0.161390243833,-1.55234298332,0.978868015778,0.19276663376,-0.000412726007909,-0.0463348387409
1588857310955541482,843,1588857310955475078,,0.160615684157,-1.55290809875,1.02460606697,0.195259618945,-0.00105657207302,-0.0480847984955
1588857310958544250,844,1588857310958447380,,0.11514351824,-1.28966076887,1.02038049049,0.187918431116,-0.000402236458241,-0.046652394632
1588857310961390545,845,1588857310961330169,,0.115164248308,-1.28965415205,1.020386514,0.1879178442,-0.000401364617784,-0.0466547662085
1588857310967521147,846,1588857310967448956,,0.139514152792,-1.28837825743,0.929338604002,0.185805049342,-0.00102622127494,-0.0482850065483
1588857310970558061,847,1588857310970488281,,0.230908766973,-1.1568363682,0.883759374739,0.18534174092,-0.000385473278028,-0.0530028024014
1588857310973505633,848,1588857310973428063,,0.208266149618,-1.15664873732,0.883328731397,0.185373282958,-0.000391621174191,-0.0540277439914
1588857310981125179,849,1588857310981012554,,0.163049298193,-1.28775189801,0.884220480873,0.188966866998,-0.00102887875946,-0.0525436112884
1588857310985497653,850,1588857310985404760,,0.163085188222,-1.28779576808,0.884149967116,0.188967818889,-0.00101836987346,-0.0525403925482
1588857310988573089,851,1588857310988489688,,0.185053841028,-1.28861352776,0.930215327238,0.189701762988,-0.00166158280436,-0.0559182237972
1588857310991554607,852,1588857310991469160,,0.185046802859,-1.28864676101,0.930170688169,0.189701363438,-0.00166167285359,-0.0559195765708
1588857310994558874,853,1588857310994480514,,0.207487048149,-1.28914164708,0.953529691534,0.193224355637,-0.00101960421023,-0.0566444082104
1588857310997494335,854,1588857310997407420,,0.18472084183,-1.28899073824,0.953093212779,0.193198995931,-0.00166471314606,-0.0559044748028
1588857311003874203,855,1588857311003808538,,0.162037772994,-1.28885213316,0.9526633072,0.19412016258,-0.00166439645946,-0.0560404111587
1588857311009506924,856,1588857311009440307,,0.185088582028,-1.28862985127,0.930185802009,0.195171399694,-0.00101796816279,-0.0558904280948
1588857311012550796,857,1588857311012464078,,0.206778769442,-1.28977998449,0.999282122122,0.198386692312,-0.000390159134588,-0.0557327650872
1588857311015413475,858,1588857311015317304,,0.183950542747,-1.42109068941,1.00055039608,0.197475047523,-0.000397141772584,-0.0558738940325
1588857311018378215,859,1588857311018290441,,0.206668501359,-1.28979366923,0.999287270427,0.197443191234,-0.000403748325941,-0.0548547004033
1588857311024472349,860,1588857311024360725,,0.206726387163,-1.42120961271,1.00101888742,0.197442976053,-0.000408778175063,-0.0548554376623
1588857311027539685,861,1588857311027420355,,0.229533336963,-1.55295957386,1.00307087365,0.200207561645,0.000219234652301,-0.0555788769258
1588857311030630332,862,1588857311030527195,,0.206697152008,-1.55282449833,1.00265464281,0.201117697828,-0.000427507855352,-0.0557137668925
1588857311036553307,863,1588857311036459899,,0.206297846407,-1.55310884645,1.02552643773,0.201883880375,-0.000432657168032,-0.0557092409712
1588857311039624023,864,1588857311039522438,,0.206305261368,-1.55311992715,1.0255081647,0.204731610173,-0.00107722920089,-0.0592324203414
1588857311042465950,865,1588857311042411883,,0.206298827859,-1.55312387566,1.02550347893,0.204731033769,-0.00107926338529,-0.0592343755654
1588857311049176374,866,1588857311049052532,,0.205929217907,-1.68520221291,1.04990522957,0.209283574894,-0.00108817794039,-0.0636356126241
1588857311054614920,867,1588857311054530140,,0.205937165447,-1.68520233378,1.04990347671,0.209282886378,-0.00108861486838,-0.0636378694859
1588857311057642570,868,1588857311057530350,,0.229129636333,-1.55324649544,1.02594028775,0.211355643289,-0.00239315944122,-0.0670345321428
1588857311063628927,869,1588857311063561620,,0.22914810316,-1.55325666177,1.02592077149,0.212300913429,-0.00174105368242,-0.0679137032165
1588857311066593064,870,1588857311066515898,,0.252075978913,-1.553371877,1.02638307335,0.214203024189,-0.00174008331865,-0.0704283011441
1588857311069435760,871,1588857311069296026,,0.252103436273,-1.55335497056,1.02640191618,0.214203304753,-0.00173661744123,-0.0704275333707
1588857311072483716,872,1588857311072331277,,0.251641829278,-1.4220418014,1.04782916249,0.214973670169,-0.00173448240238,-0.0704189302224
1588857311075465746,873,1588857311075348747,,0.27459681963,-1.55376370954,1.04982322146,0.215931270236,-0.00172854751244,-0.0720424140614
1588857311078345430,874,1588857311078253599,,0.251453236431,-1.55393330486,1.07222397592,0.21667388785,-0.00172407683069,-0.0712935840083
1588857311084428495,875,1588857311084327154,,0.22854671168,-1.55382175884,1.07175628549,0.216650405603,-0.00237274567409,-0.0705440215643
1588857311087742680,876,1588857311087599936,,0.274113553101,-1.42249324044,1.07114936117,0.218549325193,-0.00237508239603,-0.0729140049131
1588857311093388837,877,1588857311093295831,,0.273768542466,-1.42279623612,1.09404267855,0.220286234508,-0.00237826283056,-0.0746784367733
1588857311096425608,878,1588857311096297637,,0.273402958864,-1.42308534245,1.11696702314,0.22384485456,-0.00303020920619,-0.0764413687094
1588857311099817957,879,1588857311099691785,,0.273394350268,-1.42308306864,1.11697202723,0.223845037623,-0.00303134564478,-0.0764407875808
1588857311102658811,880,1588857311102581532,,0.273498123584,-1.55458462409,1.1185388809,0.224808157255,-0.00303309620345,-0.07820599815
1588857311108326385,881,1588857311108259171,,0.273085931369,-1.55488409549,1.14153487878,0.227425624519,-0.00304664878669,-0.0790811669379
1588857311111467128,882,1588857311111336647,,0.295621293649,-1.55526993972,1.1649520411,0.231978652142,-0.00306403557004,-0.0833793499416
1588857311114555092,883,1588857311114447144,,0.29565071532,-1.68693715955,1.16638062085,0.234731426593,-0.00373488636676,-0.0842558722199
1588857311120488202,884,1588857311120382559,,0.295621691073,-1.68692529885,1.16640513129,0.234729051839,-0.00374485986749,-0.0842620451794
1588857311123670153,885,1588857311123560963,,0.318113560912,-1.68729594879,1.18980870873,0.239307241787,-0.00376099226668,-0.0894457396991
1588857311126542589,886,1588857311126440753,,0.31810581693,-1.68729766738,1.18980834201,0.239307869105,-0.00376077206145,-0.0894440705864
1588857311132502038,887,1588857311132424167,,0.318160444056,-1.95102396127,1.19236581687,0.244879254084,-0.00508408731623,-0.0929868378479
1588857311135519101,888,1588857311135409455,,0.31816261443,-1.95100864861,1.19239029292,0.24487823103,-0.0050867459055,-0.0929893866032
1588857311141503996,889,1588857311141447855,,0.317753471401,-1.95123107382,1.21533708508,0.247547437096,-0.00509858215436,-0.095657403892
1588857311144497718,890,1588857311144445438,,0.317720572744,-1.95121828551,1.21536621739,0.24754899957,-0.00510135250311,-0.0956532126316
1588857311147483675,891,1588857311147427112,,0.340728304944,-1.95134428516,1.21580896538,0.248544894915,-0.00510142577417,-0.0981883751855
1588857311153621910,892,1588857311153503385,,0.340372645474,-1.95156945316,1.23884214011,0.25110445685,-0.00576190658303,-0.0972741826414
1588857311156676527,893,1588857311156602179,,0.340420883396,-1.95156186861,1.23884083383,0.254884929256,-0.00576538258531,-0.101731757974
1588857311159341740,894,1588857311159285163,,0.362997901577,-1.95190495456,1.2622336638,0.256616254028,-0.00576499928347,-0.103363094208
1588857311165365740,895,1588857311165314395,,0.36303139804,-1.95191253354,1.26221231006,0.256618145487,-0.00575636508409,-0.103358879446
1588857311168376551,896,1588857311168309947,,0.362692062879,-1.95215449403,1.28512856664,0.259284765342,-0.00641512736854,-0.106034922129
1588857311171523448,897,1588857311171442572,,0.385677332092,-1.95229521537,1.28553676503,0.260212885925,-0.00640764190666,-0.106780564026
1588857311177676868,898,1588857311177592200,,0.38537688436,-1.95252065448,1.30857266167,0.262855126999,-0.00640670649117,-0.108556027273
1588857311180621100,899,1588857311180505700,,0.362104660678,-1.95265549424,1.33103250926,0.264594006416,-0.00706185282161,-0.110487295367
1588857311184912501,900,1588857311184840140,,0.385055031226,-1.9527861108,1.33146319529,0.267435466364,-0.0070642777209,-0.113913087558
1588857311189377884,901,1588857311189296703,,0.407747446558,-1.95314755239,1.35486163073,0.270069320004,-0.00706805420066,-0.115550270731
1588857311192327290,902,1588857311192265725,,0.407761807583,-1.95315903432,1.3548407563,0.273789629092,-0.00707843331933,-0.118228091888
1588857311195366746,903,1588857311195275215,,0.40773574203,-1.95317663549,1.35482322657,0.273845305355,-0.00772621791679,-0.120024845422
1588857311201541035,904,1588857311201485056,,0.407327192386,-1.95341646923,1.37779017824,0.275579191589,-0.00773654147469,-0.12180616197
1588857311204399530,905,1588857311204275519,,0.430203449096,-1.95352190586,1.37829414272,0.280187345105,-0.00710790591652,-0.123430561827
1588857311207465793,906,1588857311207384191,,0.453294096344,-2.0855727502,1.37985434088,0.280291380697,-0.00711416662317,-0.126874981496
1588857311213573021,907,1588857311213506318,,0.429828504044,-2.08564997662,1.40250491762,0.28378856991,-0.00713025364783,-0.127003855991
1588857311216393472,908,1588857311216328419,,0.429791077163,-2.08565614782,1.40250721026,0.283788372081,-0.00713560079011,-0.127003997724
1588857311222534299,909,1588857311222469241,,0.452033125357,-2.08619302238,1.44897746147,0.286307115109,-0.00780635762385,-0.129540428822
1588857311225744460,910,1588857311225645842,,0.451992964734,-2.0861744207,1.44901677117,0.286307493717,-0.00781342078282,-0.129539166194
1588857311231634951,911,1588857311231567559,,0.451974140039,-2.21814808383,1.45008654915,0.289122756617,-0.00848929508667,-0.132221929573
1588857311234543209,912,1588857311234463035,,0.451903285877,-2.21815705841,1.45009490363,0.289125237341,-0.00849471489432,-0.132216156864
1588857311237478170,913,1588857311237403594,,0.474878493096,-2.21826616134,1.45057059614,0.290106125876,-0.00915908974019,-0.134768077345
1588857311240463043,914,1588857311240395904,,0.474888721761,-2.35033653156,1.45154801772,0.291981599806,-0.00916443502102,-0.136547719143
1588857311246568999,915,1588857311246481478,,0.474531035777,-2.48267737818,1.47543100439,0.298348732401,-0.00918175381573,-0.141019834086
1588857311249517211,916,1588857311249433430,,0.474586979083,-2.48267272649,1.47542083799,0.298348900616,-0.0091745073409,-0.141019949833
1588857311254055527,917,1588857311253972638,,0.474235973468,-2.48284707472,1.49852067695,0.301949558175,-0.00982891726772,-0.144597408664
1588857311258547987,918,1588857311258456220,,0.474337942908,-2.48284150169,1.49849763685,0.301945841076,-0.00982091923096,-0.144605713896
1588857311261554990,919,1588857311261448610,,0.473668707137,-2.35110256391,1.54354952802,0.307232791398,-0.00981909703592,-0.148174043329
1588857311264643652,920,1588857311264502894,,0.496473442807,-2.35140524439,1.56699432126,0.309921501223,-0.0104717910714,-0.151617461474
1588857311270650675,921,1588857311270546956,,0.4965107394,-2.35139533879,1.56699736822,0.309920642641,-0.0104686129544,-0.151619435957
1588857311276544368,922,1588857311276457624,,0.54147168111,-2.3521857594,1.63705733924,0.318820965571,-0.0111449512455,-0.159388551829
1588857311279576692,923,1588857311279471263,,0.54150259903,-2.35217771352,1.63705867317,0.31882309202,-0.0111377876567,-0.159384799025
1588857311282631744,924,1588857311282526848,,0.564679117818,-2.35226894033,1.63753338508,0.321593946327,-0.0111416737531,-0.161029258909
1588857311285660648,925,1588857311285578901,,0.541600435871,-2.35215325738,1.63706144717,0.324410812152,-0.0117958469612,-0.163863381587
1588857311288795295,926,1588857311288528940,,0.541599721435,-2.35210136049,1.63713624719,0.324411737775,-0.0117997334432,-0.163861269236
1588857311294650026,927,1588857311294550601,,0.563929600536,-2.35258314544,1.68378021105,0.32880495528,-0.0118200997957,-0.168204012609
1588857311297761430,928,1588857311297585905,,0.563937399215,-2.35256700366,1.68380015225,0.328804212451,-0.0118216557686,-0.168205355332
1588857311300879250,929,1588857311300776273,,0.563522950343,-2.35272647465,1.70688708589,0.330496044819,-0.0125021335968,-0.169099188429
1588857311306619760,930,1588857311306502503,,0.586459479667,-2.35282562408,1.70739863951,0.331459547278,-0.0118588513458,-0.170759382639
1588857311309649032,931,1588857311309529333,,0.60919391029,-2.4851056558,1.7318951729,0.335058395212,-0.0112330241213,-0.174198565786
1588857311312637761,932,1588857311312535445,,0.586056519332,-2.6170703103,1.73234133559,0.337752919596,-0.0119077341196,-0.173431342975
1588857311318707655,933,1588857311318596350,,0.586015295012,-2.61708651479,1.73233080096,0.33775118405,-0.0119145964637,-0.173434251571
1588857311324741856,934,1588857311324614754,,0.562523069687,-2.61714532656,1.7550412201,0.344897174353,-0.0126071817648,-0.173534699179
1588857311327679079,935,1588857311327552739,,0.562185813089,-2.61736818875,1.77799363303,0.352894562487,-0.0132924056964,-0.171672719411
1588857311330575006,936,1588857311330492320,,0.56218753835,-2.61742478128,1.7779097753,0.356514811164,-0.0126299487247,-0.170736254095
1588857311333570249,937,1588857311333481866,,0.538203644195,-2.74979369579,1.82440642251,0.364354503791,-0.0126565403378,-0.168094404128
1588857311336642214,938,1588857311336481352,,0.53822046298,-2.74979925236,1.82439308579,0.364355080881,-0.0126527189661,-0.168093440932
1588857311342693124,939,1588857311342577097,,0.514838685104,-2.74987741023,1.84705977983,0.366852108027,-0.0126461693039,-0.164596088064
1588857311345663018,940,1588857311345588581,,0.514386229606,-2.88220724033,1.8709452015,0.372155419962,-0.0126605652893,-0.163643072606
1588857311348665950,941,1588857311348579899,,0.491096030851,-2.75011048293,1.89270697393,0.375590036692,-0.0119936989899,-0.161055184228
1588857311356279792,942,1588857311356209932,,0.491139218913,-2.75008676928,1.89273022327,0.375591805358,-0.0119864808056,-0.161051596919
1588857311360608784,943,1588857311360519219,,0.513390990139,-2.88265989,1.94022262177,0.380749467278,-0.0113370752495,-0.159937245429
1588857311363617651,944,1588857311363521976,,0.536191179978,-2.75076579462,1.96291334906,0.38333743705,-0.011329719629,-0.159762187483
1588857311366633951,945,1588857311366502020,,0.489613818318,-2.88288949387,1.98589261206,0.388624329198,-0.0119980953925,-0.158199898144
1588857311369638191,946,1588857311369498232,,0.489635341236,-2.8829148045,1.9858505619,0.388625939889,-0.0119901947021,-0.158196540376
1588857311375665374,947,1588857311375578178,,0.489674674812,-2.88292862661,1.98582079712,0.391343239894,-0.0113364686667,-0.157268096395
1588857311378661285,948,1588857311378572759,,0.466162073965,-2.88298153059,2.00846244579,0.396617959545,-0.0120004447325,-0.155546322208
1588857311381645315,949,1588857311381533895,,0.46570301606,-3.01537572725,2.03234101669,0.403754644744,-0.0113577716555,-0.154570640831
1588857311384744951,950,1588857311384578445,,0.465700963049,-3.01537327229,2.03234512953,0.403751905909,-0.0113632404371,-0.154577392843
1588857311390681694,951,1588857311390578084,,0.465297312173,-3.01552867242,2.05542499322,0.4072126665,-0.0113743210283,-0.152727718638
1588857311393550202,952,1588857311393465500,,0.464862275834,-3.01568153862,2.07851795837,0.417902775802,-0.0114124118354,-0.148096772938
1588857311396537562,953,1588857311396467920,,0.464873208984,-3.01568647859,2.0785083458,0.417901671336,-0.0114127085407,-0.148099866644
1588857311403051205,954,1588857311402905979,,0.441236258858,-3.14798375521,2.10189424074,0.420416925614,-0.0107606151708,-0.144597397739
1588857311408715628,955,1588857311408595911,,0.440811376762,-3.14813701035,2.12507954709,0.423852655302,-0.0101095494077,-0.141843385888
1588857311411629412,956,1588857311411531078,,0.416626145772,-3.28059356957,2.17156080148,0.429780364932,-0.00948174086589,-0.13468174775
1588857311414575855,957,1588857311414485886,,0.416628281098,-3.28059194021,2.1715628533,0.429781398248,-0.00947934763985,-0.134678618778
1588857311417610251,958,1588857311417430091,,0.393057518384,-3.28062825059,2.19437499633,0.431384380473,-0.00949549975346,-0.13119726869
1588857311425573940,959,1588857311424607059,,0.39308822018,-3.28061299786,2.19439229977,0.433186072568,-0.00950215686398,-0.130271379947
1588857311429544791,960,1588857311429432452,,0.369223765389,-3.41300909417,2.21768808447,0.436561570514,-0.00951823877617,-0.124944579935
1588857311432534719,961,1588857311432468958,,0.345903786998,-3.54524670216,2.21793945828,0.441903401206,-0.00887520526564,-0.118693963421
1588857311435561736,962,1588857311435485146,,0.345958639566,-3.5452486125,2.21792784934,0.441904508742,-0.00886572989966,-0.118690548087
1588857311438487274,963,1588857311438419612,,0.345583993609,-3.5453658838,2.24104716489,0.444435309743,-0.00886922289169,-0.115951769077
1588857311441518670,964,1588857311441456966,,0.345585859909,-3.54535425813,2.24106526895,0.448088261504,-0.00888178062366,-0.115910176608
1588857311447568615,965,1588857311447477179,,0.322524659116,-3.54527658999,2.24063429478,0.449855098754,-0.00887930807734,-0.113316877638
1588857311450506785,966,1588857311450422122,,0.298915155346,-3.54530717835,2.26335073881,0.453308991455,-0.00888741261299,-0.110697096858
1588857311453644086,967,1588857311453559377,,0.321996277533,-3.67771111938,2.26444337907,0.456051684654,-0.00822736171711,-0.110525169818
1588857311459622524,968,1588857311459553008,,0.298418933421,-3.67772111269,2.28728598568,0.459499116913,-0.00889605119037,-0.107913743152
1588857311462529662,969,1588857311462451742,,0.298453836222,-3.67766440741,2.28737260562,0.459498867507,-0.00889509875861,-0.107914883635
1588857311465511640,970,1588857311465457341,,0.321488250392,-3.54547743405,2.31032191778,0.462122924654,-0.00823434844209,-0.108641231761
1588857311471608781,971,1588857311471530443,,0.297684019921,-3.67782118628,2.33373286024,0.46556860631,-0.00824295614976,-0.106018904398
1588857311474513227,972,1588857311474431423,,0.29768398787,-3.67781479583,2.33374293525,0.465568190487,-0.00824438672322,-0.10602061918
1588857311477525709,973,1588857311477450808,,0.297222691583,-3.67793545764,2.35686727365,0.467235086358,-0.00825384365831,-0.105092535791
1588857311483506968,974,1588857311483436792,,0.297199117279,-3.67791690422,2.35689919914,0.468101996157,-0.00826201810803,-0.103268912969
1588857311486639172,975,1588857311486549966,,0.273624449716,-3.67800787247,2.37963568929,0.470673721581,-0.00827084389919,-0.101573270442
1588857311489468994,976,1588857311489398373,,0.272957411821,-3.81051227812,2.40335178552,0.474101135468,-0.00695888078251,-0.0978994220967
1588857311495531576,977,1588857311495474683,,0.272892231585,-3.81050772976,2.40336639877,0.4741012739,-0.0069665954112,-0.0978982030254
1588857311498461305,978,1588857311498413831,,0.272406488462,-3.81066445167,2.42643513411,0.476637867071,-0.00697779299266,-0.0951396414872
1588857311501664667,979,1588857311501598593,,0.272100930221,-3.94306100283,2.42702904993,0.47934511474,-0.00699405478675,-0.0932844438901
1588857311507617481,980,1588857311507555831,,0.248407099806,-3.94312892237,2.4496951771,0.484593842642,-0.0063446269702,-0.088827524986
1588857311510493188,981,1588857311510436167,,0.248382381962,-3.94317125993,2.44962953394,0.48459314095,-0.00634837375426,-0.0888310852565
1588857311513545061,982,1588857311513480813,,0.248348637694,-3.94319856844,2.4495889962,0.486382335748,-0.0063550811159,-0.0869981038189
1588857311519564625,983,1588857311519486623,,0.224910835328,-4.07555193187,2.44972952741,0.48817333236,-0.00636935953846,-0.0853072296531
1588857311522555792,984,1588857311522471580,,0.200832387311,-4.07572652815,2.49562827422,0.493335878691,-0.00571454789794,-0.0835666436166
1588857311527069304,985,1588857311526956593,,0.201307185293,-4.07560768811,2.4725081914,0.495294299157,-0.00637987980547,-0.0826376221326
1588857311531467910,986,1588857311531349905,,0.20095491361,-4.07573452288,2.49560535439,0.496983230763,-0.00571009310252,-0.0826135947637
1588857311534638201,987,1588857311534561845,,0.200942471621,-4.07571229996,2.49564264954,0.499720031907,-0.006385035711,-0.0825725943562
1588857311540482827,988,1588857311540414950,,0.200615883078,-4.07587480837,2.51868175294,0.502307729768,-0.00637948403559,-0.0816317650811
1588857311543494387,989,1588857311543388136,,0.200061850249,-3.94371708229,2.56444947853,0.507524364362,-0.00638847247825,-0.0824592056685
1588857311546461904,990,1588857311546397693,,0.200106146431,-3.94375164488,2.5643928698,0.507525395467,-0.0063778861489,-0.0824536786612
1588857311552438192,991,1588857311552381700,,0.200212980219,-3.94372679932,2.56442274048,0.509352834334,-0.00637462702646,-0.082435086536
1588857311555508860,992,1588857311555438425,,0.222410645301,-4.07647273744,2.61158540258,0.5136728154,-0.00638427009896,-0.0840388779523
1588857311558527465,993,1588857311558423054,,0.222493258196,-4.07649490044,2.61154377062,0.51550178338,-0.00637676668531,-0.0840111612214
1588857311564643531,994,1588857311564514788,,0.198982061657,-4.20885703725,2.61164732017,0.520991252211,-0.00639044570925,-0.0840700895467
1588857311567519331,995,1588857311567411837,,0.199022501073,-4.20889461546,2.61158367773,0.520990834666,-0.00638594899791,-0.0840730187518
1588857311570590601,996,1588857311570492818,,0.19884882198,-4.07661939654,2.63423761564,0.52266275039,-0.0063885791257,-0.0831438519249
1588857311576542061,997,1588857311576477262,,0.19855171269,-4.20905990719,2.63473572881,0.524472156449,-0.00640018523316,-0.0822136486167
1588857311579515445,998,1588857311579395937,,0.174997203441,-4.20913715901,2.65740496902,0.530673571475,-0.00640835703251,-0.079538453264
1588857311582464834,999,1588857311582406370,,0.150812935133,-4.2093224627,2.70322771465,0.536696389609,-0.00643210727798,-0.0750536580241
1588857311588489863,1000,1588857311588413585,,0.150703975099,-4.20934159385,2.70320400115,0.536696197692,-0.00644568775716,-0.0750538653097
1588857311591593397,1001,1588857311591520244,,0.173106495799,-4.20966478427,2.7499528415,0.543694138827,-0.00514612376738,-0.0729939019142
1588857311595510811,1002,1588857311595447767,,0.126405986478,-4.07725517555,2.7717310089,0.546202923186,-0.00582646274641,-0.0687195698369
1588857311600727143,1003,1588857311600660666,,0.126398349961,-4.07726745387,2.77171329549,0.546202491301,-0.00582935010907,-0.0687227576375
1588857311603845497,1004,1588857311603738102,,0.147987315997,-4.21007072772,2.84218904399,0.555771356667,-0.00453910505476,-0.0657085689472
1588857311606475095,1005,1588857311606382400,,0.147986235882,-4.21000663746,2.84228403337,0.555770332718,-0.00454634413052,-0.0657167286526
1588857311612655977,1006,1588857311612570085,,0.124053933673,-4.21016649775,2.88815905416,0.559119773389,-0.00455478036524,-0.0649169097571
1588857311615597026,1007,1588857311615516489,,0.10057389331,-4.34254318352,2.88820723474,0.561814412821,-0.00523609111381,-0.0623000435644
1588857311621528786,1008,1588857311621442835,,0.123785684707,-4.34256392143,2.88868524826,0.564542312278,-0.00457686365672,-0.0612058569052
1588857311629276955,1009,1588857311629210260,,0.077018459095,-4.34253422953,2.91111878906,0.569840489039,-0.00525764908922,-0.0587116014552
1588857311633534317,1010,1588857311633453613,,0.0771937057271,-4.34254040807,2.91110493074,0.569839669352,-0.00524081419229,-0.0587210615264
1588857311636572524,1011,1588857311636464827,,0.0772533732877,-4.34251343327,2.91114358627,0.571703204633,-0.00590127048609,-0.0605191644064
1588857311639587028,1012,1588857311639516258,,0.0773582513742,-4.34250382895,2.91115512782,0.571702759156,-0.00589112825696,-0.0605243605724
1588857311645590410,1013,1588857311645508797,,0.0777305360905,-4.21006955623,2.9106808499,0.570818814376,-0.00588071037708,-0.0623542819205
1588857311648540751,1014,1588857311648449713,,0.100667074151,-4.21024235559,2.93424335376,0.575280582081,-0.00522432181846,-0.0639654052581
1588857311651477917,1015,1588857311651412843,,0.124336292192,-4.21015279943,2.91156034904,0.573653570955,-0.00521197261185,-0.0665654800674
1588857311657571361,1016,1588857311657444882,,0.12433784586,-4.21010496694,2.91162944786,0.575481193084,-0.00587712604123,-0.0665390786917
1588857311660525074,1017,1588857311660450946,,0.124434788842,-4.2100828,2.91165735873,0.575517719421,-0.0058655900934,-0.0683606908553
1588857311664188121,1018,1588857311664098702,,0.124511356582,-4.21011860498,2.91160231286,0.57736683264,-0.00519840807675,-0.0692350112036
1588857311669512982,1019,1588857311669412504,,0.146827148938,-4.21040313395,2.95831750131,0.577106957015,-0.00586145811611,-0.0709047411964
1588857311672576901,1020,1588857311672470485,,0.146798921457,-4.21038179681,2.95834926984,0.578955714733,-0.00586285452624,-0.0717711149154
1588857311675542816,1021,1588857311675424540,,0.146837562896,-4.21044842818,2.9582525187,0.578956549265,-0.00585168075138,-0.0717652946573
1588857311681485586,1022,1588857311681405009,,0.146140106327,-4.34293620822,2.9819494951,0.58157370259,-0.00585761051406,-0.0726324226203
1588857311684543005,1023,1588857311684370567,,0.146053321133,-4.34295196267,2.98193080201,0.581574115858,-0.00586613956984,-0.0726284250963
1588857311687533551,1024,1588857311687429325,,0.145575500566,-4.34304797654,3.0052052303,0.583248371003,-0.00587154362292,-0.0716758783467
1588857311693479614,1025,1588857311693383820,,0.14549775274,-4.34304197006,3.00521767586,0.585058221146,-0.00655273056097,-0.070738902622
1588857311702954729,1026,1588857311702852766,,0.144297072607,-4.47563368101,3.05208387744,0.595733714613,-0.00659033288135,-0.0696591261284
1588857311705476969,1027,1588857311705411240,,0.144167388272,-4.47563395993,3.0520895969,0.59573334516,-0.00660866539211,-0.0696605489044
1588857311708449446,1028,1588857311708369942,,0.143630195642,-4.47577985598,3.07529242883,0.599245080232,-0.00662611459235,-0.0695954849887
1588857311711437695,1029,1588857311711362662,,0.143181746136,-4.47583885436,3.09851849588,0.600916867034,-0.00596471617691,-0.0686591478752
1588857311717522289,1030,1588857311717460630,,0.142876276932,-4.60825279545,3.09902481527,0.60368282914,-0.00664323390453,-0.0695185191027
1588857311720559692,1031,1588857311720415743,,0.142887843852,-4.60823825308,3.09904590639,0.603683020184,-0.00664107488969,-0.0695170663854
1588857311723550372,1032,1588857311723484969,,0.166362934361,-4.47585404498,3.09901187858,0.605546520336,-0.0066518491994,-0.0711506595382
1588857311729564377,1033,1588857311729487971,,0.165621396629,-4.6082823543,3.12280880969,0.605413570377,-0.00666239951722,-0.0720591172424
1588857311732563397,1034,1588857311732486960,,0.142635800586,-4.47574432288,3.12196910144,0.605434284974,-0.00732487711273,-0.0731113369903
1588857311735518265,1035,1588857311735422167,,0.143181093578,-4.4756273096,3.09882408212,0.605586191374,-0.00730395267054,-0.0731038540543
1588857311741635425,1036,1588857311741561676,,0.166548499037,-4.47569477331,3.0992319331,0.602944697623,-0.00728771657233,-0.0784516577594
1588857311744555573,1037,1588857311744386330,,0.166530848333,-4.47566143011,3.09928103293,0.60294522744,-0.00728814245102,-0.0784475461485
1588857311747499474,1038,1588857311747413212,,0.166665271685,-4.47573020999,3.09917447978,0.601134680782,-0.00792768736379,-0.0793847399142
1588857311753442031,1039,1588857311753382096,,0.166883573935,-4.47579859664,3.09906396781,0.601154369244,-0.00722978016292,-0.0802936756627
1588857311756680102,1040,1588857311756511358,,0.190488933293,-4.47578331943,3.07628309918,0.600418921359,-0.00789324477441,-0.0819697401024
1588857311759591921,1041,1588857311759513708,,0.190519621864,-4.47579165741,3.0762690675,0.600457660966,-0.00721944136775,-0.0837900633693
1588857311766418983,1042,1588857311766317377,,0.190141954228,-4.47594895525,3.09934838127,0.603973058108,-0.00789258525138,-0.0837389011819
1588857311771507429,1043,1588857311771449457,,0.190116570408,-4.47596905974,3.0993209042,0.603973936799,-0.0078911300375,-0.0837327004671
1588857311774634917,1044,1588857311774563184,,0.189416482688,-4.60850302346,3.12295818899,0.606571515269,-0.0079023890951,-0.0836917076257
1588857311777543279,1045,1588857311777469949,,0.189587167887,-4.47608837494,3.12246623723,0.607480413291,-0.00857006318808,-0.083672632563
1588857311780503786,1046,1588857311780421220,,0.189200587556,-4.60849490292,3.12298325944,0.609273989125,-0.00793095162816,-0.0818173793502
1588857311783573456,1047,1588857311783492506,,0.188688788716,-4.60856653936,3.14619373963,0.610044191676,-0.00727518030049,-0.0818013394077
1588857311789565807,1048,1588857311789471142,,0.188684492746,-4.6085634791,3.14619847994,0.610925753857,-0.00794573607931,-0.0799733247812
1588857311792679132,1049,1588857311792588360,,0.164534945641,-4.60873983079,3.19215984359,0.61518223569,-0.00730191752658,-0.0782267217776
1588857311795617907,1050,1588857311795544039,,0.140729722739,-4.60879158471,3.21489060984,0.618619466948,-0.0073208461123,-0.0746850073057
1588857311800414893,1051,1588857311800306431,,0.140680546589,-4.60876531098,3.21493042717,0.618619526822,-0.00732734170545,-0.0746838743606
1588857311804898335,1052,1588857311804820243,,0.140103794989,-4.6088702521,3.23809682,0.621227520998,-0.00735288858206,-0.0746386455478
1588857311810622663,1053,1588857311810480579,,0.139362999724,-4.74141937156,3.26180874756,0.628325194033,-0.00670452344722,-0.0708753513203
1588857311813560414,1054,1588857311813486001,,0.115021979711,-4.87404061498,3.30812148576,0.63349693904,-0.00672439763168,-0.0691294385544
1588857311816496400,1055,1588857311816440159,,0.137788708839,-4.87418773504,3.33172521889,0.635172508737,-0.00672945889754,-0.0689545993554
1588857311822552216,1056,1588857311822491195,,0.114670175361,-4.87413828021,3.33128612196,0.636986335809,-0.00672543549639,-0.0681677567707
1588857311825463401,1057,1588857311825404390,,0.137513394715,-4.87425383885,3.35503286914,0.641442280917,-0.00672805214463,-0.0688553932137
1588857311828497306,1058,1588857311828440295,,0.114722334265,-4.87410692349,3.33133020497,0.641564510033,-0.00673133547495,-0.068095284203
1588857311834609327,1059,1588857311834543023,,0.114058709823,-5.00664472656,3.35506608739,0.642354776605,-0.00672802337307,-0.0689871571385
1588857311837647627,1060,1588857311837551297,,0.137132609958,-4.87439914535,3.37813088553,0.645887745667,-0.00739374717348,-0.0696777865845
1588857311840476243,1061,1588857311840414035,,0.137183653605,-4.87432517231,3.3782355484,0.646843859303,-0.00739087946644,-0.0714861074609
1588857311846704696,1062,1588857311846619378,,0.137185395668,-4.87430701061,3.37826168232,0.648689644087,-0.00806665942017,-0.0723656595738
1588857311849511866,1063,1588857311849447553,,0.136805935447,-4.87445826176,3.40135205256,0.650403923604,-0.00806759343698,-0.074166074943
1588857311852704148,1064,1588857311852634459,,0.136876597753,-4.8744865946,3.40130860569,0.651323708429,-0.00805950191568,-0.0741510631984
1588857311858515771,1065,1588857311858455923,,0.136889844905,-4.8744649635,3.40133907236,0.651323866908,-0.00805741362159,-0.0741498980959
1588857311861484711,1066,1588857311861403899,,0.136904990812,-4.87445993856,3.40134566399,0.652231250333,-0.00872299903662,-0.074143244595
1588857311870535335,1067,1588857311870467140,,0.159966346157,-4.74224604909,3.42440239472,0.654890996289,-0.00873767327841,-0.0766757639899
1588857311873473818,1068,1588857311873402454,,0.160045834637,-4.74221985648,3.42443495289,0.656700849134,-0.00873969893656,-0.0757506100349
1588857311876528035,1069,1588857311876451683,,0.159723572247,-4.87459079664,3.42497875051,0.657628727436,-0.00874962823866,-0.0766410486994
1588857311882498930,1070,1588857311882418998,,0.159616295231,-4.87460352531,3.4249656356,0.65942161977,-0.00876796169778,-0.0747973470988
1588857311885646575,1071,1588857311885571756,,0.159181918469,-4.87470713128,3.44822871615,0.662961176051,-0.00877504594544,-0.0756421220013
1588857311888547495,1072,1588857311888487499,,0.158756608158,-4.87483919107,3.47135237663,0.663729682894,-0.00877803696829,-0.0756303902419
1588857311894617298,1073,1588857311894547601,,0.158666456112,-4.87484610393,3.47134679063,0.66373019382,-0.00878631797295,-0.0756249445901
1588857311897543898,1074,1588857311897457310,,0.134888748114,-4.87478957806,3.49422950131,0.667230411386,-0.00947856516136,-0.0748080778893
1588857311900593385,1075,1588857311900502209,,0.13489653786,-4.87480235941,3.49421136929,0.667230390879,-0.00947743056131,-0.0748084045461
1588857311906695764,1076,1588857311906610871,,0.158248167092,-4.87491510089,3.49455956471,0.667247590074,-0.00879672556226,-0.0755690489186
1588857311909476462,1077,1588857311909421048,,0.180320606853,-5.00757311532,3.54192493006,0.669731021615,-0.00880713319021,-0.0771974938303
1588857311912538716,1078,1588857311912486770,,0.157132948057,-5.00750179133,3.54151759837,0.670636287885,-0.00880245099576,-0.0764148157118
1588857311918780201,1079,1588857311918684714,,0.157207886427,-5.00752570553,3.54148045908,0.670636503155,-0.00879136566622,-0.076414202594
1588857311921578115,1080,1588857311921417621,,0.18038693773,-5.00758732251,3.54190146628,0.669713647961,-0.00945642984133,-0.0762745614792
1588857311927703957,1081,1588857311927581145,,0.15724143719,-5.00752270526,3.54148321185,0.669736914215,-0.00877403255571,-0.0773211582417
1588857311930643198,1082,1588857311930582167,,0.157505240864,-4.87509047122,3.54103022542,0.669772918048,-0.0094398442092,-0.0791389047133
1588857311933532089,1083,1588857311933469775,,0.180767409335,-4.87514792297,3.54145290316,0.66980719501,-0.00942800977346,-0.0808022047447
1588857311939547841,1084,1588857311939449603,,0.181181290203,-4.87503292633,3.51830319379,0.669976948522,-0.00942633124657,-0.0817031647238
1588857311942500585,1085,1588857311942428382,,0.204032280378,-4.87518350247,3.54191390143,0.670779883065,-0.00943019339397,-0.0833680979137
1588857311945480562,1086,1588857311945425007,,0.180701566557,-4.87512484428,3.54148803315,0.670763838344,-0.0100999900854,-0.0825981065824
1588857311954518254,1087,1588857311954458804,,0.204049124123,-4.87513129891,3.54198478436,0.671726847026,-0.0100903385135,-0.085152836602
1588857311957458595,1088,1588857311957395815,,0.203982685802,-4.87512869804,3.54199219095,0.671727695196,-0.0100943824901,-0.0851456662243
1588857311963526074,1089,1588857311963454898,,0.204655333262,-4.74261964192,3.51834618293,0.669167658065,-0.0100838376794,-0.0870059621237
1588857311966454980,1090,1588857311966400691,,0.20462374008,-4.74263004584,3.51833399632,0.669168018852,-0.0100858062769,-0.0870029590655
1588857311970888605,1091,1588857311970746217,,0.204602017817,-4.74262504848,3.5183419959,0.669188619786,-0.00941416027936,-0.0879033455015
1588857311975502980,1092,1588857311975456043,,0.204576248569,-4.74261830716,3.51835258146,0.669189352941,-0.0094138576453,-0.0878977963848
1588857311978773119,1093,1588857311978612593,,0.204682606161,-4.87488606732,3.495620634,0.667507872028,-0.00941869932363,-0.0879242150392
1588857311981565800,1094,1588857311981500896,,0.205072266275,-4.87477553336,3.47246929721,0.664909859952,-0.00941787261539,-0.0879676231431
1588857311987562003,1095,1588857311987494946,,0.205048162841,-4.874753801,3.47250122903,0.664909880457,-0.00942139830218,-0.087967090619
1588857311990503280,1096,1588857311990447980,,0.205149596863,-4.87476229904,3.47248330822,0.663051229925,-0.00940920320975,-0.0870984028902
1588857311993431768,1097,1588857311993382055,,0.205294882834,-4.87475883214,3.47247958881,0.662154282029,-0.0100810647475,-0.0880534272345
1588857311999443611,1098,1588857311999392395,,0.205349783979,-4.87477667282,3.47245129721,0.661213190685,-0.0100871404355,-0.0871838041327
1588857312002704377,1099,1588857312002647918,,0.20540854866,-4.87479901788,3.47241645235,0.661212775358,-0.0100812469643,-0.0871876356107
1588857312005805939,1100,1588857312005747837,,0.205390743296,-4.87480384838,3.4724107242,0.661212402466,-0.010085249937,-0.0871900005689
1588857312011508067,1101,1588857312011452815,,0.204984539987,-4.87490285563,3.49557952877,0.661070319598,-0.0100891594855,-0.0871996970717
1588857312014631191,1102,1588857312014570329,,0.182135413362,-4.87473144433,3.47200090002,0.659365349235,-0.0100875727716,-0.0864723086793
1588857312020581982,1103,1588857312020520854,,0.182181233912,-4.8747388024,3.4719881652,0.659364357613,-0.0100866341283,-0.0864799791035
1588857312023645867,1104,1588857312023499754,,0.18264148785,-4.8746342529,3.44882511046,0.658578130308,-0.00941280612856,-0.0855907255643
1588857312026484288,1105,1588857312026431862,,0.182713837479,-4.87461035152,3.44885506068,0.658594166533,-0.0100788500863,-0.0865053825773
1588857312032528778,1106,1588857312032443260,,0.182735068987,-4.87462292122,3.44883616972,0.656745818087,-0.010075918877,-0.085634112494
1588857312035507659,1107,1588857312035422599,,0.206034234289,-4.87466642963,3.44928289025,0.655833079662,-0.010074782006,-0.0854967361424
1588857312038867236,1108,1588857312038795426,,0.182723001337,-4.87461124441,3.44885331316,0.653996412064,-0.0100744029238,-0.0856821133541
1588857312044475171,1109,1588857312044421886,,0.183150355208,-4.87451293237,3.42558429735,0.65137655232,-0.0100683208532,-0.0848093570839
1588857312047478120,1110,1588857312047401980,,0.182768854144,-4.87460478294,3.44886001618,0.650357371408,-0.00939218262832,-0.0866498154245
1588857312050643589,1111,1588857312050502373,,0.206493459999,-4.8745474845,3.42604128743,0.647716533618,-0.00938590224315,-0.0847262198873
1588857312056538583,1112,1588857312056479396,,0.182529500835,-5.00700863177,3.44937199166,0.647590191347,-0.00938439687101,-0.0857876449213
1588857312059529085,1113,1588857312059456327,,0.183212784283,-4.87449053762,3.42561282591,0.645908914935,-0.00937830507049,-0.0858133646216
1588857312062549660,1114,1588857312062465529,,0.206957588746,-4.87445869598,3.40285732076,0.645153333952,-0.0100478014943,-0.0865985431577
1588857312068517859,1115,1588857312068449566,,0.206989199478,-4.8744808462,3.40282366853,0.645153266806,-0.0100436615117,-0.0865995236377
1588857312072925501,1116,1588857312072840464,,0.20744649414,-4.87436787338,3.37967539544,0.644385683053,-0.00936874497017,-0.0866145477243
1588857312077798568,1117,1588857312077735782,,0.184111105965,-4.87431483777,3.37924502686,0.641639806873,-0.00936674077238,-0.0868001839599
1588857312080488704,1118,1588857312080434349,,0.184121072672,-4.87431614979,3.37924259132,0.641639284366,-0.00936798706898,-0.0868039118275
1588857312083531048,1119,1588857312083431411,,0.184515557288,-4.87421300493,3.35608484467,0.639942372735,-0.00936850521066,-0.0859266652297
1588857312086750859,1120,1588857312086668359,,0.184537709633,-4.87421617656,3.35607902035,0.639040362784,-0.00936732037952,-0.0868534475823
1588857312092497178,1121,1588857312092431643,,0.184556128465,-4.87423012163,3.35605775425,0.6390406054,-0.00936354205845,-0.0868520698973
1588857312095516431,1122,1588857312095430653,,0.208266781614,-4.87418003587,3.33323247156,0.635516222244,-0.0100236682077,-0.0867628405715
1588857312098555473,1123,1588857312098497809,,0.208276349819,-4.87417397504,3.33324073643,0.633706244343,-0.0100148870419,-0.087693141182
1588857312104891766,1124,1588857312104840738,,0.208283256547,-4.87417573028,3.33323773818,0.6327786511,-0.0100100991997,-0.0867985809927
1588857312107537659,1125,1588857312107472112,,0.208693556037,-4.87407400971,3.3100789725,0.629281363488,-0.00933196064434,-0.087758868915
1588857312110622868,1126,1588857312110552475,,0.208681106524,-4.87406026722,3.31009999304,0.627472069024,-0.00866012706799,-0.0886933747371
1588857312116527737,1127,1588857312116446733,,0.185391393769,-4.87398474255,3.30969994386,0.62558986707,-0.00865814405896,-0.0861499103089
1588857312119483103,1128,1588857312119419631,,0.185810468067,-4.87388945544,3.2865324027,0.622072841292,-0.0086483407815,-0.0862040913748
1588857312122548884,1129,1588857312122494425,,0.185789787102,-4.87388452749,3.28654087996,0.620224967319,-0.0086472345047,-0.0853172951527
1588857312128579204,1130,1588857312128488300,,0.186224104033,-4.87380479694,3.2633501626,0.619437810911,-0.00864319850359,-0.0844248533836
1588857312131513767,1131,1588857312131463421,,0.186212664299,-4.87380341053,3.26335288598,0.617628108701,-0.00798258951809,-0.0853616676046
1588857312134658251,1132,1588857312134591107,,0.186664002783,-4.87371568144,3.24007383514,0.615916411275,-0.00863580836142,-0.0844865822534
1588857312140697835,1133,1588857312140636334,,0.186681937702,-4.8737122633,3.2400779434,0.614989527383,-0.0079732421067,-0.0835961981038
1588857312143727679,1134,1588857312143619097,,0.186829291639,-5.00608767068,3.21736355285,0.612399576734,-0.00862462472948,-0.0845394376613
1588857312146712164,1135,1588857312146637314,,0.186796236761,-5.00609655834,3.21735164329,0.609699842719,-0.00796087387051,-0.0864007446267
1588857312152761220,1136,1588857312152651387,,0.186795875633,-5.00610749519,3.2173346468,0.609699514711,-0.00796203797328,-0.0864029519661
1588857312155733560,1137,1588857312155658178,,0.187437643951,-4.87352421425,3.19374968241,0.605281699892,-0.00795463417627,-0.0873758520544
1588857312158597493,1138,1588857312158547735,,0.211306838495,-5.0058825144,3.14817864307,0.60194468087,-0.00860776494929,-0.0891020640929
1588857312164962554,1139,1588857312164793773,,0.211287528189,-5.00586261903,3.14821157429,0.60194484182,-0.00860988773261,-0.0891007716569
1588857312167617042,1140,1588857312167553828,,0.257775484201,-5.00598708963,3.14905227569,0.599276781639,-0.00794507898677,-0.0924869447396
1588857312170570927,1141,1588857312170499459,,0.258177713609,-5.0058896745,3.1258993288,0.596743433989,-0.00859880397123,-0.0961594371753
1588857312176582509,1142,1588857312176526880,,0.258145811191,-5.00589684914,3.12589047389,0.596744210167,-0.00859934638203,-0.0961545717578
1588857312179545487,1143,1588857312179488484,,0.258545937663,-5.00581043273,3.1027209839,0.594203296068,-0.00859564361163,-0.0989234152252
1588857312182539434,1144,1588857312182462083,,0.281982392566,-4.87338923227,3.10269853533,0.59334630277,-0.00926350284299,-0.101508890013
1588857312188572667,1145,1588857312188516723,,0.305434896421,-5.00582530965,3.08043794395,0.58901450338,-0.0085842948682,-0.105969029585
1588857312191545814,1146,1588857312191487595,,0.30545621465,-5.00582517072,3.08043605588,0.589013503627,-0.00858518296063,-0.105974514486
1588857312194579796,1147,1588857312194488676,,0.305459701602,-5.00582492383,3.08043611131,0.589030935985,-0.00925530193479,-0.106893083
1588857312200589539,1148,1588857312200503384,,0.305505245722,-5.00581550205,3.08044690548,0.588148779912,-0.00925166797946,-0.1087240477
1588857312203698410,1149,1588857312203634355,,0.30618089058,-4.87323453762,3.0567422034,0.583757920825,-0.00924043498286,-0.110613827186
1588857312209621041,1150,1588857312209524241,,0.306200926175,-4.87322844285,3.05674991306,0.583757335848,-0.00924020663797,-0.110616933402
1588857312212572697,1151,1588857312212489413,,0.375278313729,-5.00600092977,3.08171896375,0.58274793783,-0.00923680140924,-0.112920946495
1588857312215588997,1152,1588857312215520975,,0.329450463312,-4.87328486159,3.05717811705,0.581943193147,-0.00923524582911,-0.111412912065
1588857312221599999,1153,1588857312221525721,,0.306670589053,-4.87311866216,3.03361086819,0.580181668895,-0.00923074742417,-0.107951488172
1588857312227598185,1154,1588857312227527474,,0.306679260782,-4.87313705912,3.0335804389,0.578313958503,-0.00922666853644,-0.106160852334
1588857312233666465,1155,1588857312233597950,,0.283812942447,-4.87298475032,3.00998986558,0.577472110089,-0.00922212957425,-0.102682718579
1588857312236585913,1156,1588857312236520638,,0.26062802645,-4.87292235392,3.0095680936,0.575570330784,-0.00921671822986,-0.0992340817464
1588857312239629229,1157,1588857312239534185,,0.261045459126,-4.87284152564,2.98628947493,0.57382458626,-0.0078849384638,-0.0965343955419
1588857312245576005,1158,1588857312245521926,,0.261050269263,-4.8728635913,2.98625304877,0.57382578877,-0.00787944449625,-0.0965276958748
1588857312248599563,1159,1588857312248528277,,0.238812732543,-4.74020548038,2.93894166243,0.566712444398,-0.0078553876868,-0.0922293576415
1588857312251575147,1160,1588857312251486224,,0.238844793389,-4.74032214525,2.9387508803,0.566714282383,-0.00784129834352,-0.092219262335
1588857312257758832,1161,1588857312257649119,,0.216071172704,-4.74019310753,2.91512723385,0.56412180043,-0.00782759831765,-0.0923940590187
1588857312260691670,1162,1588857312260630812,,0.216762095109,-4.60763266038,2.89139635346,0.560547938381,-0.00714011871706,-0.0897112658528
1588857312263661718,1163,1588857312263604404,,0.194384082904,-4.60736654409,2.8446721926,0.552590916571,-0.00710633160428,-0.0890590632359
1588857312269785900,1164,1588857312269716237,,0.195363587961,-4.60716826896,2.79825799875,0.547433758465,-0.00706896295358,-0.0909453664637
1588857312272530549,1165,1588857312272478083,,0.19541532604,-4.60715782672,2.79827157861,0.547435392552,-0.00705759195712,-0.0909364129654
1588857312277076826,1166,1588857312277012709,,0.219137987307,-4.60710612848,2.77556147676,0.542997191141,-0.00704158163958,-0.0908461718915
1588857312281577534,1167,1588857312281516562,,0.219162031011,-4.60709597846,2.77557642613,0.54299746929,-0.00703820110405,-0.0908447713201
1588857312287658398,1168,1588857312287592306,,0.243351675777,-4.47445600963,2.72928056276,0.534220513394,-0.00768645037428,-0.0944508603873
1588857312293644707,1169,1588857312293532074,,0.243382195773,-4.47447800057,2.72924178843,0.534220093734,-0.00768356411058,-0.0944534688217
1588857312296570790,1170,1588857312296517901,,0.244001388475,-4.34192676147,2.70549923839,0.532587948643,-0.00767990399638,-0.0971996698564
1588857312299578837,1171,1588857312299502355,,0.267314402862,-4.34199625551,2.70590681869,0.531694519763,-0.00767425503772,-0.0979786908482
1588857312305893933,1172,1588857312305845795,,0.267302592266,-4.34199017625,2.7059177404,0.531753395905,-0.0076754964906,-0.100700925263
1588857312308531903,1173,1588857312308468524,,0.267917499307,-4.20945260464,2.68226395672,0.530084898715,-0.00767419357692,-0.101632750485
1588857312312019776,1174,1588857312311461618,,0.29103289868,-4.20950782312,2.68270469708,0.530160860596,-0.0076793472336,-0.105112545013
1588857312317547072,1175,1588857312317492275,,0.314705748319,-4.20943902365,2.66002806034,0.528539955997,-0.00767581727006,-0.107716732868
1588857312320618138,1176,1588857312320517032,,0.338451151908,-4.07698611592,2.63678041138,0.52690730279,-0.0083333643881,-0.11031075337
1588857312326559989,1177,1588857312326508095,,0.362344141794,-3.8121642344,2.6128927156,0.522558116121,-0.00767049401694,-0.113851594887
1588857312329705714,1178,1588857312329599730,,0.362342325004,-3.81217366042,2.6128792151,0.522557929726,-0.00767090596163,-0.113852422649
