%time,field.header.seq,field.header.stamp,field.header.frame_id,field.vector.x,field.vector.y,field.vector.z
1588857310577193043,749,1588857310577080832,,0.500027054441,-0.202050315482,0.215949619175
1588857310580192837,750,1588857310580086530,,0.500029532685,-0.202049795172,0.21594835738
1588857310583172172,751,1588857310583073138,,0.500031826729,-0.202049293492,0.215946632035
1588857310586198427,752,1588857310586072052,,0.500033446836,-0.202049163193,0.215945222978
1588857310592200121,753,1588857310592109124,,0.500035171236,-0.202049517552,0.215942370404
1588857310595314792,754,1588857310595178216,,0.500037680781,-0.202049188471,0.215940509877
1588857310598182581,755,1588857310598111695,,0.500040190939,-0.202048833514,0.215938420971
1588857310604803991,756,1588857310604688875,,0.500042079799,-0.202050049735,0.215936869464
1588857310610329275,757,1588857310610172157,,0.500043982777,-0.202048842104,0.215934367269
1588857310613178933,758,1588857310613094570,,0.50004652528,-0.202048476998,0.215933925779
1588857310616246059,759,1588857310616126239,,0.500048422644,-0.202047688153,0.21593258907
1588857310619145783,760,1588857310619072317,,0.500049809903,-0.202047779596,0.21593140456
1588857310622198481,761,1588857310622118866,,0.500052161511,-0.202046822759,0.215931842831
1588857310628273015,762,1588857310628173062,,0.500053194313,-0.202046661735,0.215929547274
1588857310631187897,763,1588857310631110282,,0.500055246728,-0.202046480486,0.215928869319
1588857310639019138,764,1588857310638922559,,0.500056379949,-0.20204735118,0.215927292366
1588857310643244798,765,1588857310643135898,,0.500058120789,-0.202045569635,0.215924621171
1588857310646231565,766,1588857310646152607,,0.500059463245,-0.202045519335,0.215924073655
1588857310649233344,767,1588857310649156111,,0.500060993791,-0.202044821871,0.215921551138
1588857310652133262,768,1588857310652055691,,0.500062160952,-0.202043797511,0.215919284012
1588857310655312655,769,1588857310655195062,,0.500063878096,-0.202043137672,0.215917560997
1588857310661298612,770,1588857310661187645,,0.500065024982,-0.20204080505,0.215914522099
1588857310664291401,771,1588857310664189129,,0.500066048667,-0.202039624037,0.215911047575
1588857310667274377,772,1588857310667101553,,0.500067143316,-0.2020397448,0.215908760163
1588857310673289075,773,1588857310673177743,,0.500068647335,-0.202038897042,0.21590656612
1588857310676187610,774,1588857310676107069,,0.500069597724,-0.202036026279,0.215902470527
1588857310679161485,775,1588857310679089441,,0.500070577643,-0.202034349552,0.215899639413
1588857310685249522,776,1588857310685172211,,0.500072444671,-0.202032203692,0.215898132174
1588857310688242481,777,1588857310688146760,,0.500073134524,-0.202029158326,0.215895057125
1588857310694265582,778,1588857310694125026,,0.500074884939,-0.202026649945,0.215893695299
1588857310697240652,779,1588857310697140688,,0.500076216072,-0.202023851327,0.215890666336
1588857310700484210,780,1588857310700370849,,0.500076974965,-0.202021666415,0.215886900859
1588857310703613401,781,1588857310703505974,,0.50007911875,-0.202018020645,0.215886116035
1588857310709420669,782,1588857310709190341,,0.500079546711,-0.202013543253,0.21588149739
1588857310715233699,783,1588857310715146655,,0.500081397793,-0.202010519129,0.215880907271
1588857310721245859,784,1588857310721122135,,0.500082673863,-0.202006048839,0.215877486941
1588857310724293149,785,1588857310724188617,,0.50008524622,-0.202000328823,0.215874795895
1588857310730265402,786,1588857310730175883,,0.500087244982,-0.201995351068,0.215872314906
1588857310736364396,787,1588857310736212083,,0.500089248191,-0.201990894621,0.215869455229
1588857310741094226,788,1588857310740993494,,0.500091474736,-0.201984305014,0.215865839738
1588857310745302143,789,1588857310745186432,,0.500093530605,-0.201977534179,0.215861459521
1588857310748191261,790,1588857310748121225,,0.500095972088,-0.201971637097,0.215858041463
1588857310751205863,791,1588857310751141493,,0.500098386952,-0.201964448727,0.215853353323
1588857310754238722,792,1588857310754115545,,0.5001004575,-0.201956175645,0.21584872201
1588857310757284075,793,1588857310757162695,,0.500103160979,-0.201949071912,0.21584435098
1588857310760187686,794,1588857310760103633,,0.500105973806,-0.201940289133,0.215840705156
1588857310763336298,795,1588857310763247102,,0.500108442427,-0.20193268794,0.21583482058
1588857310766231330,796,1588857310766124934,,0.500110424649,-0.201925624375,0.215829230173
1588857310769195928,797,1588857310769128670,,0.50011335449,-0.201914084822,0.215824453787
1588857310772258544,798,1588857310772141900,,0.500116531757,-0.201896597021,0.215816293185
1588857310778212968,799,1588857310778146687,,0.500119511197,-0.201871333933,0.215807012701
1588857310781240227,800,1588857310781157580,,0.500121957376,-0.201857526867,0.21579886042
1588857310784341027,801,1588857310784227188,,0.500125015835,-0.201844804999,0.215791823831
1588857310790256116,802,1588857310790136204,,0.500126452231,-0.201829411264,0.215783198252
1588857310793241721,803,1588857310793128399,,0.500127234242,-0.201813118278,0.215772231702
1588857310796319090,804,1588857310796155518,,0.500128454458,-0.20179496391,0.215762276612
1588857310802652880,805,1588857310802539305,,0.500126850162,-0.201777353041,0.215746042419
1588857310809458599,806,1588857310809366713,,0.500125687084,-0.201759497414,0.215729481077
1588857310814297135,807,1588857310814194038,,0.500125011226,-0.201740348878,0.215714528719
1588857310817250152,808,1588857310817190191,,0.500124928137,-0.201720868083,0.21570180491
1588857310820255421,809,1588857310820141490,,0.500124012314,-0.201703632874,0.215685233526
1588857310823287768,810,1588857310823175693,,0.500124727998,-0.201683533843,0.21567023678
1588857310826191466,811,1588857310826099368,,0.500123690003,-0.201667061767,0.215653147967
1588857310829264165,812,1588857310829177785,,0.50012469864,-0.201648107909,0.215637448539
1588857310835398904,813,1588857310835265182,,0.500124321721,-0.201631434373,0.215622009097
1588857310841484756,814,1588857310841290790,,0.500124564985,-0.201613108371,0.215606055187
1588857310847220362,815,1588857310847123522,,0.500125142467,-0.201594927651,0.215591948021
1588857310850278817,816,1588857310850205283,,0.500125651338,-0.201576298619,0.215578567235
1588857310853335584,817,1588857310853229993,,0.500126246504,-0.201558115669,0.215565022858
1588857310856291918,818,1588857310856190581,,0.500127392817,-0.201536730087,0.215551726367
1588857310859282941,819,1588857310859186337,,0.500127918549,-0.201517531308,0.215537241876
1588857310862284540,820,1588857310862181802,,0.500129959777,-0.201498640504,0.215525091889
1588857310865282060,821,1588857310865193135,,0.500130854304,-0.20148218195,0.215510026953
1588857310871239358,822,1588857310871169048,,0.500131861188,-0.201463321415,0.215492949538
1588857310874235619,823,1588857310874132653,,0.500134353788,-0.201446798789,0.215478231407
1588857310878052578,824,1588857310877998372,,0.500135138416,-0.201428245779,0.215457737805
1588857310883235294,825,1588857310883139562,,0.500136332081,-0.201408349932,0.215439687059
1588857310886226632,826,1588857310886162229,,0.500136945677,-0.201389829833,0.215420901345
1588857310889261445,827,1588857310889168695,,0.500137584994,-0.20137239275,0.215401808312
1588857310895267128,828,1588857310895165828,,0.500137763108,-0.201354934181,0.215383305081
1588857310898274925,829,1588857310898187076,,0.500138940945,-0.201338029374,0.215364512316
1588857310901381496,830,1588857310901273133,,0.500140763746,-0.201319946414,0.215344409027
1588857310907333318,831,1588857310907221631,,0.500141804488,-0.201305076076,0.215325996015
1588857310910266496,832,1588857310910160774,,0.500143713101,-0.201287055216,0.215306115973
1588857310913374281,833,1588857310913242206,,0.500145897389,-0.201271141288,0.215289320382
1588857310919282357,834,1588857310919178038,,0.500147159812,-0.201253777835,0.215271683019
1588857310922322028,835,1588857310922222468,,0.500149298443,-0.201234839545,0.215255233966
1588857310925331923,836,1588857310925213978,,0.500151247821,-0.201216606936,0.215235657164
1588857310931309337,837,1588857310931175963,,0.500154297333,-0.201198194684,0.215218077647
1588857310934324792,838,1588857310934179324,,0.500158050142,-0.201179054701,0.215200209438
1588857310937317687,839,1588857310937190429,,0.500159030266,-0.201162884474,0.215178601607
1588857310943308225,840,1588857310943156236,,0.500162527249,-0.20114414446,0.215159412852
1588857310946723397,841,1588857310946637389,,0.500165995764,-0.201124667171,0.215135531983
1588857310952292305,842,1588857310952221894,,0.500168529243,-0.201106253451,0.215113970921
1588857310955282422,843,1588857310955186719,,0.500172105489,-0.201088522857,0.215094211928
1588857310958325870,844,1588857310958214122,,0.500174802519,-0.201068837268,0.21507131345
1588857310961236633,845,1588857310961160941,,0.500177543508,-0.201048991062,0.215049318001
1588857310967275761,846,1588857310967175727,,0.500179662926,-0.20102289862,0.215026738125
1588857310970344920,847,1588857310970254142,,0.5001825842,-0.200993592979,0.215002217268
1588857310973266445,848,1588857310973186211,,0.500189693434,-0.20096252969,0.214971011127
1588857310980849741,849,1588857310980785997,,0.500195701964,-0.200935733404,0.21493508612
1588857310985291074,850,1588857310985213725,,0.500199595707,-0.200903138794,0.214914061587
1588857310988318910,851,1588857310988257931,,0.500202403331,-0.200874938714,0.214893948577
1588857310991267249,852,1588857310991204027,,0.500205729068,-0.200847510031,0.214870369535
1588857310994295615,853,1588857310994224968,,0.500210199571,-0.200817086159,0.214846113794
1588857310997374216,854,1588857310997228487,,0.500215184857,-0.200787735146,0.214823038559
1588857311003660818,855,1588857311003556842,,0.50022010406,-0.200759057715,0.214802279252
1588857311009308343,856,1588857311009200230,,0.500224925832,-0.200733096232,0.214784846145
1588857311012320314,857,1588857311012208281,,0.500228822945,-0.200710669365,0.214766380372
1588857311015281037,858,1588857311015185748,,0.500233179025,-0.20068691177,0.21474498937
1588857311018244815,859,1588857311018168289,,0.500237798445,-0.200662047544,0.214721689555
1588857311024408284,860,1588857311024216845,,0.500241717462,-0.200636146899,0.214696767045
1588857311027279971,861,1588857311027180129,,0.500246473837,-0.200607157851,0.214670170673
1588857311030393267,862,1588857311030249896,,0.500250471441,-0.200574875883,0.214640426214
1588857311036338000,863,1588857311036209939,,0.500254017366,-0.200536010394,0.214609898369
1588857311039304227,864,1588857311039211333,,0.500257384745,-0.200494439256,0.214577666214
1588857311042302595,865,1588857311042192678,,0.500260958983,-0.200452434571,0.21454383985
1588857311048899778,866,1588857311048830327,,0.500265642679,-0.200405200539,0.214508448664
1588857311054377294,867,1588857311054256084,,0.500270635385,-0.200356013824,0.214471716567
1588857311057368581,868,1588857311057278561,,0.500275897414,-0.200304933124,0.2144354741
1588857311063407660,869,1588857311063263977,,0.500283391504,-0.200250719135,0.214402329414
1588857311066371217,870,1588857311066297261,,0.50029024966,-0.200195788079,0.214372879609
1588857311069284447,871,1588857311069188429,,0.500295887873,-0.200141889775,0.214341907496
1588857311072376157,872,1588857311072220022,,0.500303712735,-0.200082630965,0.214311900036
1588857311075444946,873,1588857311075220036,,0.500310714995,-0.200024863817,0.214281145483
1588857311078268241,874,1588857311078150652,,0.500317769454,-0.199968935587,0.214250062948
1588857311084388412,875,1588857311084162804,,0.50032395923,-0.199915681432,0.214220169852
1588857311087365799,876,1588857311087227739,,0.500330918454,-0.19986057755,0.214191096332
1588857311093325713,877,1588857311093178433,,0.500336979633,-0.199807664564,0.214160845926
1588857311096284618,878,1588857311096186483,,0.500344577168,-0.199755006626,0.214129558935
1588857311099743723,879,1588857311099582975,,0.500348759282,-0.199706023826,0.214090819686
1588857311102650669,880,1588857311102457507,,0.500353479258,-0.199656984133,0.214053465987
1588857311108257648,881,1588857311108157267,,0.500359505354,-0.199610757088,0.214016468684
1588857311111310866,882,1588857311111232065,,0.500363410647,-0.199565001059,0.213977362826
1588857311114298878,883,1588857311114188321,,0.500366286758,-0.199519189306,0.213938172572
1588857311120312615,884,1588857311120204112,,0.500371644717,-0.199474898721,0.213901944912
1588857311123426067,885,1588857311123261723,,0.500375997758,-0.199426069659,0.213859858649
1588857311126356426,886,1588857311126210880,,0.500382104258,-0.199372369727,0.213820920096
1588857311132299409,887,1588857311132211083,,0.500387376204,-0.19932363337,0.213783680099
1588857311135380675,888,1588857311135183914,,0.500393556694,-0.199264910296,0.213744674906
1588857311141316225,889,1588857311141226808,,0.500399779623,-0.199205653059,0.213707685693
1588857311144341660,890,1588857311144220057,,0.500406551378,-0.199145389752,0.213671916373
1588857311147280695,891,1588857311147201444,,0.500415413527,-0.199077905733,0.213636822545
1588857311153330793,892,1588857311153246706,,0.500422567798,-0.199008499332,0.213597784299
1588857311156319809,893,1588857311156228430,,0.500431625017,-0.198936111661,0.213561255605
1588857311159228383,894,1588857311159172155,,0.500439856725,-0.198862104893,0.213523055003
1588857311165290211,895,1588857311165216203,,0.500449160137,-0.198784064364,0.213487104068
1588857311168278854,896,1588857311168210402,,0.500457544829,-0.198707789681,0.213445751474
1588857311171314522,897,1588857311171239993,,0.500465836413,-0.198631642524,0.213405502928
1588857311177484240,898,1588857311177287295,,0.500473489483,-0.19855556638,0.213361328395
1588857311180471444,899,1588857311180273763,,0.500481560794,-0.19848180728,0.213320503245
1588857311184733497,900,1588857311184667846,,0.500490309761,-0.198408598062,0.213279738975
1588857311189266560,901,1588857311189176266,,0.500497350137,-0.198338245841,0.213235070418
1588857311192241838,902,1588857311192163551,,0.500506653771,-0.198273105844,0.213194439248
1588857311195233624,903,1588857311195160630,,0.500513943805,-0.198209134853,0.213151692691
1588857311201399089,904,1588857311201333492,,0.500520870326,-0.198150062568,0.213109385168
1588857311204389097,905,1588857311204173793,,0.500529640075,-0.198091140173,0.213070050023
1588857311207297917,906,1588857311207223458,,0.500536908531,-0.198034081911,0.213029252445
1588857311213392181,907,1588857311213284111,,0.500544771816,-0.197978465365,0.212989138702
1588857311216277246,908,1588857311216177623,,0.500552410017,-0.197918507595,0.212948174184
1588857311222318141,909,1588857311222244514,,0.500561207351,-0.197862524714,0.21290854603
1588857311225402975,910,1588857311225315987,,0.500570001495,-0.197799243662,0.212868594973
1588857311231460962,911,1588857311231375549,,0.500579728186,-0.197735187825,0.212829179232
1588857311234393849,912,1588857311234267945,,0.500590238839,-0.197668204129,0.212787931231
1588857311237330939,913,1588857311237203154,,0.50060095468,-0.197594960388,0.212745367701
1588857311240275909,914,1588857311240203149,,0.500611372665,-0.197524968116,0.212703285263
1588857311246485060,915,1588857311246279121,,0.500622977316,-0.197444991872,0.212659873947
1588857311249338223,916,1588857311249229811,,0.500633515808,-0.197361739768,0.212616019541
1588857311253766502,917,1588857311253698485,,0.500646204931,-0.197277424303,0.212576421383
1588857311258325263,918,1588857311258213689,,0.500657552362,-0.197189371436,0.212529166358
1588857311261371568,919,1588857311261212982,,0.500668983031,-0.197103371308,0.212487062696
1588857311264381028,920,1588857311264230629,,0.500682303251,-0.197010875713,0.212444486434
1588857311270391000,921,1588857311270268094,,0.500694865924,-0.196925451383,0.212400373821
1588857311276324302,922,1588857311276230107,,0.500706510988,-0.196838301663,0.212357732279
1588857311279377302,923,1588857311279240955,,0.500720627202,-0.19675210739,0.212315800228
1588857311282375457,924,1588857311282248329,,0.500732348676,-0.196670934134,0.21227058712
1588857311285363867,925,1588857311285232800,,0.500744958093,-0.196588221087,0.212228594844
1588857311288404213,926,1588857311288289320,,0.500759220119,-0.196508723978,0.212188684621
1588857311294382321,927,1588857311294307898,,0.500768425288,-0.196439655889,0.212142777294
1588857311297399192,928,1588857311297264420,,0.500781463276,-0.196361864349,0.212101559644
1588857311300639944,929,1588857311300516917,,0.500793102443,-0.1962942035,0.212057123663
1588857311306347136,930,1588857311306241763,,0.500803625012,-0.19622670144,0.212009683463
1588857311309384471,931,1588857311309259527,,0.500814185135,-0.196160995053,0.211965121544
1588857311312405259,932,1588857311312270465,,0.500825266952,-0.196093796288,0.211918758815
1588857311318414438,933,1588857311318288253,,0.500835882719,-0.196024595194,0.21187322409
1588857311324413354,934,1588857311324307476,,0.500847239551,-0.19595676439,0.211829286766
1588857311327386466,935,1588857311327288583,,0.5008578526,-0.195889003258,0.211785129258
1588857311330348297,936,1588857311330267428,,0.500870713606,-0.195806972055,0.211743252858
1588857311333366193,937,1588857311333242558,,0.500882849604,-0.1957325152,0.211703623856
1588857311336374555,938,1588857311336252064,,0.500895367188,-0.195647504302,0.211660127773
1588857311342517820,939,1588857311342329287,,0.500909882021,-0.195559879388,0.211624256967
1588857311345429877,940,1588857311345315602,,0.500925763018,-0.195473541925,0.21158527168
1588857311348413265,941,1588857311348313728,,0.500942831403,-0.195378319604,0.211544677137
1588857311356057130,942,1588857311355907888,,0.500959616914,-0.195290050585,0.211505619254
1588857311360337829,943,1588857311360268121,,0.500977835012,-0.195197917327,0.211470460329
1588857311363341932,944,1588857311363255326,,0.500994167447,-0.195102907558,0.211430397961
1588857311366378281,945,1588857311366264314,,0.501009861755,-0.195014816536,0.211388062582
1588857311369419677,946,1588857311369266541,,0.501025705436,-0.194924051289,0.211346791255
1588857311375411143,947,1588857311375292206,,0.501039031852,-0.194837381464,0.211302994528
1588857311378407724,948,1588857311378328540,,0.501052456926,-0.194752093471,0.211257781705
1588857311381488644,949,1588857311381318724,,0.501066113355,-0.194667655509,0.211215467216
1588857311384411380,950,1588857311384285130,,0.501080003368,-0.194587386436,0.2111726759
1588857311390398149,951,1588857311390278722,,0.501091846247,-0.194510506727,0.211130565649
1588857311393327327,952,1588857311393239626,,0.501105277351,-0.19443399636,0.211087803158
1588857311396355113,953,1588857311396269177,,0.501116512717,-0.194357541183,0.211045224105
1588857311402746680,954,1588857311402612456,,0.501129185419,-0.19428317679,0.211006645161
1588857311408450889,955,1588857311408293738,,0.50113987628,-0.194211345143,0.210967614031
1588857311411316664,956,1588857311411222209,,0.501151564467,-0.194137702602,0.21092777112
1588857311414406330,957,1588857311414257303,,0.501163607047,-0.194061759332,0.210892254937
1588857311417362632,958,1588857311417216522,,0.501173237748,-0.193990504976,0.210853386949
1588857311424423079,959,1588857311424270086,,0.501184847022,-0.193911668999,0.210815624981
1588857311429363473,960,1588857311429249167,,0.501195619468,-0.193834025043,0.210778738434
1588857311432377865,961,1588857311432279864,,0.501205870801,-0.193756254477,0.210739217514
1588857311435399597,962,1588857311435290866,,0.501217569891,-0.193669971366,0.210702288767
1588857311438305913,963,1588857311438242247,,0.501229840661,-0.193586926691,0.210664841542
1588857311441410867,964,1588857311441276432,,0.501239150867,-0.193505602304,0.210623149184
1588857311447380068,965,1588857311447255371,,0.501251159748,-0.193416320699,0.21058384551
1588857311450327093,966,1588857311450207137,,0.501262527619,-0.193331091002,0.210546511754
1588857311453397364,967,1588857311453294434,,0.501271202782,-0.193247391334,0.21050519795
1588857311459384596,968,1588857311459276738,,0.501281719701,-0.193159311922,0.210465802488
1588857311462350182,969,1588857311462235432,,0.501291546406,-0.193077053518,0.210426733812
1588857311465379385,970,1588857311465294352,,0.501301824948,-0.192994292569,0.210389029909
1588857311471398332,971,1588857311471303081,,0.501311279123,-0.19291471821,0.210351708126
1588857311474373356,972,1588857311474238056,,0.501319435732,-0.192838776155,0.210312947475
1588857311477349755,973,1588857311477243026,,0.501328193356,-0.192762793891,0.210275699882
1588857311483381462,974,1588857311483246444,,0.501334987221,-0.192690099941,0.210238376886
1588857311486404310,975,1588857311486308529,,0.501340650279,-0.19262184817,0.210203274845
1588857311489321600,976,1588857311489247348,,0.501347583541,-0.192549290304,0.210169893655
1588857311495392573,977,1588857311495289842,,0.501352105525,-0.192485645511,0.210135510206
1588857311498307704,978,1588857311498257633,,0.501358532737,-0.192415031266,0.21010233551
1588857311501524268,979,1588857311501437035,,0.501363590467,-0.192349819767,0.210067974635
1588857311507407019,980,1588857311507306183,,0.501367282451,-0.192285240716,0.210033786003
1588857311510356044,981,1588857311510260184,,0.501373057059,-0.192215187935,0.209999723945
1588857311513404650,982,1588857311513292001,,0.501377590006,-0.192147501795,0.209965472538
1588857311519321228,983,1588857311519264531,,0.501381800101,-0.192079774804,0.209929349737
1588857311522357502,984,1588857311522295984,,0.501386312777,-0.192009969853,0.2098954055
1588857311526887710,985,1588857311526777981,,0.501390132454,-0.191936709945,0.209858795857
1588857311531252501,986,1588857311531205171,,0.501394804987,-0.191860070336,0.209822358388
1588857311534457682,987,1588857311534320169,,0.501399170151,-0.191790441478,0.209788130949
1588857311540424058,988,1588857311540234829,,0.501403126781,-0.191710699733,0.209752424287
1588857311543334774,989,1588857311543224354,,0.501405922922,-0.191636927664,0.209714464792
1588857311546345393,990,1588857311546227147,,0.501412036774,-0.191558009828,0.209682474698
1588857311552304033,991,1588857311552237497,,0.501416068043,-0.191482516964,0.209645826201
1588857311555344888,992,1588857311555279091,,0.501418403855,-0.191409325214,0.209609318674
1588857311558344842,993,1588857311558276553,,0.501422423769,-0.191334094228,0.209575299597
1588857311564410099,994,1588857311564283381,,0.501424927867,-0.191264201724,0.209540971848
1588857311567318240,995,1588857311567260431,,0.501426587906,-0.191195041861,0.209507102909
1588857311570381720,996,1588857311570277093,,0.501428595333,-0.191129658875,0.209474075791
1588857311576399600,997,1588857311576308689,,0.501430397487,-0.191067772601,0.20944180403
1588857311579328873,998,1588857311579248969,,0.501432658285,-0.190999226726,0.209409706921
1588857311582377500,999,1588857311582265590,,0.501433054413,-0.190942353705,0.209379179048
1588857311588357321,1000,1588857311588276375,,0.501434725303,-0.190882025911,0.20934692238
1588857311591402513,1001,1588857311591327381,,0.501435266258,-0.190823339347,0.209313051327
1588857311595341872,1002,1588857311595126531,,0.501436221469,-0.190765777363,0.209281504318
1588857311600601070,1003,1588857311600513975,,0.501436939122,-0.190704260798,0.209249769852
1588857311603711972,1004,1588857311603573409,,0.501436355965,-0.190649368868,0.209217458032
1588857311606322152,1005,1588857311606233391,,0.501437720382,-0.190586655234,0.209183088704
1588857311612446539,1006,1588857311612329225,,0.501437503452,-0.190522155295,0.209148186712
1588857311615415779,1007,1588857311615329830,,0.50143771417,-0.190458939669,0.209114787936
1588857311621436711,1008,1588857311621284945,,0.501437913697,-0.190393116244,0.209079120106
1588857311629170427,1009,1588857311629045614,,0.501439885258,-0.190257567394,0.209011594857
1588857311633373956,1010,1588857311633260474,,0.50144010657,-0.190181912453,0.208975683384
1588857311636357564,1011,1588857311636267669,,0.501441491602,-0.190112018917,0.208941880666
1588857311639379062,1012,1588857311639288052,,0.501442067576,-0.190039079187,0.208909403016
1588857311645399072,1013,1588857311645306116,,0.501441446745,-0.189968534615,0.208875275757
1588857311648528732,1014,1588857311648295845,,0.50144312503,-0.189894224585,0.208846271177
1588857311651334211,1015,1588857311651272282,,0.50144374572,-0.189825674873,0.208819643217
1588857311657506569,1016,1588857311657311921,,0.501443120092,-0.189767372969,0.20879522748
1588857311660362605,1017,1588857311660276736,,0.501442090836,-0.189698369284,0.208767601345
1588857311664033892,1018,1588857311663957819,,0.501442038171,-0.189626183683,0.208743219529
1588857311669397300,1019,1588857311669259331,,0.501438760563,-0.189573259624,0.208724475925
1588857311672361788,1020,1588857311672284800,,0.501438513139,-0.189509799952,0.20870755684
1588857311675393993,1021,1588857311675273732,,0.501434404023,-0.189447858927,0.208687273087
1588857311681358711,1022,1588857311681266586,,0.50143139139,-0.189390872374,0.20866878514
1588857311684322164,1023,1588857311684254369,,0.50142866164,-0.189338095298,0.208650623108
1588857311687390964,1024,1588857311687292194,,0.501425567072,-0.18928702898,0.20863691589
1588857311693372444,1025,1588857311693266886,,0.501421930986,-0.189237183811,0.2086189998
1588857311702803887,1026,1588857311702656010,,0.501415110747,-0.189130634247,0.208579880004
1588857311705361003,1027,1588857311705270408,,0.501411154196,-0.189076735991,0.208558783251
1588857311708366061,1028,1588857311708244398,,0.501408470947,-0.189018263802,0.208541242705
1588857311711313250,1029,1588857311711231114,,0.501404753452,-0.188959242797,0.208521001428
1588857311717371287,1030,1588857311717297333,,0.501400957787,-0.188897408456,0.20849783034
1588857311720341191,1031,1588857311720260841,,0.501398677297,-0.188831944533,0.208476930545
1588857311723366877,1032,1588857311723278754,,0.501398905414,-0.188767278351,0.208459794616
1588857311729416201,1033,1588857311729307975,,0.501396071381,-0.188713893323,0.208437817386
1588857311732397081,1034,1588857311732309167,,0.501396856131,-0.188657990149,0.208421153577
1588857311735344001,1035,1588857311735266515,,0.501397549616,-0.188579322977,0.208399260022
1588857311741409462,1036,1588857311741318966,,0.501396914212,-0.188517571045,0.208378435985
1588857311744320471,1037,1588857311744255603,,0.501396438402,-0.188462096757,0.208362822216
1588857311747370683,1038,1588857311747274294,,0.501397080199,-0.188389402028,0.208345590707
1588857311753366583,1039,1588857311753256312,,0.501396024263,-0.188321120193,0.208324992711
1588857311756422996,1040,1588857311756315714,,0.501395678378,-0.188263828778,0.208310038148
1588857311759479598,1041,1588857311759304602,,0.50139561177,-0.188211720834,0.208293059522
1588857311766145664,1042,1588857311766052384,,0.501393422928,-0.188164583168,0.208275606538
1588857311771397416,1043,1588857311771296056,,0.501394613016,-0.188115091176,0.208262941321
1588857311774381898,1044,1588857311774316391,,0.501393323664,-0.188069379281,0.208247545641
1588857311777373973,1045,1588857311777298858,,0.501393491054,-0.188020817427,0.208235079539
1588857311780363765,1046,1588857311780267984,,0.501391156231,-0.187979021228,0.208221457428
1588857311783504376,1047,1588857311783338307,,0.501389707183,-0.187935642646,0.208207969904
1588857311789483018,1048,1588857311789318646,,0.501387572359,-0.18788782354,0.208192090436
1588857311792535883,1049,1588857311792351913,,0.501384813214,-0.18784140755,0.208176299622
1588857311795483185,1050,1588857311795346278,,0.501385659253,-0.187793582438,0.208164811861
1588857311800166811,1051,1588857311800089550,,0.501385224561,-0.187740896338,0.208147824015
1588857311804714350,1052,1588857311804631956,,0.501385337173,-0.187696084488,0.20813408469
1588857311810501726,1053,1588857311810308360,,0.501385293538,-0.187639873962,0.208118166322
1588857311813425735,1054,1588857311813344826,,0.501384724297,-0.18758308259,0.208097713295
1588857311816419162,1055,1588857311816310268,,0.501385854393,-0.187526636113,0.208081787367
1588857311822403237,1056,1588857311822325048,,0.501386124756,-0.187466605106,0.208063571551
1588857311825361618,1057,1588857311825275641,,0.501386646003,-0.187403961483,0.20804562714
1588857311828373328,1058,1588857311828286338,,0.501386704736,-0.187346978409,0.208026300586
1588857311834442077,1059,1588857311834370593,,0.501388078928,-0.187283499626,0.208007339868
1588857311837435593,1060,1588857311837291278,,0.501389927172,-0.187223657903,0.207994698349
1588857311840364359,1061,1588857311840272055,,0.501390560059,-0.187162403486,0.207975790658
1588857311846436376,1062,1588857311846321160,,0.501390199452,-0.187109961039,0.207958871922
1588857311849440531,1063,1588857311849319856,,0.501390340051,-0.187055636822,0.207943108641
1588857311852447096,1064,1588857311852384277,,0.501391900399,-0.186997863693,0.207929454238
1588857311858403750,1065,1588857311858304459,,0.501391036896,-0.186949113578,0.207918601441
1588857311861376437,1066,1588857311861276086,,0.501389159165,-0.186902245969,0.207903009415
1588857311870487029,1067,1588857311870307048,,0.501387591965,-0.186813464675,0.207883436586
1588857311873386274,1068,1588857311873284414,,0.50138320079,-0.186773456228,0.207869077488
1588857311876385241,1069,1588857311876313461,,0.501381196929,-0.186736220783,0.207860159449
1588857311882419035,1070,1588857311882291006,,0.501379300773,-0.186699493737,0.207852113549
1588857311885437924,1071,1588857311885353898,,0.501377170791,-0.186659307167,0.207844391708
1588857311888439338,1072,1588857311888325748,,0.501374179765,-0.186623659476,0.207836211681
1588857311894516316,1073,1588857311894377064,,0.501372443902,-0.186587651267,0.20783020402
1588857311897385952,1074,1588857311897298002,,0.501371760286,-0.186558395541,0.207821485886
1588857311900380439,1075,1588857311900297879,,0.501370219765,-0.186519815426,0.207814213895
1588857311906527640,1076,1588857311906362198,,0.501369820259,-0.186477178274,0.207807058989
1588857311909385896,1077,1588857311909290922,,0.501370157649,-0.186444869518,0.207801878034
1588857311912440712,1078,1588857311912339931,,0.501368038148,-0.186407939749,0.207797376291
1588857311918521054,1079,1588857311918408118,,0.501366027911,-0.186365060185,0.207790731649
1588857311921368135,1080,1588857311921276276,,0.501365850032,-0.186327581992,0.207787046833
1588857311927473473,1081,1588857311927342408,,0.501367065133,-0.186284010552,0.207783119562
1588857311930444008,1082,1588857311930354960,,0.501366201239,-0.186250595344,0.207780203827
1588857311933400211,1083,1588857311933318219,,0.501365203075,-0.186212405444,0.207775076754
1588857311939397022,1084,1588857311939315035,,0.501364711567,-0.186177254517,0.207770889429
1588857311942384825,1085,1588857311942315319,,0.501364495464,-0.186142143334,0.207766957767
1588857311945398688,1086,1588857311945323706,,0.501364656348,-0.186105808801,0.207763794726
1588857311954392635,1087,1588857311954296689,,0.501363313756,-0.186040175434,0.207758422169
1588857311957414541,1088,1588857311957292607,,0.501362003753,-0.186009019284,0.207756847384
1588857311963453720,1089,1588857311963325964,,0.501361479629,-0.185974912788,0.207755322143
1588857311966359312,1090,1588857311966298470,,0.501361525741,-0.18594528262,0.207753743068
1588857311970642520,1091,1588857311970565442,,0.501360964366,-0.185916761518,0.207754523853
1588857311975427761,1092,1588857311975337883,,0.501359989787,-0.185888416371,0.207755967533
1588857311978591274,1093,1588857311978430935,,0.50135913532,-0.185863667925,0.2077539882
1588857311981478511,1094,1588857311981361083,,0.501358416012,-0.185840308439,0.207754786674
1588857311987428665,1095,1588857311987296298,,0.501357991178,-0.185815990579,0.207756825254
1588857311990414270,1096,1588857311990315099,,0.501357858887,-0.185787052944,0.207759019912
1588857311993393461,1097,1588857311993287382,,0.501357783439,-0.185763921536,0.207759154875
1588857311999378683,1098,1588857311999284505,,0.501357891186,-0.185738870457,0.207760547696
1588857312002592763,1099,1588857312002527486,,0.501358271378,-0.185709872941,0.207761462808
1588857312005739189,1100,1588857312005626740,,0.501357787638,-0.185685904025,0.207763249311
1588857312011398388,1101,1588857312011322781,,0.501357237373,-0.185661040215,0.207765143186
1588857312014531401,1102,1588857312014440208,,0.50135819476,-0.185636967733,0.207766114406
1588857312020451368,1103,1588857312020364827,,0.501358686945,-0.185612308465,0.207767214355
1588857312023447239,1104,1588857312023377270,,0.501359945829,-0.185588935772,0.207769180658
1588857312026390188,1105,1588857312026318822,,0.501361639936,-0.185562654488,0.207770599721
1588857312032418903,1106,1588857312032327525,,0.501363432424,-0.185537087425,0.207773013105
1588857312035458445,1107,1588857312035299298,,0.501364506936,-0.185513102712,0.207777243706
1588857312038756678,1108,1588857312038688220,,0.50136512139,-0.185489096295,0.207779211519
1588857312044398490,1109,1588857312044326671,,0.501365814917,-0.185466408613,0.207780542464
1588857312047382362,1110,1588857312047297837,,0.501366367716,-0.185442972577,0.207784621863
1588857312050444921,1111,1588857312050351474,,0.501367145664,-0.185420835303,0.207787178487
1588857312056440542,1112,1588857312056335902,,0.501367729247,-0.185397046402,0.207790767322
1588857312059455731,1113,1588857312059330207,,0.501369229202,-0.185373885016,0.207793761508
1588857312062442115,1114,1588857312062340157,,0.501368904818,-0.185355953485,0.207793600205
1588857312068421431,1115,1588857312068327217,,0.501370080221,-0.185335089096,0.207796773955
1588857312072725405,1116,1588857312072619970,,0.501371049872,-0.185316151353,0.207799099382
1588857312077554231,1117,1588857312077379650,,0.501372007289,-0.185298579769,0.207802937926
1588857312080435557,1118,1588857312080327195,,0.501373093716,-0.185280365434,0.207805937702
1588857312083434112,1119,1588857312083303481,,0.501373845517,-0.185264547976,0.207810305469
1588857312086520237,1120,1588857312086406177,,0.501374279374,-0.185249273121,0.207813354188
1588857312092483036,1121,1588857312092333342,,0.501375161413,-0.185231500336,0.207817145961
1588857312095461763,1122,1588857312095314569,,0.501376185909,-0.185215563639,0.207820903493
1588857312098459781,1123,1588857312098360905,,0.501376428787,-0.18520131251,0.207826943167
1588857312104781262,1124,1588857312104718492,,0.501377189476,-0.185188043713,0.207831999922
1588857312107473821,1125,1588857312107344672,,0.5013779496,-0.185175348789,0.207838616204
1588857312110434525,1126,1588857312110363209,,0.501379320681,-0.185164296489,0.207845420262
1588857312116391767,1127,1588857312116332371,,0.501379893337,-0.185153531459,0.207849615305
1588857312119376014,1128,1588857312119302986,,0.501380620188,-0.185142069442,0.207853684164
1588857312122392334,1129,1588857312122317844,,0.501380894337,-0.185134818144,0.207857760557
1588857312128470189,1130,1588857312128379979,,0.501381562837,-0.185123743368,0.207861461802
1588857312131426904,1131,1588857312131345757,,0.501382022483,-0.185116343715,0.20786509471
1588857312134511099,1132,1588857312134419382,,0.50138307664,-0.185107117798,0.207869606159
1588857312140564166,1133,1588857312140469587,,0.501383215442,-0.185099260189,0.207874616235
1588857312143472629,1134,1588857312143369373,,0.501384235645,-0.18509020572,0.207881203206
1588857312146471442,1135,1588857312146393123,,0.501385361147,-0.185083491351,0.207886989639
1588857312152474166,1136,1588857312152384390,,0.501385998541,-0.185076931847,0.207890845264
1588857312155477535,1137,1588857312155395852,,0.501386754556,-0.185072477809,0.207896799219
1588857312158444241,1138,1588857312158384068,,0.50138718665,-0.185066543314,0.207899261231
1588857312164540472,1139,1588857312164440928,,0.501387534189,-0.185063170398,0.207904339204
1588857312167513554,1140,1588857312167397784,,0.501388383964,-0.185058435504,0.207910174037
1588857312170425640,1141,1588857312170363281,,0.501389062603,-0.18505519635,0.207914740566
1588857312176460579,1142,1588857312176338474,,0.501390128864,-0.185052983148,0.20792075055
1588857312179419023,1143,1588857312179336831,,0.501389800065,-0.185051464096,0.207923651332
1588857312182407813,1144,1588857312182321482,,0.501390531775,-0.185050580422,0.207927025204
1588857312188410721,1145,1588857312188347984,,0.501390511551,-0.185049939909,0.207930157213
1588857312191410222,1146,1588857312191319860,,0.501391122074,-0.185048823644,0.207933620941
1588857312194439915,1147,1588857312194331165,,0.501390824885,-0.185049722845,0.207935665255
1588857312200503925,1148,1588857312200366917,,0.501390774723,-0.185048679174,0.207937294991
1588857312203539362,1149,1588857312203474117,,0.501391232433,-0.185048914653,0.207940636176
1588857312209443989,1150,1588857312209353428,,0.50139126734,-0.185050068611,0.207942502842
1588857312212486544,1151,1588857312212328041,,0.501392150071,-0.185049556856,0.207943025276
1588857312215457206,1152,1588857312215365434,,0.501392152492,-0.185051827087,0.207944717176
1588857312221492780,1153,1588857312221363331,,0.501392672867,-0.185052988377,0.207947864011
1588857312227444553,1154,1588857312227365357,,0.501395096689,-0.185058030731,0.207952249326
1588857312233557374,1155,1588857312233405332,,0.501396510849,-0.185060463785,0.207956310235
1588857312236463349,1156,1588857312236371013,,0.5013971982,-0.185065976137,0.207958900707
1588857312239501004,1157,1588857312239376091,,0.501399457996,-0.185071150096,0.207963386731
1588857312245463349,1158,1588857312245371377,,0.501402199723,-0.185076581669,0.207970006465
1588857312248466431,1159,1588857312248392263,,0.501406888613,-0.185083333012,0.20798112222
1588857312251401347,1160,1588857312251342288,,0.501411499366,-0.185089906477,0.207991231057
1588857312257566585,1161,1588857312257406565,,0.501416648372,-0.185098246659,0.208001255401
1588857312260496213,1162,1588857312260406498,,0.501422770703,-0.185108520978,0.208012413018
1588857312263476038,1163,1588857312263388771,,0.501428915191,-0.185120785933,0.208023294147
1588857312269530314,1164,1588857312269436741,,0.501433561322,-0.185131930886,0.208033489134
1588857312272413661,1165,1588857312272340014,,0.501440882051,-0.185147580676,0.208044373462
1588857312276911038,1166,1588857312276838682,,0.501447809313,-0.185165288066,0.208052660484
1588857312281421219,1167,1588857312281347493,,0.501452251099,-0.185183095993,0.208059775657
1588857312287477161,1168,1588857312287412148,,0.501461305542,-0.185224658897,0.208074715503
1588857312293466163,1169,1588857312293367983,,0.501464394983,-0.185243764814,0.208078292154
1588857312296534274,1170,1588857312296392177,,0.501467906381,-0.185264088662,0.208083221791
1588857312299451452,1171,1588857312299392142,,0.501470279159,-0.185282075039,0.208086034574
1588857312305761002,1172,1588857312305696906,,0.501473339976,-0.185303668147,0.208092275648
1588857312308421890,1173,1588857312308354190,,0.501474743874,-0.185324979767,0.208094926527
1588857312311432163,1174,1588857312311326086,,0.501477561675,-0.185347627801,0.208099804236
1588857312317419562,1175,1588857312317345557,,0.501479062756,-0.185369657165,0.208104159295
1588857312320504771,1176,1588857312320394746,,0.501480195655,-0.185391150409,0.20810707584
1588857312326464876,1177,1588857312326379490,,0.501482493681,-0.185411888566,0.208112041627
1588857312329611464,1178,1588857312329487749,,0.501484425988,-0.185427795357,0.208115682422
1588857312332491124,1179,1588857312332383104,,0.501487118576,-0.185444915082,0.208119165423
1588857312338481646,1180,1588857312338376127,,0.501488698264,-0.185463927308,0.208124431624
1588857312341426918,1181,1588857312341370011,,0.501490262708,-0.185481139921,0.208128237438
1588857312345116907,1182,1588857312345059294,,0.501491648915,-0.185497858278,0.208129873184
1588857312350419551,1183,1588857312350353703,,0.501493406909,-0.185514159316,0.208131871482
1588857312353437255,1184,1588857312353380596,,0.501495158807,-0.185528545107,0.20813206077
1588857312356544517,1185,1588857312356450493,,0.501496914989,-0.185539498841,0.208131529854
1588857312362421530,1186,1588857312362322497,,0.501499445085,-0.185551131601,0.208132085698
1588857312365576319,1187,1588857312365449586,,0.501501826048,-0.18556230043,0.208133156365
1588857312368444145,1188,1588857312368338628,,0.501504809222,-0.185571903581,0.208133934969
1588857312374497542,1189,1588857312374382602,,0.501508292684,-0.185582172317,0.208133761651
1588857312379273359,1190,1588857312379190434,,0.501511634666,-0.185590730122,0.208135056343
1588857312383474843,1191,1588857312383370541,,0.50151580086,-0.185598250637,0.208136161797
1588857312386427868,1192,1588857312386324550,,0.501519964373,-0.185605560821,0.20813740983
1588857312389450536,1193,1588857312389350223,,0.501523973737,-0.185611821908,0.208137505725
1588857312392601558,1194,1588857312392440922,,0.501528182954,-0.185616877635,0.20813944582
1588857312398432935,1195,1588857312398346123,,0.501533062357,-0.185620673197,0.208141037571
1588857312401830181,1196,1588857312401721608,,0.501536987569,-0.185623341958,0.208141595934
1588857312407583447,1197,1588857312407501903,,0.501541504941,-0.185626228636,0.208143148743
1588857312410447493,1198,1588857312410348470,,0.501544666476,-0.185632028591,0.208142700488
1588857312413470067,1199,1588857312413383683,,0.501548117018,-0.18563359437,0.208143404812
1588857312419442399,1200,1588857312419379628,,0.501551709027,-0.185633996817,0.208144199223
1588857312422434920,1201,1588857312422380010,,0.501554247044,-0.185636075882,0.208144453894
1588857312425472309,1202,1588857312425397625,,0.501556836184,-0.185636974484,0.208145411162
1588857312431622567,1203,1588857312431533465,,0.501559764481,-0.185634956158,0.208145932513
1588857312434450303,1204,1588857312434382883,,0.501561673148,-0.185634620538,0.208146486625
1588857312437498382,1205,1588857312437377495,,0.501564628595,-0.185634096667,0.208148755827
1588857312443451488,1206,1588857312443386872,,0.501567825502,-0.185631589195,0.208150921144
1588857312447740171,1207,1588857312447579703,,0.501570478839,-0.185630843342,0.208151746254
1588857312452528909,1208,1588857312452397132,,0.501573620506,-0.185628954661,0.20815455078
1588857312455497076,1209,1588857312455380931,,0.501576201167,-0.185626157021,0.208155886053
1588857312458445338,1210,1588857312458366190,,0.501579296319,-0.18562261423,0.208158749383
1588857312461575079,1211,1588857312461458258,,0.501582597924,-0.185616876714,0.208160508962
1588857312467475533,1212,1588857312467369673,,0.501585534395,-0.185611539861,0.20816196483
1588857312470531503,1213,1588857312470408621,,0.501589869003,-0.185602644139,0.208164279372
1588857312473500628,1214,1588857312473372172,,0.50159500266,-0.185593431544,0.208167370454
1588857312481275395,1215,1588857312481138949,,0.501599923669,-0.185584366897,0.208169438715
1588857312485448226,1216,1588857312485369404,,0.501605315305,-0.185575641647,0.208171180959
1588857312488480395,1217,1588857312488354871,,0.501611129952,-0.18556824034,0.208173791678
1588857312491474879,1218,1588857312491417355,,0.501616562263,-0.185560471148,0.208175986513
1588857312494509384,1219,1588857312494450985,,0.501622287883,-0.18555203897,0.208179464777
1588857312497488356,1220,1588857312497425620,,0.50162795657,-0.185543228085,0.208183324764
1588857312503633561,1221,1588857312503555980,,0.501633213497,-0.185536060825,0.208187038078
1588857312506467310,1222,1588857312506360596,,0.501638816744,-0.185527892401,0.208191460657
1588857312509535192,1223,1588857312509412480,,0.501643070775,-0.185521059119,0.208194249115
1588857312515595048,1224,1588857312515510335,,0.501649170265,-0.18551389043,0.208198795331
1588857312518509701,1225,1588857312518404504,,0.501653209279,-0.185509123545,0.208202271133
1588857312521528636,1226,1588857312521436767,,0.501657846142,-0.185503342112,0.208207096848
1588857312527503971,1227,1588857312527439953,,0.501661952675,-0.185498754496,0.208210498301
1588857312530494963,1228,1588857312530426231,,0.50166598655,-0.18549630636,0.20821513263
1588857312533439459,1229,1588857312533377020,,0.501669657149,-0.185492776629,0.208219543813
1588857312539483279,1230,1588857312539431468,,0.501673752038,-0.18548910328,0.208224104988
1588857312542485502,1231,1588857312542425953,,0.501677902289,-0.185486644913,0.208229097711
1588857312545588545,1232,1588857312545429485,,0.501681656841,-0.185483093257,0.208234837486
1588857312551520361,1233,1588857312551455837,,0.501685791233,-0.185480276249,0.208241054915
1588857312554476996,1234,1588857312554424064,,0.501689422051,-0.185477999391,0.208246337281
1588857312557530252,1235,1588857312557430304,,0.501693578716,-0.185476002027,0.20825351304
1588857312563506753,1236,1588857312563436060,,0.50169657512,-0.185473379893,0.208258427871
1588857312566534415,1237,1588857312566448154,,0.50170014647,-0.1854735556,0.208264551246
1588857312569592084,1238,1588857312569439460,,0.501702637866,-0.185473684189,0.208270178573
1588857312575553675,1239,1588857312575407718,,0.501705454327,-0.185472464896,0.208275241498
1588857312578481043,1240,1588857312578391090,,0.501708354962,-0.185472516294,0.208282022568
1588857312581517122,1241,1588857312581373261,,0.501710273867,-0.185472665781,0.208286001131
1588857312587490279,1242,1588857312587412353,,0.5017125646,-0.185472758593,0.208291318117
1588857312590491239,1243,1588857312590416509,,0.501714428532,-0.185472683109,0.20829685504
1588857312593521730,1244,1588857312593443773,,0.501715788694,-0.185473132208,0.208301919103
1588857312599536649,1245,1588857312599433844,,0.501717629828,-0.185473026509,0.208307250796
1588857312602734011,1246,1588857312602636024,,0.501719116044,-0.185472489875,0.208313323779
1588857312608589772,1247,1588857312608480010,,0.501721494201,-0.185472155615,0.208321809748
1588857312611563704,1248,1588857312611473523,,0.501722346521,-0.185471491496,0.208331381311
1588857312614541683,1249,1588857312614472144,,0.501723434271,-0.185467092065,0.208351025115
1588857312620535035,1250,1588857312620452992,,0.501724070419,-0.185466117197,0.208364186352
1588857312623474977,1251,1588857312623396990,,0.501724232662,-0.185463730198,0.208369986272
1588857312626489098,1252,1588857312626390479,,0.501725371866,-0.185462095875,0.208378137465
1588857312632511910,1253,1588857312632401734,,0.501726844006,-0.185461106018,0.208383018415
1588857312635564910,1254,1588857312635434196,,0.501728651654,-0.18546004,0.208388333643
1588857312638450469,1255,1588857312638375828,,0.501730422248,-0.185458429055,0.208393448514
1588857312647517691,1256,1588857312647434851,,0.501731071844,-0.185454876872,0.208401970495
1588857312651713519,1257,1588857312651618533,,0.50173200499,-0.185452229707,0.208406608601
1588857312656554685,1258,1588857312656406503,,0.501732315248,-0.185449021543,0.208410372889
1588857312659538688,1259,1588857312659441161,,0.501733134865,-0.185445361843,0.208413468209
1588857312662487480,1260,1588857312662390280,,0.501734631216,-0.185438790899,0.208417910679
1588857312668469087,1261,1588857312668394156,,0.501736818756,-0.185431288233,0.208423138485
1588857312671488837,1262,1588857312671434776,,0.501739348433,-0.185423900053,0.208428101352
1588857312674492200,1263,1588857312674397974,,0.501740735573,-0.185417108508,0.208433684449
1588857312680663652,1264,1588857312680508523,,0.501743905681,-0.185407427942,0.208441010552
1588857312683504366,1265,1588857312683431942,,0.50174742409,-0.185392087946,0.208446646042
1588857312686476687,1266,1588857312686406215,,0.501750642422,-0.185373362727,0.20845043897
1588857312692604310,1267,1588857312692514433,,0.501753890296,-0.185348265677,0.208452201852
1588857312695586881,1268,1588857312695489761,,0.501757221074,-0.185335283602,0.20845354715
1588857312698591808,1269,1588857312698481027,,0.501760765048,-0.185320799982,0.208456217065
1588857312704800844,1270,1588857312704742367,,0.501764483374,-0.185307837463,0.208458465696
1588857312707478932,1271,1588857312707398935,,0.501767834445,-0.185295066076,0.208460258549
1588857312713581126,1272,1588857312713487439,,0.501771730034,-0.185282673115,0.208460668055
1588857312716728672,1273,1588857312716497745,,0.501776044267,-0.185269136297,0.20846067816
1588857312720784367,1274,1588857312720689901,,0.501780383577,-0.185255909037,0.20845891809
1588857312725655030,1275,1588857312725536581,,0.501784450898,-0.185242662668,0.208459525505
1588857312734580033,1276,1588857312734502359,,0.501791043297,-0.185211209694,0.208458646632
1588857312738044044,1277,1588857312737478362,,0.501794638899,-0.185198026517,0.208458778892
1588857312740607386,1278,1588857312740471677,,0.501797948779,-0.185182823058,0.208454931169
1588857312743600179,1279,1588857312743517103,,0.501801290143,-0.185169604254,0.208453311607
1588857312749616616,1280,1588857312749465957,,0.501803894897,-0.185158392438,0.208449581243
1588857312752587895,1281,1588857312752410652,,0.501805596899,-0.185148090639,0.208447054441
1588857312755639684,1282,1588857312755565898,,0.501807145443,-0.185137398153,0.208442730005
1588857312761489046,1283,1588857312761435597,,0.501808409769,-0.185127964953,0.208439352352
1588857312765197619,1284,1588857312765098273,,0.501808940681,-0.185119233327,0.208435727663
1588857312767662741,1285,1588857312767527015,,0.501809366698,-0.185113382363,0.208431538338
1588857312773672529,1286,1588857312773515074,,0.501809247974,-0.185110271495,0.2084271015
1588857312776532256,1287,1588857312776444372,,0.501809404006,-0.185107393119,0.208424599471
1588857312779544208,1288,1588857312779409714,,0.501809083823,-0.185105776905,0.20842041932
1588857312785521281,1289,1588857312785409649,,0.501807734634,-0.185106698342,0.208415595076
1588857312790261597,1290,1588857312790189002,,0.501806672559,-0.185108064142,0.208410632983
1588857312794543328,1291,1588857312794427598,,0.501806778272,-0.185109766627,0.208405235907
1588857312797647909,1292,1588857312797549227,,0.501805583041,-0.185112813164,0.208395403715
1588857312800609763,1293,1588857312800484633,,0.501805379962,-0.185118743811,0.208378990817
1588857312803709290,1294,1588857312803560800,,0.501804068233,-0.185125924901,0.208359757651
1588857312809676612,1295,1588857312809516973,,0.501802943494,-0.185133051828,0.208346086909
1588857312812772530,1296,1588857312812600335,,0.501802816585,-0.185140233159,0.208331229695
1588857312818556679,1297,1588857312818475110,,0.50180176615,-0.185148829679,0.208318192859
1588857312821544831,1298,1588857312821477596,,0.501799873377,-0.185156220791,0.208304581421
1588857312824913631,1299,1588857312824803068,,0.501796876846,-0.185167227325,0.208284980607
1588857312830646684,1300,1588857312830526212,,0.50179325999,-0.185180584538,0.208264340252
1588857312833617094,1301,1588857312833520940,,0.501788309622,-0.185196645604,0.20825319415
1588857312836623485,1302,1588857312836513834,,0.501782484317,-0.185219481597,0.208234830517
1588857312842674971,1303,1588857312842518154,,0.501774924039,-0.185248023978,0.208222540938
1588857312845591501,1304,1588857312845475128,,0.501768140285,-0.185274065013,0.208210452488
1588857312848581724,1305,1588857312848472270,,0.501761989526,-0.185301924129,0.208195881861
1588857312854600757,1306,1588857312854475546,,0.501754991325,-0.185332614562,0.208175273264
1588857312858112689,1307,1588857312858037340,,0.501750122242,-0.185360231921,0.208160103176
1588857312863627003,1308,1588857312863529685,,0.501743795263,-0.185391308546,0.208140506074
1588857312866534729,1309,1588857312866453301,,0.501738789287,-0.185419486745,0.208120363484
1588857312869624007,1310,1588857312869508264,,0.501733023127,-0.185448296196,0.208101048147
1588857312872638010,1311,1588857312872480979,,0.501728693748,-0.185478667722,0.20808386335
1588857312878573081,1312,1588857312878513089,,0.501723078482,-0.185514116565,0.208067999888
1588857312881605082,1313,1588857312881460370,,0.501718625498,-0.185548099335,0.208050606627
1588857312892210853,1314,1588857312892139837,,0.501712954736,-0.185597647218,0.20801473965
1588857312896565184,1315,1588857312896471518,,0.501711381966,-0.185626701762,0.207997781868
1588857312899518559,1316,1588857312899423954,,0.501710562392,-0.185654962288,0.207983194826
1588857312902720829,1317,1588857312902651004,,0.501709828879,-0.185678014793,0.207969339073
1588857312905869634,1318,1588857312905767738,,0.501710078317,-0.18570178306,0.207957104546
1588857312908516765,1319,1588857312908444354,,0.501712356591,-0.18572364082,0.207944828466
1588857312914546039,1320,1588857312914469796,,0.501715545808,-0.185747429538,0.207933388842
1588857312917559060,1321,1588857312917448829,,0.501718420061,-0.185769705642,0.207923292571
1588857312920596293,1322,1588857312920478217,,0.501722009033,-0.185789268596,0.20791210351
1588857312926652529,1323,1588857312926552058,,0.50172637645,-0.185808468548,0.20789870198
1588857312929569599,1324,1588857312929481701,,0.501730099169,-0.185825452499,0.207889329836
1588857312932558660,1325,1588857312932482843,,0.501733464506,-0.185839835923,0.207881058975
1588857312938566214,1326,1588857312938501080,,0.501739304251,-0.185854965458,0.207870343506
1588857312941534389,1327,1588857312941458383,,0.501744230894,-0.185868404148,0.207859756227
1588857312950593981,1328,1588857312950482965,,0.501754238665,-0.185890265509,0.207840245695
1588857312953528313,1329,1588857312953428660,,0.501759516004,-0.185899233956,0.207833361678
1588857312956531601,1330,1588857312956432943,,0.501763467772,-0.185906828615,0.207819325677
1588857312962576632,1331,1588857312962507410,,0.501768452445,-0.185914126826,0.207808746951
1588857312965652621,1332,1588857312965548538,,0.501771183734,-0.185921887121,0.207791269051
1588857312971523828,1333,1588857312971473433,,0.501775355368,-0.185929696759,0.207776256455
1588857312974593055,1334,1588857312974466592,,0.501779152343,-0.18593478559,0.207760751582
1588857312977544753,1335,1588857312977453730,,0.501782996125,-0.185941009242,0.20774771782
1588857312980568834,1336,1588857312980459442,,0.501786906195,-0.185946668835,0.207729591054
1588857312986574503,1337,1588857312986483446,,0.501790032647,-0.185950880466,0.207710392579
1588857312989585218,1338,1588857312989510289,,0.501793732804,-0.185954925583,0.207699449573
1588857312995579619,1339,1588857312995454965,,0.501798261533,-0.185958223473,0.207680301494
1588857312998549710,1340,1588857312998453559,,0.50180267702,-0.185962352487,0.207659894204
1588857313001940228,1341,1588857313001833728,,0.501806849209,-0.185965843397,0.207644889955
1588857313007555481,1342,1588857313007473030,,0.501810898185,-0.185968634553,0.20762923028
1588857313010606181,1343,1588857313010510455,,0.501815696742,-0.185971582193,0.207609769381
1588857313013564379,1344,1588857313013479355,,0.501819331088,-0.185973880799,0.207589608412
1588857313019632414,1345,1588857313019484943,,0.501823680003,-0.1859777141,0.207573955839
1588857313022604523,1346,1588857313022505927,,0.501827603663,-0.185980716343,0.207551908007
1588857313025545763,1347,1588857313025437494,,0.501832515254,-0.185982552459,0.207532275954
1588857313031557742,1348,1588857313031446734,,0.5018373452,-0.185983042832,0.20750978653
1588857313034608799,1349,1588857313034508464,,0.501843470957,-0.185983275904,0.20748760928
1588857313037612702,1350,1588857313037517564,,0.501849828997,-0.185980639146,0.207467091009
1588857313043682025,1351,1588857313043569665,,0.50185587427,-0.185980568253,0.207443357897
1588857313046565519,1352,1588857313046461734,,0.501861001043,-0.185981555499,0.207419497357
1588857313049543933,1353,1588857313049434695,,0.501867025689,-0.185985159523,0.207399959976
1588857313055640624,1354,1588857313055463858,,0.501872367731,-0.18598950772,0.207376849277
1588857313058609134,1355,1588857313058501768,,0.501876674343,-0.185995017851,0.207353929473
1588857313062534038,1356,1588857313062419296,,0.501881449635,-0.18600124223,0.207332403294
1588857313067557305,1357,1588857313067475743,,0.501886178537,-0.186008437581,0.207310229615
1588857313070670006,1358,1588857313070537928,,0.501890221598,-0.186018145884,0.207288014283
1588857313076713285,1359,1588857313076547288,,0.501894547257,-0.186027254895,0.207268281469
1588857313079706994,1360,1588857313079550120,,0.501898473007,-0.186040293024,0.207243547528
1588857313082676099,1361,1588857313082568584,,0.501902446577,-0.186055254556,0.207224100531
1588857313085651887,1362,1588857313085516362,,0.501905366292,-0.186072655738,0.207200406254
1588857313091863768,1363,1588857313091790592,,0.501908489,-0.186088632145,0.20717902265
1588857313094555752,1364,1588857313094491747,,0.501912515346,-0.186105737566,0.207154269047
1588857313100725505,1365,1588857313100610986,,0.501915380834,-0.186124580586,0.207135898025
1588857313103743724,1366,1588857313103641981,,0.501919618815,-0.1861430272,0.207113779429
1588857313109672917,1367,1588857313109567347,,0.501922423439,-0.18616113655,0.207093317816
1588857313112626911,1368,1588857313112532299,,0.501924414687,-0.186179644696,0.207072173861
1588857313115706915,1369,1588857313115541233,,0.501925768921,-0.186197614559,0.207056296956
1588857313118631679,1370,1588857313118520005,,0.501926477547,-0.186220647494,0.207033509142
1588857313127613469,1371,1588857313127494680,,0.50192289037,-0.186278551321,0.206994768924
1588857313131726847,1372,1588857313131656401,,0.501922447217,-0.186306793105,0.206978245322
1588857313136551181,1373,1588857313136450945,,0.501921885184,-0.186335754569,0.206960502071
1588857313139666277,1374,1588857313139547388,,0.501918678888,-0.186368669309,0.206944625633
1588857313145668302,1375,1588857313145565822,,0.501914531952,-0.18640278677,0.206924963381
1588857313148632869,1376,1588857313148557117,,0.501911574463,-0.186436157586,0.20690718786
1588857313152562405,1377,1588857313152464347,,0.501907672842,-0.186468223521,0.206885379709
1588857313157635807,1378,1588857313157501177,,0.501904958479,-0.186498247005,0.206868670148
1588857313160668418,1379,1588857313160535892,,0.501901095261,-0.18653569766,0.206847457809
1588857313163624789,1380,1588857313163551366,,0.501895905613,-0.186574213154,0.206825477869
1588857313169740988,1381,1588857313169549388,,0.501894052446,-0.186604112911,0.206811181579
1588857313172611622,1382,1588857313172523753,,0.501890614678,-0.18663662536,0.206794150481
1588857313175660889,1383,1588857313175480263,,0.501887964441,-0.186675732365,0.206774719215
1588857313178591557,1384,1588857313178520385,,0.501884564131,-0.18671110624,0.206755384923
1588857313184926530,1385,1588857313184859772,,0.501882450451,-0.186741336923,0.206739335623
1588857313190610974,1386,1588857313190541490,,0.501878111522,-0.186772922876,0.206719712453
1588857313196716935,1387,1588857313196620379,,0.501876741297,-0.186802390866,0.206696998828
1588857313199720998,1388,1588857313199616688,,0.501873930107,-0.186832671247,0.206673997809
1588857313202943385,1389,1588857313202755962,,0.501870277343,-0.186859402859,0.206653413314
1588857313205954118,1390,1588857313205862964,,0.501866490022,-0.186886466651,0.206632655367
1588857313208580864,1391,1588857313208493542,,0.501864068604,-0.186912256354,0.206607801474
1588857313211967837,1392,1588857313211886337,,0.5018613046,-0.18693870754,0.206580451147
1588857313217594832,1393,1588857313217494282,,0.501859112003,-0.186961337893,0.206561146967
1588857313220657257,1394,1588857313220547716,,0.501857637907,-0.186983621313,0.206537476104
1588857313223568949,1395,1588857313223447469,,0.501856092797,-0.18700241696,0.206517123401
1588857313229553503,1396,1588857313229469617,,0.501855863487,-0.187022174157,0.20649830667
1588857313235692152,1397,1588857313235573337,,0.501854497178,-0.187041038748,0.206477190852
1588857313238677228,1398,1588857313238542529,,0.501854683664,-0.187058077173,0.206456637697
1588857313241614371,1399,1588857313241514181,,0.501854920894,-0.187075893469,0.206436917818
1588857313247660785,1400,1588857313247524066,,0.501855385554,-0.187114110446,0.206385051481
1588857313253604422,1401,1588857313253525235,,0.50185631519,-0.187130529851,0.206360230692
1588857313256715024,1402,1588857313256609472,,0.5018565372,-0.187149774094,0.206324495145
1588857313259691443,1403,1588857313259595075,,0.501855843482,-0.187169671102,0.206294134643
