%time,field.header.seq,field.header.stamp,field.header.frame_id,field.wrench.force.x,field.wrench.force.y,field.wrench.force.z,field.wrench.torque.x,field.wrench.torque.y,field.wrench.torque.z
1588764567915932912,899,1588764567915807923,,0.0,0.0,0.0,0.0,0.0,0.0
1588764567918873610,900,1588764567918726054,,0.0,0.0,0.0,0.0,0.0,0.0
1588764567921874767,901,1588764567921775519,,0.0,0.0,0.0,0.0,0.0,0.0
1588764567927990350,902,1588764567927901461,,0.0,0.0,0.0,0.0,0.0,0.0
1588764567930948885,903,1588764567930849038,,0.0,0.0,0.0,0.0,0.0,0.0
1588764567934017040,904,1588764567933878683,,0.0,0.0,0.0,0.0,0.0,0.0
1588764567940080388,905,1588764567939933649,,0.0,0.0,0.0,0.0,0.0,0.0
1588764567943122782,906,1588764567942952709,,0.0,0.0,0.0,0.0,0.0,0.0
1588764567945907226,907,1588764567945819540,,0.0,0.0,0.0,0.0,0.0,0.0
1588764567951983005,908,1588764567951867725,,-0.000997092557666,1.300333353e-06,0.00189937103131,0.0,0.0,0.0
1588764567954981817,909,1588764567954872404,,-0.000997123793435,1.29413464491e-06,0.0018993546377,0.0,0.0,0.0
1588764567957999812,910,1588764567957819765,,-0.0115718275571,2.00742508474e-05,0.0111130520684,0.0,0.0,0.0
1588764567964006434,911,1588764567963849470,,-0.002058481636,4.0276052791e-06,0.000978802598793,0.0,0.0,0.0
1588764567967149770,912,1588764567966961172,,-0.00205849279112,4.03433487953e-06,0.00097877911082,0.0,0.0,0.0
1588764567970404917,913,1588764567970250731,,-0.000997169890634,1.3712324453e-06,0.00189933038277,0.0,0.0,0.0
1588764567975996072,914,1588764567975901097,,-0.000997171052455,1.39556704853e-06,0.00189932975508,0.0,0.0,0.0
1588764567978868335,915,1588764567978726409,,0.0,0.0,0.0,0.0,0.0,0.0
1588764567981973449,916,1588764567981835979,,0.0,0.0,0.0,0.0,0.0,0.0
1588764567987960257,917,1588764567987843943,,0.0,0.0,0.0,0.0,0.0,0.0
1588764567990963954,918,1588764567990857354,,0.0,0.0,0.0,0.0,0.0,0.0
1588764567993958207,919,1588764567993858385,,0.0,0.0,0.0,0.0,0.0,0.0
1588764567999936992,920,1588764567999842496,,-0.0202966429824,4.49945997793e-05,-0.000366413877213,0.0,0.0,0.0
1588764568009041563,921,1588764568008908071,,0.0,0.0,0.0,0.0,0.0,0.0
1588764568011877349,922,1588764568011775539,,0.0,0.0,0.0,0.0,0.0,0.0
1588764568014983647,923,1588764568014870316,,0.0,0.0,0.0,0.0,0.0,0.0
1588764568017948342,924,1588764568017841666,,0.0,0.0,0.0,0.0,0.0,0.0
1588764568024019227,925,1588764568023884549,,0.0,0.0,0.0,0.0,0.0,0.0
1588764568026938985,926,1588764568026843001,,0.0,0.0,0.0,0.0,0.0,0.0
1588764568033035398,927,1588764568032858421,,0.0,0.0,0.0,0.0,0.0,0.0
1588764568036003725,928,1588764568035852492,,0.0,0.0,0.0,0.0,0.0,0.0
1588764568038983215,929,1588764568038873738,,-0.00205845001572,4.11220534211e-06,0.000978868743655,0.0,0.0,0.0
1588764568044984071,930,1588764568044879137,,-0.00205841471294,4.04284413452e-06,0.00097894326685,0.0,0.0,0.0
1588764568048006132,931,1588764568047889498,,-0.0317687902984,-0.0879720827675,0.0302934847699,0.00505409074079,0.00305269901893,0.00136955305518
1588764568050940031,932,1588764568050829228,,-0.0317692617115,-0.0879724864229,0.0302918181339,0.00505411152904,0.00305264189907,0.00136960365632
1588764568057107836,933,1588764568056930594,,-0.0343319974024,-0.0934471313319,0.0650292592009,0.0112148265349,0.00442994429314,0.0015568649929
1588764568059989642,934,1588764568059874934,,-0.0231511378597,-0.224830173026,0.157423021662,0.0238642388826,0.00522686180434,0.000981690392947
1588764568063139275,935,1588764568063003920,,-0.0236876321955,-0.22651238264,0.178455499355,0.0300493275725,0.00553968447707,0.0018213439115
1588764568069014008,936,1588764568068900754,,-0.0450387119762,-0.229949231198,0.221137184838,0.0361483113805,0.00630119692695,0.00187227579694
1588764568072084945,937,1588764568071981749,,-0.0692685931022,-0.236987139552,0.331602237911,0.0518137704154,0.00612818958881,0.00211846157721
1588764568075040503,938,1588764568074919954,,-0.0706844602127,-0.239192103593,0.376612373179,0.0597691206174,0.00741309117606,0.00229108513228
1588764568080983648,939,1588764568080874765,,-0.0524892713689,-0.493848518776,0.432427429149,0.0667723196994,0.0069155967504,0.00256265713343
1588764568084019972,940,1588764568083829754,,-0.0764285301151,-0.497059717126,0.522101997947,0.0789719154704,0.00702983856058,0.00432174408412
1588764568087034224,941,1588764568086895540,,-0.0778133251369,-0.626695561092,0.548537723813,0.0852219970345,0.0070729404665,0.00528713942257
1588764568092933704,942,1588764568092847268,,-0.0787842642172,-0.628008044711,0.593799648271,0.0904173412913,0.00710413795065,0.00540492749528
1588764568096090081,943,1588764568095884076,,-0.0585264229326,-0.759531072842,0.665359683835,0.103700010116,0.00716775418804,0.00582992199334
1588764568099026619,944,1588764568098884834,,-0.0599595934101,-0.890922180041,0.713661726706,0.1162257235,0.00720883778938,0.00524854460627
1588764568105001053,945,1588764568104895949,,-0.059979366071,-0.890918531828,0.713664619544,0.116225719584,0.00720766482111,0.00525024197948
1588764568108033413,946,1588764568107914775,,-0.0400897294444,-1.15466507679,0.809753588856,0.135838477637,0.00661634092445,0.00235132900843
1588764568110970522,947,1588764568110878142,,-0.0400905975583,-1.1546693579,0.809747441206,0.135838508964,0.00661586686608,0.0023508530316
1588764568117044597,948,1588764568116931710,,-0.0409286395554,-1.15544989685,0.855391953447,0.143799511779,0.0059985822926,0.00163430938397
1588764568120250358,949,1588764568120098393,,-0.0203225301087,-1.28827892731,0.949101331901,0.158835850255,0.00536404338369,-0.00143319319831
1588764568123539072,950,1588764568123410074,,-0.0215557027561,-1.28933174198,1.0176604786,0.173107144636,0.00471953805773,-0.00468546280883
1588764568129108239,951,1588764568128985864,,-0.0215288992452,-1.28933624019,1.01765534694,0.173107032015,0.00472109630985,-0.0046880530843
1588764568131991807,952,1588764568131895610,,-0.0230981262395,-1.42171354367,1.08815801305,0.190152184991,0.00406597418567,-0.00879774960288
1588764568134979044,953,1588764568134849594,,-0.0235113292793,-1.42202926,1.11106275585,0.194608664852,0.0040621057643,-0.00961543708952
1588764568141016963,954,1588764568140909667,,-0.0234992149757,-1.42203696897,1.1110531455,0.19460851869,0.00406119888549,-0.00961877778609
1588764568144017877,955,1588764568143918230,,0.0193976921652,-1.68677776855,1.2297910624,0.208651939538,0.00340580689793,-0.0152771518064
1588764568146971948,956,1588764568146858617,,0.0194008254589,-1.6867556234,1.22982138662,0.208651807046,0.00340441809352,-0.0152792707526
1588764568152862229,957,1588764568152734344,,0.0185934206795,-1.6872393253,1.27579264874,0.212035459349,0.00274825958722,-0.0161156429303
1588764568156017616,958,1588764568155888106,,0.0173876381817,-1.68799107617,1.34485232725,0.224507230068,0.00207853068083,-0.0203689554353
1588764568158995985,959,1588764568158892003,,0.0173719481294,-1.68794606128,1.3449090285,0.224507474104,0.00207791036518,-0.0203663287805
1588764568165069871,960,1588764568164862582,,0.0399208269543,-1.6882173283,1.36838474925,0.22714222578,0.00207142665357,-0.0219563712488
1588764568167996916,961,1588764568167904184,,0.0619947531736,-1.68876510926,1.41494006059,0.236125922991,0.00141212931005,-0.0270063525256
1588764568174377532,962,1588764568174248144,,0.106878522733,-1.82105978892,1.46315238317,0.248826726627,0.00138896942339,-0.0345511320025
1588764568176946973,963,1588764568176798376,,0.106938034504,-1.82106040295,1.46314727058,0.248824965295,0.00138683564884,-0.034563899884
1588764568179951366,964,1588764568179843710,,0.106216387671,-1.82157114158,1.50922347711,0.256851286138,0.000721709570456,-0.0380296147783
1588764568186104300,965,1588764568185958526,,0.106216267722,-1.82160737733,1.50917974941,0.256851448527,0.000723538137522,-0.038028483239
1588764568188843361,966,1588764568188763760,,0.151222537792,-1.95397729315,1.55731047661,0.265841085559,-0.000592501819788,-0.0438761892626
1588764568191837752,967,1588764568191734472,,0.151273337004,-1.9539892247,1.55729057208,0.268652495457,-0.000596581648052,-0.0465259528094
1588764568197993550,968,1588764568197858514,,0.150910638785,-1.95423886477,1.58038119621,0.273142853269,-0.00125063808398,-0.04914595467
1588764568201027581,969,1588764568200897277,,0.173082509291,-1.95478139103,1.62686026123,0.278440718223,-0.0019129418185,-0.0534073113925
1588764568204050263,970,1588764568203933584,,0.196152996338,-1.95486721052,1.62729335333,0.281250218252,-0.00191559508692,-0.0559074007973
1588764568210019870,971,1588764568209891456,,0.195818775234,-1.9550894488,1.650325181,0.283889727116,-0.00191566705171,-0.0576721666921
1588764568213034084,972,1588764568212911441,,0.217941340249,-1.95561026015,1.69696717029,0.290133146007,-0.00323209615323,-0.0628062082176
1588764568216133501,973,1588764568215961498,,0.217889922722,-1.95562973906,1.6969513251,0.29013498655,-0.0032316211601,-0.0627977296777
1588764568221930264,974,1588764568221819520,,0.217486599676,-1.95585502048,1.71999793892,0.290926994244,-0.00322882480161,-0.0636736453622
1588764568224960748,975,1588764568224853719,,0.239926777261,-2.0879369153,1.7447147237,0.296383786904,-0.00324379530923,-0.0679318112431
1588764568230925154,976,1588764568230831715,,0.261960748868,-2.22028308224,1.79234242488,0.304428090238,-0.0039236899633,-0.0721823796747
1588764568233990417,977,1588764568233874868,,0.261934286221,-2.22029698234,1.79232907335,0.304428575762,-0.00392508801469,-0.0721802559446
1588764568237024545,978,1588764568236916119,,0.284596266094,-2.22059170706,1.81582925468,0.308005888593,-0.00459526339519,-0.0746785477287
1588764568239984041,979,1588764568239838555,,0.284410078677,-2.35250194037,1.81687001036,0.311706114171,-0.00460958749651,-0.0764318140426
1588764568245991448,980,1588764568245853097,,0.283974053576,-2.35270752916,1.8400155195,0.315290559965,-0.00462300901771,-0.0790760999584
1588764568248928159,981,1588764568248838700,,0.329299378561,-2.35326673023,1.88703402095,0.322456992298,-0.00529667407129,-0.0850026862266
1588764568255080310,982,1588764568254972747,,0.328863272313,-2.35344900372,1.91011803928,0.326946574203,-0.0053134323034,-0.0876497253645
1588764568257947400,983,1588764568257861419,,0.350969181688,-2.48589579119,1.95773295965,0.33505983595,-0.00665781809051,-0.0946113389185
1588764568261088045,984,1588764568260969998,,0.373530469192,-2.61816289643,1.98218679261,0.342353649455,-0.00734396970047,-0.0997937988788
1588764568264052900,985,1588764568263886375,,0.395803096776,-2.75067148349,2.02974813542,0.3476304419,-0.00800704261533,-0.103199148983
1588764568270413562,986,1588764568270210079,,0.395787900215,-2.75063290502,2.02980337831,0.347629862445,-0.00801236692861,-0.103200687646
1588764568273342894,987,1588764568273229469,,0.418118458369,-2.75100563595,2.076460399,0.356609357252,-0.0086986896037,-0.108365365074
1588764568279009359,988,1588764568278909103,,0.440035218687,-2.88366323592,2.14711864012,0.36643052754,-0.00872209336096,-0.116231984673
1588764568282025152,989,1588764568281948246,,0.462779217744,-2.88390773004,2.17064347216,0.369087464265,-0.00872607082124,-0.118772440459
1588764568285258132,990,1588764568285053040,,0.462794822893,-2.88389753557,2.17065368939,0.36908855842,-0.00872201471304,-0.118769338237
1588764568288111376,991,1588764568288010624,,0.462734703076,-3.0160695454,2.17140311393,0.370958454926,-0.00938328216082,-0.120562309085
1588764568294005219,992,1588764568293903571,,0.484757067069,-3.01661589796,2.24122151841,0.380719672609,-0.0107252470244,-0.126629088072
1588764568296970683,993,1588764568296888522,,0.484812430197,-3.01665619579,2.24115530216,0.380719206828,-0.010716972759,-0.126631189001
1588764568305976641,994,1588764568305877704,,0.55258063734,-3.1497097413,2.33569761429,0.395063856276,-0.0114103019405,-0.138688110662
1588764568308986161,995,1588764568308904139,,0.552557718768,-3.14971796552,2.3356919458,0.395063574452,-0.0114133556212,-0.138688662191
1588764568311970272,996,1588764568311891447,,0.574931104265,-3.15010819868,2.38242431712,0.400290861933,-0.0120768330413,-0.140294104221
1588764568318195819,997,1588764568318057171,,0.574636513015,-3.15027287359,2.40548565577,0.40388785618,-0.0127458092073,-0.143894032711
1588764568321177667,998,1588764568321075226,,0.643433383446,-3.15080108771,2.45308220497,0.412951316948,-0.0127667731941,-0.152409166174
1588764568327159311,999,1588764568327042577,,0.665756726758,-3.1512186529,2.49981746724,0.418201909891,-0.0134454306889,-0.154915632712
1588764568330057422,1000,1588764568329918184,,0.688171224182,-3.15153813929,2.54658908826,0.426305329499,-0.0141431319325,-0.161932435521
1588764568333064615,1001,1588764568332879580,,0.687610803922,-3.15169123301,2.56984467207,0.430819600797,-0.0148258716732,-0.165495476416
1588764568339056865,1002,1588764568338946096,,0.709977789244,-3.15207752491,2.61652791847,0.435208520848,-0.014829885703,-0.169825228373
1588764568341982231,1003,1588764568341890233,,0.732349366961,-3.28462802962,2.66394316108,0.443245520893,-0.0155006430549,-0.174124901714
1588764568345084155,1004,1588764568344929072,,0.778498325073,-3.28477512277,2.66495323047,0.445160510474,-0.0155272145211,-0.177426749132
1588764568350925823,1005,1588764568350845406,,0.778075000997,-3.28491184919,2.68809289398,0.447796474625,-0.0162052647263,-0.179205994607
1588764568354064880,1006,1588764568353911810,,0.777278004213,-3.41750522722,2.73490220945,0.453993983296,-0.0168498803988,-0.182768612581
1588764568356973307,1007,1588764568356821270,,0.799915464121,-3.54989479968,2.75920048303,0.457524031892,-0.0168733148053,-0.18348448076
1588764568366111586,1008,1588764568365990327,,0.844943892348,-3.68277509166,2.83013657234,0.466442963867,-0.0182273918807,-0.192153506961
1588764568369385462,1009,1588764568369163498,,0.867261126168,-3.68311119867,2.87688667707,0.473583273181,-0.018908957702,-0.197365743776
1588764568378029302,1010,1588764568377950559,,0.959241196218,-3.81594449789,2.92568759574,0.488224768906,-0.019621439703,-0.21024508264
1588764568381132888,1011,1588764568380973464,,0.959234756092,-3.81591043364,2.92573413633,0.488222918791,-0.0196282731244,-0.210248741031
1588764568384060273,1012,1588764568383812963,,0.935086697197,-3.81597833299,2.97170249909,0.490690730488,-0.0203167027715,-0.211272851864
1588764568386974797,1013,1588764568386868480,,0.980745556922,-3.81641680763,3.01897466296,0.500645275456,-0.0210149011063,-0.219053129722
1588764568389995287,1014,1588764568389886192,,0.980749052189,-3.81640911299,3.01898325459,0.500646975619,-0.0210117095378,-0.219049550128
1588764568396169649,1015,1588764568395908517,,1.00340691594,-3.81659786485,3.04268579274,0.505137506402,-0.0210356129503,-0.221548916019
1588764568399029871,1016,1588764568398932817,,1.02542386909,-3.94927274621,3.11323634271,0.517657198235,-0.0223762040294,-0.228528575741
1588764568401939694,1017,1588764568401866316,,1.02575756967,-3.94927588046,3.11312243401,0.517650459747,-0.0223422545643,-0.228547160354
1588764568404986961,1018,1588764568404863150,,1.04852551819,-3.94943896637,3.13682025351,0.520286343053,-0.0216961774204,-0.230180663798
1588764568411170333,1019,1588764568410967727,,1.0477878511,-4.08191242987,3.18375628466,0.524581454613,-0.0223661445505,-0.231058673697
1588764568414045439,1020,1588764568413921016,,1.11682283741,-4.2147425302,3.23179341074,0.531710602646,-0.0216830680591,-0.236002122273
1588764568419970869,1021,1588764568419888342,,1.1165139997,-4.21481266639,3.25497139578,0.535257559586,-0.0216946636,-0.237788242781
1588764568423016968,1022,1588764568422942710,,1.11549486591,-4.21514916125,3.32448030916,0.544904688573,-0.0230470065522,-0.239515710556
1588764568425948037,1023,1588764568425854842,,1.11555784324,-4.21516712434,3.32443640122,0.544903933218,-0.0230384747262,-0.239518249804
1588764568428957450,1024,1588764568428865829,,1.09193629728,-4.21515619727,3.34717027224,0.547517090907,-0.0230460089949,-0.240545723111
1588764568435083073,1025,1588764568434950687,,1.11486249855,-4.21530105875,3.37093418975,0.551058789313,-0.0230568683638,-0.242178383579
1588764568437992723,1026,1588764568437899115,,1.13723502915,-4.2155621927,3.41777158888,0.559960513461,-0.0230949542818,-0.244665288112
1588764568440966536,1027,1588764568440879179,,1.16048489193,-4.34795521492,3.41869945538,0.562762726661,-0.0230999863232,-0.24722880904
1588764568446900647,1028,1588764568446826533,,1.18285223395,-4.34831843998,3.46550675054,0.568915958305,-0.0231229384056,-0.249738409985
1588764568450050359,1029,1588764568449953915,,1.20543658273,-4.34858564093,3.51230201061,0.575049237602,-0.023803947527,-0.251352496464
1588764568456080981,1030,1588764568455856059,,1.20495202735,-4.34874568302,3.53553336429,0.58041226319,-0.0238200650561,-0.252196912018
1588764568458942778,1031,1588764568458864319,,1.20316483106,-4.48154175953,3.62874505637,0.59088128291,-0.0245223656969,-0.255706138652
1588764568461954790,1032,1588764568461865102,,1.22526942328,-4.48189857761,3.69872853071,0.599606791448,-0.0245531958334,-0.257286602171
1588764568468025798,1033,1588764568467858822,,1.22522305084,-4.48197475456,3.69865158385,0.59960709022,-0.0245538568649,-0.257285842798
1588764568471163104,1034,1588764568471074455,,1.27001205318,-4.61487782556,3.79281221675,0.617437381575,-0.0245994334388,-0.263137679257
1588764568474306504,1035,1588764568474143999,,1.26991245272,-4.6149005738,3.79281788753,0.617440639956,-0.0246053279499,-0.263129482393
1588764568479942055,1036,1588764568479857335,,1.29260517111,-4.7474707799,3.8169275309,0.621859382306,-0.0246123021331,-0.262925548814
1588764568486220248,1037,1588764568486109654,,1.31399510615,-4.74803521959,3.93336903179,0.637716765025,-0.0253111939799,-0.268958022491
1588764568491996896,1038,1588764568491895387,,1.31362377502,-4.74805893615,3.95663228453,0.642193880394,-0.0259690582342,-0.270702802364
1588764568494938443,1039,1588764568494839584,,1.31363487844,-4.74795167898,3.95675730601,0.64219311718,-0.0259764038191,-0.270703908173
1588764568497977916,1040,1588764568497828697,,1.31359954803,-4.74789961295,3.95683151159,0.643059343686,-0.0259858140066,-0.268871602469
1588764568503949613,1041,1588764568503846353,,1.31309472069,-4.88023373197,3.98067708611,0.648441436096,-0.0253459883269,-0.270621889251
1588764568506924020,1042,1588764568506840734,,1.31305406968,-4.88021933783,3.98070814213,0.64844102239,-0.0253535302187,-0.270622174073
1588764568509979379,1043,1588764568509907184,,1.33571187162,-4.88043055696,4.00434903268,0.650125049769,-0.0253742574653,-0.270446809758
1588764568516003390,1044,1588764568515860886,,1.33544872577,-4.88045934171,4.00440171756,0.651034651998,-0.0254082543179,-0.270427907317
1588764568518742104,1045,1588764568518654289,,1.31137568787,-4.8806504204,4.05023836045,0.656198489682,-0.0254332893138,-0.269606642982
1588764568521798343,1046,1588764568521716728,,1.31132095371,-4.88084030793,4.05002725203,0.658019697408,-0.0254432824478,-0.269593643799
1588764568527838383,1047,1588764568527762884,,1.33400888794,-4.8809784868,4.07385088102,0.66069294529,-0.0254577584304,-0.272133183542
1588764568530838118,1048,1588764568530723650,,1.3102939675,-4.88099583563,4.11978601766,0.667729972593,-0.0260959860379,-0.273096254079
1588764568533917438,1049,1588764568533819503,,1.3100940137,-5.01352618355,4.14319081446,0.673066761804,-0.0260574773095,-0.27303166455
1588764568539898029,1050,1588764568539788054,,1.30988004795,-5.01365343919,4.14310447545,0.6730661447,-0.0260804445222,-0.273030992908
1588764568543069945,1051,1588764568542990377,,1.33129247354,-5.01428618995,4.21308778464,0.678976678089,-0.0255112409189,-0.27097597217
1588764568545948273,1052,1588764568545866541,,1.35419873899,-5.01447436219,4.23671948017,0.682529392485,-0.0255178382111,-0.272608768974
1588764568551911877,1053,1588764568551803076,,1.35432264298,-5.01433106333,4.23684947495,0.682533914376,-0.0254994368231,-0.272599169191
1588764568554880961,1054,1588764568554787766,,1.3081426408,-5.14620223935,4.2134236846,0.685410811711,-0.0254904166712,-0.271926398446
1588764568557892187,1055,1588764568557811457,,1.30752116502,-5.14631853481,4.25992795448,0.690623767481,-0.0254793121912,-0.272763935254
1588764568563820673,1056,1588764568563737223,,1.30696470577,-5.14653026159,4.25984292674,0.690621606424,-0.025548176147,-0.27276296554
1588764568566959123,1057,1588764568566873659,,1.3058011586,-5.14695261754,4.28286887577,0.692218393505,-0.0249828055596,-0.269099888747
1588764568570320068,1058,1588764568570161312,,1.37514995799,-5.27958716877,4.307861184,0.695777379475,-0.0249913811943,-0.271359155365
1588764568576053009,1059,1588764568575864600,,1.35208536287,-5.14705382753,4.33028165244,0.697432857003,-0.0242900464544,-0.270586492232
1588764568578907209,1060,1588764568578824723,,1.32832249827,-5.14706424038,4.37631318429,0.71002460837,-0.0249471178407,-0.27421145077
1588764568584919763,1061,1588764568584811475,,1.3285928507,-5.1469346615,4.37638351477,0.710019770785,-0.0249276055391,-0.274225750959
1588764568587962612,1062,1588764568587841458,,1.37390368327,-5.27973085181,4.44733024633,0.717898239076,-0.0249403024227,-0.278397721491
1588764568590902417,1063,1588764568590808030,,1.35005295975,-5.27979854329,4.49325914605,0.724943237996,-0.0256106161794,-0.279375404691
1588764568597024274,1064,1588764568596871835,,1.34950406554,-5.28007925972,4.493094167,0.724938610369,-0.0256817329416,-0.2793808843
1588764568599949553,1065,1588764568599872106,,1.41800719211,-5.28063342392,4.56410105466,0.7355686122,-0.0257072068848,-0.283332227274
1588764568603022805,1066,1588764568602942922,,1.41825486052,-5.28042908451,4.56426051249,0.735567187881,-0.0256873895979,-0.283337722303
1588764568609168422,1067,1588764568609036332,,1.39386034837,-5.41287235442,4.63397162768,0.745211803544,-0.0256692932786,-0.284253290694
1588764568612062138,1068,1588764568611975044,,1.39416691042,-5.41277976427,4.63398755841,0.745212098084,-0.0256306137884,-0.284256008796
1588764568617954361,1069,1588764568617810052,,1.39284985708,-5.41326109229,4.65700270885,0.746874748541,-0.0257483821317,-0.283319777115
1588764568620958691,1070,1588764568620825745,,1.41495780858,-5.54591886948,4.7043478639,0.754850373493,-0.0257865761095,-0.284878595711
1588764568623918139,1071,1588764568623835542,,1.41531145458,-5.54573634801,4.70445665049,0.754852588756,-0.025742698577,-0.284876694173
1588764568626940703,1072,1588764568626829649,,1.41572888869,-5.54550225073,4.70460700084,0.755791517643,-0.0256998436721,-0.28577751061
1588764568632887106,1073,1588764568632753309,,1.43882644473,-5.54562205803,4.72822261478,0.759355321811,-0.0249991834527,-0.288320907477
1588764568636002965,1074,1588764568635781485,,1.41333663228,-5.54626040607,4.79725986959,0.765187593615,-0.0258247628586,-0.282910227476
1588764568641864454,1075,1588764568641774136,,1.45986040838,-5.54640868327,4.79818225366,0.768006500689,-0.0251767432601,-0.286238266427
1588764568644863923,1076,1588764568644773670,,1.43588842155,-5.67879666762,4.84451459356,0.77505660776,-0.0258159993962,-0.287202214955
1588764568647911919,1077,1588764568647755854,,1.43553168263,-5.67876901137,4.89111738882,0.780282197223,-0.0257949638377,-0.288972171143
1588764568650863114,1078,1588764568650764536,,1.45842501083,-5.67896046739,4.93792767377,0.790104181059,-0.0264257561219,-0.291426533611
1588764568656940412,1079,1588764568656801877,,1.45838399211,-5.67896214467,4.93793785955,0.790105800916,-0.0264275979956,-0.291421974857
1588764568659789253,1080,1588764568659714569,,1.45798649593,-5.81147301276,4.96152352285,0.79735279688,-0.0264277047994,-0.294984830085
1588764568665935483,1081,1588764568665762874,,1.45781330042,-5.81142994599,4.98480847246,0.8008892492,-0.0270729297932,-0.295837000051
1588764568668931054,1082,1588764568668841270,,1.5252207864,-5.81251731525,5.05551468568,0.805914735146,-0.0259158027742,-0.295329643733
1588764568671986155,1083,1588764568671873739,,1.52502935483,-5.81253252189,5.05555495207,0.805921811498,-0.025924970398,-0.295309527932
1588764568675052787,1084,1588764568674830817,,1.50218926604,-5.81226765617,5.05520406634,0.807689133715,-0.0258895904968,-0.292709749374
1588764568680902984,1085,1588764568680805315,,1.47877848819,-5.81206239332,5.07810895466,0.809425947281,-0.0258381235604,-0.294634341313
1588764568683875713,1086,1588764568683768694,,1.50249061619,-5.81192357631,5.07869174472,0.8141007354,-0.0264574560131,-0.298987832761
1588764568692847755,1087,1588764568692743056,,1.52512327574,-5.81199136629,5.1256873272,0.818502789209,-0.02644090962,-0.304246356384
1588764568695836407,1088,1588764568695754738,,1.52486602316,-5.81200559669,5.14902787391,0.819260694241,-0.0270777022143,-0.303305969134
1588764568698859991,1089,1588764568698761681,,1.47661551784,-5.81263260921,5.14774215724,0.819156823236,-0.0266260855207,-0.299042214519
1588764568704857606,1090,1588764568704761827,,1.54653604292,-5.81286559791,5.14908972086,0.821015349465,-0.0253076001001,-0.300408798487
1588764568707838847,1091,1588764568707765799,,1.5230168106,-5.94503712029,5.17234376679,0.826333974948,-0.0259543357548,-0.29957832308
1588764568713848960,1092,1588764568713780989,,1.50015635106,-5.94477449191,5.17200103991,0.827272286622,-0.0258943769546,-0.300609678172
1588764568716926714,1093,1588764568716807813,,1.57000618802,-5.94485662936,5.19667858683,0.833653724924,-0.0265218472976,-0.30646591049
1588764568719840159,1094,1588764568719751393,,1.59309286796,-5.81237584827,5.22025081369,0.835417194697,-0.0265445741852,-0.309949880423
1588764568725813782,1095,1588764568725736468,,1.59342402654,-5.81225664977,5.22028245924,0.838198310508,-0.0265207211185,-0.311757517202
1588764568728912612,1096,1588764568728771435,,1.64081422958,-5.81219576448,5.19795372267,0.839350803581,-0.0271294053579,-0.316008087613
1588764568731807687,1097,1588764568731717982,,1.64033653286,-5.81207499818,5.22141003175,0.841071426501,-0.0264768968399,-0.317806457705
1588764568738152959,1098,1588764568738025249,,1.66388589989,-5.81211183503,5.22183418231,0.842025704638,-0.0271241506226,-0.319474470819
1588764568740920389,1099,1588764568740815401,,1.59471627566,-5.81184083469,5.19717575876,0.838461831586,-0.0264008337858,-0.317234642226
1588764568743883302,1100,1588764568743768204,,1.56934476938,-5.81271802699,5.19628052184,0.835560082868,-0.0260018409151,-0.310113958884
1588764568750125294,1101,1588764568750053492,,1.61559109686,-5.94530466142,5.19754369023,0.83280708658,-0.0246829767393,-0.309871043672
1588764568752869316,1102,1588764568752791283,,1.59322543201,-5.94494842666,5.17396913743,0.83021325064,-0.0246218017769,-0.310064942606
1588764568759039240,1103,1588764568758953666,,1.66298483374,-5.94517700044,5.19850960854,0.833790143517,-0.0245854095395,-0.313217663176
1588764568761873838,1104,1588764568761808110,,1.66354105849,-5.9450421711,5.19848583768,0.833785167128,-0.0245238968124,-0.313235732119
1588764568764847118,1105,1588764568764760005,,1.66376603678,-5.94485121474,5.19863221276,0.835701613814,-0.0245076892561,-0.316866658577
1588764568767913195,1106,1588764568767816623,,1.66399883417,-5.94481525633,5.19859882295,0.835721765276,-0.0251447393902,-0.317787302189
1588764568774240156,1107,1588764568774115415,,1.66427656514,-5.94470505734,5.19863593359,0.83667277233,-0.0251061947069,-0.319592945619
1588764568777227794,1108,1588764568777079297,,1.71002694773,-6.07729640598,5.24650544604,0.842895619278,-0.0244497898812,-0.324700618631
1588764568783074050,1109,1588764568782950626,,1.7101263868,-6.07725199905,5.24652447289,0.842894217614,-0.0244412818391,-0.32470489774
1588764568785971119,1110,1588764568785865853,,1.64066867826,-6.07680831882,5.22202832571,0.838300346908,-0.0244205052159,-0.31698803365
1588764568789237319,1111,1588764568789067858,,1.63867876687,-6.07771321686,5.22160002706,0.838292905009,-0.0246712345241,-0.316988299117
1588764568791977976,1112,1588764568791868661,,1.70846123553,-6.07798002389,5.22295603273,0.83736475651,-0.0233677304688,-0.31656334508
1588764568798106102,1113,1588764568797989492,,1.70936399269,-6.07768667966,5.19983487467,0.83655469109,-0.0233116632842,-0.314752538687
1588764568800904805,1114,1588764568800831235,,1.64011362577,-6.07724429164,5.17535068198,0.833036423748,-0.0232504698306,-0.314324041965
1588764568806904586,1115,1588764568806831026,,1.68687152284,-6.07729360919,5.19947855698,0.832942447937,-0.0231983936929,-0.31679081109
1588764568810164770,1116,1588764568810026388,,1.71087549576,-6.07704175071,5.1769263518,0.833160880767,-0.0231765975829,-0.320299562279
1588764568813057529,1117,1588764568812957045,,1.73487000952,-6.0769609017,5.15414080421,0.833449240028,-0.0231312923034,-0.326550573297
1588764568816316273,1118,1588764568816220511,,1.73511091731,-6.07694021645,5.15408409814,0.833454444594,-0.0230852919153,-0.326540544788
1588764568821995244,1119,1588764568821898794,,1.75832267393,-6.07702332655,5.17772655385,0.833337919597,-0.0230579461921,-0.328230230856
1588764568825144172,1120,1588764568825002318,,1.75805331692,-6.07706296922,5.20093308922,0.834181827956,-0.0237211366411,-0.33188181714
1588764568827950481,1121,1588764568827813473,,1.75860532237,-6.07699006319,5.17766960085,0.832502210034,-0.0237030101847,-0.331915593463
1588764568833935587,1122,1588764568833827886,,1.7804560005,-6.07796556703,5.15437213216,0.827935386839,-0.0219022019056,-0.325432467713
1588764568836902015,1123,1588764568836834973,,1.78025743041,-6.07804972066,5.15434148608,0.827938069571,-0.0219197318039,-0.325424462175
1588764568846060395,1124,1588764568845964134,,1.71247619199,-5.94484225468,5.08307740266,0.821958233812,-0.0224762326501,-0.325035654786
1588764568849068071,1125,1588764568848948493,,1.75869785776,-5.94502749978,5.13038326169,0.823527486288,-0.0224270984734,-0.326549321369
1588764568852135332,1126,1588764568852030504,,1.75900105893,-5.9448415019,5.13049484278,0.822698477409,-0.0223934580542,-0.330221094176
1588764568858062152,1127,1588764568857957630,,1.75929324431,-5.94477967973,5.13046629264,0.822699070611,-0.0223526070788,-0.330222384017
1588764568861025406,1128,1588764568860932527,,1.80658248841,-5.94472167996,5.10819411193,0.822067786756,-0.0223135354015,-0.336340015245
1588764568867222900,1129,1588764568867110466,,1.80673155936,-5.94470327583,5.10816280667,0.822068229677,-0.0222914144674,-0.336340399499
1588764568870417833,1130,1588764568870283419,,1.80681267015,-5.94463012662,5.10821924524,0.822085388693,-0.0222906106809,-0.337258817135
1588764568873443420,1131,1588764568873343428,,1.80677301596,-5.9446107809,5.10825578423,0.821219114994,-0.0222692775984,-0.339077109778
1588764568879154939,1132,1588764568879058571,,1.78415244324,-6.07675320804,5.06178789884,0.816789180269,-0.0215986154923,-0.331977321464
1588764568882115233,1133,1588764568881985755,,1.80583244773,-5.94519326695,5.08475264738,0.815689088325,-0.0211063522293,-0.330937533701
1588764568885101029,1134,1588764568884989019,,1.80549595638,-5.94530705795,5.08473909202,0.815692468994,-0.0211412988577,-0.330926970247
1588764568891109960,1135,1588764568891008587,,1.80581233242,-5.94524771027,5.08469613441,0.815671020158,-0.0211013177733,-0.330021724742
1588764568894014440,1136,1588764568893859162,,1.73643081346,-5.94491579176,5.06012063154,0.81392865112,-0.0210603408689,-0.326824936624
1588764568900020022,1137,1588764568899906097,,1.76002182838,-5.94481459117,5.0606908011,0.814875132743,-0.0203673478209,-0.328492977287
1588764568906015463,1138,1588764568905918136,,1.76045550234,-5.94462347133,5.06076446326,0.814028700579,-0.0203097219028,-0.331248965537
1588764568909067133,1139,1588764568908940270,,1.80674729765,-6.07723765402,5.0851646151,0.81576086294,-0.019610133011,-0.333668304822
1588764568915007650,1140,1588764568914902455,,1.83031084739,-5.94475296882,5.08536070528,0.815796468448,-0.0195959909403,-0.335348550864
1588764568918072403,1141,1588764568917934750,,1.78372234789,-5.9445167289,5.08457217118,0.816703869176,-0.0202633865668,-0.334715351528
1588764568920984367,1142,1588764568920891345,,1.80732753525,-5.81211398394,5.08469715563,0.816741110992,-0.0202484301989,-0.336395188649
1588764568927115683,1143,1588764568926910103,,1.78387869881,-5.94446029939,5.0845832922,0.815788879923,-0.0202342046617,-0.334721742255
1588764568929972225,1144,1588764568929878811,,1.80732066434,-5.94448811766,5.08504831156,0.81491555337,-0.0202272798972,-0.336419184678
1588764568932959822,1145,1588764568932875111,,1.83050949418,-5.94453958176,5.08553864539,0.814018343589,-0.0195580047828,-0.337189027826
1588764568939067046,1146,1588764568938962314,,1.83048084056,-5.94452529878,5.08556565445,0.814021752859,-0.0195555387995,-0.337180940315
1588764568942038979,1147,1588764568941932415,,1.83092177542,-5.94439546828,5.06240534797,0.813254135914,-0.0195513456131,-0.337192179475
1588764568945021227,1148,1588764568944933125,,1.83086313456,-5.94438556291,5.0624381873,0.813259456664,-0.0195488204821,-0.337179492793
1588764568951045116,1149,1588764568950930991,,1.83095423092,-5.94439871717,5.06238979473,0.812347154467,-0.0195413573808,-0.337202161618
1588764568953945572,1150,1588764568953851173,,1.83091885265,-5.94439560196,5.06240624808,0.812346742264,-0.0195477907594,-0.337202781761
1588764568956906527,1151,1588764568956825498,,1.8309243298,-5.94439706522,5.06240254896,0.81234700068,-0.0188864460233,-0.337204613944
1588764568966130351,1152,1588764568966020176,,1.83153819932,-5.81192405436,5.03869033991,0.81250275639,-0.018874877865,-0.338119303301
1588764568969095478,1153,1588764568968923510,,1.85443119297,-5.81205981093,5.06244377643,0.81329073436,-0.0188715211063,-0.338872961979
1588764568975068287,1154,1588764568974937666,,1.83116775218,-5.81199275862,5.06199758031,0.813273804823,-0.0188721094278,-0.338108076502
1588764568977918241,1155,1588764568977838637,,1.87774150267,-5.81210228797,5.06294049496,0.811461509343,-0.0188757988423,-0.338753675008
1588764568983966644,1156,1588764568983885540,,1.85439696213,-5.81198270413,5.06254483818,0.810553972347,-0.0188805638264,-0.338914898464
1588764568986945584,1157,1588764568986829625,,1.8320229816,-5.67938995032,5.0152011519,0.808062989685,-0.0182012059027,-0.337269498414
1588764568990126769,1158,1588764568989936573,,1.83180944679,-5.81179990681,5.01558336413,0.807168540803,-0.0182059089971,-0.338184538099
1588764568996076085,1159,1588764568995983788,,1.83176088692,-5.81176602924,5.01564035425,0.806239650925,-0.0182146537619,-0.337286374603
1588764568999036640,1160,1588764568998942118,,1.83232882864,-5.67931379565,4.99202499434,0.803622626923,-0.018205054764,-0.336418335751
1588764569002048643,1161,1588764569001933935,,1.83235173108,-5.67932511797,4.99200370671,0.802683851448,-0.0181990285864,-0.335510466434
1588764569007925717,1162,1588764569007830922,,1.80909298969,-5.67925271796,4.99156098948,0.802648447982,-0.0181954664911,-0.333830451228
1588764569011044968,1163,1588764569010928571,,1.80936715107,-5.81155984023,4.96873605665,0.800951776302,-0.0175266650484,-0.332946611782
1588764569013939601,1164,1588764569013834748,,1.78614358187,-5.67910953415,4.96789694113,0.799995171844,-0.0175224540942,-0.331272579642
1588764569019866072,1165,1588764569019787040,,1.78617161523,-5.67913791995,4.96785441219,0.799992993171,-0.0175212787193,-0.331277903069
1588764569023580050,1166,1588764569023488600,,1.80944225278,-5.81162706146,4.96863008253,0.799069449732,-0.0168590673312,-0.33115511109
1588764569026174255,1167,1588764569026048612,,1.80942491322,-5.81161976167,4.96864493537,0.799069152418,-0.0168628597823,-0.331155635406
1588764569032053336,1168,1588764569031902166,,1.80984517427,-5.81155728168,4.94531370746,0.797348595418,-0.0168576319194,-0.329359613347
1588764569035195146,1169,1588764569034946468,,1.78648707763,-5.81153409444,4.94481235208,0.796433941555,-0.0168517401168,-0.329514601784
1588764569038020591,1170,1588764569037909803,,1.76336284493,-5.67905897436,4.94400549576,0.796417062628,-0.0175087156286,-0.32874742563
1588764569043984897,1171,1588764569043883120,,1.78660437959,-5.67913384727,4.944450124,0.795486447194,-0.0168460199772,-0.327691963876
1588764569046916416,1172,1588764569046789527,,1.78655822706,-5.67912322565,4.94447900009,0.794548437036,-0.0168508585679,-0.326792204922
1588764569052931676,1173,1588764569052853466,,1.76370372064,-5.67895813993,4.92084472735,0.793739404121,-0.0168598897741,-0.32513741624
1588764569055982549,1174,1588764569055861189,,1.76365710415,-5.67896033463,4.92085890233,0.791873003088,-0.016191956553,-0.323331256645
1588764569058935631,1175,1588764569058853864,,1.74078425019,-5.54642707026,4.8968422874,0.791087786621,-0.0168657212104,-0.322572942851
1588764569062217166,1176,1588764569062119475,,1.76360564909,-5.67900506769,4.92082571888,0.790027566743,-0.0161899069315,-0.322442255731
1588764569068039447,1177,1588764569067872276,,1.7635767251,-5.67901675554,4.92082259637,0.790027515901,-0.0161936796093,-0.322442190852
1588764569071254581,1178,1588764569071137942,,1.7640838233,-5.5465562107,4.89724350066,0.788321632685,-0.0168593890268,-0.321551909717
1588764569077292348,1179,1588764569077108729,,1.71746450456,-5.54642169815,4.89634623818,0.788288495336,-0.0168590964567,-0.3200173957
1588764569080222996,1180,1588764569080055460,,1.74075792891,-5.54652307925,4.8967428974,0.787335719772,-0.0161812284961,-0.318056374704
1588764569086060008,1181,1588764569085939458,,1.74114418779,-5.54646901423,4.87351088305,0.7865468981,-0.0155129303364,-0.317161479301
1588764569092131770,1182,1588764569092028723,,1.71787195617,-5.54640382588,4.87306562655,0.784682036072,-0.0155138983271,-0.315503504227
1588764569095052849,1183,1588764569094945733,,1.71774605494,-5.6788317108,4.87339232473,0.782875266851,-0.0155098245705,-0.316450967227
1588764569100950840,1184,1588764569100866167,,1.71813696181,-5.6787557945,4.85008599308,0.782084075848,-0.0148497060825,-0.315543474813
1588764569104086307,1185,1588764569103864493,,1.71864626901,-5.54628516412,4.82651390317,0.780374580816,-0.0155143672565,-0.314661695639
1588764569106967605,1186,1588764569106851569,,1.69531383302,-5.54624266011,4.82602672484,0.779437479104,-0.0155118495928,-0.313911105467
1588764569109911747,1187,1588764569109821683,,1.7188184041,-5.41394006772,4.8260846786,0.77852329228,-0.0155106054108,-0.313787278294
1588764569116061744,1188,1588764569115882136,,1.71870914118,-5.54633691403,4.82643204669,0.777603280246,-0.0155101392896,-0.313804151146
1588764569118980500,1189,1588764569118880846,,1.69603628187,-5.67852063959,4.77981770439,0.775119190325,-0.014843881707,-0.312162954843
1588764569124986645,1190,1588764569124880802,,1.71915426557,-5.5462699635,4.80319389079,0.774098527117,-0.0148403564074,-0.313861137652
1588764569127977856,1191,1588764569127891399,,1.69622195737,-5.54614117678,4.77940781766,0.772370414529,-0.0148360634468,-0.312210539584
1588764569130943703,1192,1588764569130874317,,1.69625054638,-5.54615148278,4.77938571187,0.770541417252,-0.0148327817409,-0.312241633137
1588764569136984731,1193,1588764569136858868,,1.6966635235,-5.54608678249,4.75615662426,0.767947694371,-0.0148225864157,-0.312276805503
1588764569139995111,1194,1588764569139911807,,1.6966925575,-5.54608892352,4.75614377022,0.766118369875,-0.0148206029155,-0.31230863613
1588764569149003546,1195,1588764569148888157,,1.69635982608,-5.54619681416,4.77929432113,0.765944526199,-0.0148153732189,-0.311396696113
1588764569151942010,1196,1588764569151865457,,1.69731789096,-5.41363691045,4.73251335011,0.761662616986,-0.014804018328,-0.311460958812
1588764569154949226,1197,1588764569154848766,,1.69733054421,-5.41365635231,4.73248657187,0.761661070543,-0.0148044184412,-0.311464721518
1588764569161041013,1198,1588764569160944387,,1.67433944154,-5.54589287323,4.7092107328,0.760857635597,-0.0148023463091,-0.309797241336
1588764569164012462,1199,1588764569163926262,,1.6752460261,-5.41332225289,4.66235706431,0.755666211662,-0.0147928502276,-0.309868798726
1588764569167015162,1200,1588764569166916989,,1.67523593092,-5.41331985448,4.66236347635,0.755666797598,-0.0147932063901,-0.309867352817
1588764569173291091,1201,1588764569173207608,,1.67524287489,-5.41331893389,4.66236205017,0.754739401335,-0.0147877294196,-0.308966569184
1588764569175966116,1202,1588764569175852934,,1.67569936178,-5.28081894137,4.63884956662,0.752140668866,-0.0134430432323,-0.308994864116
1588764569179031178,1203,1588764569178930866,,1.69933828318,-5.2808279786,4.61607144993,0.7513912657,-0.013437632713,-0.309767474284
1588764569185283949,1204,1588764569185136268,,1.67652944577,-5.14825606146,4.5920252117,0.746025751949,-0.0141001239327,-0.308143235647
1588764569188237880,1205,1588764569188084997,,1.67650969597,-5.14822677691,4.59206525374,0.746027008823,-0.0141022523488,-0.30814009529
1588764569191159673,1206,1588764569191066711,,1.67645953783,-5.14818973346,4.592125095,0.744174512377,-0.0140987884702,-0.307244264928
1588764569197141838,1207,1588764569197029829,,1.67676591647,-5.14808331178,4.56898054168,0.74065726217,-0.0140943711124,-0.306368960173
1588764569200227734,1208,1588764569200083001,,1.67711680093,-5.14799470648,4.54580046409,0.738067609863,-0.0134174775738,-0.306397143202
1588764569209109578,1209,1588764569209011709,,1.65449209162,-5.14769437282,4.49894277511,0.733754328241,-0.0127384201927,-0.304763465374
1588764569212145465,1210,1588764569211997199,,1.65484798585,-5.14757235078,4.47580130908,0.728397240508,-0.0127317288217,-0.303911357021
1588764569215180774,1211,1588764569215075587,,1.65477483403,-5.14755608,4.47584706766,0.728399937922,-0.0127381011192,-0.303904624905
1588764569221223813,1212,1588764569221098080,,1.63188731452,-5.14737704452,4.45223887626,0.723027682515,-0.0127263804106,-0.302294178621
1588764569224287188,1213,1588764569224131192,,1.63185456236,-5.14735579945,4.45227544276,0.72302933431,-0.0127291395329,-0.302290111654
1588764569227256206,1214,1588764569227147592,,1.63180822169,-5.14733151742,4.45232049997,0.721206252055,-0.0127270238963,-0.302307274212
1588764569233366942,1215,1588764569233242245,,1.63225123939,-5.01487999467,4.42875478194,0.717676939866,-0.0127224975683,-0.301437476533
1588764569236500231,1216,1588764569236233694,,1.63221028657,-5.0148617181,4.42879057043,0.717678802766,-0.0127259055473,-0.301432897354
1588764569239228198,1217,1588764569239129780,,1.65582144548,-5.01485150475,4.4059531121,0.716886361026,-0.0120637072083,-0.300374027947
1588764569245297077,1218,1588764569245116042,,1.63295102964,-5.0146463562,4.38236622562,0.715217920914,-0.0113903285687,-0.300536968098
1588764569248253592,1219,1588764569248095091,,1.63330873253,-5.01457389653,4.3591693007,0.710777341946,-0.0120549719924,-0.299684333336
1588764569254164675,1220,1588764569254036719,,1.61052660313,-4.88203501871,4.3350638508,0.70903182902,-0.0120556098558,-0.297118111283
1588764569257036061,1221,1588764569256948041,,1.61088591148,-4.88194642471,4.31188358772,0.703675611034,-0.0120444660466,-0.296264543748
1588764569260072521,1222,1588764569259982488,,1.61083945604,-4.88195077936,4.31189601247,0.703677077328,-0.0120482109637,-0.296260908768
1588764569266135916,1223,1588764569266035062,,1.61091319347,-4.74962761276,4.31148060354,0.702751166531,-0.0113750258641,-0.295358901313
1588764569269128263,1224,1588764569268976722,,1.61159055374,-4.88178726663,4.26550984755,0.69843031231,-0.0113684310439,-0.293597841107
1588764569272287743,1225,1588764569272199300,,1.58861519108,-4.88165840505,4.24173595829,0.694880544017,-0.0106882023527,-0.291952779872
1588764569278043824,1226,1588764569277951703,,1.58859968946,-4.88171330022,4.24167858635,0.694879885718,-0.0106884260719,-0.291954338504
1588764569281161371,1227,1588764569281018362,,1.58901438212,-4.88173020152,4.21835729391,0.691324833901,-0.0113432269722,-0.290184072942
1588764569284162357,1228,1588764569284071545,,1.56659110401,-4.88157789241,4.17139510176,0.68701778471,-0.0106551971292,-0.288560643597
1588764569290302838,1229,1588764569290148008,,1.56666930502,-4.88165721338,4.17127290423,0.687012949521,-0.0106483977624,-0.288572406133
1588764569293144399,1230,1588764569292989191,,1.54376422384,-4.8815605746,4.14743473701,0.682568872619,-0.0106382601592,-0.287873869677
1588764569296347931,1231,1588764569296137271,,1.5437855536,-4.88160340998,4.14737637938,0.679799641213,-0.0106362292076,-0.287010842017
1588764569302231854,1232,1588764569302071611,,1.54378178456,-4.88166111945,4.14730985538,0.679796781874,-0.0106392789685,-0.287017501378
1588764569305178516,1233,1588764569305071351,,1.54417291445,-4.88162361208,4.12405768886,0.676262027302,-0.0106345678457,-0.286160670876
1588764569308163250,1234,1588764569307990832,,1.56796876911,-4.74931009267,4.10087451168,0.672791493536,-0.00996570277055,-0.287881648137
1588764569314151000,1235,1588764569314044345,,1.56792961152,-4.7493487459,4.10084471798,0.672792411787,-0.00996716300105,-0.287879451583
1588764569317082677,1236,1588764569316966137,,1.56833137216,-4.74928750463,4.07761516551,0.66929057069,-0.00995786428294,-0.28792772568
1588764569320141642,1237,1588764569319992512,,1.56830877082,-4.74930376159,4.07760492349,0.669292209521,-0.00995661940662,-0.287923959223
1588764569326119029,1238,1588764569326016619,,1.54587371982,-4.61673042846,4.03023308293,0.663187243134,-0.0106008739666,-0.288147453652
1588764569329085548,1239,1588764569328992033,,1.54585201541,-4.61671307402,4.03026128781,0.663188804463,-0.0106020930338,-0.288143815289
1588764569332142723,1240,1588764569332023992,,1.56958281549,-4.61669685077,4.00752531983,0.660634163952,-0.0112638094838,-0.289863571451
1588764569338104341,1241,1588764569337997783,,1.6166441484,-4.48444079138,3.98483233371,0.657181895866,-0.0105797566553,-0.292348444223
1588764569341072925,1242,1588764569340983948,,1.61669102614,-4.48439957111,3.98485970322,0.65718210428,-0.0105744475595,-0.292348167802
1588764569344093142,1243,1588764569343939200,,1.61673487874,-4.48437023416,3.98487492609,0.656328114571,-0.0105670730086,-0.295099005961
1588764569350400154,1244,1588764569350222506,,1.59380337543,-4.48417100021,3.96115550168,0.65458949581,-0.0112329421489,-0.292522656707
1588764569353193431,1245,1588764569353062794,,1.64036261419,-4.48433096545,3.96206739307,0.653751032513,-0.0105590914342,-0.295894292947
1588764569356485896,1246,1588764569356179774,,1.61796954923,-4.35176640877,3.91481995977,0.651292416619,-0.0105544799703,-0.295160392789
1588764569362233350,1247,1588764569362103104,,1.61798274208,-4.35175433681,3.91482792655,0.651291753077,-0.010554634025,-0.295161851429
1588764569365203388,1248,1588764569365064308,,1.61836151351,-4.35165404397,3.891550777,0.648717348359,-0.0105509309289,-0.296104934061
1588764569371464491,1249,1588764569371251553,,1.61843831803,-4.21939026079,3.89110330648,0.647798580659,-0.0112171494033,-0.296116830826
1588764569374645143,1250,1588764569374501540,,1.6184280027,-4.21940120421,3.89109573022,0.645013099735,-0.0105449805308,-0.294335040189
1588764569377238198,1251,1588764569377100595,,1.61841782752,-4.21939878142,3.89110258959,0.645012791295,-0.010547673208,-0.294335619632
1588764569383796454,1252,1588764569383676814,,1.59552083734,-4.21919001432,3.86747168283,0.64242271315,-0.010540698321,-0.294514383785
1588764569386225786,1253,1588764569386052614,,1.59551056228,-4.21918665457,3.86747958706,0.642422012439,-0.0105443685535,-0.294515780857
1588764569389262208,1254,1588764569389130070,,1.5958856118,-4.21908534788,3.84430258888,0.64070412154,-0.0105437381745,-0.292709179319
1588764569395226206,1255,1588764569395060861,,1.59586675678,-4.21906772756,3.84432975412,0.640704449656,-0.0105476240869,-0.292708321112
1588764569398214374,1256,1588764569398114247,,1.57303642989,-4.21887149825,3.82070318396,0.63805144773,-0.0105435534915,-0.290159677219
1588764569401247616,1257,1588764569401112112,,1.5730440722,-4.21886377379,3.82070856695,0.63617220066,-0.0105416610182,-0.288356742973
1588764569407214263,1258,1588764569407100071,,1.57306232378,-4.21883934305,3.82072802898,0.636171139505,-0.0105427789189,-0.288359043211
1588764569410425147,1259,1588764569410309666,,1.54981246629,-4.08651229619,3.81980632058,0.634284493085,-0.0105407944953,-0.285798605485
1588764569416568349,1260,1588764569416286921,,1.54981276093,-4.08650892228,3.81980981051,0.63428375049,-0.01054275605,-0.2858001812
1588764569419192259,1261,1588764569419084916,,1.52699502979,-4.08631501714,3.79607429476,0.633472644784,-0.0112105870905,-0.284128306046
1588764569422147329,1262,1588764569422063187,,1.52736047059,-4.08620835629,3.772905608,0.631778009384,-0.0105401076794,-0.28323984439
1588764569425121462,1263,1588764569425005983,,1.52739286744,-4.0862078262,3.77289306695,0.631776857385,-0.0105371360371,-0.283242524523
1588764569431293798,1264,1588764569431167187,,1.52745746174,-3.95401919166,3.77238463742,0.629949509547,-0.010535338392,-0.283270178739
1588764569434220379,1265,1588764569434098804,,1.52745321772,-3.95402788363,3.77237724535,0.629949354854,-0.0105358322501,-0.283270504384
1588764569440118877,1266,1588764569439959836,,1.50416601283,-3.95396322749,3.7718859996,0.629929067196,-0.0105361439256,-0.282509209862
1588764569446194670,1267,1588764569446090159,,1.52788741155,-3.95397186243,3.74912425908,0.628194437916,-0.010533865923,-0.280568001524
1588764569449155207,1268,1588764569448972749,,1.52790830775,-3.95395427721,3.74913428915,0.628192093623,-0.0105370731975,-0.280573129926
1588764569455198987,1269,1588764569455068573,,1.52791148207,-3.95396350128,3.74912326749,0.628190937216,-0.0105386093537,-0.280575661366
1588764569458130794,1270,1588764569458021233,,1.50500962856,-3.95378220731,3.72546282428,0.626506681595,-0.0105370443145,-0.280746454053
1588764569464283761,1271,1588764569464166328,,1.50465942993,-3.95389950167,3.74861725473,0.627270356715,-0.0105402145278,-0.280743972754
1588764569467174317,1272,1588764569467074254,,1.50478329409,-3.82171326918,3.74810227165,0.628164278021,-0.0098789821483,-0.27983134137
1588764569470572088,1273,1588764569470455031,,1.48197304543,-3.82154043874,3.72443549404,0.628250932418,-0.0105412294918,-0.277253890453
1588764569473521138,1274,1588764569473378867,,1.48200641514,-3.82154462239,3.72441792313,0.628247530726,-0.0105432150266,-0.277261522985
1588764569479216017,1275,1588764569479096555,,1.48201666321,-3.82155956808,3.72439850971,0.628268445731,-0.0098837638931,-0.278173873151
1588764569482191302,1276,1588764569482026743,,1.50526578976,-3.82166391913,3.72482067674,0.630065205949,-0.00988745985238,-0.277094400148
1588764569488114893,1277,1588764569487997495,,1.48211505242,-3.68943086443,3.72385486432,0.630046728161,-0.00988922851372,-0.276332866393
1588764569491068507,1278,1588764569490964401,,1.4821032034,-3.68944125367,3.72384928705,0.630046498149,-0.00989135143233,-0.276333314846
1588764569494173721,1279,1588764569494011762,,1.48213416414,-3.68944898695,3.72382930257,0.630022014412,-0.00989348497908,-0.275431713894
1588764569497060353,1280,1588764569496948069,,1.48212163508,-3.68945744969,3.72382590467,0.630023034811,-0.00989261397058,-0.27542941111
1588764569506250822,1281,1588764569506118547,,1.48195746034,-3.68944789669,3.72390070838,0.630921221533,-0.00989661265602,-0.274482152104
1588764569515158489,1282,1588764569515063587,,1.48154611824,-3.6895544625,3.74709862454,0.632587403939,-0.00990038239244,-0.273545693007
1588764569518092217,1283,1588764569518004768,,1.45866513951,-3.55723878064,3.7229475138,0.633567679241,-0.00922985168721,-0.270024195821
1588764569521153323,1284,1588764569521061577,,1.45815788438,-3.6894797109,3.74665829938,0.635258410932,-0.00856457797483,-0.2699916323
1588764569524136128,1285,1588764569524051192,,1.45807371136,-3.689472842,3.7466978215,0.635265494727,-0.00856232570881,-0.269975035801
1588764569527163503,1286,1588764569527031850,,1.43477844636,-3.68939874155,3.74626114609,0.635253931836,-0.00856315270888,-0.269197419844
1588764569530050312,1287,1588764569529960576,,1.43443896456,-3.55740601618,3.76892821845,0.636003898216,-0.0078996482486,-0.268261462657
1588764569536260177,1288,1588764569536073427,,1.43517941081,-3.55719720301,3.72255318417,0.635379394998,-0.00789503116283,-0.268265315219
1588764569539261867,1289,1588764569539104574,,1.41170097285,-3.42512297746,3.74475390124,0.638870279409,-0.00790181776588,-0.26746193249
1588764569542147672,1290,1588764569542056255,,1.4113287472,-3.42525112795,3.76792460186,0.640523399125,-0.00790592087816,-0.266533161553
1588764569548182188,1291,1588764569548054242,,1.4115797409,-3.55721598217,3.74528879366,0.64067969088,-0.00790416122234,-0.266517958878
1588764569551205056,1292,1588764569551094043,,1.43475042849,-3.55731828183,3.74574704391,0.644327585355,-0.00857385187521,-0.266322555431
1588764569554156321,1293,1588764569554064580,,1.4116387992,-3.42514036517,3.74476143537,0.646133486391,-0.00857957828121,-0.265541313788
1588764569560175421,1294,1588764569560068881,,1.41163127858,-3.42516744708,3.74473949978,0.646132850335,-0.00858112805006,-0.265542811402
1588764569566265922,1295,1588764569566154617,,1.4340123894,-3.29346199891,3.79107995013,0.653198557017,-0.00860523548212,-0.267110972569
1588764569572380933,1296,1588764569572269992,,1.43399104635,-3.29346841506,3.79108244931,0.653199571018,-0.00860631841549,-0.267108458005
1588764569575232999,1297,1588764569575118084,,1.43395266738,-3.29346184131,3.79110267693,0.656855150932,-0.00861172218415,-0.267051733256
1588764569578225004,1298,1588764569578119977,,1.43429898301,-3.29336462069,3.76791046705,0.657027691371,-0.00861456276411,-0.267956901308
1588764569584306195,1299,1588764569584194189,,1.43393214709,-3.29348843574,3.79108733488,0.66329511676,-0.00796595535124,-0.26879435248
1588764569587144034,1300,1588764569587050443,,1.45706416471,-3.29357408467,3.79158077951,0.665183196457,-0.00797536380542,-0.271345456274
1588764569590319607,1301,1588764569590171534,,1.45710167569,-3.29359279486,3.79155011138,0.665180530442,-0.0079739663308,-0.27135203279
1588764569596516076,1302,1588764569596246365,,1.43354831133,-3.16161428358,3.81386647591,0.666834673953,-0.00863138871784,-0.269644419694
1588764569599176175,1303,1588764569599082465,,1.45642527182,-3.02984227641,3.8370163463,0.671314935652,-0.00798084616924,-0.272177461597
1588764569602322544,1304,1588764569602201942,,1.45641522914,-3.02985606127,3.83700927318,0.673119020356,-0.00798951806684,-0.271236068359
1588764569608148014,1305,1588764569608051302,,1.47959962091,-3.02995933956,3.83751280886,0.678662657555,-0.00866241105318,-0.27374135224
1588764569611144399,1306,1588764569611045537,,1.47966714553,-3.02991427846,3.83752235165,0.678658937003,-0.00866180118104,-0.273750595392
1588764569614065562,1307,1588764569613986647,,1.47928322,-3.03000746412,3.86073896005,0.681262174345,-0.00867300038366,-0.273716151196
1588764569620195653,1308,1588764569620081909,,1.47887257139,-3.030159354,3.88392030851,0.683877930229,-0.00934684823356,-0.274584435349
1588764569629239553,1309,1588764569629114672,,1.50109660531,-2.89863019888,3.95357443031,0.692613377697,-0.00869926606403,-0.276155646764
1588764569632202577,1310,1588764569632093966,,1.50066980192,-2.89874137615,3.9768984331,0.698887479618,-0.0080581842869,-0.276984748079
1588764569635197126,1311,1588764569635096050,,1.50061861486,-2.89874476146,3.97691528047,0.698890869922,-0.00805861715591,-0.276976180924
1588764569638235335,1312,1588764569638132973,,1.52361170862,-2.76703111992,4.00011672923,0.700592862267,-0.00872376055594,-0.277719580202
1588764569644156043,1313,1588764569644067952,,1.52356658674,-2.76704021383,4.00012762491,0.702463550477,-0.00872774396787,-0.279506853263
1588764569647257800,1314,1588764569647130818,,1.4767438569,-2.76698242785,4.02236624746,0.708653581327,-0.00873893869805,-0.276984694005
1588764569653232251,1315,1588764569653139137,,1.4995819998,-2.76719557373,4.04603291354,0.71128281836,-0.00874928857078,-0.278629092881
1588764569656317450,1316,1588764569656205287,,1.49927662058,-2.63546534952,4.06885580478,0.718454330864,-0.00875630300243,-0.278523517827
1588764569659182319,1317,1588764569659088474,,1.49931880623,-2.63548373465,4.06882835166,0.720277512724,-0.00876108535266,-0.27850714119
1588764569665078121,1318,1588764569664983232,,1.49891616881,-2.63560010963,4.09204944507,0.722901010975,-0.0094469536253,-0.279380464849
1588764569668174108,1319,1588764569668025448,,1.5218171957,-2.63580070747,4.11574663348,0.728273694465,-0.00877433357434,-0.280982755515
1588764569671368571,1320,1588764569671261841,,1.52148954971,-2.63591276836,4.13894358761,0.731804050999,-0.00812562344897,-0.281853826963
1588764569677232649,1321,1588764569677133314,,1.54471958137,-2.50416078336,4.13898810919,0.736392363678,-0.0088096310247,-0.282552104944
1588764569680143732,1322,1588764569680048147,,1.52115921171,-2.50419374188,4.16181997602,0.741759721203,-0.00881748985634,-0.283541911818
1588764569689262085,1323,1588764569689049388,,1.54440878232,-2.37244997186,4.16188682217,0.749124980074,-0.00884557968869,-0.286022866014
1588764569692203344,1324,1588764569692091487,,1.56709388585,-2.24096415709,4.20838682942,0.755269399411,-0.0088543704596,-0.28761541576
1588764569695273584,1325,1588764569695160320,,1.54303827132,-2.24105105875,4.25448556151,0.764150886751,-0.00954487306993,-0.288545613858
1588764569701302404,1326,1588764569701062446,,1.5430373769,-2.24110618626,4.25445684702,0.764150996164,-0.00954087201797,-0.288545456422
1588764569704170542,1327,1588764569704002250,,1.56607568336,-2.10957930502,4.27775228851,0.769568879534,-0.00955157062285,-0.291978666909
1588764569707161650,1328,1588764569707032102,,1.58900836838,-1.978064256,4.30108462531,0.777682528694,-0.00956748018886,-0.293536001709
1588764569716324860,1329,1588764569716122180,,1.6115544026,-1.97833495806,4.34815190817,0.791201635618,-0.0095919889796,-0.297759007863
1588764569719264094,1330,1588764569719166313,,1.61116403977,-1.97843079236,4.37139776173,0.795677871556,-0.00958933450395,-0.299516556969
1588764569722161890,1331,1588764569722062304,,1.61114004195,-1.97843278425,4.37140570502,0.795678780855,-0.00959378593562,-0.299513998818
1588764569725256751,1332,1588764569725140231,,1.61095036289,-1.84684474929,4.39427191208,0.800116440716,-0.00961276631755,-0.300372254812
1588764569728200365,1333,1588764569728093390,,1.63337639446,-1.84711342051,4.44135311961,0.809922317306,-0.0102942977143,-0.301895059654
1588764569731310054,1334,1588764569731131650,,1.63346242294,-1.84706958387,4.44133971145,0.809914642675,-0.0103096605628,-0.301915124097
1588764569737173388,1335,1588764569737080664,,1.63253017262,-1.71571652037,4.51082213759,0.823270355403,-0.0110152702959,-0.305383539027
1588764569740167009,1336,1588764569740062043,,1.63251151724,-1.71576998434,4.51080855353,0.823271412719,-0.0110131608706,-0.30538076472
1588764569749187519,1337,1588764569749088294,,1.6550235953,-1.71594691609,4.5578012191,0.833027572426,-0.011048375135,-0.305102044129
1588764569752176009,1338,1588764569752083064,,1.60778145069,-1.58434658954,4.62637061388,0.844482324384,-0.0110833337995,-0.305251090569
1588764569755173449,1339,1588764569755083042,,1.60770257679,-1.58432078814,4.62640685963,0.844487991062,-0.0110812320942,-0.305235489459
1588764569761170896,1340,1588764569761071899,,1.63050484394,-1.58443293021,4.65017087049,0.850756825562,-0.0110962379947,-0.305902317538
1588764569764137927,1341,1588764569764037249,,1.65321910688,-1.45298053059,4.69698943544,0.857811558167,-0.0104533472551,-0.307486445437
1588764569770517559,1342,1588764569770421588,,1.65220472163,-1.45320735917,4.76673004892,0.871086257194,-0.0104774334501,-0.307301058835
1588764569773533705,1343,1588764569773431477,,1.65221551234,-1.45322750585,4.76672016666,0.871087033377,-0.0104623200251,-0.307299373553
1588764569782029636,1344,1588764569781924800,,1.65250830814,-1.32162659195,4.76644308344,0.879309463217,-0.0104703920616,-0.307196486247
1588764569785174279,1345,1588764569785097188,,1.67433261192,-1.1904172628,4.88318582622,0.891430696644,-0.011170617277,-0.309642797895
1588764569787987699,1346,1588764569787921857,,1.67432152743,-1.19045086937,4.88318143414,0.891433699602,-0.011142002502,-0.309635183548
1588764569794277304,1347,1588764569794170008,,1.67435399819,-1.19042767849,4.88317595417,0.89879196218,-0.0105009148348,-0.311356609596
