%time,field.header.seq,field.header.stamp,field.header.frame_id,field.wrench.force.x,field.wrench.force.y,field.wrench.force.z,field.wrench.torque.x,field.wrench.torque.y,field.wrench.torque.z
1588857867368241205,10006,1588857867368080569,,-0.0395786299926,-1.02342677957,0.807731920822,0.162421078499,0.00471618147438,0.000195847814145
1588857867374197025,10007,1588857867374105684,,-0.0391501332483,-1.02299764707,0.784976275958,0.161652306784,0.00471793269948,0.000183209863432
1588857867380380962,10008,1588857867380156425,,-0.039154749358,-1.02299577087,0.784978490808,0.161652306253,0.00471791523395,0.000184125887636
1588857867386252441,10009,1588857867386088536,,-0.0400009288561,-1.15453218436,0.809947443728,0.160574845607,0.00471611719816,0.00104116723581
1588857867392356826,10010,1588857867392232263,,-0.0395751991567,-1.15414719083,0.787195750031,0.157973766007,0.00407873185801,0.00099600239461
1588857867398194517,10011,1588857867398090629,,-0.0621703855626,-1.15410487889,0.786804809516,0.157960098046,0.00407967423021,0.00172512555314
1588857867404287781,10012,1588857867404197945,,-0.0400024363264,-1.15452299057,0.809960474324,0.159638705635,0.00471960294036,0.0018957804701
1588857867410295508,10013,1588857867410108537,,-0.0399983677953,-1.15452033147,0.809964465522,0.159638667862,0.00472062695925,0.00189641152057
1588857867416253513,10014,1588857867416093476,,-0.0408155744328,-1.28631055722,0.834712349198,0.16134072986,0.00408055511117,0.00106101331741
1588857867422407040,10015,1588857867422205707,,-0.0412003381482,-1.41798562693,0.836474070556,0.163184582449,0.00344887812062,0.000217417584178
1588857867428256856,10016,1588857867428142469,,-0.0411910404882,-1.41798550568,0.836474733994,0.163184579208,0.00344911976137,0.000216012535651
1588857867434257266,10017,1588857867434163493,,-0.0407630927068,-1.4176808846,0.813688532127,0.162435034974,0.00408244048462,-0.000663275948119
1588857867440297827,10018,1588857867440119870,,-0.0407329160601,-1.41768423876,0.813684199386,0.16243495172,0.00408569605992,-0.000663618757668
1588857867446337947,10019,1588857867446176696,,-0.0629845332882,-1.2859388028,0.811526124735,0.162454737865,0.00408798425268,-0.00166983514316
1588857867452712522,10020,1588857867452487963,,-0.0629821240365,-1.28593780754,0.811527888792,0.162454730973,0.00408820004586,-0.00166997741155
1588857867458250521,10021,1588857867458120480,,-0.0407413581936,-1.28632180448,0.834698642436,0.16323800578,0.00408868610699,-0.0023853960975
1588857867464310845,10022,1588857867464189411,,-0.0184855403221,-1.28671491226,0.857990122453,0.164983193971,0.00473131928262,-0.00483011522091
1588857867470231020,10023,1588857867470105296,,-0.0180600207921,-1.28637367453,0.835099872677,0.162406482648,0.0040930970818,-0.00661450926889
1588857867476226095,10024,1588857867476112102,,-0.0168934758517,-1.15419763105,0.787599438903,0.162727505886,0.0040932397448,-0.00747821339855
1588857867482298092,10025,1588857867482111040,,-0.0176271081355,-1.28603438446,0.812320502094,0.164405681154,0.00409245672853,-0.0074558625369
1588857867488183326,10026,1588857867488100250,,-0.0157825712069,-0.891839978822,0.760058505853,0.148318782261,0.00283916577751,-0.0120061999645
1588857867494149728,10027,1588857867494020688,,-0.0157790864862,-0.891843282276,0.76005470197,0.148318709023,0.00283897853831,-0.0120071489545
1588857867500133064,10028,1588857867500056490,,0.030811655479,-0.75961846566,0.667118228038,0.144460769956,0.00284521195118,-0.0169556462568
1588857867506142597,10029,1588857867506015237,,0.030814558609,-0.759619302769,0.667117140768,0.144460708229,0.00284533963837,-0.0169561507353
1588857867512178160,10030,1588857867512049959,,0.0306668986066,-0.890044595812,0.669971933871,0.142644532525,0.0022108628391,-0.0178458243679
1588857867518250607,10031,1588857867518096430,,0.0302859200169,-0.890538353765,0.692733019195,0.140705868853,0.00284888011082,-0.0187249918746
1588857867524090978,10032,1588857867524003611,,0.0302851863912,-0.890541493866,0.692729014513,0.145279206581,0.00284434189845,-0.0186864422448
1588857867530189891,10033,1588857867530103338,,0.0082816794868,-0.889977723971,0.669538030595,0.144461991248,0.00220789537987,-0.0171082547549
1588857867536284860,10034,1588857867536179567,,0.00748923540645,-0.890963261285,0.714986086354,0.142223058846,0.00284330279206,-0.0128082860343
1588857867542372272,10035,1588857867542203951,,0.0074888731586,-0.890963929046,0.714985258033,0.142223021847,0.00284284281432,-0.0128087989641
1588857867548309530,10036,1588857867548198512,,0.00683221105312,-1.02227476249,0.740185287004,0.143807812636,0.00347496662574,-0.00847872482597
1588857867554130815,10037,1588857867554041719,,0.00683568636748,-1.02227752474,0.740181439944,0.143807794589,0.0034753785035,-0.00847886211671
1588857867560211271,10038,1588857867560118932,,0.0287539712899,-1.15398315542,0.765524207002,0.149170784787,0.00347272632282,-0.00913345480247
1588857867566271776,10039,1588857867566153257,,0.0287523307494,-1.15398307425,0.765524390982,0.149170777901,0.00347234111219,-0.0091337137222
1588857867572134630,10040,1588857867572020838,,0.0283608036893,-1.15437073346,0.788358364669,0.154522802793,0.00409790779502,-0.00906378779084
1588857867578300847,10041,1588857867578168847,,-0.0172255437081,-1.15463137795,0.81028411337,0.159863081821,0.00346443287361,-0.00927002186971
1588857867584349423,10042,1588857867584166085,,-0.0172180842361,-1.15463378309,0.810280844646,0.15986303334,0.0034650643243,-0.00927062191268
1588857867590255415,10043,1588857867590130060,,0.00538207258889,-1.15469124862,0.810690233245,0.160837463726,0.0028256940762,-0.0117282045622
1588857867596305536,10044,1588857867596192525,,0.027976779591,-1.15475937227,0.81110668892,0.162749188874,0.00346606810044,-0.0150435564717
1588857867602206267,10045,1588857867602112666,,0.0506720026383,-1.15483411729,0.81153817524,0.163730262281,0.00346651946644,-0.0175002183564
1588857867608338686,10046,1588857867608224853,,0.0275848795745,-1.15514199262,0.83387879655,0.164544659303,0.00282617391331,-0.0193739916141
1588857867614235490,10047,1588857867614135741,,0.0275841948429,-1.15514459609,0.833875212704,0.164544711268,0.00282648244422,-0.019373505261
1588857867620233582,10048,1588857867620131206,,0.0275855453318,-1.15514516315,0.833874382487,0.168200870291,0.00282241174684,-0.0193347746732
1588857867626252957,10049,1588857867626121377,,0.0275872360605,-1.15514788972,0.833870549497,0.168200814794,0.00282236015456,-0.0193352649918
1588857867632479418,10050,1588857867632280402,,0.0265647956126,-1.28725275792,0.881512811295,0.176122445339,0.00281184045671,-0.0183766674993
1588857867638348246,10051,1588857867638150248,,0.0265611317888,-1.28725332401,0.881512095051,0.17612243859,0.0028112409148,-0.0183768239031
1588857867644247240,10052,1588857867644124126,,0.00348334930395,-1.28753787583,0.903902374004,0.177760711466,0.00280808411752,-0.0167537988039
1588857867650448718,10053,1588857867650347042,,0.0034790292885,-1.28753922788,0.903900464741,0.177760621443,0.00280667278101,-0.016754990417
1588857867656269549,10054,1588857867656164323,,0.00348100269061,-1.28753586015,0.903905254214,0.177718417743,0.00280402292347,-0.0150052550422
1588857867662264947,10055,1588857867662110668,,0.0255037126521,-1.41948904758,0.928911329717,0.17667765051,0.00344814183401,-0.0157496074987
1588857867668197391,10056,1588857867668082639,,0.00317500118459,-1.41911108437,0.905670063747,0.175889760328,0.00280505179121,-0.0150265159251
1588857867674218506,10057,1588857867674131701,,0.0031770468365,-1.41911397459,0.905665527814,0.176851264875,0.00280525585076,-0.0167667386067
1588857867680259005,10058,1588857867680083280,,0.0254983672881,-1.41949534114,0.928901859067,0.17856616866,0.00216098424493,-0.0183488311969
1588857867686151058,10059,1588857867686077238,,0.0256578276018,-1.5509687132,0.907664820607,0.179702033314,0.00216163672696,-0.0209617759475
1588857867692315757,10060,1588857867692099811,,0.04834312928,-1.41955833712,0.92933632994,0.182359938702,0.00152632416044,-0.023414304601
1588857867698300787,10061,1588857867698148884,,0.025537313373,-1.41948144652,0.928922021837,0.184214284084,0.00152611762114,-0.0244149536188
1588857867704310575,10062,1588857867704196968,,0.048392285488,-1.41954184849,0.929358957493,0.184279560163,0.00153106631905,-0.0268995813534
1588857867710245552,10063,1588857867710151784,,0.0484118500475,-1.41953588742,0.929367043686,0.185235249208,0.00153228658562,-0.0286496033019
1588857867716383907,10064,1588857867716236241,,0.0480395383293,-1.41985235643,0.952297916744,0.186924868481,0.00153272307186,-0.0286338447353
1588857867722214807,10065,1588857867722131799,,0.0703837137749,-1.42024443191,0.975566879497,0.18773427209,0.000886420545436,-0.0302367984543
1588857867728277264,10066,1588857867728154667,,0.0704040438996,-1.42024460956,0.975565153907,0.187757927182,0.000888717608521,-0.0311132369229
1588857867734301773,10067,1588857867734145843,,0.0704046972122,-1.42023885117,0.975573489875,0.187759613185,0.00153467428546,-0.0311129980489
1588857867740372171,10068,1588857867740222902,,0.0931313658788,-1.5520064701,0.977623158475,0.188724424093,0.00217183650796,-0.0327277229154
1588857867746338708,10069,1588857867746154086,,0.0931441904833,-1.55198379941,0.977657926207,0.188724395911,0.00217262339867,-0.0327278331971
1588857867752871502,10070,1588857867752768511,,0.115788716641,-1.68393359959,0.979560681102,0.190643380566,0.00152965529844,-0.0360865188707
1588857867758212912,10071,1588857867758107209,,0.115751800538,-1.6839415447,0.979551385786,0.190643424332,0.00152570821774,-0.0360864547505
1588857867764343991,10072,1588857867764243774,,0.0930389143514,-1.55199675935,0.97764737707,0.191605187191,0.00151969688901,-0.037974482995
1588857867770498371,10073,1588857867770358775,,0.138217914875,-1.68431192158,1.00282370926,0.195207658032,0.000866320211878,-0.0411877534696
1588857867776529843,10074,1588857867776386373,,0.13819639961,-1.68432095709,1.00281149857,0.195207514215,0.000863669849655,-0.0411884907409
1588857867782493422,10075,1588857867782362696,,0.138276024809,-1.55248218442,1.00135060558,0.196190536377,0.000214561178578,-0.0438270835149
1588857867788458799,10076,1588857867788312751,,0.138267878923,-1.55248187237,1.00135221421,0.196190405941,0.00021309355211,-0.0438276745634
1588857867794565581,10077,1588857867794393925,,0.13749928204,-1.5530566635,1.04719208182,0.198694890689,-0.000430903425295,-0.0455695226764
1588857867800378980,10078,1588857867800214747,,0.137492511298,-1.55305811292,1.04719082122,0.198694794579,-0.000432016237401,-0.0455699312027
1588857867806451077,10079,1588857867806287550,,0.160280943886,-1.55315311559,1.04763635689,0.198744816062,0.000207589232857,-0.0471948609417
1588857867812420697,10080,1588857867812292377,,0.160275944562,-1.55315250963,1.04763802009,0.198745807536,0.000209824467736,-0.0471906756128
1588857867818300177,10081,1588857867818175104,,0.160185188673,-1.68492945605,1.04912570693,0.198828959052,0.000861025512299,-0.0498197465769
1588857867824364430,10082,1588857867824254733,,0.160185736995,-1.68492918775,1.0491260541,0.199744607415,0.000211027416649,-0.0498137578455
1588857867830303899,10083,1588857867830173573,,0.160602178182,-1.68467572723,1.02612735562,0.199908755326,0.000214720566511,-0.05070302348
1588857867836344411,10084,1588857867836249740,,0.183383332364,-1.81674147397,1.02788328955,0.200065737943,-0.000422448278084,-0.0558545517051
1588857867842433360,10085,1588857867842211094,,0.183385684575,-1.81675635443,1.02785656884,0.200065244561,-0.000422414059701,-0.0558563191802
1588857867848415630,10086,1588857867848280679,,0.206350822012,-1.81686230196,1.02828721979,0.201032262807,-0.00042292902523,-0.0574762728601
1588857867854367173,10087,1588857867854211058,,0.206360029138,-1.81686559996,1.02827954491,0.201060008184,-0.000421843908544,-0.0583680480767
1588857867860274516,10088,1588857867860166729,,0.205593507041,-1.81734314154,1.07416585487,0.20355672059,-0.000426877159985,-0.060119713332
1588857867866147235,10089,1588857867866035227,,0.205587319131,-1.81734025979,1.0741719147,0.203556234513,-0.000428791095261,-0.0601213454765
1588857867872554501,10090,1588857867872309415,,0.205191774149,-1.81758500859,1.09707008891,0.205320373935,-0.00107366973574,-0.0627709165086
1588857867878338179,10091,1588857867878230961,,0.205178066369,-1.817575804,1.09708790232,0.205320363816,-0.00107583756699,-0.0627709124876
1588857867884421939,10092,1588857867884203012,,0.205219568525,-1.68567239856,1.0957651525,0.207170432307,-0.00107959887252,-0.0636454119775
1588857867890436374,10093,1588857867890259870,,0.205206428394,-1.68567607826,1.09576195268,0.208143370022,-0.00108134422914,-0.065414961182
1588857867896174692,10094,1588857867896076652,,0.204829706178,-1.68594501815,1.11865515489,0.209841725372,-0.00173473379332,-0.0662906327441
1588857867902169596,10095,1588857867902064436,,0.22805096461,-1.81769235574,1.09750753682,0.209127898523,-0.0017308741705,-0.0679201419998
1588857867908178520,10096,1588857867908070533,,0.204812111015,-1.81783940312,1.11995790233,0.21081442765,-0.00173237041626,-0.0680627755242
1588857867914211769,10097,1588857867914114003,,0.205252375346,-1.81758577429,1.09705748397,0.210048530351,-0.00172519464673,-0.0680678824378
1588857867920317040,10098,1588857867920148041,,0.20527577204,-1.81759111097,1.09704426454,0.210049719269,-0.00107173966565,-0.0680679861672
1588857867926199725,10099,1588857867926117634,,0.205309465642,-1.81760303239,1.0970182075,0.210049856539,-0.00106664022037,-0.0680676426671
1588857867932477876,10100,1588857867932235373,,0.227808822166,-1.8178988633,1.12044452594,0.21083868086,-0.00171806630061,-0.0688033836481
1588857867938276065,10101,1588857867938123294,,0.228195671076,-1.8175764999,1.09766932118,0.211923685695,-0.00172377369914,-0.0696811547234
1588857867944160623,10102,1588857867944052049,,0.228238789843,-1.81761147198,1.09760244518,0.211922696615,-0.00171817350661,-0.0696843010793
1588857867950639639,10103,1588857867950421342,,0.228237726526,-1.81768467497,1.09748143425,0.211950407451,-0.0017144521104,-0.0705706036414
1588857867956316515,10104,1588857867956116681,,0.250850491534,-1.81805290054,1.12079772745,0.213701817069,-0.00171419305705,-0.073089990876
1588857867962363108,10105,1588857867962220011,,0.250450096396,-1.81829449551,1.14381843113,0.216329794824,-0.00172288721751,-0.073963774688
1588857867968316226,10106,1588857867968143612,,0.250408845005,-1.68646476831,1.14247106081,0.218207880724,-0.00172771942363,-0.0757367507009
1588857867975691477,10107,1588857867975585999,,0.250344926576,-1.68648093639,1.14246120202,0.21914183656,-0.00238651754075,-0.0766153128956
1588857867980131906,10108,1588857867980037066,,0.249923107094,-1.68673287207,1.16540541398,0.219935564363,-0.00239515983166,-0.0774972400656
1588857867986251887,10109,1588857867986097231,,0.249855348562,-1.68672938141,1.16542499492,0.21993599562,-0.00240380511438,-0.0774957484754
1588857867992345023,10110,1588857867992162399,,0.249817294489,-1.68674115014,1.16541611963,0.22090910482,-0.0024089724565,-0.0792728308327
1588857867998305745,10111,1588857867998186533,,0.249816754529,-1.68674564902,1.165409724,0.222758134061,-0.00241350788083,-0.0801520403457
1588857868004294816,10112,1588857868004177928,,0.249796803682,-1.68676969611,1.16537919548,0.221870052012,-0.00241451240777,-0.0810465419842
1588857868010369628,10113,1588857868010286144,,0.295297926614,-1.8190514706,1.19055395725,0.224542889421,-0.00176801565003,-0.0834264922772
1588857868016347538,10114,1588857868016224202,,0.295332459262,-1.819064273,1.19052583024,0.224542900695,-0.0017625051949,-0.0834265785331
1588857868022273058,10115,1588857868022147043,,0.295393612648,-1.81906314,1.1905123895,0.224543658569,-0.00175301397136,-0.0834247386642
1588857868028326489,10116,1588857868028214440,,0.29540842071,-1.819053811,1.19052296951,0.226420270586,-0.00240754737933,-0.0851917344562
1588857868034418925,10117,1588857868034299838,,0.295432404169,-1.81904795536,1.19052596525,0.22642029596,-0.00240471427529,-0.085191747035
1588857868040329293,10118,1588857868040209762,,0.272094465774,-1.81918132983,1.21299813959,0.227161910589,-0.0024027214781,-0.0844378212085
1588857868046184105,10119,1588857868046092872,,0.295459881859,-1.81904127275,1.19052935684,0.227354782432,-0.00240200027295,-0.0860740040322
1588857868052688464,10120,1588857868052599306,,0.272093486915,-1.81917825747,1.21300296689,0.228124302702,-0.00240482765615,-0.0862199649281
1588857868058285803,10121,1588857868058174386,,0.317970892451,-1.95132459294,1.21513005351,0.229087893057,-0.00241122699924,-0.0877091148013
1588857868061135322,10122,1588857868061039768,,0.317565366777,-1.95156042958,1.23816455132,0.230817398693,-0.00241888132536,-0.0894810187841
1588857868067178796,10123,1588857868067054850,,0.294251367154,-1.95167980396,1.26066443593,0.233434053102,-0.0030723531753,-0.0905121642861
1588857868073164918,10124,1588857868073023456,,0.294190467352,-1.95168818694,1.26066567104,0.233433828667,-0.00307992279569,-0.090512485852
1588857868079348919,10125,1588857868079214517,,0.271139768244,-1.81969530838,1.25899140673,0.236200409819,-0.00374846424826,-0.0915297826338
1588857868085622283,10126,1588857868085366513,,0.294054214882,-1.95165345839,1.26075122104,0.237197508266,-0.00376131211397,-0.0940615941968
1588857868091332609,10127,1588857868091200423,,0.294058454129,-1.95163871018,1.26077306235,0.237197683035,-0.00376156051878,-0.0940611435418
1588857868097355031,10128,1588857868097264050,,0.316591510329,-1.95198006303,1.28417347055,0.238016342658,-0.00310864181701,-0.0956934940112
1588857868103329117,10129,1588857868103221917,,0.316570884132,-1.95197438224,1.28418719031,0.238016487623,-0.00311151635264,-0.0956930400187
1588857868109216494,10130,1588857868109141681,,0.316561085175,-1.95198486901,1.28417366577,0.23798902475,-0.00311049345147,-0.0948003193598
1588857868115122457,10131,1588857868115062032,,0.316632318062,-1.95199342808,1.28414309375,0.238921058379,-0.00375741954596,-0.0956874392786
1588857868121435391,10132,1588857868121273191,,0.316694405269,-2.0839912991,1.28524586645,0.238950829771,-0.00309349448606,-0.0965775621251
1588857868127340145,10133,1588857868127233981,,0.316725965492,-1.95200092328,1.28410860586,0.239864885429,-0.00374585293533,-0.0965728726749
1588857868133325933,10134,1588857868133199051,,0.316802304159,-1.9520074825,1.28407980347,0.239865434132,-0.00373434247742,-0.0965719555946
1588857868142263069,10135,1588857868142167606,,0.316451189279,-2.08419226453,1.30829263583,0.240692605749,-0.00373062091868,-0.0983545298254
1588857868148454593,10136,1588857868148338771,,0.339474675249,-2.08429721818,1.30875159556,0.240718757455,-0.00307632980405,-0.0991027574325
1588857868154205113,10137,1588857868154085642,,0.362008425064,-2.08460714488,1.3321977685,0.24332752025,-0.00308625097869,-0.0998365976632
1588857868160146556,10138,1588857868160055166,,0.361989007941,-2.08459518026,1.33222176654,0.24429923344,-0.00374503795965,-0.101622713409
1588857868166222909,10139,1588857868166054134,,0.38450259031,-2.08490899597,1.35567976868,0.246021302992,-0.00375632185947,-0.103253339255
1588857868172225722,10140,1588857868172083078,,0.384443889382,-1.95296424633,1.35456992672,0.246992508243,-0.00376129716616,-0.105033634969
1588857868178234372,10141,1588857868178151144,,0.338543323211,-1.95272957497,1.35366989648,0.247876467386,-0.0044261495034,-0.104435071433
1588857868184479917,10142,1588857868184291322,,0.361488366158,-1.95284524528,1.35412010653,0.248871773931,-0.00442591330759,-0.106964175249
1588857868190332193,10143,1588857868190200396,,0.36112664037,-2.08498905394,1.37824366131,0.251482463563,-0.00508098450971,-0.10784498554
1588857868196160070,10144,1588857868196049644,,0.361153360049,-2.08498461481,1.37824337543,0.251482152473,-0.00507837246378,-0.107845833997
1588857868202329967,10145,1588857868202177418,,0.361184021062,-2.08498738577,1.37823114879,0.251510854246,-0.00507396744188,-0.108748359973
1588857868208223729,10146,1588857868208136619,,0.338285280495,-2.08488897314,1.37775102716,0.251488244629,-0.00506461699261,-0.107996721438
1588857868214333115,10147,1588857868214220587,,0.338296423511,-2.08488869776,1.37774870785,0.252405730219,-0.00506091994241,-0.107985802812
1588857868220363235,10148,1588857868220262641,,0.338325955963,-2.08488785543,1.37774273069,0.252405731388,-0.00505715173832,-0.107985976616
1588857868226259436,10149,1588857868226166199,,0.360907082215,-2.08520414218,1.40127878542,0.251341878006,-0.00440424364952,-0.107834310766
1588857868235390823,10150,1588857868235252810,,0.338342387844,-2.08485777621,1.37778421232,0.25054940302,-0.00505003008228,-0.107089117059
1588857868241214661,10151,1588857868241112766,,0.38428832696,-2.21709154111,1.37975946401,0.251483270634,-0.00440688359431,-0.107692384059
1588857868247376923,10152,1588857868247222528,,0.384244423253,-2.21708068193,1.37978914022,0.251481998611,-0.00441518413747,-0.107695014462
1588857868253451603,10153,1588857868253367948,,0.361310285824,-2.21695668651,1.37935720498,0.251480432887,-0.00506645981113,-0.10785040403
1588857868259371504,10154,1588857868259224099,,0.383875866078,-2.21725934221,1.4028998745,0.253211216683,-0.00443499110954,-0.109504554898
1588857868265239566,10155,1588857868265071327,,0.406549924231,-2.08558321141,1.42525549094,0.255930765421,-0.00444063254112,-0.113830138893
1588857868271186432,10156,1588857868271032689,,0.406554107095,-2.08558402556,1.42525310644,0.255929174173,-0.00444268764638,-0.11383363633
1588857868277317067,10157,1588857868277214811,,0.406548361327,-2.08559446203,1.42523947353,0.256833393628,-0.00444548258739,-0.113829871979
1588857868283293358,10158,1588857868283151405,,0.383530547152,-2.0854755488,1.42478028118,0.257780449532,-0.0050882052096,-0.114857738551
1588857868289316163,10159,1588857868289134229,,0.360572862535,-2.08537892402,1.4243090146,0.25775811937,-0.00508519988126,-0.114104701576
1588857868295346611,10160,1588857868295250193,,0.406614588014,-2.08560711502,1.42520206485,0.256864150258,-0.0050762987625,-0.114716510309
1588857868301397782,10161,1588857868301289625,,0.383195834544,-2.08570703447,1.44773093257,0.256701333161,-0.00572696585197,-0.113959406208
1588857868307305337,10162,1588857868307155578,,0.383258943991,-2.0857238526,1.44768999683,0.256701997445,-0.00571613265725,-0.113958453759
1588857868313262988,10163,1588857868313182189,,0.383614720437,-2.08550681877,1.42471184806,0.255938873098,-0.00571528366985,-0.113959624043
1588857868319324114,10164,1588857868319241371,,0.360670259099,-2.21741884126,1.42529666805,0.255888745197,-0.00505568478676,-0.112313800058
1588857868325367844,10165,1588857868325163671,,0.3606355771,-2.21740499348,1.42532698731,0.255889435908,-0.00506000540949,-0.112312031798
1588857868331377917,10166,1588857868331205767,,0.38358793021,-2.21752365197,1.42576034644,0.255913815059,-0.00441518682144,-0.113062373365
1588857868337436198,10167,1588857868337322852,,0.383555093232,-2.21754418587,1.42573724329,0.254997266837,-0.00506378769341,-0.11306945119
1588857868343322164,10168,1588857868343232854,,0.383122470866,-2.21774915691,1.44873613964,0.257608037399,-0.00573282176023,-0.113949839509
1588857868349714032,10169,1588857868349629082,,0.383068549695,-2.21776638838,1.44872401988,0.257607338409,-0.00573935591467,-0.113951090797
1588857868355258666,10170,1588857868355158831,,0.383006207645,-2.21778272024,1.44871550129,0.258549835453,-0.00574862995388,-0.114840377911
1588857868361371767,10171,1588857868361286107,,0.405630193266,-2.2180897281,1.47218926007,0.262127794817,-0.00511238836072,-0.117375963141
1588857868367285207,10172,1588857868367197918,,0.382554131038,-2.08599342185,1.4706896447,0.262130931236,-0.00577116138607,-0.117517115603
1588857868373218683,10173,1588857868373144126,,0.405643885986,-2.08615318663,1.47107329654,0.263115020426,-0.00576662527177,-0.120066864624
1588857868382280035,10174,1588857868382183857,,0.405288716625,-2.08638839267,1.49413553819,0.263005769091,-0.00641780363649,-0.120961673684
1588857868388423920,10175,1588857868388307069,,0.405312133994,-2.08637425901,1.49414892187,0.263006692389,-0.00641419125675,-0.120959857754
1588857868394369040,10176,1588857868394255093,,0.42832795139,-2.08650279598,1.49457230735,0.263963371105,-0.00640765975322,-0.122600666496
1588857868400515747,10177,1588857868400329132,,0.405792008093,-2.21813725424,1.47207305544,0.264088192301,-0.00574623637136,-0.121847297383
1588857868406332579,10178,1588857868406185878,,0.405851601914,-2.21811374242,1.47209205417,0.264089345002,-0.00573861509108,-0.121845158207
1588857868412562848,10179,1588857868412303247,,0.42847095459,-2.21841989823,1.49564681974,0.264880945012,-0.00573765973752,-0.122591361265
1588857868418356895,10180,1588857868418268331,,0.405466662532,-2.21829657855,1.49522114698,0.264829807538,-0.00574106222257,-0.120943850576
1588857868424281546,10181,1588857868424193447,,0.382739105052,-2.21797296687,1.47169835269,0.264038752281,-0.00574424017155,-0.120193068278
1588857868430452831,10182,1588857868430331443,,0.40537460795,-2.35032951657,1.49627051792,0.26576341951,-0.00575527649793,-0.121831118789
1588857868436666509,10183,1588857868436541511,,0.405366805985,-2.35031426773,1.49629658408,0.265762703471,-0.00575856615653,-0.121832525305
1588857868442369092,10184,1588857868442279838,,0.405337024948,-2.35030992532,1.49631147265,0.266675520001,-0.00576747647846,-0.121830890678
1588857868448370924,10185,1588857868448289503,,0.404955623902,-2.35051263495,1.51929666084,0.266578505263,-0.00577047300048,-0.123638444721
1588857868454314795,10186,1588857868454244324,,0.404910624518,-2.35052131379,1.51929522727,0.266579503294,-0.00577381606566,-0.123636136754
1588857868460158481,10187,1588857868460085416,,0.450266632253,-2.35110187122,1.56623630214,0.270000610266,-0.00643921922129,-0.126020767813
1588857868466375700,10188,1588857868466294086,,0.450613937375,-2.35089830192,1.5432544096,0.270182823715,-0.0064386600825,-0.126906996454
1588857868472666031,10189,1588857868472376914,,0.404132959283,-2.35085374101,1.56539380218,0.270928688969,-0.00709760672537,-0.126298759324
1588857868478361516,10190,1588857868478240589,,0.42754577609,-2.35079269817,1.54278718685,0.270190599338,-0.00708609240028,-0.127049726705
1588857868484340674,10191,1588857868484260734,,0.42714658136,-2.3509922282,1.56579051433,0.271860801033,-0.00643288261195,-0.127038836403
1588857868490286718,10192,1588857868490192181,,0.427203991873,-2.35099981653,1.5657634578,0.271917757987,-0.00707993389935,-0.128827415224
1588857868496379854,10193,1588857868496284190,,0.427255782581,-2.3510174243,1.56572288757,0.271917539254,-0.00707229435057,-0.128828296521
1588857868502371645,10194,1588857868502262528,,0.427285805934,-2.35103265821,1.56569181957,0.271916951946,-0.00706815712896,-0.128829763195
1588857868508440542,10195,1588857868508331509,,0.427270033327,-2.35103695244,1.56568967572,0.271917590667,-0.00706881312437,-0.128828379065
1588857868514472597,10196,1588857868514343397,,0.404301816215,-2.48302574085,1.56617845134,0.266325852825,-0.00704848882439,-0.124513078741
1588857868520461497,10197,1588857868520299277,,0.405071599401,-2.48264893302,1.52017649028,0.261048140443,-0.00637958654937,-0.120949258975
1588857868526386541,10198,1588857868526292016,,0.405011631749,-2.48266638936,1.52016395963,0.261047917313,-0.0063853807885,-0.120949434802
1588857868533248747,10199,1588857868533046894,,0.381840912255,-2.48254075121,1.51977425759,0.260997072373,-0.00573691428833,-0.119299029935
1588857868538380955,10200,1588857868538263504,,0.381798646745,-2.48252587548,1.51980917507,0.260996851848,-0.00574321388445,-0.119299209285
1588857868544434015,10201,1588857868544338024,,0.381684779471,-2.61470783694,1.52073606791,0.260968348326,-0.00575189554655,-0.11840482456
1588857868550821695,10202,1588857868550687243,,0.40475687141,-2.61476316863,1.52126816775,0.260992598351,-0.0051046207249,-0.119159405727
1588857868556332358,10203,1588857868556244131,,0.404328361025,-2.61491474432,1.54432235215,0.259881335079,-0.00510693462113,-0.117365637534
1588857868562475222,10204,1588857868562373672,,0.404283004723,-2.6149261442,1.54431492364,0.259880985785,-0.00511148053068,-0.117366213075
1588857868568383297,10205,1588857868568288370,,0.381574106825,-2.48243706793,1.52001061263,0.258152588876,-0.00510943516651,-0.115721540249
1588857868574447968,10206,1588857868574311604,,0.381568297626,-2.48242450637,1.52003258588,0.258152653345,-0.00511095049902,-0.115721329515
1588857868580336209,10207,1588857868580242407,,0.381553924227,-2.48243442208,1.5200200001,0.258154077599,-0.00510970731389,-0.115718207119
1588857868586353871,10208,1588857868586269768,,0.358587630813,-2.48233705587,1.51956138672,0.258159615316,-0.00510320673152,-0.115859921526
1588857868592455583,10209,1588857868592364900,,0.358607761341,-2.48235017161,1.51953521018,0.258159383641,-0.00510029249842,-0.11586056607
1588857868598398700,10210,1588857868598300561,,0.382050585165,-2.48228362122,1.49693924816,0.259266240065,-0.00575246246676,-0.117497949444
1588857868604514865,10211,1588857868604310555,,0.382016965289,-2.48228996662,1.49693730608,0.26023743141,-0.00575846131108,-0.119291958337
1588857868610370779,10212,1588857868610269321,,0.404473052375,-2.61495512881,1.54421607786,0.26363502761,-0.00640508131594,-0.120926033788
1588857868616404381,10213,1588857868616302357,,0.404409086444,-2.61492635263,1.54428155854,0.263635267192,-0.00641400410333,-0.120925038521
1588857868622370457,10214,1588857868622270888,,0.381416594205,-2.61487987023,1.54371714651,0.264581721792,-0.00639924000113,-0.121968157626
1588857868628489759,10215,1588857868628355637,,0.404123203075,-2.6151570861,1.5671704882,0.26539836952,-0.00640246037408,-0.123612565096
1588857868634368007,10216,1588857868634268423,,0.427120300026,-2.61524601298,1.56763907455,0.266355128825,-0.00640826532333,-0.125253296007
1588857868640361099,10217,1588857868640221662,,0.404067938776,-2.61516728038,1.56716772675,0.266330751751,-0.00641036716803,-0.124503126504
1588857868646304270,10218,1588857868646193080,,0.427008599261,-2.61524476014,1.56767159439,0.267299281293,-0.00576463174259,-0.12614152376
1588857868652926439,10219,1588857868652834339,,0.427003105762,-2.6152506895,1.56766319913,0.26729850568,-0.00576585357841,-0.126143111462
1588857868658173133,10220,1588857868658076871,,0.426958616227,-2.61521615661,1.56773292413,0.270076735773,-0.00643894350607,-0.127930040626
1588857868664505754,10221,1588857868664374811,,0.449664696251,-2.61549875616,1.5912933432,0.272742949508,-0.00710500634176,-0.130470892603
1588857868670428273,10222,1588857868670326677,,0.449724353485,-2.61549548668,1.59128185802,0.272742436419,-0.00709915580875,-0.130472283652
1588857868676371979,10223,1588857868676245111,,0.426607526893,-2.6154022282,1.59081654817,0.273634158127,-0.00644124474278,-0.129711352206
1588857868682406055,10224,1588857868682260364,,0.426668679895,-2.61539560414,1.590811038,0.273633231865,-0.00643608508162,-0.129713562307
1588857868688412807,10225,1588857868688275484,,0.449838751573,-2.61551063543,1.59122462279,0.271839016698,-0.00642445134695,-0.130477877048
1588857868694499423,10226,1588857868694400689,,0.403412122887,-2.61546513836,1.61335465752,0.271640091753,-0.00771751313229,-0.128972025765
1588857868700414907,10227,1588857868700295991,,0.403010572721,-2.61564063256,1.63637897552,0.271472388812,-0.00771655376167,-0.128065264151
1588857868706277883,10228,1588857868706209864,,0.403227775203,-2.48352885746,1.63538833609,0.271501093315,-0.00769270280083,-0.128971686345
1588857868715396290,10229,1588857868715280380,,0.403678941332,-2.61554329425,1.61316120398,0.271670174651,-0.00767852982014,-0.129866216156
1588857868721442262,10230,1588857868721326479,,0.426704869519,-2.48346330136,1.61276278108,0.27260804026,-0.00703711230114,-0.130614217813
1588857868727498797,10231,1588857868727345371,,0.426191683193,-2.61581814866,1.63665506303,0.274276816025,-0.00705090452485,-0.130603664484
1588857868733406172,10232,1588857868733236543,,0.426154610329,-2.48366375077,1.63580308702,0.274303792007,-0.00770752128334,-0.13150032433
1588857868739303809,10233,1588857868739203722,,0.449161982877,-2.615888856,1.63719026862,0.27621382794,-0.00707524753328,-0.134045877064
1588857868745342487,10234,1588857868745276056,,0.472080582812,-2.61599896394,1.63765610471,0.276237824079,-0.00708723431061,-0.13479693244
1588857868751500025,10235,1588857868751410077,,0.449372317058,-2.61573256454,1.61418736772,0.276380400412,-0.00709752136953,-0.13494405518
1588857868757358308,10236,1588857868757277080,,0.425398992882,-2.61597906758,1.65980862862,0.277912152285,-0.00710926557557,-0.135077350047
1588857868763473607,10237,1588857868763364370,,0.448474047907,-2.61608651146,1.66026156734,0.279752151403,-0.00712323518587,-0.135826712233
1588857868769323493,10238,1588857868769234813,,0.448443117613,-2.61608245564,1.66027631275,0.279752615648,-0.00712652347839,-0.135825583568
1588857868775292233,10239,1588857868775098080,,0.448427952572,-2.61608731395,1.66027275357,0.278907678502,-0.00712090490944,-0.137628292244
1588857868781155828,10240,1588857868781085472,,0.448429922415,-2.61609392365,1.66026180659,0.279811521977,-0.00777077719343,-0.137622342925
1588857868787219795,10241,1588857868787092581,,0.448481934831,-2.74833262411,1.66100482076,0.280754290885,-0.00775755223666,-0.138513779421
1588857868790464219,10242,1588857868790372784,,0.448521291906,-2.7483233765,1.66100949488,0.281686961586,-0.00775557160502,-0.139405004703
1588857868796416807,10243,1588857868796298792,,0.448168702244,-2.74850489281,1.6841065019,0.282455621715,-0.00774960986125,-0.139398232886
1588857868802344021,10244,1588857868802243409,,0.471233617455,-2.74858969541,1.68456911277,0.284336160099,-0.00775266823592,-0.14104682177
1588857868808186304,10245,1588857868808085208,,0.470854081163,-2.74876005836,1.70759541353,0.28600745969,-0.00775099217346,-0.141031225028
1588857868811383725,10246,1588857868811268266,,0.47083704085,-2.74876346501,1.70759462837,0.286976973249,-0.0084133205312,-0.142820246613
1588857868817436336,10247,1588857868817305765,,0.470381623992,-2.74892425144,1.73066055161,0.28677248031,-0.00776084979922,-0.141024325051
1588857868823468193,10248,1588857868823377222,,0.470355085164,-2.74892129955,1.73067245313,0.286771653854,-0.00842326197399,-0.141024372239
1588857868829338392,10249,1588857868829218962,,0.470256825168,-2.74889417439,1.73074223778,0.286771112169,-0.00843742891135,-0.141024626858
1588857868835349425,10250,1588857868835253621,,0.470203658218,-2.74886693841,1.73079993991,0.286827433215,-0.00778658567669,-0.142819532391
1588857868841341526,10251,1588857868841272128,,0.470011163301,-2.74881192084,1.73093959671,0.2877417432,-0.00781557125187,-0.142812363312
1588857868847418458,10252,1588857868847327127,,0.470028050806,-2.74880400242,1.73094758586,0.288673610105,-0.00847507406122,-0.143703543476
1588857868853674637,10253,1588857868853580747,,0.469979866363,-2.74876103364,1.73102890282,0.2886768405,-0.0084797068859,-0.143696780719
1588857868859683278,10254,1588857868859549561,,0.470045927929,-2.74877741857,1.7309849468,0.288707286299,-0.00716102060918,-0.144603678354
1588857868865681682,10255,1588857868865420612,,0.47007984528,-2.74876636827,1.73099328393,0.288708393179,-0.0071564859882,-0.144601692895
1588857868871466725,10256,1588857868871340367,,0.470104023136,-2.74878283508,1.73096056866,0.288679980376,-0.00780117283748,-0.143693202504
1588857868877414204,10257,1588857868877255310,,0.470202416159,-2.74880356443,1.73090092416,0.288678789983,-0.00778976216081,-0.143696213008
1588857868883455077,10258,1588857868883340983,,0.470223408268,-2.74880148056,1.73089853083,0.287831500944,-0.00713523242788,-0.145507174555
1588857868889485129,10259,1588857868889356983,,0.470247777576,-2.74882239639,1.73085869384,0.287779077264,-0.0071258657437,-0.14369479999
1588857868895483510,10260,1588857868895328669,,0.469862815869,-2.74897488182,1.7540183737,0.288547147856,-0.00712648848087,-0.143688697404
1588857868901453307,10261,1588857868901347937,,0.469753877843,-2.88122812721,1.7547821281,0.288519526643,-0.00777835886353,-0.142788803197
1588857868907580601,10262,1588857868907453998,,0.469764121277,-2.8812421148,1.75475641904,0.288518703986,-0.00777720599112,-0.142790528244
1588857868913298633,10263,1588857868913212148,,0.470195845936,-2.74886570637,1.73080401896,0.286835781281,-0.00777599457542,-0.142803342673
1588857868916400523,10264,1588857868916295889,,0.46975344598,-2.74903823088,1.75394838209,0.286672320851,-0.00777847429912,-0.141903618562
1588857868922363686,10265,1588857868922282163,,0.470114564336,-2.7488751559,1.73081109048,0.28590581088,-0.00777914306953,-0.141906453922
1588857868928317689,10266,1588857868928232924,,0.469636162693,-2.8812869169,1.75471710571,0.285731786679,-0.00777825479644,-0.141008270459
1588857868934473777,10267,1588857868934352867,,0.470058506126,-2.74888701731,1.7308074775,0.284050939138,-0.00777768845181,-0.141016832672
1588857868940194082,10268,1588857868940121570,,0.447058359778,-2.74876264795,1.73038695061,0.284028251783,-0.00712501054479,-0.140263712925
1588857868946327641,10269,1588857868946236854,,0.447203691229,-2.74867204942,1.73049330941,0.283068993996,-0.00711197381697,-0.138462721352
1588857868955470045,10270,1588857868955341494,,0.470190726835,-2.88105197237,1.73165808504,0.283939007382,-0.00645636196057,-0.137411201177
1588857868961335550,10271,1588857868961220356,,0.470225532877,-2.88106405198,1.73162853615,0.283938160067,-0.00645278685035,-0.137413119938
1588857868967369371,10272,1588857868967261455,,0.424511932507,-2.74849390727,1.70685717814,0.279460428333,-0.0070953635818,-0.13503473067
1588857868973312322,10273,1588857868973246273,,0.424620423926,-2.74848931857,1.70683758072,0.279460147077,-0.00708415190142,-0.135035901386
1588857868979342732,10274,1588857868979246676,,0.447776018662,-2.74860989856,1.70724221956,0.27855223483,-0.00707769220657,-0.134898886158
1588857868985632051,10275,1588857868985470282,,0.425025446885,-2.74835240602,1.68375103281,0.275907859022,-0.0070711749338,-0.133261579804
1588857868991555277,10276,1588857868991396987,,0.425072335418,-2.74835456745,1.68373566806,0.275908218213,-0.00706539391578,-0.133261142755
1588857868997426146,10277,1588857868997323121,,0.425022292823,-2.74835401559,1.68374920171,0.274975459965,-0.00706868431724,-0.132359872124
1588857869003466174,10278,1588857869003269089,,0.424933063753,-2.74838351671,1.68372356848,0.274975517183,-0.00707598081231,-0.132359363383
1588857869009328730,10279,1588857869009242878,,0.42490715817,-2.74839306526,1.68371451987,0.274005144367,-0.0064186933027,-0.130573041535
1588857869015405689,10280,1588857869015299139,,0.402178955635,-2.6159433927,1.65931078341,0.271366245336,-0.00642890582182,-0.128940933735
1588857869021408191,10281,1588857869021317011,,0.425191546991,-2.61605278318,1.65974559881,0.272275298315,-0.00643336998137,-0.128782830378
1588857869027478591,10282,1588857869027368906,,0.402474288222,-2.74799523319,1.63710108357,0.271431984832,-0.00643160078487,-0.126242027972
1588857869033397593,10283,1588857869033251180,,0.402444636851,-2.74800254594,1.63709609794,0.271433245553,-0.0064324579024,-0.126239273601
1588857869039621049,10284,1588857869039412851,,0.379277173208,-2.74794356311,1.63659652415,0.267660434578,-0.00642083202275,-0.121910345082
1588857869045428082,10285,1588857869045301261,,0.379317012634,-2.74793929488,1.63659445758,0.267660360603,-0.00641709395465,-0.121910704319
1588857869051846252,10286,1588857869051741202,,0.378880250309,-2.74811354165,1.65962229217,0.268426560541,-0.00576356201091,-0.121903943974
1588857869057555557,10287,1588857869057465558,,0.402055534207,-2.74820166545,1.66007067352,0.268505835987,-0.00576127623673,-0.124450973489
1588857869063577713,10288,1588857869063426653,,0.402088433539,-2.74816216212,1.66012810046,0.26850683592,-0.00575934956388,-0.124448905266
1588857869069447694,10289,1588857869069365329,,0.378975110908,-2.74807473883,1.65966488475,0.268482729645,-0.00575639581881,-0.123695028437
1588857869075366457,10290,1588857869075249252,,0.379015414415,-2.74807545921,1.65965448835,0.268482739091,-0.00575209588293,-0.123695207967
1588857869081501595,10291,1588857869081418476,,0.379002223927,-2.74808570792,1.65964053057,0.268482382223,-0.00575322028704,-0.123695930261
1588857869087414338,10292,1588857869087315206,,0.378989382716,-2.74806012348,1.65968582571,0.267539549112,-0.00575449707743,-0.122806100456
1588857869093352398,10293,1588857869093283750,,0.355955677022,-2.74795507806,1.65926431178,0.267488465696,-0.00575374837533,-0.121158126303
1588857869099472130,10294,1588857869099376157,,0.356303971173,-2.7477630631,1.63628697074,0.26675300781,-0.00575818913003,-0.122055746704
1588857869105730852,10295,1588857869105573432,,0.355907697205,-2.74793888423,1.65930142259,0.267517367752,-0.00575875681827,-0.122051319759
1588857869111303343,10296,1588857869111235379,,0.355856007214,-2.74790889842,1.65936216646,0.267518741228,-0.00576439337213,-0.122048043183
1588857869117467235,10297,1588857869117390644,,0.355872677877,-2.74790726595,1.65936129467,0.267574443748,-0.00641987515178,-0.12383838455
1588857869123393661,10298,1588857869123304873,,0.355823877211,-2.74790245211,1.65937973154,0.267573369575,-0.00642679314788,-0.123840346641
1588857869129398897,10299,1588857869129282821,,0.378355093946,-2.88040842577,1.68377141943,0.271125256508,-0.00643936187243,-0.125479396146
1588857869135346321,10300,1588857869135253369,,0.378337349165,-2.88040584511,1.68377982139,0.271124727948,-0.00644206000392,-0.125480399716
1588857869141554874,10301,1588857869141457975,,0.401916878032,-2.88034528006,1.66107395532,0.270435314165,-0.00709668015641,-0.128033964424
1588857869147461672,10302,1588857869147345886,,0.424608436135,-2.74835425621,1.68385322312,0.271199009248,-0.00710111993195,-0.127883836251
1588857869153771651,10303,1588857869153685152,,0.401606588305,-2.74827545563,1.68336900048,0.272137252891,-0.0070963582873,-0.128926897249
1588857869159549958,10304,1588857869159460225,,0.42415635246,-2.88078500535,1.70764379982,0.27662065502,-0.00645010248851,-0.131443542162
1588857869165538081,10305,1588857869165427531,,0.424093049984,-2.88077039352,1.70768417167,0.277589936748,-0.0071192179959,-0.133241771387
1588857869171392255,10306,1588857869171232482,,0.424145139735,-2.88079797417,1.70762470639,0.2775920798,-0.00710874938966,-0.13323786551
1588857869177585485,10307,1588857869177415865,,0.446901958817,-2.88105552181,1.73110734087,0.278435198263,-0.00711141615602,-0.135784437858
1588857869183416106,10308,1588857869183317310,,0.446957430819,-2.88107736397,1.73105666691,0.278463549007,-0.00775117176433,-0.136679857968
1588857869189392175,10309,1588857869189250752,,0.446945149788,-2.88109893604,1.73102393399,0.280339228432,-0.00775449560938,-0.138471595001
1588857869195424441,10310,1588857869195340188,,0.470022401256,-2.88119797492,1.73146085206,0.281277584087,-0.00710611471379,-0.139219595443
1588857869201304700,10311,1588857869201218645,,0.446617860803,-2.74903114853,1.75337966731,0.282048471943,-0.00711100099257,-0.139360880548
1588857869207315632,10312,1588857869207236120,,0.446607953374,-2.74903973127,1.75336873442,0.282045927205,-0.00776291309175,-0.139364347982
1588857869213304175,10313,1588857869213163118,,0.446588119535,-2.749034051,1.75338269207,0.282046165132,-0.00776524307676,-0.139363736658
1588857869216289517,10314,1588857869216203499,,0.446562245848,-2.7490246133,1.75340407863,0.281105319781,-0.00711673000134,-0.138470527755
1588857869222396520,10315,1588857869222193462,,0.446584116916,-2.74903135117,1.75338794445,0.281104404665,-0.00776287340771,-0.138470984455
1588857869228295270,10316,1588857869228217275,,0.423815900042,-2.74878033382,1.729779354,0.281170708177,-0.00776550827203,-0.135911155166
1588857869234418137,10317,1588857869234321041,,0.423388972446,-2.74892292929,1.75296801473,0.281967811245,-0.00712261327255,-0.136811756943
1588857869240582788,10318,1588857869240486862,,0.423784469288,-2.74874697583,1.72984006217,0.280257925435,-0.00776696270855,-0.13591329637
1588857869246295862,10319,1588857869246195713,,0.42382794903,-2.61656712312,1.72901209825,0.28023169552,-0.00712025749614,-0.135014200767
1588857869252904863,10320,1588857869252819631,,0.424211095814,-2.61640780947,1.70595264417,0.280381523462,-0.00712146050432,-0.135013961405
1588857869258531926,10321,1588857869258419827,,0.401165622468,-2.74848296884,1.70634955411,0.279412623151,-0.00711670442559,-0.133376558841
1588857869264488163,10322,1588857869264375173,,0.424219367647,-2.74860388502,1.70675281662,0.278504606622,-0.00645316587311,-0.133237899046
1588857869270554866,10323,1588857869270367918,,0.401272572061,-2.61629440376,1.70550436742,0.276595194488,-0.00710650621509,-0.130693624011
1588857869276266683,10324,1588857869276189640,,0.400882500148,-2.61648338381,1.72852104824,0.275540803031,-0.00710150455529,-0.130699482258
1588857869282297571,10325,1588857869282221222,,0.378191239523,-2.61620257583,1.70503779811,0.273819833508,-0.00709371943374,-0.129059069519
1588857869288366740,10326,1588857869288284857,,0.378630648754,-2.6160469002,1.68196165705,0.272083890104,-0.00708444188912,-0.127269187534
1588857869294341349,10327,1588857869294268238,,0.378652081741,-2.61604285349,1.68196312614,0.272081492042,-0.00708588665636,-0.127274233704
1588857869300418169,10328,1588857869300343117,,0.378735563502,-2.48392157208,1.68105523419,0.270233860634,-0.00708008128228,-0.126390360541
1588857869306433532,10329,1588857869306291222,,0.401847748931,-2.48401368906,1.68151663734,0.269326403295,-0.00642051355095,-0.126253468487
1588857869313075107,10330,1588857869313017746,,0.356101360444,-2.48364366631,1.65747489484,0.268481033076,-0.00707775522532,-0.123848584428
1588857869318589091,10331,1588857869318434242,,0.356093366473,-2.48364743467,1.65747096558,0.268480277104,-0.00707954641905,-0.123850120849
1588857869324525452,10332,1588857869324418465,,0.379437634599,-2.61570975803,1.63577507152,0.267711336129,-0.00707759612973,-0.123710961121
1588857869330341480,10333,1588857869330263118,,0.35649857464,-2.48347034248,1.63442879838,0.266716859481,-0.0064178026608,-0.121176253584
1588857869336465216,10334,1588857869336362025,,0.356561494124,-2.35140901106,1.63346251163,0.264869610595,-0.00641210619181,-0.120281194296
1588857869342379833,10335,1588857869342297734,,0.356594628741,-2.35139639871,1.63347343418,0.264868448117,-0.00641096377998,-0.120283815035
1588857869348385427,10336,1588857869348280481,,0.356987306854,-2.35121402491,1.61043156028,0.264048602217,-0.00575114804484,-0.118498617208
1588857869354378366,10337,1588857869354239872,,0.356980832521,-2.35123440454,1.61040324101,0.262228463369,-0.00574731702156,-0.118510896456
1588857869360389181,10338,1588857869360301113,,0.357001534758,-2.35122501985,1.61041235365,0.263104869237,-0.00574797828883,-0.117611424481
1588857869366797183,10339,1588857869366705474,,0.334060879463,-2.21914490821,1.60893172231,0.259416277605,-0.00507946385106,-0.115974278997
1588857869375441573,10340,1588857869375338121,,0.334067994208,-2.21916277175,1.60890560619,0.258445660534,-0.00507428605112,-0.114190051556
1588857869381547932,10341,1588857869381452586,,0.334085792315,-2.2191608794,1.60890452067,0.258444954597,-0.0050734532054,-0.114191686292
1588857869387563735,10342,1588857869387440938,,0.334430607702,-2.35097466038,1.58687442175,0.255805200101,-0.00441854534134,-0.112408571501
1588857869393467423,10343,1588857869393383828,,0.334443283899,-2.35099551772,1.58684084931,0.253957319589,-0.00441173198998,-0.111525426629
1588857869399844429,10344,1588857869399737814,,0.357841720573,-2.35089010144,1.56418128873,0.253156838573,-0.00375461954317,-0.110483928675
1588857869405798661,10345,1588857869405430986,,0.312225043493,-2.21844500896,1.53929372272,0.250465883275,-0.00505148807059,-0.107210875589
1588857869411580156,10346,1588857869411487212,,0.312248215536,-2.21843982313,1.53929649626,0.250465096102,-0.00505043884221,-0.107212763992
1588857869417499087,10347,1588857869417418166,,0.311865222167,-2.21864180634,1.56231360807,0.250285660511,-0.0050504011475,-0.106312334949
1588857869423634602,10348,1588857869423540692,,0.311860298761,-2.21862707058,1.56233551688,0.250287601927,-0.00440424661002,-0.106309780674
1588857869429493359,10349,1588857869429398231,,0.311874569262,-2.21861926366,1.5623437546,0.250286852412,-0.0044043907164,-0.106311539288
1588857869435588231,10350,1588857869435477960,,0.311866727733,-2.21859555991,1.56237898004,0.250287380346,-0.00440601349953,-0.106310229133
1588857869441390151,10351,1588857869441303895,,0.334977943423,-2.218672117,1.56285304168,0.250341447805,-0.0037471102948,-0.107964239014
1588857869447541869,10352,1588857869447448881,,0.311892545647,-2.21855449626,1.5624321357,0.249440504787,-0.00440230577298,-0.108108667883
1588857869453745222,10353,1588857869453628962,,0.334955646871,-2.21864962958,1.56288974371,0.250399563189,-0.00440332933456,-0.109745495266
1588857869459654476,10354,1588857869459544687,,0.311483992436,-2.21873972975,1.58557969102,0.251143080136,-0.00440657114196,-0.108988867672
1588857869465572212,10355,1588857869465444531,,0.311457421074,-2.21871770067,1.58561573594,0.251144396136,-0.00440897187742,-0.108985738068
1588857869471510949,10356,1588857869471398912,,0.311455125309,-2.21871405432,1.58562128912,0.250211178134,-0.00440742469203,-0.108097622457
1588857869477473330,10357,1588857869477391992,,0.311434429553,-2.21871165217,1.5856287154,0.250210094527,-0.00441193821632,-0.108099946505
1588857869483494650,10358,1588857869483338459,,0.311374198233,-2.35073709442,1.58662971746,0.250151581579,-0.00505658642524,-0.106305843664
1588857869489676242,10359,1588857869489523712,,0.334522940384,-2.21879779696,1.58609396167,0.250204885803,-0.00505749347315,-0.107959410472
1588857869495535062,10360,1588857869495406318,,0.334555362569,-2.21880468549,1.58607748667,0.250205188277,-0.00505263592051,-0.10795893691
1588857869501543619,10361,1588857869501422660,,0.31181466065,-2.21852190381,1.5624939588,0.250376046201,-0.0050564129957,-0.108989202483
1588857869507326185,10362,1588857869507246138,,0.311831657138,-2.21851624628,1.56249859974,0.250376782244,-0.00505353535499,-0.108987645057
1588857869513353879,10363,1588857869513248951,,0.311825863589,-2.21851108339,1.56250708647,0.251233736267,-0.00505819125879,-0.107198709648
1588857869516299850,10364,1588857869516220172,,0.311819789995,-2.21851488355,1.56250290292,0.250377223607,-0.00505428840468,-0.108986596189
1588857869522473107,10365,1588857869522387864,,0.311800166867,-2.21850307029,1.5625235917,0.251233932963,-0.00571564141502,-0.107196235872
1588857869528408074,10366,1588857869528319992,,0.334889422226,-2.21859270119,1.56298474602,0.24941101367,-0.00505396780143,-0.107054892107
1588857869534363249,10367,1588857869534258307,,0.311812355777,-2.21849483005,1.56253285898,0.249386176845,-0.0050551526815,-0.106304316355
1588857869540386544,10368,1588857869540303006,,0.311302660561,-2.35072111863,1.58666742409,0.250125554591,-0.00506170658563,-0.105407455554
1588857869546466914,10369,1588857869546395068,,0.334383402191,-2.35082021607,1.58711315525,0.249234996777,-0.00441607434657,-0.106166070898
1588857869552732182,10370,1588857869552634513,,0.334375597232,-2.35081936803,1.58711605575,0.248329946221,-0.00441527205018,-0.10617145305
1588857869558626340,10371,1588857869558483734,,0.334797044709,-2.35061118125,1.56401615051,0.24935252314,-0.00441706261199,-0.105275102434
1588857869564522166,10372,1588857869564430208,,0.334801828248,-2.35062108294,1.56400024483,0.249352520572,-0.00441586213937,-0.105275158879
1588857869570433060,10373,1588857869570270110,,0.334784354972,-2.35062874825,1.56399246456,0.247562646275,-0.00441093415724,-0.106174569243
1588857869576392754,10374,1588857869576265829,,0.335100649417,-2.48255560577,1.54193021492,0.246769660208,-0.00440995514145,-0.105286009845
1588857869582531738,10375,1588857869582417937,,0.334699852072,-2.48274103906,1.56494157119,0.247535372371,-0.0044101257397,-0.105279161156
1588857869588454888,10376,1588857869588298803,,0.334683379314,-2.48274111832,1.56494496845,0.247506530016,-0.00441241667531,-0.104387519399
1588857869594587498,10377,1588857869594483747,,0.311592251854,-2.48264401115,1.56450155267,0.247453449671,-0.00441145285949,-0.10273452692
1588857869600563363,10378,1588857869600460159,,0.288964059976,-2.48237884944,1.5410339451,0.246664235645,-0.00505624772562,-0.10198958199
1588857869606360407,10379,1588857869606256746,,0.288662767819,-2.35044626105,1.56309645398,0.246513337977,-0.00505731122011,-0.101991854746
1588857869615551326,10380,1588857869615441524,,0.289000357694,-2.48237895722,1.54102696474,0.24484264169,-0.00505066232931,-0.102003678363
1588857869621640195,10381,1588857869621523471,,0.289030522171,-2.48238912653,1.54100492595,0.244842193785,-0.00504757527944,-0.102004906284
1588857869627706835,10382,1588857869627528340,,0.289124120518,-2.35024868957,1.54007681734,0.244813992541,-0.00504848145083,-0.101112419307
1588857869633515775,10383,1588857869633399181,,0.312129638155,-2.35033810909,1.54052422995,0.243925554179,-0.00374382740796,-0.101864191004
1588857869639836343,10384,1588857869639739709,,0.312128968939,-2.35034616796,1.54051207028,0.243925106058,-0.00374411298848,-0.101865253579
1588857869645501193,10385,1588857869645426675,,0.312146654657,-2.35036621105,1.54047790671,0.244866758552,-0.00439916005505,-0.102754208776
1588857869651771129,10386,1588857869651689531,,0.312548615999,-2.35017158606,1.51746864842,0.244073051429,-0.00439761076792,-0.101867808978
1588857869657488951,10387,1588857869657377886,,0.312558330531,-2.35017721906,1.51745792339,0.244072185415,-0.00439758217549,-0.101869885138
1588857869663656268,10388,1588857869663508215,,0.312173947785,-2.35037987397,1.54045152975,0.243921803141,-0.00374243017511,-0.101873224171
1588857869669593451,10389,1588857869669493191,,0.312182485399,-2.35038088012,1.5404482644,0.244864004294,-0.00374534071128,-0.102762958692
1588857869675683017,10390,1588857869675557018,,0.312291131326,-2.21834145302,1.53942955261,0.24400581698,-0.0037402028192,-0.104563772971
1588857869681482263,10391,1588857869681388257,,0.312617469998,-2.3501901769,1.51742567201,0.244127073872,-0.00374083677096,-0.103671717703
1588857869687546897,10392,1588857869687449172,,0.290129630318,-2.21782555922,1.49297952363,0.2424225648,-0.00373651965901,-0.102934745097
1588857869693485279,10393,1588857869693384126,,0.290132370327,-2.21782715131,1.49297662611,0.242422420394,-0.00373633533042,-0.10293509188
1588857869699833439,10394,1588857869699740857,,0.312688505779,-2.21810414133,1.51646725799,0.242239176609,-0.00374001352856,-0.101889717167
1588857869705569977,10395,1588857869705465665,,0.312705008501,-2.21809703849,1.51647424426,0.242267955739,-0.00373832483329,-0.102781199793
1588857869711545828,10396,1588857869711421615,,0.312730661626,-2.21808464686,1.51648707896,0.242267997035,-0.00373612092908,-0.102781182588
1588857869717601080,10397,1588857869717498002,,0.31313076386,-2.21788454981,1.49347501875,0.241503705808,-0.00373268416018,-0.102784726384
1588857869723521888,10398,1588857869723419197,,0.313123803313,-2.21788642701,1.49347369039,0.242389019397,-0.00373665937507,-0.101890026676
1588857869729672814,10399,1588857869729504210,,0.336220345247,-2.08601717617,1.49285462496,0.241526968407,-0.00373594711076,-0.103538605362
1588857869735593352,10400,1588857869735452257,,0.313548779899,-2.08568727484,1.46931904409,0.239800919645,-0.00373438988092,-0.101904999253
1588857869741650489,10401,1588857869741498022,,0.313548437784,-2.08568316172,1.46932495562,0.23980054325,-0.00373538039803,-0.101905848672
1588857869747678017,10402,1588857869747576098,,0.313591643552,-1.95381062889,1.46817023983,0.239828800906,-0.00373436193433,-0.102798766089
1588857869753903131,10403,1588857869753814048,,0.290653327413,-1.95370980485,1.46771504141,0.239802616664,-0.0043908679537,-0.102052846114
1588857869759898584,10404,1588857869759821072,,0.313214919909,-1.95402715933,1.49128398453,0.240596357759,-0.00308365821226,-0.102797524419
1588857869765785747,10405,1588857869765477673,,0.313591800195,-1.95379963418,1.46818483779,0.239827735803,-0.00373709533857,-0.102801151602
1588857869771584409,10406,1588857869771462815,,0.313605053588,-1.95379215681,1.46819195746,0.239826734688,-0.00373775509279,-0.102803463115
1588857869777619480,10407,1588857869777476485,,0.313645371015,-1.95378833715,1.46818842811,0.239825557874,-0.00373495608478,-0.102806310146
1588857869783565435,10408,1588857869783472350,,0.291090242087,-1.95347428393,1.44471802384,0.239037254883,-0.00373160857205,-0.102061131063
1588857869789492174,10409,1588857869789407614,,0.314422256633,-1.95334527169,1.42218207876,0.237324134079,-0.00372719144081,-0.101036199487
1588857869795618521,10410,1588857869795496190,,0.291131326527,-1.82170266633,1.44349161959,0.23621637173,-0.00372475723609,-0.0994016120248
1588857869801592217,10411,1588857869801474670,,0.291126783478,-1.82168403153,1.44351605284,0.236217409701,-0.00372460179251,-0.0993991511962
1588857869807551009,10412,1588857869807423874,,0.291499142904,-1.82144233535,1.42052469462,0.234521557843,-0.00306473169946,-0.0985030198015
1588857869813462532,10413,1588857869813390372,,0.268114537177,-1.82158482651,1.44305485445,0.234318438148,-0.00306287210103,-0.0968614944157
1588857869816581110,10414,1588857869816469204,,0.268492337584,-1.82133692356,1.42006963505,0.233555512326,-0.003058849635,-0.0968614471157
1588857869822484375,10415,1588857869822404778,,0.268518597113,-1.68969382813,1.41875445375,0.234440616311,-0.00306181035291,-0.0959684953639
1588857869829070391,10416,1588857869828971044,,0.268495638832,-1.68968950694,1.4187639451,0.232590602807,-0.00371576681315,-0.0950777399066
1588857869834467257,10417,1588857869834396236,,0.268468558887,-1.6896804588,1.41877984546,0.232591070903,-0.00371925853077,-0.0950764582587
1588857869840469214,10418,1588857869840399370,,0.26885165258,-1.55792679581,1.39439177209,0.232760590361,-0.00371930124622,-0.0959756924585
1588857869846531337,10419,1588857869846456919,,0.291414364336,-1.42702015123,1.416395202,0.233578379587,-0.00372235174733,-0.0976131112307
1588857869853199870,10420,1588857869853125503,,0.291769646343,-1.42674322515,1.39338450786,0.233699313098,-0.003723415789,-0.0967227022261
1588857869858497443,10421,1588857869858415053,,0.291771417566,-1.42674728291,1.39337998205,0.233699281312,-0.00372290882458,-0.0967227985433
1588857869864537602,10422,1588857869864416148,,0.245644840209,-1.29574678815,1.41388069505,0.233499075849,-0.00372403981735,-0.095229106552
1588857869870575218,10423,1588857869870408441,,0.245654556113,-1.29574941457,1.41387660001,0.233497979823,-0.00372507639499,-0.0952317533908
1588857869876530543,10424,1588857869876425452,,0.268115074818,-1.29614472236,1.43738773089,0.232468957712,-0.0030684624238,-0.0959820287286
1588857869882488692,10425,1588857869882361745,,0.26812692605,-1.29614988641,1.4373808636,0.232468942879,-0.00306594811698,-0.0959821450025
1588857869888495094,10426,1588857869888392663,,0.268469290614,-1.29584148542,1.41437119143,0.230790857492,-0.00371376564786,-0.0959851527057
1588857869894590421,10427,1588857869894445939,,0.291781938561,-1.42673708193,1.39338822413,0.229993134549,-0.00371169136632,-0.0949475270101
1588857869900588685,10428,1588857869900439682,,0.291759666358,-1.42673197132,1.39339812074,0.229994203705,-0.00371314990793,-0.0949448801022
1588857869906751244,10429,1588857869906640212,,0.268453122123,-1.42690019339,1.41592986325,0.229801629431,-0.00305998492131,-0.09330496859
1588857869915524483,10430,1588857869915430767,,0.268414945403,-1.55817174103,1.41742951957,0.228829633905,-0.00306304998613,-0.0915176376355
1588857869921472544,10431,1588857869921387004,,0.245538353273,-1.68953658232,1.41837872647,0.228804912709,-0.00306124809526,-0.0907723574694
