%time,field.header.seq,field.header.stamp,field.header.frame_id,field.vector.x,field.vector.y,field.vector.z
1589284779773944659,11756,1589284779773858136,,0.499657044954,-0.200496857071,0.221902592307
1589284779780038670,11757,1589284779779890153,,0.499653283779,-0.200500923383,0.221895077834
1589284779782950938,11758,1589284779782822655,,0.499648808885,-0.20050592826,0.221887839989
1589284779785976766,11759,1589284779785838800,,0.499644386146,-0.200510795043,0.22187894717
1589284779791938757,11760,1589284779791844501,,0.499640159361,-0.200513687081,0.221872108723
1589284779794988835,11761,1589284779794867439,,0.49963467972,-0.200518340692,0.221864142186
1589284779797919545,11762,1589284779797816129,,0.499630049068,-0.200521837222,0.221857285468
1589284779804099004,11763,1589284779803961204,,0.499624496431,-0.200527136489,0.221849831706
1589284779806920330,11764,1589284779806804100,,0.499619256399,-0.200529502542,0.221842888535
1589284779813124219,11765,1589284779812942024,,0.499614053348,-0.200533226552,0.221836813461
1589284779815944181,11766,1589284779815832424,,0.499608554725,-0.200537340683,0.221829209769
1589284779818960057,11767,1589284779818811295,,0.499603224895,-0.200540230246,0.221823697275
1589284779822023520,11768,1589284779821858468,,0.499597209666,-0.200545343946,0.221816281936
1589284779827991494,11769,1589284779827870195,,0.499590986145,-0.200549430413,0.221809180623
1589284779830993500,11770,1589284779830835597,,0.499584160319,-0.200554421972,0.221800406692
1589284779833949418,11771,1589284779833870193,,0.49957734912,-0.200558134489,0.221792184038
1589284779840018304,11772,1589284779839896347,,0.499570579526,-0.200561735153,0.221783610847
1589284779842983422,11773,1589284779842852663,,0.499563717394,-0.200564369501,0.221775815307
1589284779845984432,11774,1589284779845815615,,0.499557057138,-0.200568544935,0.221768507024
1589284779855096485,11775,1589284779854915088,,0.499550916954,-0.200572100268,0.221761395285
1589284779857962142,11776,1589284779857837456,,0.499544645304,-0.200575593997,0.221755126665
1589284779860970087,11777,1589284779860822593,,0.499538394018,-0.200579846052,0.221747915038
1589284779863976701,11778,1589284779863837496,,0.499531321546,-0.200583699982,0.22174158914
1589284779867022464,11779,1589284779866903016,,0.499525276815,-0.200586236924,0.221735901023
1589284779873062537,11780,1589284779872919070,,0.499518567305,-0.200589396297,0.221729876695
1589284779876021181,11781,1589284779875867286,,0.499511436492,-0.200592874888,0.221725244789
1589284779882030682,11782,1589284779881850385,,0.499505061039,-0.200595676219,0.221721667739
1589284779885041457,11783,1589284779884880028,,0.499497707529,-0.200598983989,0.221720026359
1589284779887947444,11784,1589284779887825782,,0.499490563978,-0.20060264758,0.221717922204
1589284779890956724,11785,1589284779890808161,,0.499483671901,-0.200604813727,0.221716150582
1589284779897181886,11786,1589284779896965421,,0.499475831612,-0.20060830246,0.221713088321
1589284779901793213,11787,1589284779901694917,,0.499468351661,-0.200613242998,0.221711862233
1589284779906402782,11788,1589284779906244243,,0.499460741978,-0.2006141347,0.221706652261
1589284779908993261,11789,1589284779908906539,,0.499452060082,-0.200618744404,0.221704538229
1589284779912024682,11790,1589284779911880498,,0.499444448329,-0.200620523344,0.221702970706
1589284779915089967,11791,1589284779914949360,,0.499437317059,-0.200623290795,0.221701523305
1589284779920993072,11792,1589284779920909925,,0.499429667527,-0.200627995846,0.221699999274
1589284779924011634,11793,1589284779923886626,,0.499422148917,-0.200628261909,0.221698337984
1589284779930158317,11794,1589284779929956678,,0.499414663502,-0.200631534296,0.221696783429
1589284779933079794,11795,1589284779932951020,,0.499406532079,-0.200635262252,0.221695762058
1589284779935941410,11796,1589284779935864756,,0.49939778003,-0.200637986412,0.221690884457
1589284779939088665,11797,1589284779938923006,,0.49938986179,-0.20064179735,0.221687495779
1589284779945030118,11798,1589284779944892126,,0.499382398462,-0.200644425836,0.221686032178
1589284779951020013,11799,1589284779950898868,,0.499374376066,-0.200646903877,0.221683583623
1589284779954133907,11800,1589284779954006927,,0.499367343696,-0.200649550133,0.221679031049
1589284779957063810,11801,1589284779956946800,,0.499360672101,-0.200652728802,0.221678151096
1589284779960114879,11802,1589284779959920994,,0.499354290735,-0.200654267269,0.221673154732
1589284779963000026,11803,1589284779962902265,,0.499347020704,-0.200657814374,0.221668701782
1589284779969065073,11804,1589284779968905700,,0.499340244422,-0.200659121416,0.221663513599
1589284779972053041,11805,1589284779971897941,,0.499334393838,-0.200661030568,0.221659875596
1589284779978045986,11806,1589284779977894143,,0.499328346588,-0.200663161475,0.221656484145
1589284779981043069,11807,1589284779980904076,,0.499322473895,-0.200666233021,0.221653148182
1589284779984013771,11808,1589284779983892285,,0.499316163817,-0.200666941956,0.221649129926
1589284779990154408,11809,1589284779989957851,,0.499311192086,-0.200669650054,0.221646131569
1589284779993031343,11810,1589284779992910949,,0.499305809602,-0.200671871764,0.221643581369
1589284779996050350,11811,1589284779995916306,,0.499301700557,-0.200674195028,0.221641381725
1589284780001928480,11812,1589284780001801490,,0.49929696131,-0.200676822668,0.221638423842
1589284780005262482,11813,1589284780005097473,,0.499292881121,-0.200678532405,0.221636049285
1589284780008003420,11814,1589284780007893113,,0.499288572991,-0.200683231781,0.221633252937
1589284780014019416,11815,1589284780013898287,,0.499284232515,-0.200686677787,0.221630053871
1589284780017009905,11816,1589284780016894502,,0.499280232341,-0.200688014702,0.221626239066
1589284780020124476,11817,1589284780019932231,,0.499276819788,-0.200690973811,0.221623089271
1589284780026073336,11818,1589284780025894915,,0.499272306911,-0.200694452165,0.221619898373
1589284780029232495,11819,1589284780029012096,,0.499269007784,-0.200695964157,0.221616372178
1589284780035049522,11820,1589284780034931222,,0.49926544292,-0.200698855971,0.221612948159
1589284780038073250,11821,1589284780037931307,,0.499262181686,-0.200702099735,0.2216100564
1589284780041034366,11822,1589284780040934493,,0.499259116594,-0.200703801005,0.221606450674
1589284780044008744,11823,1589284780043897856,,0.499256848028,-0.200705561401,0.221603935808
1589284780053030925,11824,1589284780052867215,,0.499253990502,-0.200707864719,0.221600692588
1589284780056025603,11825,1589284780055930404,,0.499251893676,-0.200709670175,0.221598681818
1589284780059108628,11826,1589284780058953709,,0.499249462016,-0.200709434926,0.221595498379
1589284780062091626,11827,1589284780061950910,,0.499246945967,-0.200712412911,0.221592960666
1589284780065110983,11828,1589284780064962633,,0.499244643758,-0.200713826892,0.221590276482
1589284780068102650,11829,1589284780067968007,,0.499242635277,-0.200714637075,0.221588837254
1589284780074041277,11830,1589284780073875655,,0.4992409343,-0.200715995452,0.221586192066
1589284780077045762,11831,1589284780076880909,,0.499238982736,-0.200717111214,0.221583828888
1589284780079993840,11832,1589284780079908481,,0.499237197372,-0.20071819786,0.221581500431
1589284780085967762,11833,1589284780085900538,,0.499235111948,-0.200720811331,0.221579099822
1589284780088992881,11834,1589284780088920920,,0.499233381985,-0.200721840836,0.221577518058
1589284780092090266,11835,1589284780091949153,,0.4992314682,-0.200722155427,0.221574761484
1589284780098090130,11836,1589284780097992436,,0.499229250157,-0.200724736216,0.221572419453
1589284780101042955,11837,1589284780100914898,,0.499226810349,-0.200726969591,0.22156891159
1589284780107304004,11838,1589284780107180782,,0.499224702785,-0.200728085438,0.221566325444
1589284780109942174,11839,1589284780109843348,,0.499222663431,-0.200731114401,0.221564911253
1589284780113031469,11840,1589284780112902306,,0.499220960326,-0.200731182362,0.221561101644
1589284780116047922,11841,1589284780115946034,,0.499218020235,-0.200734222382,0.221557871206
1589284780122003746,11842,1589284780121857305,,0.499216717784,-0.200735463695,0.221556375375
1589284780125004491,11843,1589284780124869195,,0.499214947578,-0.200736608399,0.221554393916
1589284780130991870,11844,1589284780130883469,,0.499212344973,-0.200739209465,0.221550828581
1589284780134059701,11845,1589284780133969016,,0.499210215141,-0.200741119272,0.221547444487
1589284780136975525,11846,1589284780136893105,,0.499208860322,-0.200742657175,0.221546233159
1589284780143001843,11847,1589284780142917934,,0.499206777882,-0.200745788225,0.221543875315
1589284780145915623,11848,1589284780145824076,,0.499205326432,-0.200747701691,0.221542768806
1589284780148991822,11849,1589284780148857464,,0.499203740026,-0.200750368296,0.221541216864
1589284780155021065,11850,1589284780154871170,,0.499201342768,-0.200755118742,0.221539098204
1589284780158058017,11851,1589284780157941555,,0.499200134527,-0.200758629161,0.221537774578
1589284780161522968,11852,1589284780160889686,,0.499198516451,-0.200761710328,0.221537464086
1589284780167064377,11853,1589284780166958887,,0.499196675064,-0.200764754122,0.221535882241
1589284780170001077,11854,1589284780169914445,,0.499195023108,-0.200768806111,0.221534809284
1589284780173121684,11855,1589284780172957189,,0.499192992952,-0.200773035059,0.221532689537
1589284780179073968,11856,1589284780178955492,,0.499191211769,-0.200776986632,0.221531353153
1589284780182044303,11857,1589284780181956141,,0.499189370673,-0.20078078289,0.221530599574
1589284780185066361,11858,1589284780184948535,,0.499187841599,-0.200787111377,0.221528837373
1589284780191100967,11859,1589284780191004418,,0.499186041426,-0.200790487811,0.221527918753
1589284780194052203,11860,1589284780193925848,,0.499184504392,-0.200797466438,0.221526323993
1589284780197102886,11861,1589284780196953966,,0.499183254443,-0.200801716734,0.221524248041
1589284780203426244,11862,1589284780203296712,,0.499182337419,-0.200808725818,0.221522215467
1589284780206354827,11863,1589284780206273627,,0.499181422863,-0.200814879244,0.221520189012
1589284780209062935,11864,1589284780208935949,,0.499180614176,-0.200821358103,0.221515157677
1589284780215098114,11865,1589284780214959465,,0.499180268061,-0.200828000131,0.221509738261
1589284780218057678,11866,1589284780217967968,,0.499180696193,-0.200834039429,0.221498899088
1589284780221061336,11867,1589284780220950535,,0.499180595348,-0.200840706718,0.221491449268
1589284780227187804,11868,1589284780227016359,,0.499180462998,-0.200843799778,0.221487919424
1589284780230066323,11869,1589284780229924814,,0.499179777651,-0.20084742786,0.22148318852
1589284780236008595,11870,1589284780235890965,,0.499179737898,-0.200849485645,0.22148020233
1589284780239018587,11871,1589284780238878635,,0.499179409323,-0.200851898838,0.221478529477
1589284780242054542,11872,1589284780241944096,,0.49917895124,-0.200854321076,0.221475451907
1589284780248170331,11873,1589284780247956652,,0.499178296539,-0.200855534969,0.221471865567
1589284780254115970,11874,1589284780253969310,,0.499177904607,-0.20085755624,0.221468721801
1589284780257084456,11875,1589284780256943376,,0.499177798163,-0.200858147363,0.221466238198
1589284780260077293,11876,1589284780259933605,,0.499177541957,-0.200860599789,0.221463848615
1589284780263022332,11877,1589284780262909221,,0.499177638457,-0.20086177392,0.221461588644
1589284780269140765,11878,1589284780268924354,,0.499177000985,-0.200862849521,0.221459272069
1589284780272090730,11879,1589284780271983693,,0.499176779623,-0.200863613404,0.221454900038
1589284780274925286,11880,1589284780274842676,,0.499176987239,-0.200865984784,0.221454075618
1589284780278015427,11881,1589284780277918966,,0.499176217187,-0.200868176438,0.221449285849
1589284780284152095,11882,1589284780283921172,,0.499176189317,-0.200869008003,0.221445168753
1589284780287108480,11883,1589284780286944173,,0.499176125127,-0.200869999295,0.221441073828
1589284780293044990,11884,1589284780292931101,,0.499175287374,-0.200872142541,0.221436480312
1589284780296016315,11885,1589284780295921975,,0.499175346631,-0.200872832494,0.221432969661
1589284780299076403,11886,1589284780298963472,,0.499174498839,-0.200874770289,0.221429662901
1589284780302101117,11887,1589284780301982770,,0.499173631967,-0.200874860341,0.221426715232
1589284780308035503,11888,1589284780307944604,,0.499172233102,-0.200876567144,0.221422445776
1589284780311015704,11889,1589284780310915305,,0.499171730871,-0.200875915586,0.221421158145
1589284780317336817,11890,1589284780317106347,,0.49917038778,-0.200878116864,0.221418042378
1589284780320216778,11891,1589284780320091181,,0.499169671374,-0.200878158233,0.221416201932
1589284780323122611,11892,1589284780322981739,,0.49916837918,-0.200878788476,0.221414070642
1589284780326050937,11893,1589284780325915124,,0.49916716777,-0.200880336556,0.221411327097
1589284780332126636,11894,1589284780331986630,,0.499165704632,-0.200880922284,0.221409407751
1589284780335084022,11895,1589284780334928063,,0.499163690028,-0.20088222771,0.221406050591
1589284780341165411,11896,1589284780340980520,,0.499161098165,-0.200884898782,0.221401880292
1589284780344059778,11897,1589284780343957256,,0.499159222487,-0.20088436717,0.221400185161
1589284780347180438,11898,1589284780346990097,,0.499156736751,-0.200886989144,0.221396735281
1589284780353170580,11899,1589284780353046390,,0.499154652265,-0.200886795192,0.221393112986
1589284780356116802,11900,1589284780355960843,,0.499152106717,-0.200889451119,0.221390274767
1589284780359155345,11901,1589284780359028909,,0.499150199606,-0.200889875336,0.221387097622
1589284780365136974,11902,1589284780364948653,,0.499147457754,-0.200891593847,0.221384051633
1589284780368085708,11903,1589284780367926128,,0.499144981941,-0.200892593603,0.221381320579
1589284780371126210,11904,1589284780370934310,,0.49914302438,-0.200893163795,0.221378427208
1589284780377090208,11905,1589284780376918948,,0.499140671354,-0.200893215748,0.221376602653
1589284780380090225,11906,1589284780379964909,,0.499138029353,-0.200894929262,0.221372991865
1589284780383163681,11907,1589284780382968809,,0.499135519212,-0.200895178313,0.221370148538
1589284780389144855,11908,1589284780388954694,,0.499133083235,-0.200896281431,0.221367367536
1589284780392096195,11909,1589284780391955786,,0.499131128393,-0.200898684565,0.221365615474
1589284780395186546,11910,1589284780395028024,,0.499128972845,-0.20089969999,0.221363337937
1589284780401167487,11911,1589284780400982186,,0.499127177127,-0.200899377024,0.221360997548
1589284780404434502,11912,1589284780404258582,,0.499125113844,-0.200900343292,0.221360099854
1589284780407464022,11913,1589284780407321091,,0.499123641493,-0.200902994995,0.221358025669
1589284780413125317,11914,1589284780412936031,,0.499121171633,-0.200904568012,0.221356308259
1589284780416096931,11915,1589284780415970577,,0.499119991539,-0.20090515184,0.221355096401
1589284780419095836,11916,1589284780418960810,,0.499118074742,-0.200907550725,0.221353967784
1589284780425168812,11917,1589284780425001091,,0.499116494745,-0.200908008729,0.221352565775
1589284780428159514,11918,1589284780427941722,,0.499114761464,-0.200909629751,0.221351422944
1589284780430998981,11919,1589284780430920196,,0.499113431782,-0.20091024261,0.221351159501
1589284780437106082,11920,1589284780436934712,,0.499112364119,-0.200911518012,0.221350692835
1589284780440093750,11921,1589284780439989167,,0.499110670876,-0.200913889884,0.221349583006
1589284780443044444,11922,1589284780442941023,,0.499109016002,-0.200914266128,0.221348565353
1589284780449071062,11923,1589284780448930604,,0.499107439169,-0.200915908599,0.221348198613
1589284780452065205,11924,1589284780451937256,,0.499105548971,-0.200916787449,0.221347364274
1589284780455144450,11925,1589284780454997060,,0.499104275964,-0.200918214382,0.221348211535
1589284780461060400,11926,1589284780460941874,,0.499103185421,-0.200918631587,0.221347946855
1589284780464110026,11927,1589284780463978097,,0.499101376644,-0.200919460638,0.221347575806
1589284780467189225,11928,1589284780466982110,,0.499099631678,-0.20092015255,0.22134788922
1589284780473132205,11929,1589284780472969831,,0.499097534092,-0.20092130161,0.221348500554
1589284780476229038,11930,1589284780476012843,,0.499095918401,-0.200921490876,0.221351176985
1589284780479131668,11931,1589284780478994987,,0.49909442423,-0.20092060537,0.221355680044
1589284780485092070,11932,1589284780484913355,,0.499092231795,-0.200919810602,0.221361396612
1589284780488135079,11933,1589284780487945013,,0.49908944147,-0.200920673892,0.221367437205
1589284780494097740,11934,1589284780493945202,,0.499087525846,-0.200919509689,0.221368757898
1589284780497082605,11935,1589284780496960300,,0.499085969875,-0.200920345835,0.221368816307
1589284780500028417,11936,1589284780499931133,,0.499084119413,-0.200920115867,0.221369138345
1589284780503432700,11937,1589284780503334586,,0.499083466501,-0.200921411974,0.221369210967
1589284780509144760,11938,1589284780509031784,,0.499082657473,-0.200921553539,0.221369878331
1589284780512068358,11939,1589284780511991255,,0.499080930117,-0.200922650953,0.221368892964
1589284780518265078,11940,1589284780518012372,,0.499080334496,-0.200922675959,0.221368152132
1589284780521145210,11941,1589284780521026044,,0.499079203496,-0.20092359026,0.221367389046
1589284780524107607,11942,1589284780523973717,,0.499078199691,-0.200924309083,0.221367244481
1589284780530111388,11943,1589284780529988745,,0.499077006573,-0.200924087015,0.221365207626
1589284780533053401,11944,1589284780532945216,,0.499076057579,-0.200924676649,0.221363865563
1589284780536116516,11945,1589284780535947220,,0.49907472608,-0.200924948045,0.221363059165
1589284780542171527,11946,1589284780542014668,,0.499073741425,-0.200926135048,0.221361757776
1589284780545142438,11947,1589284780545002708,,0.499072782461,-0.200926720582,0.221360739471
1589284780548134372,11948,1589284780548005522,,0.499072627136,-0.200926706867,0.221360329373
1589284780557174123,11949,1589284780557007497,,0.499072331926,-0.200927558652,0.221359415348
1589284780560060883,11950,1589284780559955009,,0.499071978267,-0.200928036699,0.221359372876
1589284780563037547,11951,1589284780562935113,,0.499071653491,-0.200928893719,0.221358770546
1589284780566109080,11952,1589284780565989681,,0.499071718933,-0.20092915116,0.221357703247
1589284780569125696,11953,1589284780568995011,,0.499071515956,-0.200929846693,0.221357022438
1589284780572188226,11954,1589284780571997522,,0.499071542472,-0.200929846696,0.221356903648
1589284780578162724,11955,1589284780577984627,,0.499071534327,-0.200930223145,0.22135505701
1589284780581212760,11956,1589284780581013646,,0.499071018462,-0.200931110869,0.221353260475
1589284780584171422,11957,1589284780583964692,,0.499071296232,-0.200930231838,0.221351596542
1589284780590116836,11958,1589284780589925503,,0.499070443638,-0.200931530756,0.221350104922
1589284780593081380,11959,1589284780592954924,,0.499070260935,-0.200930119457,0.22134925894
1589284780596054195,11960,1589284780595966917,,0.499069560301,-0.200929325321,0.221348358304
1589284780602160077,11961,1589284780602036002,,0.499069122122,-0.20093001707,0.221347188796
1589284780605426927,11962,1589284780605200979,,0.499068717859,-0.20093002048,0.221345986582
1589284780608167358,11963,1589284780607966159,,0.499068347426,-0.200929284037,0.221345057304
1589284780614133737,11964,1589284780613996787,,0.499068438857,-0.200927411224,0.22134350535
1589284780617089209,11965,1589284780616981839,,0.499067826261,-0.200929450061,0.221342984269
1589284780620160977,11966,1589284780619956359,,0.499067285563,-0.200927425844,0.221340467387
1589284780626189875,11967,1589284780625991984,,0.499067327178,-0.200926998609,0.221338987366
1589284780629118380,11968,1589284780629013198,,0.49906622206,-0.20092636579,0.221336114338
1589284780635079242,11969,1589284780634958566,,0.499066253167,-0.200925492607,0.221335182012
1589284780638126817,11970,1589284780637961203,,0.499065320974,-0.200924379205,0.221331579283
1589284780641216238,11971,1589284780641027979,,0.499065236403,-0.200923237358,0.221329314856
1589284780647119249,11972,1589284780646948462,,0.499065592776,-0.200923957169,0.221326651973
1589284780653171411,11973,1589284780652993361,,0.499065606403,-0.20092264341,0.221322593326
1589284780656077121,11974,1589284780655973088,,0.499066449542,-0.200923389627,0.221313773276
1589284780659091895,11975,1589284780658961892,,0.499069533937,-0.200926968461,0.221292341737
1589284780662120496,11976,1589284780661988788,,0.499070422836,-0.200926336605,0.22129001763
1589284780665117677,11977,1589284780665005402,,0.499071235483,-0.200924320893,0.221286517451
1589284780671146179,11978,1589284780670995189,,0.499072681375,-0.20092234913,0.221284247436
1589284780674163299,11979,1589284780673944061,,0.499073081777,-0.200922286707,0.221280437197
1589284780680063109,11980,1589284780679956355,,0.499074461856,-0.200920945115,0.221277823556
1589284780683086747,11981,1589284780682990789,,0.499074900194,-0.200920298557,0.221271543395
1589284780686043642,11982,1589284780685955937,,0.499077078511,-0.200918342772,0.221266326779
1589284780689062986,11983,1589284780688963416,,0.499077781418,-0.200917203659,0.221261222263
1589284780695184064,11984,1589284780695055995,,0.499079512545,-0.200915120248,0.221259236999
1589284780698100907,11985,1589284780697986779,,0.499080921641,-0.20091365571,0.221257550991
1589284780704374691,11986,1589284780704248401,,0.499082426827,-0.200910856857,0.221254990597
1589284780707552913,11987,1589284780707389357,,0.499083592779,-0.200909251527,0.221254028921
1589284780710071700,11988,1589284780709939898,,0.49908495816,-0.200906433159,0.221251953298
1589284780713135891,11989,1589284780713006879,,0.499086338659,-0.2009034931,0.221250039287
1589284780719090665,11990,1589284780718982192,,0.499087967573,-0.200900740269,0.221248235485
1589284780722123746,11991,1589284780721965595,,0.499089139155,-0.200897231236,0.221247350313
1589284780728074440,11992,1589284780727968602,,0.499091612064,-0.200891805507,0.221246069177
1589284780731126950,11993,1589284780730961485,,0.499093897082,-0.200886317297,0.221243562581
1589284780734086068,11994,1589284780733977311,,0.499095875258,-0.200880747978,0.221242320921
1589284780737095713,11995,1589284780736968192,,0.499098170241,-0.200876159892,0.221242015944
1589284780743179418,11996,1589284780742995380,,0.499100615088,-0.200869055994,0.221240514968
1589284780746084234,11997,1589284780745929617,,0.499102256133,-0.200863792249,0.221240181306
1589284780755078120,11998,1589284780754963539,,0.499104268259,-0.200858148023,0.221239320162
1589284780758088717,11999,1589284780757951064,,0.499105700223,-0.200854350318,0.221239760255
1589284780761008620,12000,1589284780760940289,,0.499106758984,-0.20084967087,0.221239110458
1589284780764084282,12001,1589284780763965411,,0.49910830941,-0.200845362456,0.221239491057
1589284780767050600,12002,1589284780766958458,,0.499108854525,-0.200838205706,0.221237263993
1589284780770092967,12003,1589284780769942017,,0.499110176004,-0.200832905069,0.221236282012
1589284780776095881,12004,1589284780775951926,,0.499111182975,-0.200821334085,0.221233994847
1589284780779087979,12005,1589284780778949247,,0.499111834171,-0.200814356794,0.221232617842
1589284780782107695,12006,1589284780781951641,,0.499112133485,-0.200811336932,0.221231103489
1589284780788146194,12007,1589284780788028347,,0.499111888502,-0.200810128994,0.221230172363
1589284780791163584,12008,1589284780791020273,,0.499112520714,-0.200808723014,0.221231173625
1589284780794052350,12009,1589284780793961693,,0.499112362235,-0.200807364646,0.221230041387
1589284780800285546,12010,1589284780800101153,,0.499112314762,-0.200807876027,0.221230728156
1589284780803591596,12011,1589284780803440398,,0.499112922814,-0.200806401825,0.221231486467
1589284780806540058,12012,1589284780806328948,,0.499113596978,-0.200805845733,0.221232032617
1589284780812121139,12013,1589284780811955282,,0.499113003911,-0.200805860708,0.221230718906
1589284780815074956,12014,1589284780814953817,,0.499112587685,-0.200806644989,0.221230834645
1589284780818078287,12015,1589284780817953046,,0.499112669891,-0.200807901909,0.221231371734
1589284780824123737,12016,1589284780823956103,,0.499112278948,-0.200807876025,0.221230888875
1589284780827086881,12017,1589284780826976630,,0.499112286629,-0.200808492868,0.221230877931
1589284780830044423,12018,1589284780829926743,,0.499112653093,-0.200808382618,0.221232340756
1589284780836042971,12019,1589284780835943883,,0.499112217152,-0.200808279303,0.221231679168
1589284780839068856,12020,1589284780838940883,,0.499111953009,-0.200808406128,0.221231592785
1589284780842049801,12021,1589284780841939808,,0.499111708799,-0.200810400991,0.221231815086
1589284780848105492,12022,1589284780847950450,,0.499111746819,-0.200808850855,0.221231301822
1589284780851062007,12023,1589284780850984271,,0.499111754495,-0.200808760468,0.22123184661
1589284780857099454,12024,1589284780856964043,,0.499111641801,-0.200808714201,0.221232479202
1589284780860161772,12025,1589284780860048580,,0.499111033731,-0.200808700139,0.221230958173
1589284780863186555,12026,1589284780863022019,,0.499111380689,-0.200808543114,0.221232646594
1589284780866150194,12027,1589284780866027340,,0.499111110738,-0.200809869512,0.221232707111
1589284780872119273,12028,1589284780871974258,,0.499110781127,-0.200809194575,0.221231946014
1589284780875065256,12029,1589284780874981382,,0.49911002892,-0.200809521941,0.221231593805
1589284780881011617,12030,1589284780880926133,,0.499109647792,-0.200810250867,0.221231348816
1589284780884020825,12031,1589284780883934838,,0.499108986033,-0.200811467255,0.22122996795
1589284780887052570,12032,1589284780886954137,,0.499108580556,-0.200812167143,0.221229557571
1589284780890065936,12033,1589284780889957929,,0.499108174854,-0.20081186561,0.221229353225
1589284780896125907,12034,1589284780896011467,,0.499106445915,-0.200812941449,0.221227871018
1589284780899219056,12035,1589284780899060570,,0.499105085975,-0.200812114633,0.221225401141
1589284780905382558,12036,1589284780905256377,,0.499104297209,-0.200813405477,0.221224496974
1589284780908504883,12037,1589284780908341300,,0.499102926481,-0.200814509027,0.221223079614
1589284780911120671,12038,1589284780910992041,,0.499101784753,-0.200813487242,0.221221426367
1589284780917160850,12039,1589284780916973374,,0.499100133923,-0.200814066839,0.221219093453
1589284780920096761,12040,1589284780919988215,,0.499098570774,-0.200815241015,0.22121622783
1589284780923062662,12041,1589284780922982254,,0.499096886833,-0.200815025161,0.221214255161
1589284780929156983,12042,1589284780929056563,,0.499094904584,-0.200816008888,0.221211358852
1589284780932205086,12043,1589284780932076533,,0.499092792342,-0.200815177507,0.221207091475
1589284780935102215,12044,1589284780934991433,,0.499091322559,-0.200815523037,0.221204906871
1589284780941093929,12045,1589284780940973187,,0.499089605431,-0.20081587061,0.221203047559
1589284780944036949,12046,1589284780943946831,,0.499087978765,-0.200817048681,0.221200401471
1589284780947154516,12047,1589284780946999893,,0.499087069748,-0.200817039886,0.221198130625
1589284780953100303,12048,1589284780953016036,,0.499086057378,-0.200817857222,0.221196288005
1589284780956130544,12049,1589284780955999502,,0.499085413851,-0.200817640197,0.221195207278
1589284780959103050,12050,1589284780958999929,,0.499084851455,-0.20081778741,0.221193118175
1589284780965135841,12051,1589284780965035363,,0.499084243581,-0.200817774374,0.221191593079
1589284780968127008,12052,1589284780968030896,,0.499083335838,-0.20081853743,0.221189198601
1589284780971129188,12053,1589284780971009076,,0.499083427282,-0.200818002708,0.221188679922
1589284780977137392,12054,1589284780977023739,,0.499082788288,-0.200819400431,0.22118680054
1589284780980154893,12055,1589284780980065582,,0.499082773816,-0.200819958117,0.221183948736
1589284780983101578,12056,1589284780983028753,,0.499082278673,-0.2008198584,0.221180389751
1589284780989133457,12057,1589284780989009540,,0.49908205017,-0.20081977477,0.221176547134
1589284780992216487,12058,1589284780992019249,,0.499081613766,-0.200820939626,0.221173442797
1589284780995116615,12059,1589284780995031569,,0.499081080236,-0.200821476638,0.221169792943
1589284781001147109,12060,1589284781001018207,,0.499080074819,-0.200822186582,0.221163773463
1589284781004534718,12061,1589284781004426663,,0.499080329666,-0.200822026096,0.2211611573
1589284781007504227,12062,1589284781007418638,,0.499079588502,-0.20082102474,0.221156384457
1589284781013242117,12063,1589284781013054652,,0.499079241745,-0.200821371904,0.221153417561
1589284781016148372,12064,1589284781016080626,,0.499078164231,-0.200821052852,0.221147632406
1589284781022084078,12065,1589284781022015583,,0.499077140188,-0.200820326961,0.221143211215
1589284781025178278,12066,1589284781025068315,,0.499076957044,-0.20082039256,0.221140342153
1589284781028183696,12067,1589284781028058149,,0.499076221463,-0.20081747629,0.221137008349
1589284781034130115,12068,1589284781034042924,,0.499074835381,-0.2008161182,0.221131924152
1589284781037097554,12069,1589284781037000444,,0.499073272755,-0.200815870019,0.221128015564
1589284781043208275,12070,1589284781043087345,,0.499072497138,-0.200813128675,0.221123504964
1589284781046156059,12071,1589284781046040008,,0.499070852189,-0.200810472608,0.22111930017
1589284781049150262,12072,1589284781049018829,,0.499068757733,-0.200808900123,0.221113217958
1589284781055126907,12073,1589284781055066185,,0.499066530654,-0.200806503706,0.221108232402
1589284781058168669,12074,1589284781057984266,,0.499064969421,-0.200803173788,0.221102905106
1589284781061112502,12075,1589284781060991101,,0.499062538435,-0.200798696424,0.221096665886
1589284781067219317,12076,1589284781067094027,,0.499060348349,-0.200794494855,0.221090187471
1589284781070139977,12077,1589284781070026920,,0.499059154622,-0.200789258644,0.221085060386
1589284781073238686,12078,1589284781073084738,,0.499057164349,-0.200783754121,0.221078271363
1589284781076114363,12079,1589284781076017753,,0.499055993466,-0.200775421917,0.221071294629
1589284781082273637,12080,1589284781082123907,,0.499055207241,-0.200766646949,0.221065191311
1589284781085210829,12081,1589284781085033514,,0.499055029654,-0.200755001879,0.221059077176
1589284781091249063,12082,1589284781091086457,,0.49905525528,-0.200742333386,0.221051297933
1589284781094124559,12083,1589284781094035038,,0.499055656607,-0.200731625562,0.221045681649
1589284781097177139,12084,1589284781097072347,,0.499056082439,-0.200716719185,0.221039757613
1589284781100189586,12085,1589284781100069199,,0.499056036957,-0.200704853921,0.221034482362
1589284781106377086,12086,1589284781106221843,,0.499056298734,-0.200690241441,0.221028653022
1589284781109136232,12087,1589284781109003639,,0.499055997415,-0.200676654577,0.221022152412
1589284781115248891,12088,1589284781115047187,,0.499055956512,-0.200662138467,0.221016132869
1589284781118139352,12089,1589284781118035804,,0.499054635656,-0.200647658018,0.22100833322
1589284781121176001,12090,1589284781121028745,,0.499053761783,-0.200633552019,0.221001776616
1589284781124281413,12091,1589284781124061614,,0.499052646898,-0.20061890389,0.220996931071
1589284781130235565,12092,1589284781130064036,,0.499051395385,-0.200602207811,0.220993486833
1589284781133264002,12093,1589284781133144144,,0.499049661476,-0.200583187019,0.220995437081
1589284781139192905,12094,1589284781139038079,,0.499047569567,-0.2005657325,0.221000473999
1589284781142131081,12095,1589284781142043451,,0.499046056708,-0.200551058817,0.220994274429
1589284781145147371,12096,1589284781145036691,,0.499044475585,-0.200535635695,0.220992870193
1589284781148257047,12097,1589284781148052903,,0.4990441256,-0.20052102559,0.220987777879
1589284781157261279,12098,1589284781157110689,,0.499044282871,-0.200505469928,0.220983857192
1589284781160090886,12099,1589284781160006465,,0.499045397644,-0.200489247642,0.220980859953
1589284781163129807,12100,1589284781163018386,,0.499045205576,-0.200473714628,0.220977206397
1589284781166090010,12101,1589284781165995512,,0.499044519574,-0.200455263401,0.220983755039
1589284781169144724,12102,1589284781169017676,,0.499041476507,-0.200434222766,0.220996222036
1589284781175136885,12103,1589284781175002097,,0.499039501668,-0.200420003066,0.220987782803
1589284781178139961,12104,1589284781178027646,,0.499037338426,-0.200401480022,0.220986469649
1589284781181148499,12105,1589284781181006361,,0.499037080929,-0.200386418155,0.220984982887
1589284781187181610,12106,1589284781187096095,,0.499036292508,-0.20036909558,0.220981975881
1589284781190229015,12107,1589284781190065169,,0.499035602605,-0.200351241905,0.22098182876
1589284781193236284,12108,1589284781193052240,,0.499035456742,-0.200331421208,0.220982248781
1589284781199174474,12109,1589284781199059528,,0.499034163417,-0.200313934779,0.220977990168
1589284781202202142,12110,1589284781202040501,,0.499033482196,-0.200296225126,0.220972352167
1589284781205463315,12111,1589284781205320485,,0.499032078014,-0.200277168724,0.220966537684
1589284781211294348,12112,1589284781211101040,,0.499031332681,-0.200256933004,0.220962429321
1589284781214259841,12113,1589284781214115130,,0.499030657368,-0.200234197963,0.220957638187
1589284781220227869,12114,1589284781220039200,,0.499029767642,-0.200212795901,0.220953620404
1589284781223123430,12115,1589284781222997424,,0.499028344231,-0.200191682242,0.220951137601
1589284781226176188,12116,1589284781226035615,,0.499027300281,-0.200172538537,0.22094698987
1589284781229193628,12117,1589284781229074053,,0.499026692742,-0.200151122737,0.220941902258
1589284781235191067,12118,1589284781235064411,,0.499026098339,-0.200130841299,0.220939134147
1589284781238253060,12119,1589284781238117690,,0.499024711685,-0.200111395045,0.220933043783
1589284781241230133,12120,1589284781241082977,,0.499024549472,-0.200091820314,0.220927164533
1589284781247215109,12121,1589284781247084103,,0.499023796214,-0.200072472079,0.220920567955
1589284781250258401,12122,1589284781250095059,,0.499022940735,-0.200055033065,0.220914627288
1589284781256249589,12123,1589284781256056321,,0.499021879074,-0.200038143808,0.220908467762
1589284781259154327,12124,1589284781259061393,,0.499021181674,-0.200018299281,0.22090330115
1589284781262148505,12125,1589284781262056488,,0.499020113056,-0.199998192825,0.220897659162
1589284781265219265,12126,1589284781265075300,,0.499018893436,-0.199978631268,0.220891973415
1589284781271212354,12127,1589284781271105217,,0.499015820856,-0.199960846208,0.220886160935
1589284781274218021,12128,1589284781274091016,,0.499013797237,-0.199942004968,0.220880797971
1589284781277270078,12129,1589284781277121153,,0.499011933722,-0.199923064265,0.220875742182
1589284781283211993,12130,1589284781283089708,,0.499009587291,-0.199905272647,0.220869406605
1589284781286214683,12131,1589284781286087470,,0.499007913683,-0.199887505144,0.22086334617
1589284781292209276,12132,1589284781292082762,,0.499005821074,-0.199868163769,0.220856251602
1589284781295165794,12133,1589284781295079579,,0.499003783096,-0.199850609516,0.220850883609
1589284781298190259,12134,1589284781298072015,,0.499001588751,-0.199830919863,0.220845938735
1589284781301239163,12135,1589284781301094025,,0.49899915497,-0.199813770352,0.220841272443
1589284781307531887,12136,1589284781307437523,,0.49899599585,-0.199793530232,0.220837656744
1589284781310305523,12137,1589284781310143791,,0.498992900979,-0.199772580269,0.22083476105
1589284781316241080,12138,1589284781316082374,,0.498989546633,-0.199751192586,0.220830928009
1589284781319201007,12139,1589284781319101314,,0.498986457592,-0.199730627679,0.220826276964
1589284781322230158,12140,1589284781322076222,,0.498983015323,-0.19971007208,0.220820900689
1589284781328220474,12141,1589284781328111422,,0.498980793448,-0.19969038848,0.220816285348
1589284781331394912,12142,1589284781331120123,,0.498977811133,-0.199669865929,0.220810539008
1589284781334229427,12143,1589284781334087909,,0.498974795874,-0.199648538432,0.220804436337
1589284781340127857,12144,1589284781339998063,,0.498972384876,-0.199626351688,0.220800272573
1589284781343240155,12145,1589284781343102343,,0.498970035282,-0.199605389516,0.220793939748
1589284781346220460,12146,1589284781346058476,,0.498967023477,-0.199582868196,0.22078803721
1589284781355271797,12147,1589284781355122318,,0.498964169723,-0.19956107368,0.220780944296
1589284781358239316,12148,1589284781358073695,,0.498962069387,-0.1995401359,0.220773652166
1589284781361277311,12149,1589284781361123600,,0.498960111635,-0.199519671045,0.220768358085
1589284781364233004,12150,1589284781364106197,,0.498956393231,-0.199497607947,0.220761915305
1589284781367204768,12151,1589284781367119469,,0.498953929092,-0.199474984835,0.220754550384
1589284781370153790,12152,1589284781370067865,,0.498950903748,-0.199453144514,0.220748952031
1589284781376268968,12153,1589284781376123860,,0.498948675019,-0.199429942027,0.220743264815
1589284781382272815,12154,1589284781382135938,,0.498945871174,-0.1994076665,0.220736787515
1589284781385378613,12155,1589284781385101239,,0.498942812967,-0.199385748446,0.220728867513
1589284781388196299,12156,1589284781388101895,,0.49894040989,-0.19936161598,0.220720926975
1589284781391276187,12157,1589284781391158629,,0.498937957872,-0.199337436429,0.220714289385
1589284781394234348,12158,1589284781394109102,,0.498934842463,-0.199314356494,0.220705855233
1589284781400162797,12159,1589284781400077077,,0.498933109995,-0.199291708865,0.220699465536
1589284781403172911,12160,1589284781403034836,,0.498929875935,-0.199268556952,0.220690984928
1589284781412265523,12161,1589284781412137404,,0.498927725973,-0.199243598546,0.220685666179
1589284781415222947,12162,1589284781415087484,,0.498924715484,-0.199219252376,0.220677512616
1589284781418187682,12163,1589284781418093199,,0.498922848156,-0.19919168826,0.220669941668
1589284781421243887,12164,1589284781421117798,,0.498919741446,-0.19916219619,0.22065974544
1589284781424227574,12165,1589284781424104286,,0.49891762652,-0.199136718023,0.220656058382
1589284781430312511,12166,1589284781430115616,,0.498915003172,-0.199108866712,0.22064940019
1589284781433258541,12167,1589284781433118723,,0.498914017596,-0.199081286195,0.220642792458
1589284781436180879,12168,1589284781436078543,,0.498911718565,-0.199052895395,0.22063341049
1589284781439208578,12169,1589284781439085552,,0.498909529179,-0.199026650932,0.220625100771
1589284781448295381,12170,1589284781448137549,,0.498909490028,-0.198995775215,0.220617723932
1589284781454298002,12171,1589284781454115918,,0.498908932551,-0.198967941756,0.220611640434
1589284781457258796,12172,1589284781457090698,,0.498908446687,-0.198937432295,0.220601509192
1589284781463287626,12173,1589284781463106490,,0.49890551308,-0.198883299984,0.220583752568
1589284781466342411,12174,1589284781466138290,,0.498904648986,-0.198851851248,0.220574586696
1589284781469249061,12175,1589284781469124875,,0.498903769455,-0.198820567995,0.220565922665
1589284781472309519,12176,1589284781472140081,,0.498903199594,-0.198791926281,0.220560144073
1589284781478369340,12177,1589284781478178942,,0.498902765383,-0.198759003455,0.220553608208
1589284781481210081,12178,1589284781481106844,,0.498903087313,-0.198729243326,0.220545025937
1589284781484279549,12179,1589284781484116469,,0.498902917167,-0.198701542191,0.220536081337
1589284781487253121,12180,1589284781487099505,,0.49890246936,-0.198679476147,0.220528192794
1589284781493203284,12181,1589284781493068008,,0.498902276328,-0.198652311508,0.220521187375
1589284781496195045,12182,1589284781496063158,,0.498901118463,-0.198626624581,0.220510516264
1589284781502236152,12183,1589284781502134547,,0.498901035877,-0.198599661893,0.2205053654
1589284781505501342,12184,1589284781505345045,,0.498901745298,-0.198570504907,0.220500273809
1589284781508616146,12185,1589284781508458177,,0.498900983143,-0.198544124257,0.220491690882
1589284781511345726,12186,1589284781511131894,,0.49890013198,-0.198516902313,0.220482691026
1589284781517259801,12187,1589284781517108099,,0.49889836659,-0.198491370363,0.22047297442
1589284781520283615,12188,1589284781520096698,,0.498897597679,-0.198466746338,0.220464323912
1589284781526252710,12189,1589284781526121803,,0.49889657932,-0.198440806489,0.220455615271
1589284781529210952,12190,1589284781529087421,,0.498896391992,-0.198415630734,0.220447057171
1589284781532202833,12191,1589284781532077677,,0.498895218805,-0.198390881674,0.220437778775
1589284781535246169,12192,1589284781535134087,,0.498893786785,-0.19836713854,0.220427959266
1589284781544381880,12193,1589284781544149844,,0.498891831467,-0.198341858506,0.220416890354
1589284781547248746,12194,1589284781547114242,,0.498890015475,-0.198316271267,0.220405895264
1589284781553320454,12195,1589284781553196064,,0.498889457435,-0.198284574643,0.220396609786
1589284781556294191,12196,1589284781556131591,,0.498887695595,-0.198258799778,0.220386426885
1589284781559248005,12197,1589284781559115205,,0.498886185108,-0.198229194667,0.220376574542
1589284781562283765,12198,1589284781562138710,,0.498884627375,-0.198200661336,0.220367597001
1589284781565254164,12199,1589284781565165801,,0.498882827684,-0.198171685369,0.220356880185
1589284781571313912,12200,1589284781571158074,,0.498879704406,-0.198142092296,0.220345197943
1589284781574159230,12201,1589284781574068854,,0.498878431118,-0.198109762798,0.220337452339
1589284781577172542,12202,1589284781577070799,,0.498876177068,-0.198079347879,0.220330844247
1589284781580203146,12203,1589284781580106005,,0.498874302539,-0.198046210162,0.22031824936
1589284781586262820,12204,1589284781586102714,,0.4988719292,-0.198013591944,0.220308070526
1589284781589204281,12205,1589284781589086121,,0.498868987218,-0.197981508627,0.220299173448
1589284781592223006,12206,1589284781592104791,,0.498866203146,-0.197952318493,0.220289986707
1589284781598300528,12207,1589284781598111965,,0.498864521881,-0.197921560782,0.220280851112
1589284781601185069,12208,1589284781601093169,,0.498862623692,-0.197892582361,0.220269402035
1589284781604705889,12209,1589284781604522117,,0.498860607814,-0.197858549626,0.22025850209
1589284781610226053,12210,1589284781610074699,,0.498857962048,-0.197831314736,0.220250241938
1589284781613191178,12211,1589284781613082259,,0.498855752338,-0.197800502817,0.220241430551
1589284781616181869,12212,1589284781616076929,,0.498853323886,-0.197771196979,0.220232828618
1589284781622216714,12213,1589284781622115790,,0.498851071283,-0.197738698009,0.220224534964
1589284781625385514,12214,1589284781625193137,,0.498848972203,-0.197707218823,0.220216079454
1589284781628216076,12215,1589284781628116833,,0.498845880349,-0.197679393792,0.220206399879
1589284781637312500,12216,1589284781637157294,,0.498845382678,-0.197647985614,0.220199148398
1589284781643282419,12217,1589284781643125119,,0.498840005105,-0.197587943346,0.220178152411
1589284781646371956,12218,1589284781646166133,,0.498839413883,-0.197556051937,0.220171529162
1589284781649369294,12219,1589284781649181800,,0.498839072999,-0.197524074428,0.220162407201
1589284781655319074,12220,1589284781655124543,,0.498837171055,-0.197492353733,0.220153558454
1589284781658288107,12221,1589284781658161878,,0.498835261059,-0.197458149287,0.220142922015
1589284781661302270,12222,1589284781661112817,,0.498834150312,-0.197421956228,0.220132448573
1589284781664252418,12223,1589284781664127250,,0.498833809713,-0.197391058414,0.22012415846
1589284781670280935,12224,1589284781670126216,,0.498832559114,-0.197363048953,0.220116388067
1589284781673365950,12225,1589284781673136870,,0.498831969471,-0.197330266261,0.220105600183
1589284781679255708,12226,1589284781679127711,,0.498832408993,-0.197295344002,0.220096157868
1589284781685273620,12227,1589284781685141873,,0.498833290345,-0.197261335862,0.220088399777
1589284781688278676,12228,1589284781688131715,,0.498831881409,-0.197227762925,0.220078663466
1589284781694304800,12229,1589284781694187763,,0.498832096006,-0.19719381205,0.220068994518
1589284781697263137,12230,1589284781697160226,,0.498833561299,-0.19715667862,0.220061019964
1589284781703349663,12231,1589284781703158696,,0.498833592231,-0.19709124753,0.220043289423
1589284781706434240,12232,1589284781706282685,,0.498833129713,-0.197058343479,0.220032348513
1589284781712252709,12233,1589284781712135106,,0.498834040558,-0.197026502596,0.220023466669
1589284781718325257,12234,1589284781718193126,,0.49883386754,-0.196992534655,0.220014593404
1589284781721277554,12235,1589284781721150445,,0.498833535451,-0.196956585496,0.220005046468
1589284781724261408,12236,1589284781724116155,,0.498835139316,-0.196917675085,0.219995739815
1589284781727316107,12237,1589284781727161595,,0.498835450879,-0.196881859438,0.219986461248
1589284781730331051,12238,1589284781730177426,,0.49883560252,-0.196853125227,0.219979018154
1589284781736351675,12239,1589284781736160590,,0.498836209733,-0.196812707692,0.219968765669
1589284781739235569,12240,1589284781739156192,,0.498836743941,-0.196768937813,0.219958094597
1589284781742267950,12241,1589284781742131320,,0.498838421396,-0.196733471783,0.219949116872
1589284781748330328,12242,1589284781748163087,,0.498838115096,-0.196692274596,0.219940440362
1589284781754322270,12243,1589284781754164801,,0.498838858598,-0.196647616253,0.219931707103
1589284781757238778,12244,1589284781757130200,,0.498840594393,-0.19660655404,0.219924421214
1589284781763275960,12245,1589284781763165139,,0.498841476397,-0.19656055858,0.219910778231
1589284781769309067,12246,1589284781769152114,,0.498842825809,-0.196516491568,0.219901574854
1589284781775319694,12247,1589284781775191242,,0.49884365291,-0.196478433443,0.219892959149
1589284781781391114,12248,1589284781781153283,,0.498844698097,-0.196435391901,0.219882459253
1589284781784292651,12249,1589284781784144862,,0.498847256627,-0.196388203814,0.21987213229
1589284781787300371,12250,1589284781787202396,,0.498847896737,-0.196343426289,0.219860649076
1589284781790252373,12251,1589284781790137435,,0.498848835717,-0.19629950941,0.219851280874
1589284781793283641,12252,1589284781793195517,,0.498849682942,-0.196253766429,0.219840137121
1589284781796272773,12253,1589284781796134649,,0.498849746469,-0.196207043721,0.219826939031
1589284781799275364,12254,1589284781799181181,,0.498851561194,-0.196162063261,0.219818669801
1589284781802351408,12255,1589284781802163724,,0.49885227336,-0.19611536485,0.219809301172
1589284781805552010,12256,1589284781805403546,,0.498852438507,-0.196070800831,0.219795935123
1589284781808567260,12257,1589284781808468798,,0.498852432325,-0.196025025534,0.219784920888
1589284781811267992,12258,1589284781811149027,,0.498854151028,-0.195978779414,0.219775753473
1589284781814265563,12259,1589284781814141439,,0.498854413745,-0.195928488348,0.219763099258
1589284781826396319,12260,1589284781826197907,,0.498854825984,-0.195833517391,0.219738650931
1589284781829361282,12261,1589284781829179325,,0.498854179961,-0.19578192813,0.219725522029
1589284781835396143,12262,1589284781835228586,,0.498854284324,-0.195728614276,0.219714277205
1589284781841319583,12263,1589284781841139958,,0.498854995163,-0.195676624759,0.219701551701
1589284781847237305,12264,1589284781847154142,,0.498854480557,-0.195626501144,0.219689297855
1589284781853314000,12265,1589284781853159914,,0.498855269235,-0.19557089489,0.219674369885
1589284781856303991,12266,1589284781856165204,,0.498855873145,-0.195516823344,0.219665143774
1589284781862433429,12267,1589284781862232852,,0.498856286671,-0.195472953473,0.219656775389
1589284781868365318,12268,1589284781868193800,,0.498857387517,-0.195430286994,0.219648950323
1589284781871368853,12269,1589284781871179068,,0.498857976988,-0.195367994162,0.21963362571
1589284781874370819,12270,1589284781874214816,,0.498858487624,-0.195319823387,0.219625039431
1589284781877333444,12271,1589284781877164039,,0.498858769557,-0.195275463768,0.21961685097
1589284781886360232,12272,1589284781886200416,,0.498858597198,-0.195166848779,0.219594201994
1589284781889388067,12273,1589284781889263889,,0.498857165261,-0.195119029036,0.219585530519
1589284781892344461,12274,1589284781892188102,,0.498856283214,-0.195073414215,0.219578476634
1589284781895293282,12275,1589284781895150274,,0.498857484464,-0.195029271734,0.219567700236
1589284781898304413,12276,1589284781898137082,,0.49885565748,-0.194986663281,0.219558614792
1589284781901284900,12277,1589284781901151279,,0.498852583747,-0.194945521409,0.219543051202
1589284781904947473,12278,1589284781904778929,,0.498852884359,-0.194900806829,0.219535873693
1589284781907517449,12279,1589284781907397198,,0.49885253404,-0.194853335117,0.219527687245
1589284781910714927,12280,1589284781910539206,,0.498851191332,-0.194809366457,0.21951623015
1589284781916363351,12281,1589284781916208940,,0.498850861198,-0.19477183478,0.219508534536
1589284781922364330,12282,1589284781922189232,,0.498848808156,-0.194724732958,0.219500127669
1589284781925321537,12283,1589284781925198659,,0.498847841871,-0.194670042369,0.219487086716
1589284781928291225,12284,1589284781928156555,,0.498847460034,-0.194626453944,0.219479195506
1589284781931335162,12285,1589284781931189700,,0.498843962587,-0.194575689388,0.219471962578
1589284781934345054,12286,1589284781934174759,,0.498842950985,-0.194518094307,0.219458930503
1589284781937314394,12287,1589284781937201191,,0.498844464228,-0.194456000562,0.219452472826
1589284781943363391,12288,1589284781943232387,,0.498843954287,-0.194347543303,0.21942072676
1589284781949285580,12289,1589284781949152986,,0.498845637896,-0.194289707757,0.219406067174
1589284781955252127,12290,1589284781955146410,,0.498845193297,-0.194236052784,0.219391705366
1589284781958278631,12291,1589284781958161424,,0.498844039836,-0.194180285136,0.219376956762
1589284781961285775,12292,1589284781961163997,,0.498840270044,-0.194122562634,0.219365235725
1589284781967402088,12293,1589284781967214031,,0.498837549412,-0.194065254498,0.219353825155
1589284781973290905,12294,1589284781973152422,,0.498834251489,-0.194011933255,0.219343249759
1589284781979248692,12295,1589284781979114669,,0.498832609408,-0.193958245777,0.219335428911
1589284781985524550,12296,1589284781985244028,,0.49883170358,-0.19390468579,0.219326266085
1589284781988312146,12297,1589284781988136101,,0.498831810927,-0.193851111782,0.21931827704
1589284781994362762,12298,1589284781994176826,,0.498831256101,-0.193799949978,0.21930722073
1589284781997364124,12299,1589284781997247717,,0.498832067329,-0.193748492014,0.219298039026
1589284782006963273,12300,1589284782006687418,,0.498830997163,-0.193635044267,0.219272922915
1589284782009711246,12301,1589284782009577901,,0.498830004224,-0.193575576965,0.219260580883
1589284782015280054,12302,1589284782015184263,,0.498829948872,-0.193514301427,0.219243611297
1589284782021392470,12303,1589284782021256412,,0.498827415788,-0.193452461031,0.219224664864
1589284782027336738,12304,1589284782027228115,,0.498826777725,-0.193384421272,0.219205939587
1589284782033276312,12305,1589284782033168970,,0.498827558646,-0.19332101635,0.219188181082
1589284782036438861,12306,1589284782036214637,,0.498827473078,-0.193252444976,0.219168479539
1589284782039265273,12307,1589284782039187747,,0.498829765391,-0.193184559736,0.219148909096
1589284782042309238,12308,1589284782042195085,,0.498830957039,-0.193129530283,0.219130574011
1589284782045339805,12309,1589284782045238214,,0.498832669409,-0.193071530774,0.219117559315
1589284782051412955,12310,1589284782051210000,,0.498836270036,-0.192995346954,0.219098873419
1589284782057367778,12311,1589284782057200363,,0.498837459243,-0.1929306861,0.219084321523
1589284782063267835,12312,1589284782063166961,,0.49883981202,-0.192871765294,0.219072508904
1589284782069313504,12313,1589284782069208599,,0.498840519023,-0.192801607484,0.219055102335
1589284782075289449,12314,1589284782075131584,,0.498840021277,-0.192737509736,0.219037766127
1589284782078355478,12315,1589284782078214021,,0.498841853593,-0.192676430697,0.21902557331
1589284782081435640,12316,1589284782081235070,,0.498839212088,-0.192625582604,0.219010368304
1589284782087265845,12317,1589284782087192629,,0.498838998473,-0.192574942993,0.218997700707
1589284782093379446,12318,1589284782093284250,,0.498840540754,-0.192524174549,0.218985500683
1589284782099303021,12319,1589284782099187765,,0.498841466417,-0.192472809589,0.21897107244
1589284782105325287,12320,1589284782105234805,,0.498841239874,-0.192422831151,0.218955958945
1589284782108384855,12321,1589284782108268959,,0.498841250645,-0.192371734937,0.218941077262
1589284782111324841,12322,1589284782111168553,,0.498843374151,-0.192312332375,0.218930810876
1589284782114293407,12323,1589284782114176666,,0.498846407536,-0.192254085596,0.218918827681
1589284782126435964,12324,1589284782126224409,,0.498850525519,-0.192124246587,0.218888889606
1589284782132306896,12325,1589284782132157187,,0.498853869909,-0.192055484948,0.218870982044
1589284782138277851,12326,1589284782138162782,,0.4988566085,-0.191976532244,0.218852576627
1589284782144453885,12327,1589284782144306752,,0.49886088234,-0.191895357634,0.218832049076
1589284782150297006,12328,1589284782150210822,,0.498864609463,-0.191809482558,0.218810214556
1589284782156408008,12329,1589284782156238001,,0.498870801416,-0.191714571084,0.218786562536
1589284782159327461,12330,1589284782159246201,,0.498875498883,-0.191621540186,0.218760282075
1589284782162449299,12331,1589284782162237478,,0.498879168801,-0.191527706459,0.218732470371
1589284782168352028,12332,1589284782168247229,,0.498885569749,-0.19143279329,0.218706494076
1589284782174496577,12333,1589284782174245951,,0.49889054429,-0.191338045252,0.218680842919
1589284782186349957,12334,1589284782186231240,,0.498897889636,-0.191157704657,0.218631525752
1589284782192384359,12335,1589284782192272587,,0.498900953724,-0.191074890386,0.218611102351
1589284782198428708,12336,1589284782198248572,,0.498903859604,-0.191008324795,0.218595665435
1589284782204380856,12337,1589284782204257717,,0.498907037996,-0.19094645123,0.218581017923
1589284782207637842,12338,1589284782207421983,,0.498910830322,-0.190863824294,0.218562156067
1589284782210682441,12339,1589284782210557133,,0.498914729189,-0.190799466797,0.218549514986
1589284782216363522,12340,1589284782216236103,,0.49891638275,-0.19075097019,0.218539384738
1589284782222409374,12341,1589284782222257897,,0.498918214553,-0.190677253281,0.218526434742
1589284782228310956,12342,1589284782228193732,,0.498921065461,-0.190607805167,0.218511184216
1589284782234320385,12343,1589284782234188817,,0.49892228532,-0.190547296913,0.218496196564
1589284782246396999,12344,1589284782246276491,,0.498926908449,-0.190427512857,0.2184641033
1589284782252500116,12345,1589284782252297028,,0.498929456608,-0.190362077058,0.218443372044
1589284782258392802,12346,1589284782258236040,,0.498932564931,-0.190290530345,0.218419410345
1589284782264330858,12347,1589284782264220261,,0.498935522816,-0.190216698178,0.21839543623
1589284782270428624,12348,1589284782270248632,,0.498940261197,-0.190134678382,0.21836968501
1589284782276488934,12349,1589284782276296292,,0.498945786714,-0.190047001716,0.218348549598
1589284782282372842,12350,1589284782282270641,,0.498951848228,-0.189975183397,0.21833293024
1589284782288384153,12351,1589284782288237834,,0.498958001937,-0.189891103174,0.218312530567
1589284782294361565,12352,1589284782294209982,,0.498965089638,-0.189778299301,0.218284922539
1589284782306766749,12353,1589284782306635023,,0.498979773811,-0.18959632861,0.218252699584
1589284782309734611,12354,1589284782309601981,,0.498985891448,-0.189486443788,0.21822789677
1589284782315383716,12355,1589284782315214646,,0.498992144957,-0.1893795978,0.21820748735
1589284782321391706,12356,1589284782321260085,,0.498996804071,-0.189290444361,0.218189897207
1589284782327349536,12357,1589284782327197959,,0.498999935328,-0.189211640099,0.218171382392
1589284782333371366,12358,1589284782333243503,,0.499002837997,-0.189134616479,0.21815455299
1589284782339436529,12359,1589284782339194409,,0.499003693568,-0.189065937311,0.218136396452
1589284782345485122,12360,1589284782345325190,,0.49900570329,-0.188994624785,0.218116062019
1589284782351437099,12361,1589284782351250009,,0.499007773091,-0.188932142028,0.218099961125
1589284782357437855,12362,1589284782357310718,,0.499008656186,-0.188871844261,0.218084683825
1589284782363413216,12363,1589284782363237068,,0.499008883208,-0.188809481359,0.21806711125
1589284782369408544,12364,1589284782369252794,,0.499008870158,-0.188771544524,0.218057594061
1589284782375329245,12365,1589284782375209271,,0.49901038518,-0.188729091223,0.218050077943
1589284782381429095,12366,1589284782381289483,,0.499011823049,-0.188659868883,0.21803260477
1589284782387395851,12367,1589284782387249919,,0.499012409558,-0.188602364891,0.218019081409
1589284782393350564,12368,1589284782393216452,,0.499015157541,-0.18855129676,0.218013006572
1589284782399296735,12369,1589284782399187145,,0.499016377584,-0.188471230821,0.217997156941
1589284782405431351,12370,1589284782405265476,,0.499019079728,-0.188383816475,0.217980694132
1589284782408539840,12371,1589284782408362884,,0.499021735406,-0.188310173542,0.217965821661
1589284782414421013,12372,1589284782414278187,,0.49902413734,-0.188232060606,0.217947806029
1589284782426431910,12373,1589284782426248747,,0.499030473328,-0.188065887779,0.217909596452
1589284782432366623,12374,1589284782432206816,,0.49903695047,-0.187977942347,0.217889320504
1589284782438414974,12375,1589284782438283829,,0.499042665249,-0.187884434729,0.217869988976
1589284782444388438,12376,1589284782444263354,,0.499046024149,-0.187793156896,0.217848892154
1589284782450377178,12377,1589284782450246856,,0.4990505878,-0.187699705094,0.217830158571
1589284782456427380,12378,1589284782456258384,,0.499055600672,-0.187626092659,0.217819328974
1589284782462316972,12379,1589284782462213064,,0.499059996055,-0.187553836157,0.217807876483
1589284782468405326,12380,1589284782468266847,,0.499065585114,-0.187458068769,0.217788674865
1589284782474533145,12381,1589284782474293539,,0.499068759927,-0.187382196564,0.217777862962
1589284782486451236,12382,1589284782486297847,,0.499071868909,-0.187242280801,0.217753566948
1589284782492453521,12383,1589284782492321541,,0.49907130913,-0.187170028878,0.217740543515
1589284782498540568,12384,1589284782498372297,,0.499071264357,-0.187110160252,0.217731968457
1589284782504454999,12385,1589284782504337000,,0.499070943644,-0.187059316466,0.217720241672
1589284782507616270,12386,1589284782507486531,,0.499069982976,-0.187005987053,0.217706222194
1589284782510702958,12387,1589284782510580494,,0.499068473717,-0.186958177147,0.217694691363
1589284782516452826,12388,1589284782516320390,,0.499066892216,-0.186907586929,0.217678440391
1589284782522381589,12389,1589284782522285605,,0.499065897425,-0.18685134654,0.217661935714
1589284782528496331,12390,1589284782528324467,,0.499065684628,-0.186793948648,0.217649776625
1589284782534345297,12391,1589284782534238271,,0.499064861189,-0.186734567583,0.217636413734
1589284782546399347,12392,1589284782546300591,,0.49906673216,-0.186600809862,0.217610560713
1589284782552401790,12393,1589284782552291883,,0.499067820068,-0.186525718471,0.217595590515
1589284782558481458,12394,1589284782558309592,,0.499069391335,-0.186444162887,0.217582923548
1589284782564563207,12395,1589284782564367396,,0.499070901691,-0.186360215283,0.217573634006
1589284782570513435,12396,1589284782570342649,,0.499072322852,-0.186272196719,0.217561487272
1589284782576411107,12397,1589284782576276653,,0.499074044193,-0.186180305863,0.217549116558
1589284782582423502,12398,1589284782582306522,,0.499076417876,-0.186084712598,0.217535635532
1589284782588369724,12399,1589284782588197488,,0.499076759069,-0.185990874321,0.217519096825
1589284782594513228,12400,1589284782594283208,,0.499080361407,-0.185893719497,0.217505705331
1589284782606746994,12401,1589284782606643154,,0.499081666216,-0.1857090658,0.217474324879
