%time,field.header.seq,field.header.stamp,field.header.frame_id,field.vector.x,field.vector.y,field.vector.z
1589274947527475387,4403,1589274947527344598,,-0.0320120014786,-0.00481231839305,3.16190680535
1589274947530363058,4404,1589274947530244648,,-0.0321299673002,-0.00301736890833,3.14864329949
1589274947536394943,4405,1589274947536311169,,-0.0323621907252,-0.0215311733886,3.14064499505
1589274947539819686,4406,1589274947539716570,,-0.0318196103587,-0.0210663170476,3.12680394137
1589274947545843222,4407,1589274947545730192,,-0.0319599213711,-0.0410645368964,3.11943879059
1589274947548814812,4408,1589274947548724341,,-0.0315367720334,-0.0656571613986,3.11241500522
1589274947551820707,4409,1589274947551724358,,-0.0309672276527,-0.0668263276101,3.09957051171
1589274947554362363,4410,1589274947554274543,,-0.0310951034649,-0.0933298583795,3.09493377245
1589274947560440410,4411,1589274947560312452,,-0.0309948762228,-0.0935597984798,3.08265528108
1589274947563308752,4412,1589274947563222163,,-0.0309907966148,-0.126162863562,3.07703489893
1589274947569712069,4413,1589274947569620374,,-0.0313228867069,-0.162211333413,3.07344337884
1589274947572678981,4414,1589274947572590357,,-0.0300047351464,-0.161021139586,3.06283041658
1589274947575841141,4415,1589274947575728072,,-0.0303426373592,-0.201997509674,3.06021969486
1589274947581915253,4416,1589274947581760912,,-0.029541340934,-0.24379165022,3.05845385627
1589274947585050042,4417,1589274947584966235,,-0.0300220317691,-0.243442015331,3.04668511525
1589274947587690991,4418,1589274947587609041,,-0.02944102113,-0.290546674611,3.04586121839
1589274947593801510,4419,1589274947593719728,,-0.0294249853249,-0.28916412874,3.0330462869
1589274947596722536,4420,1589274947596649725,,-0.0293715646166,-0.340027606577,3.03339699687
1589274947599634581,4421,1589274947599555830,,-0.0298010257326,-0.339536259978,3.02115106737
1589274947605345028,4422,1589274947605266680,,-0.0289653903531,-0.393670583458,3.02251922475
1589274947608381799,4423,1589274947608298691,,-0.0287581427691,-0.451221439016,3.02617933275
1589274947611370139,4424,1589274947611269407,,-0.0290280369842,-0.451306830349,3.01223297922
1589274947617379535,4425,1589274947617309531,,-0.0283647017379,-0.511735207905,3.0157568427
1589274947620478005,4426,1589274947620329960,,-0.0287499861262,-0.511599155624,3.00308758834
1589274947623610135,4427,1589274947623520464,,-0.0281673759129,-0.576313033603,3.00798430862
1589274947629660127,4428,1589274947629568023,,-0.0278014237325,-0.644150316301,3.01256679974
1589274947632516929,4429,1589274947632445250,,-0.0280527662493,-0.643341851714,3.0001745014
1589274947635652118,4430,1589274947635569861,,-0.0273641618742,-0.714569414459,3.0075609498
1589274947641789184,4431,1589274947641719954,,-0.0275989407149,-0.78884905431,3.01283921831
1589274947644724148,4432,1589274947644669499,,-0.027320075937,-0.788221719924,3.00206410643
1589274947647715173,4433,1589274947647602519,,-0.0265729142511,-0.864402315203,3.00985726076
1589274947653675698,4434,1589274947653566305,,-0.0273547229773,-0.864118702648,2.99626228664
1589274947656627588,4435,1589274947656535876,,-0.0261832800791,-0.944000956116,3.00427617763
1589274947659846245,4436,1589274947659708799,,-0.0263864657535,-0.943690210167,2.99233364343
1589274947665734071,4437,1589274947665644831,,-0.026177646169,-1.02683150242,3.00292294739
1589274947668682672,4438,1589274947668606898,,-0.0267675224707,-1.11332231863,3.01551649167
1589274947671674618,4439,1589274947671593074,,-0.0261689510803,-1.1112409758,3.00250058247
1589274947677765151,4440,1589274947677679328,,-0.0265740899261,-1.20206254846,3.01234688959
1589274947681105003,4441,1589274947681030513,,-0.0258991187294,-1.29498687816,3.02458707337
1589274947684050202,4442,1589274947683971714,,-0.0260824143004,-1.29248713298,3.01415235363
1589274947689700270,4443,1589274947689606372,,-0.0259350761656,-1.38810974751,3.02763706105
1589274947692745647,4444,1589274947692620179,,-0.0262227317673,-1.3846903233,3.01655799852
1589274947695709132,4445,1589274947695621042,,-0.0259273246992,-1.48248069534,3.03184728863
1589274947701724409,4446,1589274947701623731,,-0.0265366045552,-1.5854480316,3.04615040668
1589274947704738083,4447,1589274947704639046,,-0.0270926742728,-1.58327995396,3.03493012279
1589274947707846534,4448,1589274947707773550,,-0.0263177156442,-1.68719437159,3.04938830051
1589274947713886619,4449,1589274947713768666,,-0.0268570275,-1.68406649561,3.03792070385
1589274947716948389,4450,1589274947716801643,,-0.026799867583,-1.79094497087,3.05266528288
1589274947722941312,4451,1589274947722811569,,-0.0265991667652,-1.90104107387,3.06995826744
1589274947725832600,4452,1589274947725746392,,-0.0262917474248,-1.89623837989,3.05864023302
1589274947728662246,4453,1589274947728575228,,-0.0256993754615,-2.00965569985,3.07766874538
1589274947734707574,4454,1589274947734625675,,-0.0265863556704,-2.12446069413,3.09397848205
1589274947737877269,4455,1589274947737782813,,-0.0263584328103,-2.11941377692,3.08260242081
1589274947740793281,4456,1589274947740713253,,-0.0258162169618,-2.2208645134,3.09690883931
1589274947746792908,4457,1589274947746691802,,-0.0255657187733,-2.22798633699,3.08889290678
1589274947749829035,4458,1589274947749748082,,-0.0253643552857,-2.34777218982,3.10859560574
1589274947752818684,4459,1589274947752723623,,-0.0245175126488,-2.34033108814,3.09720237039
1589274947755800411,4460,1589274947755727239,,-0.0243900180572,-2.46217298566,3.1178160991
1589274947761810486,4461,1589274947761695775,,-0.0241516273006,-2.58618586947,3.13912369878
1589274947764856540,4462,1589274947764779536,,-0.0239757268384,-2.57821190291,3.12823611453
1589274947770937369,4463,1589274947770817018,,-0.0246070766416,-2.7074694191,3.14903132706
1589274947773841450,4464,1589274947773736161,,-0.0239486860578,-2.69877957257,3.13641833127
1589274947776694877,4465,1589274947776607251,,-0.0239707533989,-2.82961473822,3.15761837675
1589274947782979155,4466,1589274947782877455,,-0.0236771883934,-2.96344035392,3.18240824141
1589274947785767673,4467,1589274947785666582,,-0.0241724589436,-2.95592165889,3.17146788685
1589274947788859710,4468,1589274947788753118,,-0.0245384943806,-3.09162064776,3.19524193351
1589274947794801428,4469,1589274947794714545,,-0.0245634281452,-3.22779675387,3.21870667072
1589274947797867695,4470,1589274947797765122,,-0.0244179669209,-3.21917590004,3.20690275206
1589274947800907463,4471,1589274947800791171,,-0.0236707489483,-3.35802537659,3.23226988512
1589274947806952305,4472,1589274947806829881,,-0.0238670756996,-3.34924612946,3.22062897538
1589274947809700433,4473,1589274947809610277,,-0.0231969590396,-3.48986030804,3.24627107139
1589274947812860596,4474,1589274947812753116,,-0.0230004570169,-3.48042136753,3.23428495005
1589274947818767378,4475,1589274947818678697,,-0.0231365083471,-3.62469323989,3.26181728975
1589274947821833871,4476,1589274947821670157,,-0.0230855417113,-3.77280769475,3.28942511627
1589274947824674954,4477,1589274947824597780,,-0.0225616761739,-3.76203923149,3.27875515146
1589274947830463503,4478,1589274947830371178,,-0.02249723929,-3.91134902655,3.30789774169
1589274947833793312,4479,1589274947833694236,,-0.0224270080302,-3.89949255287,3.29432713556
1589274947836802059,4480,1589274947836714519,,-0.0214749463968,-4.04969884265,3.3238136709
1589274947842783403,4481,1589274947842664399,,-0.0215488646665,-4.2013234078,3.35040408502
1589274947845905694,4482,1589274947845823903,,-0.0220617065099,-4.18988166672,3.33786428787
1589274947851855916,4483,1589274947851767256,,-0.0210192415508,-4.34468315044,3.36798939667
1589274947854663235,4484,1589274947854591481,,-0.0212202344076,-4.50116641424,3.39782527871
1589274947857833857,4485,1589274947857743325,,-0.0208468815419,-4.48768671908,3.38405889276
1589274947863744063,4486,1589274947863663786,,-0.0207614065459,-4.64751538477,3.41471532547
1589274947866823711,4487,1589274947866642149,,-0.0200693875372,-4.6316147,3.40257280203
1589274947869683850,4488,1589274947869602173,,-0.0200512797305,-4.79088330069,3.43258588475
1589274947875875691,4489,1589274947875772512,,-0.0200470694537,-4.9538477006,3.46415849568
1589274947878983959,4490,1589274947878853151,,-0.0198735537513,-4.94078188499,3.45194967341
1589274947881946676,4491,1589274947881852533,,-0.019122409505,-5.10516625598,3.48515710272
1589274947887819397,4492,1589274947887739794,,-0.0192339991943,-5.27114512621,3.51711896436
1589274947890607452,4493,1589274947890519214,,-0.0186781692211,-5.256020361,3.50493007261
1589274947893742586,4494,1589274947893646251,,-0.017454103593,-5.24232851062,3.49382675426
1589274947899644987,4495,1589274947899471893,,-0.0173717159472,-5.40914923121,3.52719276779
1589274947903055758,4496,1589274947902904831,,-0.0171738514249,-5.57957195581,3.56137343053
1589274947905751609,4497,1589274947905637969,,-0.0175511295593,-5.56297631425,3.54781606485
1589274947911957687,4498,1589274947911870756,,-0.0175275312808,-5.73339179469,3.58250453005
1589274947914871335,4499,1589274947914798479,,-0.0167077070573,-5.90721162041,3.62048151528
1589274947917848676,4500,1589274947917726773,,-0.0169052238895,-5.88761628835,3.60705422503
1589274947923972706,4501,1589274947923829862,,-0.0163683536747,-6.06332843601,3.64496181243
1589274947926886216,4502,1589274947926795451,,-0.0165078382807,-6.04561878151,3.63224003123
1589274947932993143,4503,1589274947932870773,,-0.0159566019605,-6.21927639412,3.6689927676
1589274947935963459,4504,1589274947935833054,,-0.016581187308,-6.39773989831,3.70485347803
1589274947938834460,4505,1589274947938698664,,-0.0170713256238,-6.38181146844,3.69305962476
1589274947944858132,4506,1589274947944739929,,-0.0169717285836,-6.55740529541,3.72937276046
1589274947947887479,4507,1589274947947789595,,-0.0168252224336,-6.73784567843,3.76767904977
1589274947950754069,4508,1589274947950675089,,-0.0165874085773,-6.71599574523,3.75533115145
1589274947956780398,4509,1589274947956679118,,-0.0155061622927,-6.89861533819,3.79524980567
1589274947959793310,4510,1589274947959707913,,-0.0157446284279,-6.87832362771,3.78201895286
1589274947962783066,4511,1589274947962695469,,-0.0152208169534,-7.06140268562,3.82114816795
1589274947968782524,4512,1589274947968714043,,-0.015151011538,-7.24504043673,3.85811933541
1589274947971894627,4513,1589274947971739441,,-0.01544150015,-7.22521463878,3.84520690135
1589274947981282812,4514,1589274947981178019,,-0.0148291386156,-7.5966659415,3.92285264027
1589274947984250932,4515,1589274947984159028,,-0.0142811170035,-7.57374603499,3.91048406858
1589274947986756130,4516,1589274947986668623,,-0.0149225108555,-7.55033267761,3.89642323008
1589274947993010190,4517,1589274947992864702,,-0.0144347938766,-7.74053141256,3.93642923384
1589274947995988598,4518,1589274947995864194,,-0.0134405332045,-7.93113187746,3.97709101512
1589274947998865849,4519,1589274947998755329,,-0.0149153100879,-7.91136923993,3.96291690785
1589274948004740209,4520,1589274948004630661,,-0.014905015004,-8.10751714686,4.00474484816
1589274948007820662,4521,1589274948007724674,,-0.015178350139,-8.30637184484,4.04714324347
1589274948010689071,4522,1589274948010617955,,-0.0158565834809,-8.2807102772,4.03239275959
1589274948016735762,4523,1589274948016639118,,-0.0150983126825,-8.47838098232,4.07583149094
1589274948019622131,4524,1589274948019550191,,-0.0138811181455,-8.45738990456,4.06557509691
1589274948022682904,4525,1589274948022601298,,-0.0137701927891,-8.65383927222,4.10740525318
1589274948028690179,4526,1589274948028597951,,-0.0136456494009,-8.85030604708,4.14924517232
1589274948031800533,4527,1589274948031725392,,-0.0136329782798,-8.82776764341,4.13669629358
1589274948040812409,4528,1589274948040735486,,-0.0138478721273,-9.17708545971,4.20999754407
1589274948043744421,4529,1589274948043640863,,-0.0141697047045,-9.21200769849,4.21233636762
1589274948046683865,4530,1589274948046599002,,-0.0139311308765,-9.18629847367,4.19943224972
1589274948052693276,4531,1589274948052588130,,-0.0135817896691,-9.38848546392,4.24393913981
1589274948055724173,4532,1589274948055607024,,-0.0135594505563,-9.59386801324,4.28694939253
1589274948058723267,4533,1589274948058597640,,-0.0129698646446,-9.5660288154,4.27342237426
1589274948064740773,4534,1589274948064671198,,-0.0122682856488,-9.77370878157,4.31995558115
1589274948067778454,4535,1589274948067674274,,-0.0114011391316,-9.98518561708,4.36765394177
1589274948070687044,4536,1589274948070608994,,-0.01178119775,-9.95493841085,4.35351882261
1589274948076667711,4537,1589274948076592176,,-0.0114714875329,-10.1596849596,4.39987216694
1589274948079737639,4538,1589274948079608590,,-0.0115713201679,-10.1360358852,4.39051989682
1589274948082886173,4539,1589274948082720068,,-0.012212705458,-10.3385602788,4.43683836235
1589274948088758565,4540,1589274948088670754,,-0.0127648419925,-10.5404222066,4.48468654412
1589274948091856236,4541,1589274948091727419,,-0.013982226557,-10.5115663342,4.47653144401
1589274948094609397,4542,1589274948094541901,,-0.0144810898626,-10.7178316573,4.5258238362
1589274948100867687,4543,1589274948100672716,,-0.0139169186878,-10.6890276404,4.51813588403
1589274948103734294,4544,1589274948103622750,,-0.0132618531155,-10.8992912929,4.56715285573
1589274948106575424,4545,1589274948106507998,,-0.0130678146248,-10.8706846396,4.55559910034
1589274948112640504,4546,1589274948112548901,,-0.0128937188277,-11.0758940177,4.60180521403
1589274948115679024,4547,1589274948115579132,,-0.0127608392949,-11.285384104,4.65120685514
1589274948118666274,4548,1589274948118561000,,-0.0134885916553,-11.2517114754,4.63979065155
1589274948124653351,4549,1589274948124552772,,-0.0133997214962,-11.4615223747,4.68955771282
1589274948127667649,4550,1589274948127606318,,-0.0145697018614,-11.6687033052,4.73746884492
1589274948133655612,4551,1589274948133543473,,-0.0150654190468,-11.6309068631,4.72194350496
1589274948136564662,4552,1589274948136492274,,-0.0155398647123,-11.8421520346,4.77012317022
1589274948139615605,4553,1589274948139454721,,-0.0162858036825,-11.8082406928,4.75529052381
1589274948142548690,4554,1589274948142479900,,-0.0165258926234,-12.0141139694,4.80335407134
1589274948148521199,4555,1589274948148459828,,-0.0161424997354,-12.2195497204,4.85121281509
1589274948151579525,4556,1589274948151491762,,-0.0165408198542,-12.1844439106,4.83758550479
1589274948154577648,4557,1589274948154495194,,-0.017442253869,-12.3933606296,4.88295219727
1589274948160718869,4558,1589274948160645925,,-0.0168810555206,-12.5222821195,4.91107431537
1589274948163611264,4559,1589274948163536064,,-0.017816223398,-12.564190605,4.918278955
1589274948169591352,4560,1589274948169517568,,-0.0174476718584,-12.7700702445,4.96698456242
1589274948172642101,4561,1589274948172558071,,-0.0177962480823,-12.7276372308,4.95242140075
1589274948176608022,4562,1589274948176506531,,-0.0181966809579,-12.9421419327,5.00147344463
1589274948181806119,4563,1589274948181708282,,-0.0172424220104,-13.1498619701,5.05150082969
1589274948184929244,4564,1589274948184812764,,-0.0167275661969,-13.1030652744,5.03656368918
1589274948187548440,4565,1589274948187460836,,-0.0170157033816,-13.3174840686,5.08448375539
1589274948193593908,4566,1589274948193517156,,-0.0155192641363,-13.2761294939,5.07325331933
1589274948196560062,4567,1589274948196494473,,-0.0155849664522,-13.4825264641,5.12140331432
1589274948199595135,4568,1589274948199511226,,-0.0168912900672,-13.440580427,5.10460978875
1589274948205605426,4569,1589274948205498770,,-0.0165131645045,-13.6516450847,5.15370202326
1589274948208640473,4570,1589274948208502645,,-0.0170657511334,-13.8618125783,5.19992400054
1589274948211624078,4571,1589274948211520838,,-0.0173051401792,-13.81723338,5.18551171979
1589274948217558437,4572,1589274948217491540,,-0.0166801930977,-14.0261955593,5.23552430829
1589274948220684412,4573,1589274948220582246,,-0.017750597359,-13.9802707325,5.2179358835
1589274948223690550,4574,1589274948223609723,,-0.0188045911128,-14.1933602086,5.26484669489
1589274948229556666,4575,1589274948229484900,,-0.0186850395187,-14.4041836603,5.31339790384
1589274948232652408,4576,1589274948232557629,,-0.0183809825531,-14.3534032052,5.29604522375
1589274948235539082,4577,1589274948235464846,,-0.0180996799471,-14.568567717,5.34609399701
1589274948241571558,4578,1589274948241462123,,-0.0187879425438,-14.7780138873,5.39309151899
1589274948244570582,4579,1589274948244480156,,-0.0177166310586,-14.7245166693,5.38181666137
1589274948247586969,4580,1589274948247518705,,-0.0186271910431,-14.8478257431,5.40977867816
1589274948253629586,4581,1589274948253540663,,-0.0187108843754,-14.8902815305,5.41474853375
1589274948256595521,4582,1589274948256510628,,-0.0207063563512,-15.1014441493,5.46294913522
1589274948262756323,4583,1589274948262686931,,-0.0187715647393,-15.3091770096,5.51564015379
1589274948265598619,4584,1589274948265537803,,-0.0194530214289,-15.2595479436,5.49926401985
1589274948268550737,4585,1589274948268476997,,-0.0214894784316,-15.4684052046,5.54572188633
1589274948271542631,4586,1589274948271467180,,-0.0204249496589,-15.4175826898,5.5326628531
1589274948277869914,4587,1589274948277753329,,-0.0217669468573,-15.6318506925,5.58202159381
1589274948280986455,4588,1589274948280783512,,-0.0224108585533,-15.5797796789,5.56492489851
1589274948286675187,4589,1589274948286498877,,-0.0225521788219,-15.7854335743,5.61345055367
1589274948289727079,4590,1589274948289654112,,-0.0224358126869,-15.9993099146,5.66336735198
1589274948292860419,4591,1589274948292735148,,-0.025127989743,-15.9480226482,5.64569013183
1589274948298714677,4592,1589274948298633387,,-0.025046823304,-16.1570578018,5.69405361916
1589274948301690288,4593,1589274948301593137,,-0.0247394077383,-16.3637002869,5.74274856017
1589274948304733959,4594,1589274948304643925,,-0.0255563639782,-16.313191069,5.72646681159
1589274948310490431,4595,1589274948310405665,,-0.0265726567957,-16.5261786337,5.77680889034
1589274948313546353,4596,1589274948313474103,,-0.0264295504429,-16.4712434908,5.75955028122
1589274948316916219,4597,1589274948316782443,,-0.0264715888548,-16.6799680881,5.81029938439
1589274948323084994,4598,1589274948322957242,,-0.028289309305,-16.8908340611,5.85927584124
1589274948326017995,4599,1589274948325894021,,-0.0276210115917,-16.8344431034,5.84250727692
1589274948328909320,4600,1589274948328806860,,-0.0282542927879,-17.04577984,5.89194514596
1589274948334834105,4601,1589274948334725174,,-0.0293964465085,-17.2524416918,5.94250959555
1589274948337629077,4602,1589274948337554989,,-0.0278037587718,-17.1942064325,5.92485097959
1589274948344045926,4603,1589274948343899053,,-0.0278108002827,-17.4007337954,5.97369053651
1589274948346915188,4604,1589274948346810397,,-0.0270697353725,-17.342988238,5.95891548103
1589274948350014801,4605,1589274948349849641,,-0.0265205774096,-17.5517401871,6.00793126979
1589274948352929341,4606,1589274948352780750,,-0.0262501497621,-17.4896307101,5.99082166695
1589274948358882230,4607,1589274948358795803,,-0.0256711150628,-17.6972192772,6.03882643222
1589274948361818545,4608,1589274948361681850,,-0.0246782668198,-17.903330776,6.08991347677
1589274948368038284,4609,1589274948367920701,,-0.0231195887636,-18.1080016741,6.14163742777
1589274948370969491,4610,1589274948370800602,,-0.0238446923692,-18.0503621984,6.12098453138
1589274948373968019,4611,1589274948373888257,,-0.0225754589273,-17.9849482202,6.10310052718
1589274948379974436,4612,1589274948379844502,,-0.021839198959,-18.1954778955,6.1567977647
1589274948382936157,4613,1589274948382859198,,-0.021527454537,-18.3974385231,6.20444706572
1589274948385751657,4614,1589274948385673644,,-0.0207400089897,-18.3360151313,6.18844418915
1589274948391947077,4615,1589274948391846509,,-0.0209818400388,-18.5404081282,6.2390184957
1589274948394830398,4616,1589274948394752163,,-0.0212169640527,-18.7473170395,6.28476203721
1589274948397997365,4617,1589274948397879324,,-0.0216136754194,-18.688451962,6.26799016989
1589274948404008119,4618,1589274948403901302,,-0.0194638608678,-18.8897212263,6.31979578381
1589274948406947014,4619,1589274948406858649,,-0.0197370886594,-18.8291009742,6.29947427007
1589274948409963543,4620,1589274948409829002,,-0.0204209346475,-19.0342136429,6.3467981291
1589274948415609384,4621,1589274948415513353,,-0.0202973010935,-19.2380005763,6.39536986091
1589274948418883630,4622,1589274948418740376,,-0.0199850228544,-19.173084118,6.37619631095
1589274948421877747,4623,1589274948421787538,,-0.0209888751421,-19.3785698353,6.42405775503
1589274948427934941,4624,1589274948427843870,,-0.0215007874179,-19.5817215301,6.47067432901
1589274948430818189,4625,1589274948430734598,,-0.0226361347461,-19.5179080484,6.44967878735
1589274948433897280,4626,1589274948433790881,,-0.0224948631677,-19.4549350819,6.43186492212
1589274948439877333,4627,1589274948439752650,,-0.0195905393544,-19.6528390553,6.48298435549
1589274948442854547,4628,1589274948442664129,,-0.0212583689219,-19.8543764464,6.52543375193
1589274948445710112,4629,1589274948445618662,,-0.0199409969149,-19.7880832397,6.50878890083
1589274948457614665,4630,1589274948457495530,,-0.0188901941078,-20.1845900847,6.60393360518
1589274948460871984,4631,1589274948460732894,,-0.0187791366607,-20.1193411411,6.58744261819
1589274948463767254,4632,1589274948463705777,,-0.0158756859046,-20.3152865055,6.6396696647
1589274948466811811,4633,1589274948466727858,,-0.0169827029547,-20.2467749731,6.61864453817
1589274948469908076,4634,1589274948469794604,,-0.015717002551,-20.4433098167,6.66776062396
1589274948475593884,4635,1589274948475523749,,-0.0162903396746,-20.6432546404,6.71553738724
1589274948478737684,4636,1589274948478657690,,-0.0149287430902,-20.5757115744,6.6983920235
1589274948482054973,4637,1589274948481989855,,-0.0140254701775,-20.7889455202,6.75153060477
1589274948487879714,4638,1589274948487795711,,-0.0132070582572,-20.9821717169,6.79989757962
1589274948490841310,4639,1589274948490755054,,-0.0119008214619,-20.9098411666,6.779269267
1589274948493893770,4640,1589274948493765788,,-0.0116845354811,-20.8558008722,6.76458658169
1589274948499794779,4641,1589274948499678124,,-0.0113942873027,-21.052160401,6.81328981864
1589274948502789724,4642,1589274948502671648,,-0.011121687355,-21.2409905085,6.85925729931
1589274948505764522,4643,1589274948505655729,,-0.0110079083592,-21.178087957,6.84224707841
1589274948511825520,4644,1589274948511693353,,-0.0110880772778,-21.375882069,6.89154786051
1589274948514779316,4645,1589274948514687904,,-0.0108540446383,-21.5711633126,6.93871886058
1589274948517783839,4646,1589274948517723065,,-0.00987857927481,-21.5046133103,6.92194917659
1589274948523742761,4647,1589274948523645253,,-0.00894945851354,-21.7000567905,6.96908005534
1589274948526707238,4648,1589274948526614947,,-0.00651934788082,-21.6329946444,6.95077166744
1589274948529658133,4649,1589274948529573228,,-0.00538585998366,-21.8251385257,6.9971417297
1589274948535776601,4650,1589274948535643991,,-0.00518120736276,-22.0168833772,7.04110994302
1589274948538675767,4651,1589274948538581869,,-0.00402944652672,-21.9450643968,7.02414282227
1589274948544760550,4652,1589274948544669024,,-0.003409550695,-22.1290178348,7.06898577873
1589274948547937390,4653,1589274948547853913,,-0.0037298456077,-22.3167046397,7.11602593399
1589274948550864413,4654,1589274948550764356,,-0.00206664783586,-22.2416715761,7.09809908661
1589274948553726723,4655,1589274948553658122,,-0.000476466010646,-22.1654527379,7.08225168601
1589274948559604885,4656,1589274948559533033,,-0.000723477984965,-22.3485046929,7.12287722272
1589274948562804684,4657,1589274948562721603,,0.00169179140797,-22.5320019779,7.16793966063
1589274948568739445,4658,1589274948568615271,,0.00301835252503,-22.715110731,7.21491688385
1589274948572131205,4659,1589274948572031707,,0.00402280777523,-22.6403703203,7.19328446923
1589274948575214322,4660,1589274948575063411,,0.00554957580268,-22.8220879675,7.23775534759
1589274948581249909,4661,1589274948581152463,,0.00712078959164,-22.9999810288,7.28252209553
1589274948584092370,4662,1589274948583978696,,0.00640516186712,-22.9239257702,7.26171963204
1589274948586744825,4663,1589274948586654025,,0.00645961443768,-22.8494898259,7.23897682312
1589274948592691243,4664,1589274948592616672,,0.00638878661929,-23.0278453038,7.28390670841
1589274948595760824,4665,1589274948595645037,,0.00536314968869,-23.2064273142,7.32169937248
1589274948598664284,4666,1589274948598605891,,0.00580548432283,-23.1303715238,7.30083239035
1589274948604686634,4667,1589274948604568312,,0.00641212541064,-23.3075185177,7.34201993546
1589274948607685855,4668,1589274948607617874,,0.0063844567878,-23.482937965,7.37914996982
1589274948610805602,4669,1589274948610693953,,0.00797616321668,-23.4043804298,7.35773069279
1589274948616617020,4670,1589274948616507986,,0.00720949466049,-23.5802843614,7.3969644891
1589274948619573016,4671,1589274948619489583,,0.00911926114455,-23.5022755233,7.37634089902
1589274948622541172,4672,1589274948622465833,,0.00969607986767,-23.6716710755,7.41622667276
1589274948628594774,4673,1589274948628516279,,0.0113545465034,-23.8435371661,7.45955206361
1589274948631719226,4674,1589274948631657559,,0.0116706411801,-23.7627097878,7.43937849296
1589274948635064414,4675,1589274948634909213,,0.0141736410317,-23.928554444,7.483511501
1589274948640622316,4676,1589274948640531220,,0.0156141815133,-23.8462030367,7.45990940942
1589274948643526056,4677,1589274948643381465,,0.0171194046175,-24.0128379811,7.50400883948
1589274948646703861,4678,1589274948646635500,,0.0190056252002,-23.9306333564,7.48486695811
1589274948652726699,4679,1589274948652648618,,0.0237097117773,-24.0931268399,7.53077543245
1589274948658944009,4680,1589274948658848048,,0.0249921761517,-24.2593738635,7.56964976335
1589274948661569072,4681,1589274948661429104,,0.0266276041276,-24.4181408002,7.60894108233
1589274948664814658,4682,1589274948664694638,,0.0300511852358,-24.333332409,7.59129819851
1589274948667820972,4683,1589274948667739276,,0.0310498868494,-24.4959630332,7.62961326192
1589274948673534836,4684,1589274948673477635,,0.0325183675665,-24.4128429767,7.60849684644
1589274948676494180,4685,1589274948676421564,,0.0344684445781,-24.5723600876,7.64749412284
1589274948679530223,4686,1589274948679450244,,0.035258962807,-24.4929377379,7.62696427366
1589274948685908310,4687,1589274948685811572,,0.0359979812166,-24.6565805568,7.6672971815
1589274948688805518,4688,1589274948688723110,,0.0367670822797,-24.8138788771,7.70377859102
1589274948697792384,4689,1589274948697719999,,0.0384500683051,-24.8958353703,7.72121054428
1589274948701217951,4690,1589274948701144103,,0.0394535334926,-24.8993514774,7.72105950267
1589274948703853565,4691,1589274948703776411,,0.04069504051,-24.971500809,7.73903415298
1589274948709755785,4692,1589274948709591342,,0.0415110111339,-25.127290093,7.77732716463
1589274948712539295,4693,1589274948712434588,,0.0422161597488,-25.0463074442,7.75604281677
1589274948715849014,4694,1589274948715787244,,0.0429105035894,-25.2023407877,7.79511960287
1589274948721837201,4695,1589274948721744943,,0.0429587793096,-25.3571444233,7.83257604188
1589274948724669232,4696,1589274948724563777,,0.0457785893794,-25.2877350276,7.81907692375
1589274948727976451,4697,1589274948727888989,,0.0463247669875,-25.4385210094,7.85694112466
1589274948734103780,4698,1589274948733975591,,0.0472665727539,-25.3415734215,7.83191346596
1589274948736575132,4699,1589274948736503482,,0.050772458321,-25.5051634159,7.87982035273
1589274948739525882,4700,1589274948739406767,,0.0508746297752,-25.4191493389,7.85954596109
1589274948745639870,4701,1589274948745551721,,0.0534249604699,-25.5512892371,7.89463129792
1589274948748684434,4702,1589274948748544517,,0.0556440575498,-25.6965563918,7.93393868783
1589274948757563449,4703,1589274948757444760,,0.0576532830986,-25.8424381911,7.97219254567
1589274948760717032,4704,1589274948760369767,,0.0595868976176,-25.7546708754,7.94918196264
1589274948763516709,4705,1589274948763421089,,0.0620165607219,-25.9063574144,7.98758472436
1589274948766437966,4706,1589274948766369107,,0.063444604702,-25.8180390981,7.96402709175
1589274948769565304,4707,1589274948769492812,,0.0659142087625,-25.963179214,7.99731841317
1589274948772648068,4708,1589274948772517565,,0.0689821084896,-25.8802717556,7.97679166445
1589274948778900616,4709,1589274948778818006,,0.0691613534489,-26.0216570799,8.00901621985
1589274948782032904,4710,1589274948781907560,,0.070710174398,-26.1655809774,8.04621541842
1589274948785155836,4711,1589274948785072928,,0.0713765675334,-26.080885594,8.02710399465
1589274948790892430,4712,1589274948790801338,,0.0716078093443,-26.2230989326,8.06280804458
1589274948793651680,4713,1589274948793559986,,0.0730155102304,-26.1409457715,8.04177161305
1589274948796883337,4714,1589274948796821337,,0.0740828508707,-26.2800991775,8.07853135989
1589274948802966367,4715,1589274948802822067,,0.0739234926977,-26.4171395129,8.11242809451
1589274948805862465,4716,1589274948805788426,,0.0744843006927,-26.3350133694,8.09237911513
1589274948808584343,4717,1589274948808459677,,0.0752791573566,-26.4655072989,8.12487879125
1589274948815000743,4718,1589274948814934686,,0.0771615947884,-26.590981478,8.15927080952
1589274948817875928,4719,1589274948817784325,,0.0782419466522,-26.4987333015,8.13340111125
1589274948820947329,4720,1589274948820856078,,0.07921730488,-26.6169381136,8.16260142959
1589274948826942473,4721,1589274948826832187,,0.0807157011812,-26.5211245044,8.13872031283
1589274948829875085,4722,1589274948829790121,,0.0814976775828,-26.6387693329,8.16944287892
1589274948832939491,4723,1589274948832784479,,0.0840745690367,-26.536279307,8.14795822956
1589274948838802599,4724,1589274948838729514,,0.0843731213308,-26.6506055559,8.17501005326
1589274948841848786,4725,1589274948841745472,,0.0862249091406,-26.7622961753,8.2032679275
1589274948844803921,4726,1589274948844712168,,0.090126643979,-26.6577755127,8.18212567476
1589274948850802552,4727,1589274948850717984,,0.0920918834788,-26.7719465473,8.20927799381
1589274948856813507,4728,1589274948856754350,,0.0945704154727,-26.8822446396,8.24017802863
1589274948859772501,4729,1589274948859697222,,0.0957561747166,-26.7887933207,8.22008723036
1589274948862788022,4730,1589274948862706336,,0.097722310508,-26.902879426,8.2486718726
1589274948865842560,4731,1589274948865718685,,0.0998293965857,-26.8163587619,8.22396249974
1589274948868536754,4732,1589274948868446927,,0.100740475428,-26.9350163665,8.25908954123
1589274948877940513,4733,1589274948877870110,,0.100131343719,-26.9662005445,8.26511716679
1589274948880990258,4734,1589274948880915278,,0.0999646595182,-26.9213220448,8.25236639401
1589274948886910096,4735,1589274948886790658,,0.0991700361835,-27.0011196216,8.27437725527
1589274948889723891,4736,1589274948889652453,,0.0978342326361,-27.1176271065,8.29879213151
1589274948892851160,4737,1589274948892763566,,0.098332053837,-27.0315584928,8.27754255094
1589274948898757442,4738,1589274948898668175,,0.0986606031272,-27.1399213976,8.30363800645
1589274948901828579,4739,1589274948901587033,,0.0976435711104,-27.2494085679,8.32732673671
1589274948904741049,4740,1589274948904637754,,0.0992689229666,-27.1777025378,8.31311165124
1589274948910718469,4741,1589274948910639978,,0.0997987653242,-27.2790170252,8.33780020245
1589274948913830054,4742,1589274948913741659,,0.0994456090626,-27.1690038207,8.3075305029
1589274948916802204,4743,1589274948916710574,,0.103964945908,-27.2839638171,8.34391166046
1589274948922761460,4744,1589274948922619703,,0.106016888037,-27.3763190295,8.36845794572
1589274948926078148,4745,1589274948925996015,,0.107972668692,-27.2654410068,8.34115026649
1589274948932073085,4746,1589274948931933923,,0.109540892967,-27.3607667643,8.36747799139
1589274948938111577,4747,1589274948937957285,,0.113924551723,-27.4491935292,8.39288295396
1589274948941140376,4748,1589274948941051444,,0.116440961073,-27.3502819148,8.37042083285
1589274948943965274,4749,1589274948943869491,,0.117787005493,-27.4413845475,8.39310184679
1589274948946924616,4750,1589274948946802254,,0.120822518566,-27.3503002535,8.37133968564
1589274948949898026,4751,1589274948949789527,,0.12213310796,-27.4370959641,8.3944088826
1589274948955994798,4752,1589274948955893543,,0.123488389414,-27.5253728497,8.42117014461
1589274948958940522,4753,1589274948958854827,,0.12308966705,-27.4392614307,8.39581559845
1589274948961906103,4754,1589274948961796744,,0.124279289089,-27.5233987334,8.42098884993
1589274948971018980,4755,1589274948970896999,,0.124873226564,-27.5250364088,8.42009238592
1589274948973910275,4756,1589274948973819120,,0.125930051437,-27.435738726,8.40176059834
1589274948979976344,4757,1589274948979822249,,0.126068844811,-27.5220991111,8.42323744313
1589274948983138560,4758,1589274948983038118,,0.125300733261,-27.6082759868,8.44505850522
1589274948986351964,4759,1589274948986235918,,0.126792304012,-27.5162152025,8.42397611761
1589274948991976413,4760,1589274948991901153,,0.128740950001,-27.5960490663,8.44514494328
1589274948994636766,4761,1589274948994575007,,0.129840909281,-27.6741899349,8.46732426127
1589274948997782300,4762,1589274948997717865,,0.132206485949,-27.6030297722,8.45078634539
1589274949003926953,4763,1589274949003858740,,0.134572581093,-27.6688635228,8.46593299856
1589274949006903930,4764,1589274949006811038,,0.136523178702,-27.5625713925,8.44249428927
1589274949009936627,4765,1589274949009804519,,0.140849355791,-27.6489488903,8.46417971637
1589274949015743508,4766,1589274949015640193,,0.14344466438,-27.7131732426,8.48582034587
1589274949018695606,4767,1589274949018476226,,0.145323474493,-27.6030104532,8.45715413496
1589274949021583087,4768,1589274949021484953,,0.147635239958,-27.6698833855,8.47492000256
1589274949030942952,4769,1589274949030790275,,0.150851136079,-27.6337594919,8.46850565951
1589274949036917662,4770,1589274949036832818,,0.151125354001,-27.7005489318,8.48427977788
1589274949039870973,4771,1589274949039787730,,0.153372157313,-27.606258924,8.45526800857
1589274949042530731,4772,1589274949042449360,,0.153425463359,-27.6696975748,8.46898296366
1589274949045529725,4773,1589274949045464249,,0.15369517121,-27.5833481373,8.4453222737
1589274949051581503,4774,1589274949051512763,,0.153243784947,-27.6470150922,8.46155885027
1589274949058059314,4775,1589274949057971835,,0.154087175547,-27.715835295,8.48307795459
1589274949064052467,4776,1589274949063928930,,0.152712978051,-27.8048876248,8.50407982774
1589274949066983656,4777,1589274949066889297,,0.152017001279,-27.7198844941,8.48539269372
1589274949069938512,4778,1589274949069844936,,0.154686236835,-27.7787166102,8.50388220688
1589274949073007016,4779,1589274949072883663,,0.154034118241,-27.7173976052,8.48790353946
1589274949075987721,4780,1589274949075860925,,0.154984686116,-27.7822527146,8.50591912806
1589274949079145412,4781,1589274949079007609,,0.155077505404,-27.691744281,8.48451538732
1589274949085383559,4782,1589274949085311481,,0.156029260131,-27.7542938999,8.50271732735
1589274949088565986,4783,1589274949088431424,,0.155566740523,-27.8109465463,8.51804197707
1589274949094041364,4784,1589274949093910397,,0.156802816949,-27.7272134161,8.49322473049
1589274949099929434,4785,1589274949099873830,,0.159212777713,-27.777129603,8.5068500942
1589274949102663982,4786,1589274949102574593,,0.162096533138,-27.8194779121,8.51414942845
1589274949108822994,4787,1589274949108754214,,0.163273534326,-27.8528495263,8.51747783363
1589274949111864983,4788,1589274949111793027,,0.168279507964,-27.7493476384,8.48997442873
1589274949115017409,4789,1589274949114901409,,0.171661562363,-27.7710072472,8.49394317101
1589274949120925709,4790,1589274949120862813,,0.175107411481,-27.6584428711,8.4688759669
1589274949126936619,4791,1589274949126878324,,0.179098077905,-27.6740766945,8.47343042771
1589274949129862095,4792,1589274949129804047,,0.182274432377,-27.6894940813,8.47929488463
1589274949135916396,4793,1589274949135805125,,0.186628402904,-27.7013518224,8.48658191718
1589274949141786827,4794,1589274949141717781,,0.187724197394,-27.7185442493,8.49402456068
1589274949148197543,4795,1589274949148058620,,0.190274830048,-27.7356225335,8.50111742054
1589274949150802170,4796,1589274949150709780,,0.191917687243,-27.6348890159,8.48148848417
1589274949156977147,4797,1589274949156828437,,0.193759681336,-27.6637915506,8.49298701951
1589274949159833621,4798,1589274949159760725,,0.193274672227,-27.5772561045,8.47175229795
1589274949162833191,4799,1589274949162742462,,0.19200279961,-27.6120005794,8.48580154493
1589274949165803046,4800,1589274949165724560,,0.190633548852,-27.5370587538,8.46570767541
1589274949168827078,4801,1589274949168720344,,0.191115923413,-27.5760796335,8.47271833291
1589274949171828719,4802,1589274949171732605,,0.188648204261,-27.5057690637,8.45471399967
1589274949174751263,4803,1589274949174638429,,0.186140770721,-27.5472109589,8.46152415331
1589274949177598430,4804,1589274949177516401,,0.185256369863,-27.4748528697,8.43847533386
1589274949180758639,4805,1589274949180548209,,0.182732692557,-27.3999525258,8.41541459461
1589274949183956980,4806,1589274949183871561,,0.184251587577,-27.4302110399,8.42074860138
1589274949186561896,4807,1589274949186496997,,0.184072832718,-27.3439595471,8.39468303981
1589274949189563654,4808,1589274949189509595,,0.185169573035,-27.3580572991,8.39778097101
1589274949192755941,4809,1589274949192688486,,0.187135036103,-27.2638155018,8.37353495187
1589274949195778865,4810,1589274949195693522,,0.190025698109,-27.2662300138,8.37655993931
1589274949201752954,4811,1589274949201665174,,0.193914098471,-27.2632533586,8.37616295112
1589274949204615842,4812,1589274949204477168,,0.199101001574,-27.1506897349,8.35354810516
1589274949216803175,4813,1589274949216698196,,0.208472830145,-27.1114539872,8.35115330845
1589274949222826814,4814,1589274949222718350,,0.213521737343,-27.0873394514,8.35126163873
1589274949225820274,4815,1589274949225720941,,0.218427302894,-26.9666425196,8.32549656213
1589274949228869588,4816,1589274949228773137,,0.221683443798,-26.9425372108,8.32439315133
1589274949231839555,4817,1589274949231716456,,0.22284499525,-26.8350044584,8.29584327385
1589274949238003371,4818,1589274949237911984,,0.225381367833,-26.8261507113,8.29892990673
1589274949241178233,4819,1589274949241089681,,0.226811208342,-26.8408686185,8.30695547045
1589274949244354463,4820,1589274949244268527,,0.227355784593,-26.7706416163,8.28721483956
1589274949250073136,4821,1589274949249937456,,0.226970859517,-26.7915913186,8.29133126816
1589274949255980520,4822,1589274949255919025,,0.22954476533,-26.8095262304,8.29970084083
1589274949262078655,4823,1589274949261987769,,0.228572192802,-26.8371423188,8.3079446865
1589274949265050893,4824,1589274949264955568,,0.225668701447,-26.7903445953,8.29555245591
1589274949271117034,4825,1589274949270945425,,0.221625018571,-26.7453287405,8.29126700756
1589274949277492137,4826,1589274949277337402,,0.217896627747,-26.7728718313,8.29377449625
1589274949283323891,4827,1589274949283225430,,0.216778617704,-26.7994419996,8.29814951033
1589274949286352461,4828,1589274949286263128,,0.217029099686,-26.7473793126,8.27976760751
1589274949292043431,4829,1589274949291956074,,0.217653704093,-26.7590625383,8.27650420476
1589274949298054316,4830,1589274949297973196,,0.21858023102,-26.7615807156,8.27222780669
1589274949304075689,4831,1589274949303961007,,0.2197643046,-26.7531914655,8.26551672221
1589274949309911490,4832,1589274949309846459,,0.222711184682,-26.7431845833,8.26590316158
1589274949316020453,4833,1589274949315928053,,0.225126370402,-26.7351499054,8.26673572288
1589274949321979957,4834,1589274949321910260,,0.226098659929,-26.7057389193,8.26348168638
1589274949333711724,4835,1589274949333598707,,0.234253895254,-26.5736920374,8.24301537674
1589274949336767438,4836,1589274949336689889,,0.240527260234,-26.5265948027,8.24085497925
1589274949339944006,4837,1589274949339856056,,0.243758917205,-26.410781042,8.21342395273
1589274949345994263,4838,1589274949345922087,,0.247869889179,-26.3697645404,8.2065238883
1589274949352138814,4839,1589274949352007711,,0.251931599954,-26.3195111694,8.20055585834
1589274949358052034,4840,1589274949357905487,,0.254589648902,-26.2693511211,8.18647879468
1589274949364152536,4841,1589274949364074524,,0.255996149254,-26.2255416995,8.17271884069
1589274949370075511,4842,1589274949369950627,,0.256337202178,-26.1755061509,8.16004512695
1589274949376056458,4843,1589274949375965411,,0.256618513045,-26.1311693796,8.144997889
1589274949382352667,4844,1589274949382265847,,0.254787217851,-26.0877961797,8.13000467877
1589274949385338886,4845,1589274949385235622,,0.254377984131,-26.008059987,8.10843233227
1589274949391007784,4846,1589274949390897416,,0.25303317992,-25.976213851,8.09860951607
1589274949397033850,4847,1589274949396945410,,0.253180953808,-25.9663656275,8.0928532397
1589274949402770555,4848,1589274949402679507,,0.252216004569,-25.9544544842,8.09045549372
1589274949409066466,4849,1589274949408949489,,0.249703016184,-25.918386937,8.07862314639
1589274949414895634,4850,1589274949414823917,,0.251072474206,-25.8977182693,8.07586192565
1589274949421003754,4851,1589274949420814018,,0.249546424214,-25.8561175946,8.06948608835
1589274949426766483,4852,1589274949426649333,,0.247694041352,-25.8130550847,8.05956150851
1589274949433135332,4853,1589274949432979156,,0.246747813016,-25.7674634133,8.04777872415
1589274949439123848,4854,1589274949439038510,,0.247150232522,-25.7266615641,8.04231289483
1589274949445040173,4855,1589274949444940539,,0.247267336026,-25.6815341469,8.02832056945
1589274949450818276,4856,1589274949450625545,,0.247763404139,-25.631707437,8.01361555753
1589274949456790046,4857,1589274949456658642,,0.248347524599,-25.5717886143,7.99730749823
1589274949462900399,4858,1589274949462817444,,0.250198413071,-25.5056906196,7.97776180687
1589274949468880808,4859,1589274949468787828,,0.252362291802,-25.430896264,7.95890596731
1589274949475101760,4860,1589274949475022018,,0.254486561501,-25.3428159482,7.93810114475
1589274949481147423,4861,1589274949481001937,,0.257858553661,-25.2458036685,7.91917998916
1589274949483916102,4862,1589274949483828847,,0.262551654074,-25.1517257965,7.90377749397
1589274949489797004,4863,1589274949489711738,,0.265648510805,-25.05290567,7.88407225847
1589274949495918323,4864,1589274949495841168,,0.271386296632,-24.9508777069,7.86871867438
1589274949501732991,4865,1589274949501672638,,0.274782080223,-24.8487928866,7.84692818079
1589274949514141206,4866,1589274949514033393,,0.281422897868,-24.6531718304,7.81047111501
1589274949520149432,4867,1589274949520035421,,0.28432332108,-24.5585274526,7.79308550468
1589274949526104545,4868,1589274949526016092,,0.283764694928,-24.4691197072,7.77087022783
1589274949532130433,4869,1589274949532032989,,0.285671406332,-24.3771696165,7.75370105666
1589274949538138220,4870,1589274949538007854,,0.284699887314,-24.2986965376,7.7343827636
1589274949544115804,4871,1589274949544000494,,0.284372056206,-24.2235521381,7.7128782192
1589274949550161828,4872,1589274949550010265,,0.282642419914,-24.1434822946,7.69082920391
1589274949556015153,4873,1589274949555928608,,0.281892386729,-24.0650464507,7.66953739571
1589274949561854516,4874,1589274949561736423,,0.279347837547,-23.9894596815,7.64721431248
1589274949568619684,4875,1589274949568512011,,0.279245882125,-23.9071715626,7.63032158322
1589274949574216525,4876,1589274949574031822,,0.276602175071,-23.8474569459,7.61392033668
1589274949580009631,4877,1589274949579902919,,0.277392380123,-23.760912037,7.59285969528
1589274949583372226,4878,1589274949583275457,,0.277687397272,-23.6658379804,7.57056856019
1589274949586225476,4879,1589274949586140946,,0.279415801024,-23.595436255,7.55927116233
1589274949592298498,4880,1589274949592149982,,0.28158544404,-23.4877715041,7.53617391903
1589274949598160733,4881,1589274949598053961,,0.283513107881,-23.3786352635,7.51098469534
1589274949604286614,4882,1589274949604183797,,0.284959085807,-23.2677134285,7.48939614381
1589274949610267150,4883,1589274949610121398,,0.288839051148,-23.1374907906,7.46552081936
1589274949615888497,4884,1589274949615797035,,0.291216034625,-23.0085392842,7.43742363031
1589274949621755330,4885,1589274949621611894,,0.292898904335,-22.8731983288,7.4066492588
1589274949634273061,4886,1589274949634132315,,0.299844646916,-22.6304713829,7.35708364522
1589274949639989446,4887,1589274949639906800,,0.303501614931,-22.4867184721,7.3244540673
1589274949646124687,4888,1589274949646014988,,0.305026133809,-22.3449789998,7.29247877614
1589274949652180526,4889,1589274949652102152,,0.307349606223,-22.2071721876,7.26237208968
1589274949658001797,4890,1589274949657903094,,0.309738626686,-22.0852324532,7.23265683428
1589274949664086521,4891,1589274949663975591,,0.30939475499,-21.9527053891,7.19945821174
1589274949670157501,4892,1589274949669975304,,0.310791840072,-21.8147777315,7.17135956162
1589274949676043487,4893,1589274949675959708,,0.311024788329,-21.7085403609,7.14571077819
1589274949682417840,4894,1589274949682318034,,0.312737818552,-21.5886924551,7.12370368549
1589274949685398652,4895,1589274949685291768,,0.310664492509,-21.5287386947,7.10955325113
1589274949691128262,4896,1589274949690997766,,0.308907699135,-21.4191735115,7.08020209266
1589274949696737525,4897,1589274949696667452,,0.309135025943,-21.3157336012,7.06134588947
1589274949702756064,4898,1589274949702686684,,0.307706005356,-21.2110531842,7.03533839807
1589274949708809231,4899,1589274949708686848,,0.305318388785,-21.1089623466,7.00881151915
1589274949715012982,4900,1589274949714947082,,0.30323702677,-20.9981016439,6.97900028682
1589274949721241036,4901,1589274949721123409,,0.303305940714,-20.9493374194,6.96573366784
1589274949727078699,4902,1589274949727014572,,0.302548413045,-20.8290823382,6.9345939563
1589274949733145511,4903,1589274949733060907,,0.302591560976,-20.7043636365,6.90183494417
1589274949739153174,4904,1589274949739055033,,0.302307253444,-20.5722862873,6.87037043552
1589274949745130322,4905,1589274949745032501,,0.30399441191,-20.4319386871,6.83802076091
1589274949751112810,4906,1589274949751019578,,0.303910985,-20.2895542117,6.804394726
1589274949757363583,4907,1589274949757232398,,0.305542651619,-20.1392499266,6.77158897987
1589274949763150042,4908,1589274949763067808,,0.309045754205,-19.9856963503,6.74101386577
1589274949769096506,4909,1589274949769004002,,0.312025349502,-19.8293063165,6.70600326611
1589274949775246061,4910,1589274949775154374,,0.314234425599,-19.663195537,6.66806651213
1589274949781316977,4911,1589274949781124913,,0.318990714944,-19.5762353385,6.65372185945
1589274949786945682,4912,1589274949786857129,,0.323347726459,-19.407921129,6.61861060304
1589274949792928348,4913,1589274949792834210,,0.326587852266,-19.2355876128,6.58051837902
1589274949798918840,4914,1589274949798821653,,0.3293681022,-19.0663348781,6.53923753488
1589274949804946340,4915,1589274949804821013,,0.331337433137,-18.8921095251,6.49715544938
1589274949810959937,4916,1589274949810846686,,0.334337016856,-18.7216128777,6.46011202991
1589274949816939188,4917,1589274949816838721,,0.335028834723,-18.5564607775,6.41802350592
1589274949822937721,4918,1589274949822805145,,0.335792237559,-18.3963239449,6.37964352081
1589274949829023123,4919,1589274949828923913,,0.336154267403,-18.2565732751,6.34466154749
1589274949835380769,4920,1589274949835271509,,0.336814661353,-18.1212703122,6.31223178442
1589274949841022612,4921,1589274949840831153,,0.33614963522,-18.0575195445,6.29809304285
1589274949847612120,4922,1589274949847287344,,0.337119597612,-17.9254933831,6.26667671034
1589274949853236328,4923,1589274949853127504,,0.335677532421,-17.7990621875,6.23984396196
1589274949859290249,4924,1589274949859143880,,0.333480807888,-17.6580091879,6.21120119537
1589274949865223652,4925,1589274949865102232,,0.333432210596,-17.5155930774,6.18000193021
1589274949871214115,4926,1589274949871036188,,0.331065355984,-17.3863713944,6.14780436857
1589274949877123508,4927,1589274949877022843,,0.32990197492,-17.254114409,6.11413974405
1589274949883506228,4928,1589274949883400655,,0.33173695605,-17.1132507134,6.08295913018
1589274949886430853,4929,1589274949886329373,,0.331752451692,-17.0679844333,6.06992860362
1589274949892197735,4930,1589274949892100328,,0.333173504283,-16.921784559,6.03279517296
1589274949898180970,4931,1589274949898080185,,0.333021544161,-16.7686494022,5.99465434122
1589274949904153892,4932,1589274949904034002,,0.334256947649,-16.6105260416,5.95812184149
1589274949910106195,4933,1589274949910002424,,0.334386403335,-16.4493871138,5.91882965563
1589274949916044724,4934,1589274949915978263,,0.336567728285,-16.2866607704,5.88364358809
1589274949922157224,4935,1589274949922054677,,0.340682485944,-16.1120801388,5.84731159949
1589274949934393436,4936,1589274949934161258,,0.347164815509,-15.8745390521,5.79742161479
1589274949940250928,4937,1589274949940067923,,0.351175191955,-15.6965718914,5.75719563553
1589274949946151837,4938,1589274949946052284,,0.353224064903,-15.5218005,5.71733484384
1589274949952189316,4939,1589274949952074880,,0.356750629001,-15.3414090284,5.67933314057
1589274949958165883,4940,1589274949958062859,,0.359011705685,-15.1624784087,5.63893336977
1589274949964167808,4941,1589274949964049555,,0.361235116918,-14.9852642482,5.59739627633
1589274949970100370,4942,1589274949970011829,,0.363035742617,-14.8047230693,5.55534654403
1589274949976151314,4943,1589274949976029373,,0.362888499872,-14.6338115611,5.51225135855
1589274949982415949,4944,1589274949982326668,,0.367331861473,-14.456383056,5.4762149953
1589274949985369524,4945,1589274949985239130,,0.366949011067,-14.4023347033,5.46213204805
1589274949991072485,4946,1589274949990982773,,0.367902338454,-14.231517735,5.4200109262
1589274949997181758,4947,1589274949997058630,,0.368769537907,-14.0661402924,5.38439946285
1589274950003260069,4948,1589274950003130065,,0.369376326697,-13.9058110928,5.34854954663
1589274950009105495,4949,1589274950008995768,,0.370248679323,-13.7436718082,5.3126340097
1589274950015558875,4950,1589274950015463258,,0.368939268512,-13.5843107092,5.27363860548
1589274950021252116,4951,1589274950021171942,,0.369752993131,-13.5404613062,5.26724654308
1589274950027374796,4952,1589274950027280625,,0.370900446082,-13.3794257741,5.23397804272
1589274950033144105,4953,1589274950033024212,,0.371218325485,-13.2183622363,5.19430317101
1589274950039138360,4954,1589274950039043756,,0.371408137369,-13.0562035709,5.153546868
1589274950045365848,4955,1589274950045224775,,0.371439841806,-12.8935303079,5.11481094336
1589274950051124515,4956,1589274950051004265,,0.371942906361,-12.7316191484,5.07550567287
1589274950057302237,4957,1589274950057176761,,0.372517070395,-12.5624053916,5.03756639247
1589274950063335343,4958,1589274950063205430,,0.373653296273,-12.3936215137,4.99742559808
1589274950069264594,4959,1589274950069154367,,0.373148506353,-12.2267790955,4.95550321724
1589274950075464884,4960,1589274950075326809,,0.375860281468,-12.0518313358,4.91645567585
1589274950081476548,4961,1589274950081314406,,0.37769932357,-11.9950151535,4.90355561603
1589274950087162115,4962,1589274950087016379,,0.378987431641,-11.820840603,4.86345186572
1589274950093282048,4963,1589274950093155802,,0.380859818722,-11.6452851941,4.8217087756
1589274950099256064,4964,1589274950099134725,,0.382609012443,-11.4702627663,4.78008909513
1589274950105346375,4965,1589274950105223781,,0.38500016282,-11.301365405,4.74162424623
1589274950111274747,4966,1589274950111141622,,0.387439972797,-11.1302079881,4.70501019666
1589274950117271440,4967,1589274950117165711,,0.38917690767,-10.9579275661,4.66695962074
1589274950123173618,4968,1589274950123095179,,0.389421208083,-10.7974955612,4.62543463024
1589274950129117526,4969,1589274950129003680,,0.390796179236,-10.6313665627,4.58641508592
1589274950135590840,4970,1589274950135483550,,0.39171802239,-10.4684457671,4.54821769671
1589274950141492183,4971,1589274950141262295,,0.392502852499,-10.4279110761,4.53849855512
1589274950147235166,4972,1589274950147134389,,0.393026014826,-10.2678922734,4.50197375234
1589274950153144257,4973,1589274950153047600,,0.392688199826,-10.1155468674,4.46588115012
1589274950159148891,4974,1589274950159041914,,0.392984218219,-9.96701630144,4.42922889187
1589274950165138163,4975,1589274950165038343,,0.392939258125,-9.81815113773,4.3933971845
1589274950171530955,4976,1589274950171435325,,0.392763326767,-9.67134951856,4.35911979651
1589274950177185571,4977,1589274950177096191,,0.392543558262,-9.52706164044,4.32429005499
1589274950183314703,4978,1589274950183223836,,0.393548539337,-9.38039021311,4.29046119552
1589274950186416127,4979,1589274950186313227,,0.394042682734,-9.34438127127,4.28363387951
1589274950192167178,4980,1589274950192074564,,0.393809436918,-9.19833849083,4.24726818343
1589274950198291407,4981,1589274950198186587,,0.395333487496,-9.05505690988,4.21571084148
1589274950204181874,4982,1589274950204096880,,0.39708641691,-8.90884664755,4.1859328428
1589274950210177806,4983,1589274950210065673,,0.397065195932,-8.76295215439,4.15049317518
1589274950216205154,4984,1589274950216054263,,0.399112957456,-8.61717698586,4.11775537835
1589274950222151016,4985,1589274950222066895,,0.399792100892,-8.47171980736,4.08322593746
1589274950234268295,4986,1589274950234122514,,0.401931306939,-8.28203071934,4.03910043552
1589274950239760885,4987,1589274950239678099,,0.403115243743,-8.13607701245,4.00538927267
1589274950246268757,4988,1589274950246138300,,0.405576816201,-7.98912656892,3.97276321274
1589274950252290716,4989,1589274950252181345,,0.405456522687,-7.84943322477,3.93530321375
1589274950257721841,4990,1589274950257644240,,0.406920606545,-7.70606335438,3.90233905602
1589274950263840931,4991,1589274950263752577,,0.408000350677,-7.56647007485,3.86981402689
1589274950270241925,4992,1589274950270150196,,0.409735792523,-7.44016000917,3.83933622774
1589274950276213135,4993,1589274950276126047,,0.411284149922,-7.31249934643,3.80920397805
1589274950282601788,4994,1589274950282524397,,0.413205574284,-7.17788496642,3.77818525105
1589274950294391485,4995,1589274950294171699,,0.41486657969,-7.03262478111,3.74546435378
1589274950300194968,4996,1589274950300081651,,0.416288828496,-6.91193120356,3.71966649253
1589274950306357846,4997,1589274950306159495,,0.416867120938,-6.79198168866,3.6940487776
1589274950312155839,4998,1589274950312056554,,0.417113218662,-6.6821455094,3.66929388181
1589274950318235985,4999,1589274950318081690,,0.417361062503,-6.57883730194,3.64596263513
1589274950324048503,5000,1589274950323981734,,0.418297805195,-6.47915723069,3.62238879211
1589274950330383667,5001,1589274950330217698,,0.417271655683,-6.38094559182,3.59683210497
1589274950336396726,5002,1589274950336233050,,0.417856687533,-6.28267637511,3.57228343104
1589274950342290722,5003,1589274950342181468,,0.418321703806,-6.18559797673,3.54806197748
1589274950348627092,5004,1589274950348543489,,0.418895723613,-6.0897624344,3.52401282185
1589274950353900431,5005,1589274950353795877,,0.419601709824,-6.06485097215,3.51979552752
1589274950359763062,5006,1589274950359680845,,0.418977244487,-5.96983224252,3.49568457747
1589274950365846675,5007,1589274950365711069,,0.419682385265,-5.87971719879,3.47515727545
1589274950372232567,5008,1589274950372110828,,0.420394754898,-5.7880784418,3.45401888198
1589274950378193724,5009,1589274950378083994,,0.421487876608,-5.69620219782,3.43449151071
1589274950384345979,5010,1589274950384227699,,0.422354303573,-5.60699124053,3.41380823832
1589274950390146828,5011,1589274950390038158,,0.422840664129,-5.52220261995,3.39356577103
1589274950396127708,5012,1589274950396047721,,0.42357853166,-5.44132442139,3.37448405564
1589274950402151771,5013,1589274950402066576,,0.424752110583,-5.36068098286,3.35585105995
1589274950414297942,5014,1589274950414125447,,0.426583783384,-5.2572146145,3.33461172205
1589274950420286688,5015,1589274950420162245,,0.42821183274,-5.18014113246,3.31997628027
1589274950425782430,5016,1589274950425698754,,0.429094830558,-5.10734619233,3.3048562355
1589274950432209902,5017,1589274950432016267,,0.429436391548,-5.04085008523,3.2887814403
1589274950438059069,5018,1589274950437967124,,0.42937703269,-4.97943689778,3.2741274005
1589274950444151226,5019,1589274950444005300,,0.431041478625,-4.91661396122,3.26190191211
1589274950450129819,5020,1589274950450052784,,0.432250484923,-4.85938471438,3.25049235201
1589274950456116674,5021,1589274950456004372,,0.431964394014,-4.80784148321,3.23817368381
1589274950462208085,5022,1589274950462045399,,0.432094683707,-4.7614289351,3.22787169844
1589274950471100721,5023,1589274950470983140,,0.434687724652,-4.69240042753,3.21504015007
1589274950477310911,5024,1589274950477211770,,0.435965085649,-4.65288831256,3.20620099671
1589274950483528015,5025,1589274950483399479,,0.437093392571,-4.6171956049,3.19731257834
1589274950489329939,5026,1589274950489149865,,0.438355247222,-4.58677409504,3.19117971732
1589274950495276124,5027,1589274950495160494,,0.439514404821,-4.55926856666,3.18603142735
1589274950501453574,5028,1589274950501346806,,0.43970891073,-4.53654424338,3.18164189848
1589274950506917243,5029,1589274950506803436,,0.439807071349,-4.51890591528,3.17690448313
1589274950512805753,5030,1589274950512733594,,0.44118266063,-4.49546930751,3.1748580204
1589274950519145324,5031,1589274950519060825,,0.442154735212,-4.47129797369,3.17475145802
1589274950525169972,5032,1589274950525084222,,0.442058267432,-4.44275195375,3.17546589402
1589274950531174361,5033,1589274950531086381,,0.442608502114,-4.41253762146,3.17526635323
1589274950537227076,5034,1589274950537102771,,0.443002978454,-4.37807537986,3.17748773126
1589274950543261409,5035,1589274950543177398,,0.443109189686,-4.33921121528,3.17904161333
1589274950549202567,5036,1589274950549067714,,0.44418602866,-4.29645492525,3.18290293013
1589274950555433557,5037,1589274950555348610,,0.44506544836,-4.25257409417,3.18682273151
1589274950561609870,5038,1589274950561329895,,0.445630459692,-4.23597069804,3.18376218039
1589274950567016005,5039,1589274950566915235,,0.446452437602,-4.18874811112,3.18978996694
1589274950573295565,5040,1589274950573189309,,0.447608220899,-4.13593403994,3.19627347994
1589274950579144716,5041,1589274950579056518,,0.447631975972,-4.0809382235,3.20214137813
1589274950585530450,5042,1589274950585396119,,0.448050110263,-4.0235575298,3.20961993936
1589274950591638432,5043,1589274950591454398,,0.449234002889,-3.96042678626,3.22036360731
1589274950597184112,5044,1589274950597114699,,0.449871359021,-3.89665686284,3.2302225285
1589274950603256191,5045,1589274950603164140,,0.450831383817,-3.82663305574,3.24123644844
1589274950609223558,5046,1589274950609122488,,0.451697078145,-3.7567920567,3.2542445809
1589274950621214877,5047,1589274950621047816,,0.453774612889,-3.67006904606,3.26529952749
1589274950626804254,5048,1589274950626724226,,0.454425710517,-3.59359465381,3.27970172536
1589274950633361310,5049,1589274950633184100,,0.455498103085,-3.51236387922,3.29495420425
1589274950639376549,5050,1589274950639248614,,0.456360265854,-3.42807148482,3.31209187904
1589274950645522820,5051,1589274950645401560,,0.457107517962,-3.34006510089,3.32952102661
1589274950650943004,5052,1589274950650851043,,0.457801161026,-3.24976459895,3.3478519476
1589274950655070286,5053,1589274950654598022,,0.458471124415,-3.23828435677,3.3455801316
1589274950660435490,5054,1589274950660338665,,0.461150828462,-3.13381687915,3.36539564373
1589274950666273317,5055,1589274950666170996,,0.461742820466,-3.03792785511,3.38447615813
1589274950672279903,5056,1589274950672181780,,0.464072858829,-2.93039136445,3.40511946703
1589274950678309577,5057,1589274950678206984,,0.465782417897,-2.82946738496,3.42872812969
1589274950684436814,5058,1589274950684320334,,0.46757134818,-2.71766140407,3.45023740728
1589274950690340476,5059,1589274950690228282,,0.46883605555,-2.6146976118,3.47518624275
1589274950696319396,5060,1589274950696188529,,0.46941332979,-2.50877575832,3.50071253271
1589274950702255544,5061,1589274950702180445,,0.470606141138,-2.39301948481,3.52606503905
1589274950714513757,5062,1589274950714278270,,0.47336590031,-2.2710305595,3.55306503789
