%time,field.header.seq,field.header.stamp,field.header.frame_id,field.vector.x,field.vector.y,field.vector.z
1588857677257550814,6512,1588857677257429628,,-0.0122843024115,-0.126975356122,0.409700933902
1588857677260445794,6513,1588857677260339878,,-0.0122765606295,-0.126867890689,0.407998259457
1588857677263688222,6514,1588857677263612584,,-0.0121845322146,-0.134033540894,0.40806150588
1588857677269623406,6515,1588857677269542368,,-0.0122078422703,-0.14250841865,0.408605288067
1588857677272634287,6516,1588857677272529774,,-0.0122462502957,-0.142381517005,0.406950614187
1588857677275262979,6517,1588857677275175344,,-0.0121719710584,-0.152634178294,0.408202113957
1588857677281275265,6518,1588857677281198708,,-0.0122093011673,-0.164180399551,0.409468852948
1588857677284293161,6519,1588857677284217674,,-0.0122601043148,-0.164066785566,0.407967526976
1588857677287699684,6520,1588857677287611332,,-0.0123473508247,-0.16379014555,0.406541157303
1588857677293638051,6521,1588857677293540164,,-0.0122915766248,-0.176925270298,0.408253823043
1588857677296665826,6522,1588857677296599123,,-0.0122884313623,-0.191769306942,0.410255176333
1588857677299639040,6523,1588857677299557887,,-0.0122697216631,-0.191466492984,0.408890931838
1588857677305598006,6524,1588857677305527768,,-0.0123077475562,-0.207725049268,0.411534536116
1588857677308582924,6525,1588857677308505096,,-0.0121775930542,-0.224922117477,0.414579627959
1588857677311664341,6526,1588857677311529185,,-0.0121681277662,-0.224823357924,0.41299048003
1588857677317594630,6527,1588857677317521840,,-0.0119368319907,-0.243536663282,0.41636669319
1588857677320298205,6528,1588857677320217047,,-0.0118651154623,-0.243148577926,0.414858081172
1588857677323292420,6529,1588857677323230297,,-0.0118022763368,-0.26343988433,0.41864362881
1588857677329484431,6530,1588857677329406335,,-0.0117371620533,-0.28469200235,0.42265976598
1588857677332518589,6531,1588857677332437262,,-0.0117814721625,-0.284534081519,0.421020740174
1588857677335176105,6532,1588857677335108544,,-0.0116743506,-0.307238683813,0.425212842631
1588857677345193142,6533,1588857677345114293,,-0.0114998192589,-0.331047786046,0.428174692425
1588857677347960208,6534,1588857677347879487,,-0.0115352338801,-0.356173243472,0.432937097643
1588857677353654421,6535,1588857677353593985,,-0.0115720230233,-0.355834883933,0.431216017696
1588857677356620933,6536,1588857677356554493,,-0.011522181023,-0.38248464918,0.436460717562
1588857677362636699,6537,1588857677362568112,,-0.0114286025872,-0.41016018305,0.442057082413
1588857677365612309,6538,1588857677365500939,,-0.0115125567272,-0.409421080238,0.440371898448
1588857677368513585,6539,1588857677368423172,,-0.011384423862,-0.438433901186,0.446286901799
1588857677374661763,6540,1588857677374568875,,-0.011477055881,-0.468551234479,0.452503778466
1588857677377632021,6541,1588857677377539930,,-0.0115126617969,-0.467936016041,0.450720254423
1588857677380573149,6542,1588857677380508667,,-0.0115021474927,-0.467101431536,0.44915493355
1588857677386697403,6543,1588857677386602622,,-0.0115143963717,-0.498236034303,0.455622339144
1588857677389524088,6544,1588857677389443908,,-0.0114954493384,-0.530571257522,0.462296260116
1588857677392458211,6545,1588857677392374075,,-0.0114164103,-0.529335137845,0.460795792346
1588857677398444125,6546,1588857677398368701,,-0.0114386716654,-0.562186860867,0.467520183837
1588857677401628334,6547,1588857677401538849,,-0.011323257918,-0.596295293554,0.475136909716
1588857677404415436,6548,1588857677404347895,,-0.0113873461064,-0.595018278401,0.473411838547
1588857677410675465,6549,1588857677410537823,,-0.011310920447,-0.63029756458,0.480995128621
1588857677413256604,6550,1588857677413206455,,-0.0113870367956,-0.629035273819,0.479317788699
1588857677416237710,6551,1588857677416166180,,-0.0114408550906,-0.665131612815,0.486971287004
1588857677422267046,6552,1588857677422200112,,-0.0113958069369,-0.702204812179,0.495092489659
1588857677425269082,6553,1588857677425180804,,-0.011480328674,-0.700848447469,0.493467423376
1588857677428221690,6554,1588857677428155008,,-0.0114616578114,-0.738731514037,0.501614994146
1588857677434548667,6555,1588857677434481011,,-0.0114795492112,-0.777201826069,0.510004949423
1588857677437519456,6556,1588857677437461179,,-0.0114466140046,-0.77532555341,0.508094394023
1588857677440624664,6557,1588857677440539221,,-0.0114093457288,-0.773544093243,0.506252078249
1588857677446650308,6558,1588857677446586988,,-0.0112929900426,-0.813120169562,0.514832014472
1588857677449513689,6559,1588857677449455876,,-0.0113345762351,-0.853891901445,0.523581214596
1588857677452588082,6560,1588857677452507079,,-0.0112964836199,-0.851948286689,0.521742299399
1588857677458533162,6561,1588857677458454855,,-0.0113226245182,-0.893248199243,0.530898725856
1588857677464461332,6562,1588857677464383351,,-0.011204484026,-0.933118710761,0.538193582403
1588857677470555032,6563,1588857677470463394,,-0.0110729919335,-0.976174725094,0.547878428618
1588857677473479394,6564,1588857677473395918,,-0.0109749825784,-0.973944421682,0.546061063306
1588857677479553447,6565,1588857677479463522,,-0.0109513704449,-1.01744701508,0.555636661273
1588857677482531257,6566,1588857677482443639,,-0.0107883131963,-1.06207886889,0.565457129445
1588857677485616611,6567,1588857677485527789,,-0.0107357580457,-1.05951136257,0.563477388097
1588857677491462136,6568,1588857677491373518,,-0.0106661788861,-1.10515027029,0.573687913761
1588857677494359816,6569,1588857677494243964,,-0.0106153287938,-1.10233172243,0.571762915391
1588857677500479857,6570,1588857677500303448,,-0.0104673589512,-1.1475306427,0.581863527068
1588857677503426464,6571,1588857677503322964,,-0.0106195832847,-1.19472271004,0.592237376542
1588857677506392318,6572,1588857677506314994,,-0.0105997948321,-1.1919194739,0.590390909699
1588857677509507046,6573,1588857677509338925,,-0.0106231677186,-1.23871948745,0.600777972602
1588857677515530304,6574,1588857677515467156,,-0.0104855335632,-1.28637302888,0.611847681288
1588857677518362108,6575,1588857677518284392,,-0.0105260251201,-1.28296019821,0.609777624329
1588857677524400609,6576,1588857677524327788,,-0.0105750280634,-1.33152750955,0.620692428088
1588857677527424685,6577,1588857677527252195,,-0.0105297462208,-1.32824726175,0.618716105088
1588857677530368625,6578,1588857677530287300,,-0.0104537383822,-1.37696710409,0.629827935121
1588857677533321329,6579,1588857677533245866,,-0.010295164307,-1.37314170942,0.62783245958
1588857677539491323,6580,1588857677539425289,,-0.0103149007935,-1.42277111193,0.638972837147
1588857677542505244,6581,1588857677542371635,,-0.0102699246174,-1.47259605525,0.650385114361
1588857677548879515,6582,1588857677548799442,,-0.010177053162,-1.52300185584,0.661933691005
1588857677551595363,6583,1588857677551507221,,-0.00990336227441,-1.51887068721,0.659881221965
1588857677554477190,6584,1588857677554297650,,-0.0100053091604,-1.51457719384,0.65752193076
1588857677557365659,6585,1588857677557303732,,-0.00998514539178,-1.56521890649,0.669190296125
1588857677563564160,6586,1588857677563495201,,-0.00988148631532,-1.6164951487,0.68073078733
1588857677566390324,6587,1588857677566312850,,-0.00972387290327,-1.61188751949,0.678624266305
1588857677572466020,6588,1588857677572388372,,-0.00952153884336,-1.6640805071,0.690781426136
1588857677575537255,6589,1588857677575455791,,-0.00937309951451,-1.71626007262,0.702720545714
1588857677578479133,6590,1588857677578409277,,-0.00906731239597,-1.71135879106,0.700468928964
1588857677581319816,6591,1588857677581248593,,-0.00917367843102,-1.76415247285,0.712119502606
1588857677587686873,6592,1588857677587627633,,-0.00893800299767,-1.80637803153,0.721772596412
1588857677590617655,6593,1588857677590502047,,-0.00895706399334,-1.81187126975,0.721643446357
1588857677596339384,6594,1588857677596172101,,-0.00887422417668,-1.86480886424,0.733631832302
1588857677599648924,6595,1588857677599558654,,-0.00880960992217,-1.85976077922,0.731196577221
1588857677602517135,6596,1588857677602448617,,-0.00887361005832,-1.91293847192,0.742951465622
1588857677605618464,6597,1588857677605477790,,-0.00885420071205,-1.907293234,0.740239549447
1588857677611610642,6598,1588857677611550031,,-0.00872892097881,-1.9611166264,0.752542626602
1588857677614595147,6599,1588857677614522307,,-0.00888041155923,-2.0027392799,0.761353204163
1588857677620415934,6600,1588857677620296840,,-0.00880984161531,-2.00874527564,0.761679280241
1588857677623418606,6601,1588857677623328155,,-0.00896182126344,-2.06328911663,0.773872455499
1588857677626328657,6602,1588857677626237795,,-0.00885898257638,-2.05739096178,0.77140409034
1588857677632396720,6603,1588857677632308983,,-0.00886890424202,-2.11126843174,0.783924673929
1588857677635323346,6604,1588857677635242227,,-0.00901194995731,-2.16641968902,0.796892952532
1588857677638202513,6605,1588857677638150382,,-0.00900731028085,-2.16016673561,0.794912442594
1588857677644769079,6606,1588857677644708777,,-0.009258281203,-2.21464645922,0.80804733295
1588857677648019842,6607,1588857677647940957,,-0.009485777077,-2.26951737663,0.821171441316
1588857677650703046,6608,1588857677650607967,,-0.00948440479485,-2.26303260917,0.819173640112
1588857677656624115,6609,1588857677656549073,,-0.00959910547063,-2.31830211792,0.832388746174
1588857677659542529,6610,1588857677659449949,,-0.00958891380342,-2.31176493877,0.830674429383
1588857677662362763,6611,1588857677662295373,,-0.00989101469944,-2.36749234524,0.844182607865
1588857677668249030,6612,1588857677668153044,,-0.00980101485319,-2.42322614536,0.858173569043
1588857677671277673,6613,1588857677671206384,,-0.00999751034656,-2.41669731793,0.85602202641
1588857677674387126,6614,1588857677674316788,,-0.0103155176108,-2.41000533119,0.853860021253
1588857677680495806,6615,1588857677680436242,,-0.0103627626733,-2.46659238284,0.868390972
1588857677683308841,6616,1588857677683258225,,-0.0103005375738,-2.52323068742,0.882891097408
1588857677686718180,6617,1588857677686647845,,-0.0106236793764,-2.51674199799,0.880852563979
1588857677692378248,6618,1588857677692310877,,-0.0105318748161,-2.5738986818,0.895476277385
1588857677695372608,6619,1588857677695276567,,-0.0103921062664,-2.63077040621,0.910160273256
1588857677698660498,6620,1588857677698578133,,-0.0103952888868,-2.62355868778,0.908591972119
1588857677705009758,6621,1588857677704931997,,-0.0104817836977,-2.68084406554,0.923061984877
1588857677707611710,6622,1588857677707496372,,-0.0104553527243,-2.67362679649,0.92135727146
1588857677710555544,6623,1588857677710478425,,-0.0104843969343,-2.73034304437,0.935960965669
1588857677716696197,6624,1588857677716588355,,-0.0105105130513,-2.78695956022,0.950571704241
1588857677719684122,6625,1588857677719572075,,-0.0104966605652,-2.77922858866,0.948974191642
1588857677722377925,6626,1588857677722225923,,-0.010468052802,-2.83564333875,0.963473119865
1588857677728739589,6627,1588857677728641419,,-0.0105580448375,-2.89251280736,0.977545627158
1588857677731792726,6628,1588857677731660226,,-0.010592533064,-2.88477242936,0.975686970982
1588857677734729658,6629,1588857677734644091,,-0.0104285623031,-2.94135833769,0.990466794702
1588857677740271079,6630,1588857677740215497,,-0.0103050064695,-2.93364476668,0.988700745058
1588857677743332343,6631,1588857677743267152,,-0.0101255523835,-2.99065234542,1.00344771766
1588857677749332736,6632,1588857677749273696,,-0.0102513721525,-3.04782686231,1.01802244776
1588857677752533724,6633,1588857677752399061,,-0.0100748017537,-3.0401123142,1.01685897491
1588857677755794934,6634,1588857677755684864,,-0.00999338912595,-3.09748049859,1.03151733831
1588857677764677667,6635,1588857677764577680,,-0.00985397738797,-3.14695223883,1.04509496894
1588857677767320355,6636,1588857677767248082,,-0.00965895025377,-3.13981269401,1.04398246172
1588857677773237435,6637,1588857677773167004,,-0.00951242259644,-3.19728104746,1.05901007144
1588857677776521955,6638,1588857677776452756,,-0.0093612056316,-3.25431042852,1.07390592027
1588857677779331235,6639,1588857677779257492,,-0.00899983010937,-3.24724244441,1.07258121738
1588857677785577624,6640,1588857677785484415,,-0.00906460373262,-3.30483894883,1.08721712165
1588857677788549855,6641,1588857677788460438,,-0.00888875029977,-3.36167407286,1.10219918298
1588857677791561110,6642,1588857677791472687,,-0.00869999877653,-3.35551342203,1.10110540382
1588857677797824574,6643,1588857677797703665,,-0.00857727731927,-3.41267141888,1.1161247378
1588857677800751830,6644,1588857677800628707,,-0.00814128627696,-3.40333974167,1.11486895905
1588857677803664791,6645,1588857677803594952,,-0.00800302671705,-3.46127387931,1.12958661039
1588857677809632453,6646,1588857677809535977,,-0.00784175415551,-3.51752951381,1.14448789263
1588857677812716975,6647,1588857677812643448,,-0.00749788086971,-3.5085309672,1.1430816108
1588857677815658059,6648,1588857677815580795,,-0.00723503935364,-3.56490842038,1.158024061
1588857677824589466,6649,1588857677824507937,,-0.00665710118012,-3.61329569161,1.17178748039
1588857677827605077,6650,1588857677827526536,,-0.00634499766584,-3.60497539704,1.17074356093
1588857677833612839,6651,1588857677833538151,,-0.00609898437492,-3.66092206352,1.18537385011
1588857677836769980,6652,1588857677836650852,,-0.00583264927003,-3.71675798944,1.19994457288
1588857677839413309,6653,1588857677839310632,,-0.00553815749477,-3.70875362022,1.19909667289
1588857677845980719,6654,1588857677845884146,,-0.00529734357789,-3.76338710877,1.2136148124
1588857677848966141,6655,1588857677848882639,,-0.00488298938649,-3.81856564482,1.22823605227
1588857677851717876,6656,1588857677851627504,,-0.00470653634123,-3.81234015206,1.22703676911
1588857677857758474,6657,1588857677857579186,,-0.00441465221777,-3.86673186079,1.24140372775
1588857677860714912,6658,1588857677860646840,,-0.00388729083257,-3.85665963893,1.24000338507
1588857677866755747,6659,1588857677866654047,,-0.00363702890425,-3.91283429001,1.25475742766
1588857677869740128,6660,1588857677869666085,,-0.0033698499363,-3.96666103937,1.26905294892
1588857677872745398,6661,1588857677872666274,,-0.00299610046928,-3.95689288103,1.2674378168
1588857677878796438,6662,1588857677878724920,,-0.00270215992976,-4.01006329265,1.2819002454
1588857677881645436,6663,1588857677881575592,,-0.00222139613582,-4.06378970651,1.29643548896
1588857677887768348,6664,1588857677887657912,,-0.00191686899706,-4.05485435598,1.29505203185
1588857677890761225,6665,1588857677890676925,,-0.00141170415541,-4.10767703533,1.30915713455
1588857677893778391,6666,1588857677893675792,,-0.000992593194395,-4.09858513599,1.30757294856
1588857677896291679,6667,1588857677896219530,,-0.000321079342634,-4.15063071943,1.32213417476
1588857677902771754,6668,1588857677902695150,,0.000225089008044,-4.2026657263,1.33591983718
1588857677905766677,6669,1588857677905693578,,0.000766034446695,-4.19287970308,1.3344721443
1588857677911786707,6670,1588857677911613819,,0.0014529818901,-4.24355249814,1.34841644288
1588857677914835446,6671,1588857677914747905,,0.00198678161184,-4.26907412296,1.35611476441
1588857677917727155,6672,1588857677917638636,,0.00263347080613,-4.2836926673,1.36095528975
1588857677920766304,6673,1588857677920653479,,0.00325149354989,-4.27307633235,1.35975081547
1588857677926767744,6674,1588857677926651580,,0.00397729240782,-4.32265817027,1.37332917961
1588857677929763960,6675,1588857677929662578,,0.00447916022848,-4.37243749339,1.38703451131
1588857677935795732,6676,1588857677935720721,,0.00522497235877,-4.42086727221,1.40091358485
1588857677938716440,6677,1588857677938641589,,0.00594551791003,-4.41071011177,1.39950993917
1588857677945279681,6678,1588857677945192132,,0.0072660823711,-4.44818252722,1.41198101678
1588857677950732864,6679,1588857677950655931,,0.00804174359882,-4.49658159335,1.42501931158
1588857677953810171,6680,1588857677953687856,,0.00842629565861,-4.48535558636,1.42369534491
1588857677959728761,6681,1588857677959627520,,0.00915792568093,-4.53247541989,1.43711109059
1588857677962451087,6682,1588857677962367154,,0.00969943953508,-4.57970819679,1.44996493394
1588857677965487807,6683,1588857677965419165,,0.01018476615,-4.56882342975,1.44841850895
1588857677968424266,6684,1588857677968349603,,0.0108416593407,-4.61534474958,1.46204550097
1588857677974556489,6685,1588857677974428269,,0.0113044571845,-4.60641766861,1.46077202595
1588857677977448699,6686,1588857677977362991,,0.011901212065,-4.65221197758,1.47374454491
1588857677983488055,6687,1588857677983343379,,0.0126874178008,-4.69593246944,1.48633505978
1588857677986804112,6688,1588857677986714774,,0.0131279578823,-4.68724661046,1.48534229127
1588857677989747793,6689,1588857677989658590,,0.0136979388897,-4.73145824614,1.49802453022
1588857677992694048,6690,1588857677992612015,,0.0143591723995,-4.71828074882,1.49627366768
1588857677998680876,6691,1588857677998592168,,0.014852666304,-4.7629672255,1.50890643877
1588857678007734354,6692,1588857678007647043,,0.0159644563208,-4.7952550462,1.51966788512
1588857678010693756,6693,1588857678010603292,,0.0166346891327,-4.83827726326,1.53252238959
1588857678013742989,6694,1588857678013652163,,0.0173152935528,-4.82710359652,1.53103519772
1588857678019739652,6695,1588857678019661090,,0.0179379332492,-4.86984715198,1.54310213192
1588857678022688751,6696,1588857678022596862,,0.0187441486585,-4.91193572667,1.55541869311
1588857678025784496,6697,1588857678025675295,,0.0193627674808,-4.90075449629,1.5537417988
1588857678031697819,6698,1588857678031525070,,0.0199117484176,-4.94528283916,1.56617339855
1588857678034801405,6699,1588857678034730768,,0.0204795079209,-4.98871315653,1.57843805746
1588857678037720204,6700,1588857678037637047,,0.0212487082414,-4.97562596067,1.57692415324
1588857678043627450,6701,1588857678043539730,,0.0218116174625,-5.01703393693,1.5888804267
1588857678046842011,6702,1588857678046738178,,0.0220449171637,-5.00883714431,1.58743116397
1588857678049784737,6703,1588857678049679486,,0.022947758374,-5.04689195704,1.59897447054
1588857678055648271,6704,1588857678055567697,,0.0233880586672,-5.084966557,1.61019732361
1588857678058647265,6705,1588857678058570348,,0.0240657048867,-5.0742110188,1.60855326527
1588857678061767355,6706,1588857678061687885,,0.0245778719673,-5.1139750477,1.61967158621
1588857678067752675,6707,1588857678067655294,,0.0253071080909,-5.10287439169,1.61859695517
1588857678070898634,6708,1588857678070818012,,0.0258452042557,-5.1413016288,1.62921194406
1588857678073987998,6709,1588857678073864721,,0.0264185770879,-5.12991697989,1.62800029945
1588857678079965911,6710,1588857678079877002,,0.0271620779723,-5.16691142425,1.63887742548
1588857678082857862,6711,1588857678082752080,,0.0279985624557,-5.2020762427,1.64988529336
1588857678085901436,6712,1588857678085790451,,0.0286225951537,-5.18975872896,1.64847499002
1588857678091866569,6713,1588857678091784819,,0.0296337252345,-5.22430941614,1.65939241162
1588857678094720961,6714,1588857678094650653,,0.0304183438038,-5.25804702226,1.67026160865
1588857678097603249,6715,1588857678097531154,,0.0311112828627,-5.2449960432,1.66903094107
1588857678103860634,6716,1588857678103783848,,0.0321566646925,-5.27703835673,1.67987894587
1588857678106746051,6717,1588857678106664535,,0.0327369190394,-5.26430458767,1.67888224617
1588857678109477577,6718,1588857678109400752,,0.0336197556595,-5.29562443922,1.6890638753
1588857678115901545,6719,1588857678115809582,,0.0343692952446,-5.32675618145,1.69954883074
1588857678118541166,6720,1588857678118453707,,0.03496205731,-5.31290438997,1.69809968408
1588857678121537253,6721,1588857678121456032,,0.035789967177,-5.34316409856,1.70814150232
1588857678127703556,6722,1588857678127582734,,0.0362363807011,-5.32946716164,1.70650962753
1588857678130452277,6723,1588857678130382925,,0.0370037346807,-5.35937961505,1.71607927355
1588857678136538293,6724,1588857678136465784,,0.0376075129053,-5.38825428187,1.72529961574
1588857678139637383,6725,1588857678139563612,,0.0384548953617,-5.37486083124,1.72370769305
1588857678142534141,6726,1588857678142456563,,0.0391477118482,-5.40314892619,1.73258970612
1588857678148772516,6727,1588857678148699319,,0.0399489330068,-5.43080661895,1.74131673072
1588857678151476798,6728,1588857678151391864,,0.0407134986194,-5.41712075099,1.73968345031
1588857678154618811,6729,1588857678154524742,,0.0413688504839,-5.40384256607,1.73832727196
1588857678157372039,6730,1588857678157302652,,0.0421160217063,-5.43117829866,1.74680259349
1588857678163736451,6731,1588857678163579583,,0.0430948097289,-5.45743392443,1.75576550552
1588857678166572558,6732,1588857678166444121,,0.0437613977351,-5.44407888537,1.75425106368
1588857678172400392,6733,1588857678172282313,,0.0446511525221,-5.46951970011,1.76273810843
1588857678175398082,6734,1588857678175309275,,0.0455329491081,-5.49398727921,1.77074908343
1588857678178407096,6735,1588857678178340738,,0.0465447659632,-5.47995617246,1.76982945177
1588857678184622964,6736,1588857678184559632,,0.0474375392177,-5.50355531527,1.77828995228
1588857678187648004,6737,1588857678187588222,,0.0482366170461,-5.49511319341,1.77845626959
1588857678190479218,6738,1588857678190425777,,0.0490499300446,-5.5122392766,1.78488938139
1588857678196461059,6739,1588857678196380283,,0.0497165037723,-5.53373828157,1.79273449422
1588857678199509812,6740,1588857678199444342,,0.0505291409563,-5.51969647078,1.79153609634
1588857678202590021,6741,1588857678202507585,,0.0513538612516,-5.54022091357,1.79899655287
1588857678208565056,6742,1588857678208458432,,0.0521878267235,-5.56007231288,1.80642115942
1588857678211581387,6743,1588857678211497847,,0.0528689768239,-5.54614183631,1.80517340409
1588857678214663982,6744,1588857678214581999,,0.0537362919144,-5.56545585644,1.81157315551
1588857678220504942,6745,1588857678220452378,,0.0544474619744,-5.55152174238,1.81044527315
1588857678226514492,6746,1588857678226423082,,0.0552835699364,-5.5699735377,1.81714632731
1588857678229461956,6747,1588857678229402594,,0.0559591592052,-5.588036318,1.82338127715
1588857678232602525,6748,1588857678232537851,,0.0569075763975,-5.57413487159,1.82240324031
1588857678235663942,6749,1588857678235591565,,0.0576640234279,-5.59141476204,1.82850416922
1588857678238464259,6750,1588857678238404382,,0.0585719045163,-5.57779310669,1.82731949416
1588857678244852517,6751,1588857678244741623,,0.059480066511,-5.59408137446,1.83336645523
1588857678247757626,6752,1588857678247641185,,0.0603198863457,-5.58056380522,1.83211091362
1588857678253870427,6753,1588857678253785982,,0.0613320620422,-5.59614166935,1.83836317366
1588857678256801286,6754,1588857678256670563,,0.0624610390142,-5.61077656712,1.84446217948
1588857678259580570,6755,1588857678259479752,,0.0632268803799,-5.59704072622,1.8431028384
1588857678265593127,6756,1588857678265531730,,0.064307623508,-5.61098640553,1.8490371123
1588857678268615912,6757,1588857678268543617,,0.0653623206306,-5.62393995678,1.85453215123
1588857678274611885,6758,1588857678274539399,,0.0662896322895,-5.60452767481,1.85202126707
1588857678277463448,6759,1588857678277391029,,0.0672765177665,-5.62136249521,1.8585625556
1588857678280464403,6760,1588857678280409606,,0.068266011805,-5.60759108571,1.85733683745
1588857678283435152,6761,1588857678283370439,,0.0692282933642,-5.61832833053,1.86222375904
1588857678289462727,6762,1588857678289389398,,0.0701793322022,-5.62834885095,1.86707551035
1588857678292899603,6763,1588857678292797957,,0.0713071450307,-5.6145248214,1.86582970424
1588857678298578104,6764,1588857678298515176,,0.0724244578042,-5.62344181605,1.87074015707
1588857678304467136,6765,1588857678304405685,,0.074647067761,-5.61810081786,1.87429843189
1588857678307560665,6766,1588857678307430778,,0.0757286945369,-5.60456637386,1.87323029973
1588857678313534909,6767,1588857678313449683,,0.0768956099351,-5.61241216652,1.87755532228
1588857678316569041,6768,1588857678316477640,,0.0779813059979,-5.61958794716,1.88160416307
1588857678322704724,6769,1588857678322632176,,0.0792186735814,-5.62587731495,1.88583180824
1588857678325787116,6770,1588857678325711345,,0.0805347573916,-5.61323645931,1.88503998715
1588857678328749327,6771,1588857678328668148,,0.0818269577648,-5.61918001209,1.88891694474
1588857678331909404,6772,1588857678331778188,,0.0828402448563,-5.60917240025,1.88823172561
1588857678337801764,6773,1588857678337733111,,0.084051848784,-5.61402049283,1.89162988238
1588857678340776823,6774,1588857678340661038,,0.0855696198723,-5.59952595325,1.89069403716
1588857678346950125,6775,1588857678346890320,,0.086400689246,-5.60736484486,1.89408308963
1588857678349779976,6776,1588857678349700460,,0.0877269114539,-5.61041102659,1.89726036865
1588857678352774898,6777,1588857678352699380,,0.0889960197057,-5.59588077735,1.89608986101
1588857678355727272,6778,1588857678355651228,,0.0901103074029,-5.59897660202,1.89867312864
1588857678361826565,6779,1588857678361756197,,0.0913466731034,-5.60059334904,1.90158361611
1588857678364852019,6780,1588857678364734748,,0.0925217368091,-5.58788229907,1.90055050593
1588857678370815303,6781,1588857678370716177,,0.0936629201634,-5.58834928417,1.90340147349
1588857678373827613,6782,1588857678373752857,,0.0949037948948,-5.57576318451,1.90255298713
1588857678376726528,6783,1588857678376647246,,0.0960046871926,-5.57485371232,1.90494354211
1588857678379888898,6784,1588857678379787794,,0.0972182558375,-5.56152592102,1.90439689352
1588857678385865231,6785,1588857678385777120,,0.098445405594,-5.55971762021,1.90636802295
1588857678388966670,6786,1588857678388835679,,0.0996308948347,-5.55625097764,1.90814946073
1588857678394918369,6787,1588857678394833815,,0.100847220214,-5.55265136898,1.90936764055
1588857678397814964,6788,1588857678397707934,,0.102037340605,-5.53912219901,1.90854610941
1588857678400805624,6789,1588857678400692392,,0.103393666479,-5.52518223507,1.90734604284
1588857678406377618,6790,1588857678406308779,,0.104569807448,-5.52065402634,1.90847154902
1588857678409780377,6791,1588857678409713989,,0.1059285304,-5.51502823732,1.9094584762
1588857678412731596,6792,1588857678412666348,,0.107259992343,-5.50177674421,1.90852978365
1588857678418607803,6793,1588857678418534960,,0.108665833932,-5.49532904552,1.90963571475
1588857678424659447,6794,1588857678424574027,,0.111502592049,-5.47554643837,1.90960673285
1588857678430725117,6795,1588857678430623208,,0.112797177692,-5.46810856522,1.91064638435
1588857678433605290,6796,1588857678433507214,,0.114145369705,-5.45569832335,1.90966085491
1588857678436424612,6797,1588857678436356132,,0.115457471446,-5.44709415251,1.91017172509
1588857678442477135,6798,1588857678442412179,,0.116717272992,-5.43785801271,1.91080155323
1588857678445733313,6799,1588857678445634487,,0.117955195494,-5.42541931606,1.91033582055
1588857678449024565,6800,1588857678448964242,,0.119221254779,-5.41545818043,1.91062145802
1588857678454754619,6801,1588857678454689095,,0.120168370861,-5.4056122666,1.91017994748
1588857678457450226,6802,1588857678457394083,,0.12153410184,-5.39461660811,1.91014188212
1588857678460448904,6803,1588857678460366449,,0.122769889068,-5.38057259534,1.9094939309
1588857678466646707,6804,1588857678466562452,,0.12380969092,-5.37117301389,1.90940408745
1588857678469409207,6805,1588857678469321062,,0.125228061351,-5.35886897203,1.90907112033
1588857678472395501,6806,1588857678472325240,,0.126391735039,-5.34548760369,1.90805112083
1588857678478515045,6807,1588857678478347611,,0.127582710829,-5.33293924276,1.90723688501
1588857678484742474,6808,1588857678484651878,,0.129800077343,-5.30903250137,1.90564085636
1588857678490679374,6809,1588857678490613624,,0.130895106537,-5.2953350643,1.90427484445
1588857678493814268,6810,1588857678493752091,,0.131847886606,-5.28482266891,1.90407132082
1588857678496721722,6811,1588857678496662068,,0.133077993567,-5.27056717822,1.90313393435
1588857678502437779,6812,1588857678502374303,,0.134291610786,-5.25543413484,1.90151140041
1588857678505743762,6813,1588857678505686346,,0.135481718476,-5.2451161859,1.90086044876
1588857678508837356,6814,1588857678508734885,,0.136816307847,-5.22945953275,1.89962983942
1588857678514496585,6815,1588857678514384013,,0.138241796186,-5.18632864643,1.89114233097
1588857678517465558,6816,1588857678517317114,,0.139488839653,-5.2022713565,1.89726384018
1588857678524000936,6817,1588857678523915280,,0.140859224335,-5.18476828806,1.89543786288
1588857678526902393,6818,1588857678526782676,,0.142027458689,-5.17424089112,1.89486858138
1588857678529883999,6819,1588857678529780464,,0.143229961034,-5.15604567195,1.89245414639
1588857678535871551,6820,1588857678535757283,,0.144366116394,-5.13684192792,1.89004779821
1588857678538835816,6821,1588857678538748553,,0.145469332922,-5.12628788489,1.88950874504
1588857678548444439,6822,1588857678548316046,,0.147280892592,-5.08485374289,1.88333229265
1588857678550721857,6823,1588857678550638100,,0.148495980913,-5.07385509422,1.88277210004
1588857678553729575,6824,1588857678553666915,,0.149421684856,-5.06269007336,1.88201081799
1588857678559827452,6825,1588857678559752437,,0.15038650848,-5.04045441513,1.87872402099
1588857678562669239,6826,1588857678562590599,,0.151323251165,-5.01746249444,1.87510722988
1588857678565745858,6827,1588857678565645156,,0.152231112582,-5.00691683226,1.87436169406
1588857678571688940,6828,1588857678571619502,,0.153054282778,-4.9856374638,1.87118564818
1588857678574792492,6829,1588857678574716555,,0.153811430029,-4.96328745373,1.86723867095
1588857678577760421,6830,1588857678577665170,,0.154875749791,-4.95207327636,1.86700539534
1588857678583750707,6831,1588857678583640126,,0.155768110636,-4.92793997736,1.86337457236
1588857678586759644,6832,1588857678586656511,,0.15646650236,-4.92060491127,1.86302496779
1588857678589717003,6833,1588857678589617586,,0.157371600231,-4.89506950476,1.85892092297
1588857678595744408,6834,1588857678595638525,,0.158419648633,-4.86897762489,1.85461366467
1588857678598675774,6835,1588857678598594304,,0.159271430052,-4.86056505764,1.8545023511
1588857678601842905,6836,1588857678601757737,,0.159902823543,-4.83619771764,1.84973750448
1588857678607800805,6837,1588857678607729149,,0.16077362911,-4.78802598916,1.83917356887
1588857678610724762,6838,1588857678610648399,,0.161506908751,-4.80334620283,1.84465566365
1588857678613801439,6839,1588857678613692005,,0.162259666111,-4.79537376993,1.84412474628
1588857678619911261,6840,1588857678619829488,,0.162993827701,-4.76894048494,1.83912664302
1588857678622788350,6841,1588857678622713700,,0.16381558078,-4.74148882063,1.83407028566
1588857678629054150,6842,1588857678628927610,,0.164717513033,-4.71333168141,1.82860042223
1588857678631896701,6843,1588857678631811431,,0.165520909176,-4.70431936395,1.82835602296
1588857678634977499,6844,1588857678634898243,,0.166218262236,-4.65303606736,1.81701398984
1588857678640402061,6845,1588857678640349981,,0.16723305359,-4.66558836674,1.82263383218
1588857678643715739,6846,1588857678643609291,,0.168044179105,-4.63532648937,1.8169951298
1588857678646984426,6847,1588857678646882598,,0.168812848405,-4.6252450147,1.8169393037
1588857678652475081,6848,1588857678652405203,,0.169651071853,-4.59461526737,1.81140362389
1588857678655538181,6849,1588857678655459940,,0.170476930269,-4.56223979341,1.80541739825
1588857678658442815,6850,1588857678658352506,,0.1711853289,-4.55222466261,1.80579051936
1588857678665023010,6851,1588857678664865479,,0.172247529272,-4.51925801833,1.80030527893
1588857678668153260,6852,1588857678668047134,,0.172935300632,-4.46568389595,1.78892733511
1588857678670717794,6853,1588857678670646966,,0.173831892074,-4.47609688102,1.79417182614
1588857678676754576,6854,1588857678676690383,,0.174476734057,-4.44227008349,1.78772463424
1588857678679858716,6855,1588857678679772970,,0.175223165666,-4.43297788956,1.78764150867
1588857678685840876,6856,1588857678685779764,,0.175934916287,-4.39893397863,1.78127254333
1588857678688759528,6857,1588857678688687385,,0.176488631378,-4.36409853805,1.77458230383
1588857678691816216,6858,1588857678691696580,,0.176969702049,-4.35551406109,1.77398129744
1588857678694791397,6859,1588857678694718292,,0.177781549612,-4.3211639259,1.76741417429
1588857678700702144,6860,1588857678700625098,,0.178219737451,-4.31271269522,1.76709517501
1588857678703971623,6861,1588857678703907221,,0.178869517816,-4.27824641421,1.75992166672
1588857678709748495,6862,1588857678709650352,,0.179557810037,-4.24296693925,1.75268243215
1588857678712737221,6863,1588857678712662223,,0.180105966296,-4.2355968634,1.75217176524
1588857678715653095,6864,1588857678715589121,,0.18071207292,-4.2001293134,1.74506968839
1588857678718670354,6865,1588857678718593060,,0.181355039395,-4.19266374132,1.74483764431
1588857678724611864,6866,1588857678724550883,,0.182005592092,-4.1567308453,1.73770268085
1588857678727689621,6867,1588857678727611972,,0.182531003996,-4.14921498203,1.73722680682
1588857678733652916,6868,1588857678733590231,,0.183121422522,-4.11298075639,1.72988840383
1588857678736632618,6869,1588857678736563796,,0.183948589996,-4.07570761803,1.72274406291
1588857678739624784,6870,1588857678739549642,,0.184493677384,-4.06783396655,1.72249008618
1588857678742655790,6871,1588857678742579569,,0.185219493837,-4.03058014927,1.71509451427
1588857678748969029,6872,1588857678748886768,,0.185907851313,-3.99256574099,1.70736339049
1588857678751699320,6873,1588857678751633930,,0.186624243083,-3.9847226115,1.70736751616
1588857678757639549,6874,1588857678757538402,,0.187475459862,-3.94653446144,1.70006903032
1588857678760666484,6875,1588857678760527907,,0.187816244951,-3.93896369893,1.70013791842
1588857678763700102,6876,1588857678763625607,,0.188679430751,-3.90011267334,1.69260597547
1588857678766751846,6877,1588857678766645258,,0.189274203713,-3.89346720256,1.69228734863
1588857678772754866,6878,1588857678772675511,,0.189974929484,-3.8550393563,1.68458227984
1588857678775689103,6879,1588857678775613246,,0.190424862804,-3.81558627048,1.67655698223
1588857678784636531,6880,1588857678784562334,,0.191709599041,-3.77006633073,1.66915056133
1588857678787710837,6881,1588857678787604836,,0.192095395704,-3.76434900187,1.66902222768
1588857678793609142,6882,1588857678793535849,,0.192687775807,-3.72538888351,1.66145851542
1588857678796623833,6883,1588857678796514945,,0.193179422094,-3.68619370944,1.65342242187
1588857678799708485,6884,1588857678799636875,,0.193730205184,-3.68064727483,1.65350359919
1588857678805682960,6885,1588857678805603602,,0.194272023365,-3.64136069838,1.64545263826
1588857678808564296,6886,1588857678808488562,,0.194798753386,-3.60234922671,1.63749110004
1588857678811557364,6887,1588857678811483836,,0.195187804551,-3.59787725671,1.6377386035
1588857678817592156,6888,1588857678817519882,,0.195789859458,-3.55857623583,1.62961891833
1588857678820614447,6889,1588857678820534951,,0.19620483981,-3.55321962695,1.63006695123
1588857678823571054,6890,1588857678823462973,,0.196612871468,-3.51442340188,1.62167234258
1588857678829543986,6891,1588857678829484362,,0.19700314049,-3.47454003771,1.61343008205
1588857678832489467,6892,1588857678832431805,,0.197551553905,-3.46963073772,1.61381450158
1588857678835735295,6893,1588857678835673313,,0.197925688719,-3.42987119655,1.60540676378
1588857678841606075,6894,1588857678841527639,,0.198305610339,-3.39011448945,1.59687732514
1588857678844985105,6895,1588857678844905142,,0.198760481059,-3.38570831217,1.59718437483
1588857678853802574,6896,1588857678853678260,,0.199654080772,-3.34218319855,1.58930473965
1588857678856785993,6897,1588857678856666057,,0.200031047468,-3.30226470987,1.58059323884
1588857678859780009,6898,1588857678859699090,,0.200341428914,-3.29826993198,1.5811430895
1588857678865569664,6899,1588857678865489225,,0.20080701449,-3.25836004542,1.57273956521
1588857678868557932,6900,1588857678868469788,,0.201199059834,-3.21869028914,1.56417007123
1588857678871642210,6901,1588857678871520847,,0.201500990697,-3.2154689864,1.56456752312
1588857678877613887,6902,1588857678877538868,,0.201788604507,-3.17581890354,1.55592961749
1588857678880615165,6903,1588857678880540021,,0.202053240488,-3.17295720271,1.55630886899
1588857678883595952,6904,1588857678883506385,,0.202457933159,-3.13354090201,1.5478239928
1588857678889523951,6905,1588857678889460059,,0.202604042838,-3.09454168785,1.53942221647
1588857678892547053,6906,1588857678892485557,,0.202848959428,-3.09219831102,1.54001248049
1588857678895558699,6907,1588857678895487401,,0.203111919995,-3.05277439924,1.53132029508
1588857678901873627,6908,1588857678901796838,,0.203435243046,-3.01342566465,1.52247128324
1588857678904660204,6909,1588857678904595542,,0.203626100748,-3.01117682792,1.52260412987
1588857678910617610,6910,1588857678910493561,,0.20386618502,-2.97244790167,1.51382153966
1588857678913733318,6911,1588857678913661051,,0.204071215153,-2.97061837057,1.51431802756
1588857678916566050,6912,1588857678916508525,,0.204317082022,-2.93215757715,1.50575337329
1588857678922789753,6913,1588857678922707580,,0.204441296592,-2.89376733255,1.49708240397
1588857678925686887,6914,1588857678925593668,,0.204496469738,-2.89207207484,1.4976541378
1588857678928578831,6915,1588857678928472888,,0.204607286572,-2.85368759313,1.48891140243
1588857678934650300,6916,1588857678934585594,,0.204836400621,-2.85212466083,1.48959259591
1588857678937677187,6917,1588857678937601823,,0.204954034111,-2.81403405888,1.48091594509
1588857678940576845,6918,1588857678940499590,,0.205123579796,-2.8125215315,1.48138728125
1588857678947144449,6919,1588857678947078270,,0.205258836192,-2.77469019902,1.47284910323
1588857678949945722,6920,1588857678949878304,,0.205347580139,-2.73686808593,1.46425012561
1588857678952973908,6921,1588857678952865255,,0.205479034995,-2.73558693742,1.46485898656
1588857678958822974,6922,1588857678958690238,,0.205632871313,-2.69818836386,1.45653564293
1588857678964602949,6923,1588857678964506229,,0.205963192924,-2.65957398947,1.44869101701
1588857678970917762,6924,1588857678970825655,,0.206060275474,-2.62296105922,1.44028287182
1588857678973900491,6925,1588857678973831792,,0.20628006318,-2.62181893413,1.44074670073
1588857678976640749,6926,1588857678976575800,,0.206409323411,-2.58547107597,1.43232121291
1588857678982979941,6927,1588857678982883787,,0.206510190353,-2.54955086324,1.42411957204
1588857678985853573,6928,1588857678985771565,,0.206629915917,-2.54865825028,1.42465152495
1588857678988901448,6929,1588857678988821068,,0.206738377911,-2.51295358118,1.41666320069
1588857678994997213,6930,1588857678994906988,,0.206796654943,-2.47775212063,1.40872776291
1588857678997889029,6931,1588857678997805969,,0.20683544237,-2.47688075563,1.40921601405
1588857679000810860,6932,1588857679000747852,,0.206972323732,-2.47614313388,1.40972631645
1588857679006841590,6933,1588857679006761977,,0.207023325298,-2.44152491923,1.40167784736
1588857679009872803,6934,1588857679009771304,,0.207158993652,-2.40741699464,1.39360853102
1588857679012933042,6935,1588857679012802559,,0.207292487319,-2.40695086663,1.39404265621
1588857679018877683,6936,1588857679018779295,,0.207417445269,-2.37332511524,1.3860603987
1588857679021897718,6937,1588857679021767372,,0.207645077545,-2.34034422174,1.37835797124
1588857679027916184,6938,1588857679027735964,,0.207712798216,-2.34007364821,1.37874540704
1588857679030666608,6939,1588857679030603445,,0.207864145708,-2.30772960727,1.37121160911
1588857679033641235,6940,1588857679033558534,,0.207989374151,-2.3074277748,1.3716498396
1588857679039649683,6941,1588857679039581312,,0.208135559848,-2.2756043733,1.3642290761
1588857679042607243,6942,1588857679042554398,,0.208328761854,-2.24436454277,1.35695576519
1588857679048778232,6943,1588857679048697526,,0.208530836887,-2.21358667058,1.34991197622
1588857679051476108,6944,1588857679051390217,,0.208873857759,-2.21349441358,1.35072597244
1588857679054630266,6945,1588857679054577873,,0.20908110538,-2.18032351854,1.34318820601
1588857679057492720,6946,1588857679057445407,,0.209517770329,-2.18329538754,1.34493967994
1588857679060720539,6947,1588857679060668445,,0.209881145853,-2.18340401206,1.34589247527
1588857679066746956,6948,1588857679066650914,,0.210276014258,-2.15392539795,1.33944098687
1588857679072636257,6949,1588857679072574892,,0.210742328206,-2.12523383397,1.3333857602
1588857679075566677,6950,1588857679075477273,,0.211091899012,-2.0972438288,1.32749301099
1588857679078522960,6951,1588857679078468359,,0.211398877802,-2.09714009453,1.32835341356
1588857679087611611,6952,1588857679087537396,,0.211813518294,-2.07018059131,1.32322729927
1588857679090458956,6953,1588857679090402385,,0.212191548062,-2.04393620156,1.31765384543
1588857679096520096,6954,1588857679096464313,,0.212204393956,-2.01857636113,1.31176465854
1588857679099489118,6955,1588857679099414836,,0.212438724351,-2.01863718569,1.31256724945
1588857679102478489,6956,1588857679102415139,,0.212632042541,-1.9941359877,1.30704212198
1588857679105504292,6957,1588857679105460081,,0.212792537118,-1.99442952294,1.30758330236
1588857679111476157,6958,1588857679111426910,,0.212967730982,-1.97087180638,1.30227504255
1588857679114638385,6959,1588857679114481961,,0.21301890658,-1.97107636654,1.30274558469
1588857679120573920,6960,1588857679120449120,,0.213246602008,-1.94869705099,1.29780639241
1588857679123608569,6961,1588857679123524404,,0.213395753501,-1.92719154293,1.29301870474
1588857679126600857,6962,1588857679126541430,,0.213423048806,-1.92758845393,1.29348231947
1588857679129650351,6963,1588857679129549658,,0.213581619636,-1.9070590938,1.28909450995
1588857679135611606,6964,1588857679135525755,,0.213747961113,-1.88786943109,1.28493852974
1588857679138406164,6965,1588857679138361098,,0.213869476575,-1.88799864521,1.28572021747
1588857679144999840,6966,1588857679144921723,,0.213971435653,-1.86983238803,1.28169264401
1588857679148120083,6967,1588857679148057080,,0.214151570713,-1.85260325734,1.2780358217
1588857679150809967,6968,1588857679150739273,,0.214134429587,-1.85293865378,1.27856341414
1588857679153964451,6969,1588857679153870070,,0.21420381408,-1.85331426438,1.27916517024
1588857679159821511,6970,1588857679159762011,,0.214203025807,-1.83746585976,1.27558389603
1588857679162872341,6971,1588857679162777421,,0.214197678949,-1.82292531682,1.27235039252
1588857679168537845,6972,1588857679168438327,,0.214237857692,-1.80977000829,1.26947603194
1588857679171648139,6973,1588857679171550002,,0.214264356932,-1.81048826207,1.27005189186
1588857679174615830,6974,1588857679174429484,,0.214258149528,-1.81123553289,1.27044875953
1588857679180738373,6975,1588857679180655449,,0.214226507234,-1.79915298324,1.26787563859
1588857679183669018,6976,1588857679183570741,,0.214366586149,-1.78863241557,1.26567375303
1588857679186717173,6977,1588857679186647587,,0.214366259644,-1.78930186082,1.26618190948
1588857679192743898,6978,1588857679192636602,,0.214372238375,-1.78000353142,1.26419669708
1588857679195874438,6979,1588857679195786202,,0.214351152447,-1.77212940493,1.26254686499
1588857679198861440,6980,1588857679198777361,,0.214464427975,-1.77240917894,1.2631553746
1588857679204491263,6981,1588857679204413641,,0.214477100126,-1.76587833839,1.26171151644
1588857679207554327,6982,1588857679207386884,,0.214456661597,-1.76635223044,1.26210396756
1588857679210645614,6983,1588857679210564772,,0.214531102967,-1.76089683028,1.26105772666
1588857679217327951,6984,1588857679217245692,,0.214610817557,-1.75704531718,1.26049305116
1588857679220072341,6985,1588857679219927099,,0.214630733112,-1.7571095303,1.26073691935
1588857679223031665,6986,1588857679222909074,,0.214727351083,-1.75474866298,1.2605396064
1588857679229067202,6987,1588857679228991717,,0.214716826273,-1.7537683039,1.26066834849
1588857679231943533,6988,1588857679231844599,,0.214707677856,-1.75358812039,1.26088393884
1588857679235015229,6989,1588857679234916981,,0.2148130058,-1.75355561026,1.26124258489
1588857679240922774,6990,1588857679240799680,,0.214793978473,-1.75351218165,1.26154124998
1588857679243944609,6991,1588857679243847024,,0.214818089445,-1.75227558972,1.26205745886
1588857679247209421,6992,1588857679247044301,,0.214862530512,-1.75221088318,1.26239943316
1588857679252963096,6993,1588857679252866371,,0.214847180178,-1.74944571656,1.26335146167
1588857679256105681,6994,1588857679255988839,,0.214883632308,-1.74502959812,1.26475687022
1588857679259049032,6995,1588857679258950741,,0.21492886017,-1.74461945912,1.26509921879
1588857679264826550,6996,1588857679264751185,,0.214945314247,-1.73856169293,1.26690485152
1588857679267933521,6997,1588857679267726584,,0.215116455369,-1.738205691,1.26728241442
1588857679270874843,6998,1588857679270682338,,0.215311301203,-1.73036107136,1.26944744987
1588857679276838568,6999,1588857679276719173,,0.215418021702,-1.72112725081,1.27196541799
1588857679279958565,7000,1588857679279793112,,0.215578310042,-1.72049102539,1.27225276717
1588857679282987914,7001,1588857679282814048,,0.21580034738,-1.70973078337,1.27525785752
1588857679288929839,7002,1588857679288830929,,0.215944097715,-1.69686012839,1.27847410214
1588857679291955355,7003,1588857679291872691,,0.216013944256,-1.69597462673,1.27871750648
1588857679297807959,7004,1588857679297742103,,0.21628988157,-1.68152281907,1.28230123068
1588857679300827895,7005,1588857679300752573,,0.216506819221,-1.68023972229,1.28243797839
1588857679303793499,7006,1588857679303690635,,0.21680024401,-1.66362895921,1.28621657635
1588857679309792743,7007,1588857679309680546,,0.217022364041,-1.64540507832,1.29018595165
1588857679312695067,7008,1588857679312618866,,0.217213312513,-1.64361347795,1.29017271595
1588857679315575220,7009,1588857679315516068,,0.217429201643,-1.62433248347,1.29449283441
1588857679324539041,7010,1588857679324450280,,0.217826692552,-1.60182581451,1.29944865931
1588857679327574135,7011,1588857679327503846,,0.217960798922,-1.59983763522,1.29933150012
1588857679333774501,7012,1588857679333727135,,0.21816227435,-1.57730300128,1.30455297809
1588857679336887573,7013,1588857679336794738,,0.218286392264,-1.55362548657,1.30987987524
1588857679339933709,7014,1588857679339844972,,0.218515574519,-1.55160124348,1.30971003266
1588857679346352179,7015,1588857679346259748,,0.218645415577,-1.52639884775,1.31549656412
1588857679349219244,7016,1588857679349161051,,0.218740659605,-1.5000978694,1.32159082696
1588857679351785603,7017,1588857679351718194,,0.218858814739,-1.49835294193,1.32142404129
1588857679357835932,7018,1588857679357743127,,0.218767225314,-1.47076816635,1.32768433704
1588857679361076896,7019,1588857679360887705,,0.218746154541,-1.46914977241,1.32755367209
1588857679363561101,7020,1588857679363483552,,0.218713882669,-1.44086910547,1.33422856025
1588857679369504381,7021,1588857679369420627,,0.218586250516,-1.41136874116,1.34100636074
1588857679372539148,7022,1588857679372459702,,0.218531355344,-1.41015402056,1.34087155142
1588857679375813185,7023,1588857679375744515,,0.218486583066,-1.37973736583,1.34819618465
1588857679384500896,7024,1588857679384427681,,0.218294600961,-1.34710766666,1.35541312649
1588857679387800218,7025,1588857679387727696,,0.218186820507,-1.34632011275,1.35514457835
1588857679393796697,7026,1588857679393716936,,0.218058012589,-1.31384394771,1.36295606099
1588857679396774540,7027,1588857679396711322,,0.217960004624,-1.28038566089,1.37102327959
1588857679402765229,7028,1588857679402698575,,0.217817578458,-1.24600474088,1.37947686487
1588857679405570423,7029,1588857679405493777,,0.217772077232,-1.24563181768,1.37940201799
1588857679411697260,7030,1588857679411568433,,0.217548357855,-1.21010855107,1.38793541139
1588857679417530008,7031,1588857679417462251,,0.217388901982,-1.17339738473,1.39672569325
1588857679420520691,7032,1588857679420459040,,0.217268470871,-1.17336871898,1.39666453135
1588857679426482039,7033,1588857679426414226,,0.217196683705,-1.13565027825,1.4058746879
1588857679429631083,7034,1588857679429545719,,0.217038435036,-1.09719340161,1.41516345687
1588857679436061611,7035,1588857679435882089,,0.216914374009,-1.05773770597,1.42490483318
1588857679438967476,7036,1588857679438900533,,0.216766218743,-1.05774257829,1.42468950661
1588857679442065369,7037,1588857679441980683,,0.216622686345,-1.01722471263,1.43457002933
1588857679444908732,7038,1588857679444804524,,0.21642539878,-1.01723423042,1.43429234032
1588857679450803945,7039,1588857679450722255,,0.216314317411,-0.975844889261,1.44432250798
1588857679453994547,7040,1588857679453906215,,0.216135668329,-0.975852631972,1.44404870016
1588857679459963415,7041,1588857679459854540,,0.215907050261,-0.933736211001,1.45434185813
1588857679463046080,7042,1588857679462945376,,0.215809545606,-0.890253779516,1.46491792327
1588857679465951663,7043,1588857679465871203,,0.215636811311,-0.890379325834,1.46465592619
1588857679468506224,7044,1588857679468422163,,0.2154026663,-0.846268627125,1.47531413013
1588857679475143054,7045,1588857679474865889,,0.215315225716,-0.846501941306,1.4750965859
1588857679477941709,7046,1588857679477859672,,0.215109915634,-0.8012213127,1.48599603249
1588857679484019991,7047,1588857679483923104,,0.215005311732,-0.755406026704,1.49717966502
1588857679486837625,7048,1588857679486742101,,0.21497319233,-0.755668674783,1.49689232813
1588857679489991787,7049,1588857679489913054,,0.214841292388,-0.709081907211,1.50815908482
1588857679492976517,7050,1588857679492886445,,0.214802599369,-0.709487043352,1.50776391167
1588857679498921249,7051,1588857679498843732,,0.214675113815,-0.661919923644,1.51915948213
1588857679507880821,7052,1588857679507775759,,0.214600242469,-0.614719031437,1.52923136485
1588857679510507421,7053,1588857679510440056,,0.214677789446,-0.566190296489,1.54040330915
1588857679513584174,7054,1588857679513498274,,0.214701236911,-0.56698951462,1.53935281791
1588857679516539226,7055,1588857679516468877,,0.214778423842,-0.517800065115,1.55073481813
1588857679522901496,7056,1588857679522815026,,0.21478916373,-0.467697324149,1.56224240151
1588857679525928354,7057,1588857679525837098,,0.214947987477,-0.468732499512,1.56124479963
1588857679532093748,7058,1588857679531987183,,0.215112860067,-0.418313162875,1.57301386504
1588857679537897221,7059,1588857679537784569,,0.215334587278,-0.368473411264,1.58395437245
1588857679543957066,7060,1588857679543828967,,0.215565414703,-0.316989427172,1.59624199079
1588857679547027416,7061,1588857679546899248,,0.215845193639,-0.318560961427,1.5954824886
1588857679550111452,7062,1588857679549996323,,0.216075679393,-0.266369249674,1.60781047889
1588857679555963491,7063,1588857679555845446,,0.216513320892,-0.213619134153,1.6207295807
1588857679558810009,7064,1588857679558688512,,0.216816155792,-0.215350132751,1.61958568209
1588857679562043105,7065,1588857679561956573,,0.217125288791,-0.161860548856,1.63244373804
1588857679568046212,7066,1588857679567969970,,0.217402728124,-0.117310583346,1.64317688722
1588857679570901227,7067,1588857679570818051,,0.217692279636,-0.109291481668,1.64471672769
1588857679573869535,7068,1588857679573779848,,0.218108504366,-0.111090913297,1.64355940606
1588857679580031722,7069,1588857679579936770,,0.218412099644,-0.0565145611967,1.65653417034
1588857679583012064,7070,1588857679582868190,,0.218838434767,-0.00167597229495,1.66989318693
1588857679585814188,7071,1588857679585721695,,0.219277919876,-0.00343959282921,1.6690631467
1588857679591885881,7072,1588857679591811237,,0.219813217113,0.052019886311,1.68228782067
1588857679597901806,7073,1588857679597824909,,0.220678637977,0.106266715247,1.69531930673
1588857679604073840,7074,1588857679603951822,,0.221355686226,0.162315416291,1.70912355191
1588857679606861842,7075,1588857679606787257,,0.221914019326,0.160210074595,1.70825899001
1588857679609805670,7076,1588857679609728248,,0.222428075975,0.217235576032,1.72238756084
1588857679615924803,7077,1588857679615834644,,0.222992642056,0.274209856405,1.73638958735
1588857679618914113,7078,1588857679618803885,,0.223591152393,0.271863822839,1.73528976685
1588857679622176270,7079,1588857679622097454,,0.224124984894,0.329342646865,1.7492506482
1588857679628051393,7080,1588857679627956786,,0.224634838665,0.374934205764,1.76072313293
1588857679631015902,7081,1588857679630903545,,0.225231120457,0.38456911293,1.76254412934
1588857679634016545,7082,1588857679633902202,,0.225942346864,0.382115352886,1.76171605445
1588857679639975342,7083,1588857679639900694,,0.22644744124,0.440629695554,1.77618230128
1588857679642992140,7084,1588857679642886150,,0.227116079107,0.499509202568,1.79041925178
1588857679646333554,7085,1588857679646209811,,0.227743722209,0.497096753041,1.78920732893
1588857679652052907,7086,1588857679651922988,,0.228492044895,0.556446250736,1.8035603853
1588857679657922708,7087,1588857679657854375,,0.230050319502,0.613902365857,1.81730989688
1588857679663970817,7088,1588857679663856221,,0.230795154016,0.674012617502,1.83174803997
1588857679666942846,7089,1588857679666820959,,0.231491358724,0.672361681406,1.83093454062
1588857679669918878,7090,1588857679669829721,,0.232139910166,0.732850389898,1.84508050312
1588857679675948929,7091,1588857679675862979,,0.232773874608,0.793748573336,1.85954937205
1588857679678892060,7092,1588857679678810431,,0.23344814228,0.792035932342,1.8584763141
1588857679685091583,7093,1588857679684975807,,0.234139748845,0.852928119671,1.87249654328
1588857679687890101,7094,1588857679687762254,,0.234804656834,0.899103039683,1.88350513594
1588857679691018128,7095,1588857679690908368,,0.235508493402,0.912429513559,1.88626353606
1588857679696775827,7096,1588857679696709141,,0.236225632885,0.973711071393,1.90012970155
1588857679700052971,7097,1588857679699945257,,0.236858452661,0.971841243858,1.89835970135
1588857679703069064,7098,1588857679702993751,,0.237573105132,1.03357711615,1.91281142932
1588857679709300066,7099,1588857679709222832,,0.238344081965,1.09538592149,1.92698090488
1588857679712047994,7100,1588857679711961663,,0.23917167003,1.09348530263,1.92535874577
1588857679715686227,7101,1588857679715566601,,0.23991371536,1.13905676667,1.9357046476
1588857679721222271,7102,1588857679721005503,,0.240783740349,1.1533124805,1.93814558484
1588857679724048831,7103,1588857679723974743,,0.241539030144,1.21577940493,1.95256316177
1588857679727130523,7104,1588857679727031474,,0.242371417509,1.21385229726,1.95114748552
1588857679733071449,7105,1588857679732973364,,0.243255032249,1.27603915069,1.96542329855
1588857679735997035,7106,1588857679735912560,,0.24412310435,1.33873766086,1.97996689875
1588857679738886786,7107,1588857679738823046,,0.244960719235,1.33687302964,1.97801527813
1588857679744983807,7108,1588857679744913323,,0.245889673337,1.39977201716,1.99259094066
1588857679748613060,7109,1588857679748385253,,0.246822322161,1.39817761996,1.99083882888
1588857679753845491,7110,1588857679753787757,,0.247734906837,1.46139491723,2.00514928147
1588857679756874424,7111,1588857679756814188,,0.248557508098,1.52464854047,2.01921748876
1588857679760081351,7112,1588857679759969429,,0.249442817373,1.52287861024,2.01747511853
1588857679763127709,7113,1588857679762968637,,0.250189351056,1.58598884913,2.03198172211
1588857679769091561,7114,1588857679768980299,,0.250827319417,1.64915596728,2.04629232276
1588857679772035199,7115,1588857679771905478,,0.25154360681,1.64742936689,2.04452864469
1588857679781375937,7116,1588857679781161124,,0.252922851735,1.70939971381,2.05753292938
1588857679784114366,7117,1588857679783994606,,0.253672189656,1.7727437644,2.07219695009
1588857679787074962,7118,1588857679786968321,,0.254477488092,1.7711239713,2.07035535823
1588857679793029718,7119,1588857679792878296,,0.255316245385,1.83482729482,2.08517091248
1588857679796010938,7120,1588857679795890453,,0.256107369297,1.89794248024,2.09938080778
1588857679805042559,7121,1588857679804920832,,0.257652439366,1.95982034071,2.11251820791
1588857679808221984,7122,1588857679808101408,,0.258407232089,1.95843492798,2.11079792135
1588857679813841952,7123,1588857679813763389,,0.259180647551,2.02164880266,2.12526224252
1588857679816873547,7124,1588857679816771407,,0.259873169524,2.08507230655,2.1397949722
1588857679822872993,7125,1588857679822787902,,0.260444399689,2.14833318246,2.15439125198
1588857679825930107,7126,1588857679825805634,,0.261190399882,2.14722215687,2.15244085796
1588857679828866239,7127,1588857679828780200,,0.261917984824,2.21008279481,2.16672538789
1588857679831854477,7128,1588857679831773815,,0.262444393298,2.20912607326,2.16528186998
1588857679837916524,7129,1588857679837841463,,0.263238660186,2.27171875646,2.17961046189
1588857679840952060,7130,1588857679840856047,,0.264024090398,2.27043456835,2.17815268001
1588857679847098740,7131,1588857679847002821,,0.264583491687,2.33334896909,2.19247497841
1588857679850167757,7132,1588857679850073022,,0.265321904715,2.39604626311,2.20712351521
1588857679852858352,7133,1588857679852782157,,0.266018324403,2.39467008855,2.20537548874
1588857679855994115,7134,1588857679855893973,,0.266795953453,2.45679536858,2.21960018877
1588857679865044890,7135,1588857679864952684,,0.268520881556,2.51755642279,2.23230614766
1588857679871189495,7136,1588857679871110220,,0.269423615338,2.57891816577,2.24635546814
1588857679873942859,7137,1588857679873777248,,0.270319605409,2.57750576814,2.24466265902
1588857679876886594,7138,1588857679876757012,,0.271292061081,2.63882962685,2.25863372039
1588857679879846699,7139,1588857679879775301,,0.272141695128,2.6372037422,2.2565597253
1588857679886062610,7140,1588857679885984364,,0.273050621886,2.69798993395,2.27004850981
1588857679888845404,7141,1588857679888771537,,0.273817649266,2.75848834604,2.28349427984
1588857679897840260,7142,1588857679897764990,,0.27558223187,2.81682527506,2.29485530986
1588857679900737410,7143,1588857679900572480,,0.276685529777,2.81448725808,2.29278080002
1588857679903744587,7144,1588857679903666201,,0.277542629326,2.87429206769,2.30638800191
1588857679909703677,7145,1588857679909573765,,0.278581126841,2.93368994932,2.31906997004
1588857679913196306,7146,1588857679913060588,,0.279533184983,2.93156549678,2.3169925152
1588857679918686370,7147,1588857679918612441,,0.280586752137,2.99026081902,2.33005158176
1588857679924760100,7148,1588857679924653494,,0.282346150101,3.04675759989,2.34148014588
1588857679927723036,7149,1588857679927641463,,0.283122020374,3.04448993156,2.33906307033
1588857679933852513,7150,1588857679933773197,,0.28399050694,3.10242842073,2.35211709809
1588857679936792597,7151,1588857679936643678,,0.284687069164,3.16068183759,2.36545357503
1588857679942707765,7152,1588857679942632742,,0.285477560247,3.21785635839,2.37821526328
1588857679946207572,7153,1588857679946133127,,0.286439445832,3.21530313952,2.37604395428
1588857679949186273,7154,1588857679949112069,,0.287313254584,3.27190751048,2.38879212319
1588857679954916923,7155,1588857679954670649,,0.288044207706,3.26987057766,2.38694404382
1588857679957753145,7156,1588857679957596730,,0.288945156252,3.32623234783,2.39956351963
1588857679960944831,7157,1588857679960872161,,0.289772142373,3.32349178985,2.39708613772
1588857679966898851,7158,1588857679966788448,,0.290485512656,3.37976422429,2.40989079665
1588857679970102043,7159,1588857679969990479,,0.291386988502,3.43477086245,2.42241257611
1588857679973093467,7160,1588857679973017256,,0.292216482275,3.43191253084,2.41971432657
1588857679978878828,7161,1588857679978800170,,0.293135713293,3.48668814166,2.43187995003
1588857679984893247,7162,1588857679984743068,,0.294969482605,3.53743558251,2.44156060422
1588857679990971227,7163,1588857679990890771,,0.295943675541,3.59075983899,2.45345957598
1588857679993859437,7164,1588857679993773008,,0.296933409468,3.5873980499,2.45116565589
1588857679996891333,7165,1588857679996788809,,0.297893798577,3.64009285101,2.46286221102
1588857680003071816,7166,1588857680002973777,,0.298900464361,3.69222338763,2.47405075767
1588857680006091223,7167,1588857680005997848,,0.299964261142,3.6885938329,2.47173372255
1588857680009315860,7168,1588857680009182998,,0.30107920289,3.73971351048,2.48299421269
1588857680017686171,7169,1588857680017538807,,0.303231648472,3.78666920903,2.49143418534
1588857680020874482,7170,1588857680020780471,,0.304341674467,3.78220335876,2.48909744682
1588857680026862438,7171,1588857680026721768,,0.305451160925,3.83214399306,2.49998050928
