%time,field.header.seq,field.header.stamp,field.header.frame_id,field.wrench.force.x,field.wrench.force.y,field.wrench.force.z,field.wrench.torque.x,field.wrench.torque.y,field.wrench.torque.z
1588857677257199631,6512,1588857677257116922,,0.0,0.0,0.0,0.0,0.0,0.0
1588857677260135343,6513,1588857677260050491,,-0.0153010721311,-0.0842506319187,0.0144773851888,0.0,0.0,0.0
1588857677263290816,6514,1588857677263186936,,-0.0153012187406,-0.0842506704654,0.014477005911,0.0,0.0,0.0
1588857677269253425,6515,1588857677269171958,,-0.000449431751301,-0.0835584172467,0.014617347439,0.0,0.0,0.0
1588857677272250904,6516,1588857677272109812,,-0.000449545831682,-0.0835584429152,0.0146171971996,0.0,0.0,0.0
1588857677275105623,6517,1588857677274998895,,-0.000449731350249,-0.0835583821109,0.0146175390733,0.0,0.0,0.0
1588857677281111855,6518,1588857677280983895,,-0.000449440032645,-0.0835584297883,0.0146172754915,0.0,0.0,0.0
1588857677284116009,6519,1588857677284005316,,0.0,0.0,0.0,0.0,0.0,0.0
1588857677287368702,6520,1588857677287229226,,-0.000448962911793,-0.0835584479104,0.0146171865604,0.0,0.0,0.0
1588857677293290174,6521,1588857677293162074,,-0.000448634310409,-0.0835583635001,0.0146176791687,0.0,0.0,0.0
1588857677296305281,6522,1588857677296236729,,-0.000730794465601,-0.0856332404314,0.029998959371,0.0,0.0,0.0
1588857677299231346,6523,1588857677299133110,,-0.0159329404461,-0.0862384983765,0.0299489868883,0.0,0.0,0.0
1588857677305267475,6524,1588857677305184540,,-0.000997054440544,1.3009292979e-06,0.00189939104035,0.0,0.0,0.0
1588857677308238858,6525,1588857677308125516,,-0.0007309205773,-0.0856331952514,0.0299990852662,0.0,0.0,0.0
1588857677311275385,6526,1588857677311162879,,-0.000449278208923,-0.0835583335777,0.0146178304355,0.0,0.0,0.0
1588857677317247589,6527,1588857677317163110,,-0.000731479049513,-0.0856330761061,0.0299994117554,0.0,0.0,0.0
1588857677320067626,6528,1588857677320010773,,-0.000731485610804,-0.0856332329778,0.0299989638027,0.0,0.0,0.0
1588857677323164968,6529,1588857677323019876,,-0.000731542892302,-0.0856331661049,0.0299991532965,0.0,0.0,0.0
1588857677329240447,6530,1588857677329082244,,0.0,0.0,0.0,0.0,0.0,0.0
1588857677332223118,6531,1588857677332138768,,0.0,0.0,0.0,0.0,0.0,0.0
1588857677335024217,6532,1588857677334938298,,0.0,0.0,0.0,0.0,0.0,0.0
1588857677344765245,6533,1588857677344702335,,0.0,0.0,0.0,0.0,0.0,0.0
1588857677347618658,6534,1588857677347549359,,0.0,0.0,0.0,0.0,0.0,0.0
1588857677353296684,6535,1588857677353220803,,-0.000449503921987,-0.0835582593242,0.0146182479376,0.0,0.0,0.0
1588857677356318960,6536,1588857677356209009,,-0.000449590972869,-0.0835581951857,0.0146186118731,0.0,0.0,0.0
1588857677362288567,6537,1588857677362197509,,0.0,0.0,0.0,0.0,0.0,0.0
1588857677365245676,6538,1588857677365145956,,0.0,0.0,0.0,0.0,0.0,0.0
1588857677368231359,6539,1588857677368084581,,0.0,0.0,0.0,0.0,0.0,0.0
1588857677374334772,6540,1588857677374241649,,0.0,0.0,0.0,0.0,0.0,0.0
1588857677377301129,6541,1588857677377212283,,0.0,0.0,0.0,0.0,0.0,0.0
1588857677380245607,6542,1588857677380167026,,-0.000448824838266,-0.0835582536291,0.0146183013568,0.0,0.0,0.0
1588857677386274848,6543,1588857677386186427,,-0.000449030162238,-0.0835581814249,0.0146187077646,0.0,0.0,0.0
1588857677389188515,6544,1588857677389109712,,-0.0153005808994,-0.0842505895036,0.0144781511738,0.0,0.0,0.0
1588857677392134285,6545,1588857677392065005,,-0.0152999368752,-0.0842507554711,0.0144778659734,0.0,0.0,0.0
1588857677398205351,6546,1588857677398079340,,-0.0152991919502,-0.0842509043762,0.0144777866551,0.0,0.0,0.0
1588857677401331277,6547,1588857677401248275,,-0.000447058765625,-0.0835581812615,0.014618769119,0.0,0.0,0.0
1588857677404152860,6548,1588857677404074764,,-0.000445977079232,-0.083558156966,0.0146189410258,0.0,0.0,0.0
1588857677410313092,6549,1588857677410222218,,0.0,0.0,0.0,0.0,0.0,0.0
1588857677413079206,6550,1588857677413024130,,-0.0159290862021,-0.0862387926226,0.0299501897973,0.0,0.0,0.0
1588857677416020058,6551,1588857677415964263,,-0.015927997849,-0.0862389956869,0.0299501839154,0.0,0.0,0.0
1588857677422079748,6552,1588857677422014392,,0.0,0.0,0.0,0.0,0.0,0.0
1588857677425102343,6553,1588857677424988555,,-0.000724491733931,-0.0856326604401,0.0300007677958,0.0,0.0,0.0
1588857677428035113,6554,1588857677427983220,,-0.000441779703436,-0.0835581298988,0.0146192231782,0.0,0.0,0.0
1588857677434223830,6555,1588857677434124254,,-0.000440767440647,-0.0835581293783,0.0146192567082,0.0,0.0,0.0
1588857677437255805,6556,1588857677437182001,,-0.000439836958846,-0.0835580948966,0.0146194818149,0.0,0.0,0.0
1588857677440264446,6557,1588857677440189302,,-0.000439244324522,-0.0835581143775,0.0146193882885,0.0,0.0,0.0
1588857677446382549,6558,1588857677446278601,,-0.000172944212318,-0.0827998110897,-3.70648780152e-05,0.0,0.0,0.0
1588857677449240793,6559,1588857677449183342,,-0.000720297279788,-0.085632613058,0.0300010040392,0.0,0.0,0.0
1588857677452229141,6560,1588857677452161410,,-0.000720225887839,-0.0856326422349,0.0300009224725,0.0,0.0,0.0
1588857677458240999,6561,1588857677458131120,,0.0,0.0,0.0,0.0,0.0,0.0
1588857677464152769,6562,1588857677464075275,,-0.000997051046605,1.24138059659e-06,0.00189939286179,0.0,0.0,0.0
1588857677470240394,6563,1588857677470141906,,-0.000997070058444,1.23548541612e-06,0.0018993828856,0.0,0.0,0.0
1588857677473241185,6564,1588857677473093677,,-0.015295056894,-0.0842518871002,0.0144764368421,0.0,0.0,0.0
1588857677479238572,6565,1588857677479132171,,0.0,0.0,0.0,0.0,0.0,0.0
1588857677482223379,6566,1588857677482109317,,0.0,0.0,0.0,0.0,0.0,0.0
1588857677485207350,6567,1588857677485107372,,0.0,0.0,0.0,0.0,0.0,0.0
1588857677491191203,6568,1588857677491079134,,0.0,0.0,0.0,0.0,0.0,0.0
1588857677494190537,6569,1588857677494010914,,-0.00072890515945,-0.0856328013513,0.0300002586766,0.0,0.0,0.0
1588857677500157996,6570,1588857677500060444,,-0.000728578087687,-0.0856331158186,0.0299993689906,0.0,0.0,0.0
1588857677503090833,6571,1588857677503022487,,-0.000447308185008,-0.0835582155074,0.0146185657449,0.0,0.0,0.0
1588857677506141295,6572,1588857677506055145,,-0.000448068834261,-0.0835582760179,0.0146181965738,0.0,0.0,0.0
1588857677509203561,6573,1588857677509100353,,-0.00044799560156,-0.0835583878075,0.0146175598096,0.0,0.0,0.0
1588857677515230644,6574,1588857677515155714,,0.0,0.0,0.0,0.0,0.0,0.0
1588857677518133488,6575,1588857677518068356,,0.0,0.0,0.0,0.0,0.0,0.0
1588857677524150103,6576,1588857677524060913,,0.0,0.0,0.0,0.0,0.0,0.0
1588857677527106344,6577,1588857677527020071,,0.0,0.0,0.0,0.0,0.0,0.0
1588857677530196775,6578,1588857677530054701,,0.0,0.0,0.0,0.0,0.0,0.0
1588857677533107142,6579,1588857677533030354,,0.0,0.0,0.0,0.0,0.0,0.0
1588857677539250559,6580,1588857677539145734,,-0.000448631565935,-0.0835583916453,0.0146175183669,0.0,0.0,0.0
1588857677542226970,6581,1588857677542120511,,-0.000448271494685,-0.0835584481233,0.0146172065637,0.0,0.0,0.0
1588857677548586961,6582,1588857677548481255,,-0.000448721538963,-0.0835584460612,0.0146172045428,0.0,0.0,0.0
1588857677551349093,6583,1588857677551246168,,-0.0167375156447,-0.0890684625811,0.0465559565993,0.0039712137383,0.00140049539085,-0.000520006898116
1588857677554134138,6584,1588857677554067633,,-0.0167375458547,-0.0890688196679,0.0465552625718,0.00397121383698,0.00140050160647,-0.00051998940409
1588857677557135425,6585,1588857677557053050,,-0.0167376768918,-0.0890695997813,0.046553722928,0.00375870315791,0.00113807299448,-0.000233195097956
1588857677563323492,6586,1588857677563238856,,-0.0167389902097,-0.0890698248386,0.0465528201228,0.00566367193889,0.00175469873849,-0.000639728590295
1588857677566187524,6587,1588857677566079175,,-0.0176388392763,-0.0923008475403,0.0644985710739,0.0107259398671,0.00209953986041,-0.000845221653601
1588857677572214977,6588,1588857677572128712,,-0.0176399425757,-0.092300826533,0.0644982994,0.012521421489,0.00224780477586,-0.000887371728697
1588857677575242446,6589,1588857677575151251,,-0.0203491971363,-0.101454308875,0.124259390993,0.0193374894313,0.00308757291496,-0.00035662261646
1588857677578151133,6590,1588857677578079828,,-0.0203501502264,-0.101454296016,0.124259245407,0.0193375087757,0.003087458368,-0.000356565388286
1588857677581114563,6591,1588857677581039079,,-0.0211876193077,-0.103985369603,0.145666454505,0.0219441166733,0.00321139450931,-0.000973225222375
1588857677587292309,6592,1588857677587219792,,-0.0219802138248,-0.106222991129,0.167411851318,0.0263551206836,0.00337718521421,-0.000967378484858
1588857677590266516,6593,1588857677590186248,,-0.0458087644709,-0.354394009209,0.18575131562,0.0327049424817,0.00355194022403,0.000365058641492
1588857677596154981,6594,1588857677595999546,,-0.0458101918073,-0.354394090697,0.185750808144,0.0327049660901,0.00355173616282,0.000364929000432
1588857677599290072,6595,1588857677599205848,,-0.0477439215263,-0.485570153382,0.212099460092,0.0407625800341,0.00370632035643,0.0012389416893
1588857677602202975,6596,1588857677602137985,,-0.0477408293903,-0.485569340016,0.212102018177,0.0407625847394,0.00370640887816,0.00123852198899
1588857677605233152,6597,1588857677605145061,,-0.0272061907737,-0.487077016709,0.255914297543,0.0450572466594,0.00376821829499,0.000692851881553
1588857677611276331,6598,1588857677611178699,,-0.0272135849877,-0.487077631453,0.255912341319,0.0478189393153,0.00380212567473,-1.99739689208e-05
1588857677614277351,6599,1588857677614153639,,-0.0277349424637,-0.360976005735,0.316209452635,0.0556162766535,0.00331315693398,-0.000682644567637
1588857677620169282,6600,1588857677620096691,,-0.0286652761088,-0.363123199651,0.360618147083,0.065397450586,0.00395143335924,-0.000545664693571
1588857677623213837,6601,1588857677623129989,,-0.0286630398834,-0.363122719395,0.360618808423,0.0653974830934,0.0039507428948,-0.000546767164732
1588857677626163592,6602,1588857677626050440,,-0.0286654436138,-0.363124024234,0.360617303455,0.0672642272312,0.00396198918092,-0.00213105693487
1588857677632170090,6603,1588857677632086646,,-0.0291245669813,-0.364153717319,0.382914404893,0.071670521185,0.00398412056919,-0.00127120264486
1588857677635113052,6604,1588857677635044056,,-0.0295896428267,-0.365149891388,0.405396207202,0.0761288674939,0.00400389634035,-0.00202305967016
1588857677638060031,6605,1588857677638000582,,-0.0295919172229,-0.365150800884,0.405395221983,0.077052881542,0.00341488371634,-0.00282552186699
1588857677644585247,6606,1588857677644510776,,-0.029586806899,-0.365148041163,0.405398080717,0.0788620335861,0.00342096624953,-0.00198688904292
1588857677647650894,6607,1588857677647555789,,-0.00894631134316,-0.493829940569,0.433187503937,0.0815456154877,0.00282486555402,-0.00510793955892
1588857677650423558,6608,1588857677650336232,,-0.00894902201176,-0.493835668803,0.433180917723,0.0843104827922,0.00343781089455,-0.00590457929601
1588857677656262906,6609,1588857677656168389,,-0.00934539477367,-0.494656930615,0.455576267323,0.0859976641472,0.00344244656399,-0.00588999586584
1588857677659200037,6610,1588857677659110203,,-0.00975278724949,-0.495467474452,0.47802475162,0.0876982746927,0.00344704021806,-0.00670025962157
1588857677662196489,6611,1588857677662125851,,0.0120649707919,-0.495528095459,0.478442933212,0.0914128738674,0.00406017751558,-0.0082038176879
1588857677668041593,6612,1588857677667984102,,0.0120575433042,-0.49553199387,0.478439082799,0.0914129791178,0.00405978792731,-0.00820283765583
1588857677671116862,6613,1588857677671033102,,0.0116891613932,-0.496323513423,0.501043519254,0.0967935387233,0.00346489729335,-0.00983049662818
1588857677674158149,6614,1588857677674082596,,0.0115053184754,-0.625413405332,0.505078076296,0.097716080628,0.00407509067918,-0.00982423249984
1588857677680330405,6615,1588857677680244991,,0.0114959015726,-0.625409930867,0.505082592946,0.102311039869,0.00347223889747,-0.0106267763627
1588857677683175392,6616,1588857677683093058,,0.0114922866393,-0.625409547197,0.505083150282,0.102311179254,0.00347290146143,-0.0106252177875
1588857677686434121,6617,1588857677686283982,,0.011103562596,-0.626080012399,0.527579164165,0.104038710113,0.00347499539981,-0.012303171131
1588857677692182948,6618,1588857677692128677,,0.0110818960292,-0.626071477247,0.527589748239,0.106807143573,0.00285329792877,-0.0131258475713
1588857677695173135,6619,1588857677695093208,,0.0110681542037,-0.626070471211,0.527591230527,0.106807421358,0.0028527336155,-0.0131237096729
1588857677698416423,6620,1588857677698273451,,0.0325411613136,-0.887618803785,0.556858945231,0.10851561758,0.00285270888544,-0.0138196434032
1588857677704535248,6621,1588857677704427683,,0.0108314924614,-0.75616401357,0.531041832283,0.108664100277,0.00347583988317,-0.0139527420027
1588857677707208137,6622,1588857677707124268,,0.0106579297828,-0.626712422873,0.550152255164,0.110373566012,0.00285267144388,-0.0147965172032
1588857677710245389,6623,1588857677710173748,,0.00978966695347,-0.888005057433,0.579017474807,0.111114773467,0.00285203757332,-0.0139349877365
1588857677716351510,6624,1588857677716212657,,0.00979168222594,-0.888007136883,0.579014251588,0.111114869841,0.00285295874599,-0.013934030674
1588857677719301566,6625,1588857677719225924,,0.0321321281057,-0.888089972027,0.579432915407,0.112102222607,0.00347951912223,-0.0163407118688
1588857677722146688,6626,1588857677722053602,,0.0321235145022,-0.888090662241,0.579432335121,0.112102382274,0.00347910238339,-0.0163397052068
1588857677728382579,6627,1588857677728275286,,0.0313499291012,-0.889073340329,0.624697240284,0.119210165361,0.00348195509957,-0.0188621410581
1588857677731349246,6628,1588857677731248203,,0.0313611547236,-0.889065596454,0.624707697835,0.119210064552,0.00348294607591,-0.0188625952159
1588857677734405484,6629,1588857677734253899,,0.0538252988115,-0.889167921043,0.625135998099,0.121031748357,0.0034834102625,-0.0187184836618
1588857677740132261,6630,1588857677740060220,,0.0538406353006,-0.889162205501,0.625142806902,0.122004393705,0.00348604602486,-0.020420172162
1588857677743188176,6631,1588857677743095740,,0.0534747642266,-0.889650661681,0.647764290895,0.124652785594,0.0034879117296,-0.0221266047382
1588857677749167987,6632,1588857677749104199,,0.0758924889301,-1.02079518909,0.650703459588,0.128323322852,0.00285727754642,-0.0228318262169
1588857677752213639,6633,1588857677752127780,,0.0759171950589,-1.02079946961,0.650693862434,0.12832258395,0.00285793665835,-0.0228358962507
1588857677755379022,6634,1588857677755275432,,0.0755466236687,-1.02122293102,0.673345352649,0.130081680845,0.00285793694932,-0.0254117698698
1588857677764323747,6635,1588857677764190239,,0.0751866864453,-1.02165974015,0.696096934647,0.131768622354,0.00285835164877,-0.0254063840548
1588857677767134551,6636,1588857677767043037,,0.0755239003707,-1.15262416276,0.675503527373,0.131913583682,0.00222559593076,-0.0254058684263
1588857677773074083,6637,1588857677773003620,,0.0755646066342,-1.02122803769,0.673335589721,0.131942184287,0.00222631028065,-0.0262644574992
1588857677776351972,6638,1588857677776289013,,0.0747636847923,-1.15337263215,0.720981676535,0.136213030567,0.00285645817042,-0.0262473269847
1588857677779170629,6639,1588857677779087708,,0.0747342179939,-1.15337240174,0.720985100126,0.13806604688,0.00285234235828,-0.0270996785315
1588857677785312267,6640,1588857677785221910,,0.0747421200535,-1.15337508098,0.72097999494,0.138065844001,0.00285277052534,-0.0271006670639
1588857677788278918,6641,1588857677788163174,,0.0517878314067,-1.15366332608,0.743255437964,0.140641942138,0.00221504834112,-0.0263651820675
1588857677791268168,6642,1588857677791183328,,0.0517693313918,-1.15365735032,0.743266002092,0.140641897698,0.00221225736233,-0.0263656534546
1588857677797422589,6643,1588857677797329108,,0.0744226417728,-1.02251013481,0.74149830277,0.144426711785,0.00221150695839,-0.0305354941329
1588857677800340599,6644,1588857677800253284,,0.0744488833231,-1.02251451245,0.741489631755,0.14627939572,0.00221428161325,-0.0313918823392
1588857677803326271,6645,1588857677803260937,,0.0744504853614,-1.02251062894,0.741494826236,0.146279185551,0.00221359936008,-0.0313929097824
1588857677809334490,6646,1588857677809260098,,0.0740249603361,-1.15413643473,0.766407642255,0.148896475372,0.00158509292956,-0.0322568938115
1588857677812363537,6647,1588857677812297457,,0.0963643356115,-1.15463723204,0.789657732355,0.151570956716,0.00158770692943,-0.0347101367446
1588857677815315906,6648,1588857677815188446,,0.0963740369854,-1.15464933208,0.789638855417,0.151571041709,0.00158985955354,-0.0347096670634
1588857677824259505,6649,1588857677824176194,,0.118969995977,-1.15477371684,0.790064123217,0.154451871782,0.00158931787024,-0.038910266206
1588857677827315748,6650,1588857677827193495,,0.118976385497,-1.15477897952,0.79005546894,0.154452168995,0.00159135148681,-0.0389090032987
1588857677833358863,6651,1588857677833241457,,0.118624624431,-1.15516073777,0.812807351026,0.157099693703,0.00159038297329,-0.0406503216566
1588857677836376140,6652,1588857677836241110,,0.118626752706,-1.15515746041,0.812811698174,0.159836899108,0.000944929823506,-0.040642088477
1588857677839209246,6653,1588857677839131979,,0.118615475641,-1.1551591223,0.812810982087,0.160742168223,0.000301606122951,-0.0406376247904
1588857677845691658,6654,1588857677845544718,,0.118631712765,-1.15516792914,0.812796096015,0.162624554779,0.000942887901058,-0.0423744048276
1588857677848623122,6655,1588857677848553178,,0.140960416256,-1.15566908292,0.836019881095,0.164331507324,0.000939192902224,-0.0431027342825
1588857677851322633,6656,1588857677851251224,,0.162827463505,-1.15653455931,0.882190945802,0.16865878207,0.00092431122462,-0.0447039868752
1588857677857282252,6657,1588857677857199648,,0.162838283373,-1.15653106095,0.882193534958,0.168658727656,0.000925648672503,-0.0447041644929
1588857677860368874,6658,1588857677860294324,,0.162946222428,-1.28785258849,0.884092824411,0.174184867074,0.000921594321487,-0.0464302027981
1588857677866365023,6659,1588857677866278040,,0.162916486402,-1.28783097783,0.884129783614,0.17418517272,0.000917019048957,-0.0464291467311
1588857677869379665,6660,1588857677869273444,,0.140237670305,-1.28772909576,0.88365697862,0.175103381815,-0.000363109626878,-0.0465762076651
1588857677872345636,6661,1588857677872267082,,0.139882614864,-1.28808249603,0.906450425347,0.176807299085,0.000916440989402,-0.0474440732474
1588857677878418133,6662,1588857677878329795,,0.139903957455,-1.2880759779,0.906456393862,0.176807644786,0.000920150071664,-0.0474427131311
1588857677881321224,6663,1588857677881247556,,0.162199766856,-1.28851888369,0.929753088374,0.182215690751,0.000263989167341,-0.0499049955386
1588857677887371099,6664,1588857677887286242,,0.162203994969,-1.28852742018,0.929740520146,0.182215817294,0.000265426923522,-0.0499045258697
1588857677890397197,6665,1588857677890304321,,0.162210669185,-1.28853901777,0.929723282402,0.185011843129,0.000261945018464,-0.0516573815585
1588857677893412821,6666,1588857677893310055,,0.161499057119,-1.42067614433,0.9772466841,0.186574653479,0.000258433339688,-0.0525303507289
1588857677896165989,6667,1588857677896054762,,0.161492097959,-1.42066073899,0.977270229305,0.186575551924,0.000258950663723,-0.0525271570271
1588857677902394165,6668,1588857677902315787,,0.161460377151,-1.42066049176,0.977275829988,0.190304812936,-0.000389086939904,-0.0551565964202
1588857677905397129,6669,1588857677905317071,,0.161437287881,-1.42065376309,0.977289425713,0.190304759913,-0.000392823232253,-0.0551567528803
1588857677911323388,6670,1588857677911230745,,0.183806093448,-1.42108154978,1.00058992285,0.192038769425,-0.000396976290595,-0.05676763178
1588857677914415295,6671,1588857677914249146,,0.183750269939,-1.28965808374,0.998857836829,0.192943261858,-0.00103978962849,-0.0567649948759
1588857677917408064,6672,1588857677917267006,,0.161032420003,-1.28954419426,0.998397050497,0.192976790418,-0.00103962113135,-0.0577953277904
1588857677920403428,6673,1588857677920281578,,0.160649698372,-1.28988752415,1.02126227766,0.195538353924,-0.000408321961758,-0.0569014085952
1588857677926390916,6674,1588857677926273346,,0.182990030949,-1.29034807186,1.04469109442,0.200042529741,-0.000418042943602,-0.0593802523072
1588857677929455159,6675,1588857677929306020,,0.18299751707,-1.29034545426,1.04469301622,0.200042301251,-0.000417629614387,-0.0593810249562
1588857677935387067,6676,1588857677935274955,,0.205881859816,-1.42183938715,1.04686772337,0.201000821336,-0.000417560981318,-0.0609998725071
1588857677938337392,6677,1588857677938256644,,0.182613059005,-1.42204325624,1.06928899814,0.204455229147,0.000208051659437,-0.0593575055379
1588857677944925341,6678,1588857677944840933,,0.182612600709,-1.42205434112,1.06927433452,0.206332537618,-0.000433833411312,-0.0611211565474
1588857677950362551,6679,1588857677950266618,,0.182583875835,-1.42205298433,1.06928104423,0.206332296478,-0.000438905870948,-0.0611219343674
1588857677953372592,6680,1588857677953251370,,0.181830291865,-1.55419743952,1.11666056571,0.211510453852,-0.000447815871237,-0.0610920570919
1588857677959340304,6681,1588857677959250707,,0.181815065053,-1.5542075178,1.11664901773,0.211510703637,-0.00044877563285,-0.0610911852482
1588857677962213790,6682,1588857677962132984,,0.181808418722,-1.55419972447,1.11666094693,0.21330453967,-0.00109754040494,-0.0601901665671
1588857677965261921,6683,1588857677965181396,,0.181807361102,-1.55418253315,1.11668504608,0.214248636968,-0.00110021417589,-0.0610771915587
1588857677968215382,6684,1588857677968105942,,0.181794743426,-1.55417582747,1.11669643306,0.214222317306,-0.00110026379435,-0.0601808468842
1588857677974374049,6685,1588857677974163802,,0.20504376223,-1.55397233719,1.09429068227,0.214449580899,-0.00110722558515,-0.0627031375665
1588857677977227521,6686,1588857677977127782,,0.18137630771,-1.55440155705,1.13979445096,0.217759339936,-0.00111721057492,-0.061051844683
1588857677983252145,6687,1588857677983121443,,0.204715913308,-1.55422526722,1.11722755908,0.217946189952,-0.00110913744182,-0.0626800644007
1588857677986445324,6688,1588857677986344744,,0.204304449591,-1.55448001019,1.1402832173,0.219632557193,-0.00111945201308,-0.0626686684835
1588857677989385734,6689,1588857677989276110,,0.204350082521,-1.55446278286,1.14029852509,0.219633076052,-0.00111232494101,-0.0626669769383
1588857677992405605,6690,1588857677992252256,,0.204046107951,-1.55476785492,1.16317385482,0.222276210963,-0.00110730220782,-0.0644310173853
1588857677998330785,6691,1588857677998240400,,0.204050500015,-1.55474738887,1.16320044002,0.222276279487,-0.00110760090115,-0.0644307758559
1588857678007416633,6692,1588857678007307004,,0.180447476606,-1.55520905403,1.20859727391,0.227484450865,-0.00176364189452,-0.0654247015144
1588857678010362619,6693,1588857678010254394,,0.180480293217,-1.55521050401,1.208590508,0.227484725715,-0.00175790095739,-0.0654239003523
1588857678013471546,6694,1588857678013312252,,0.226220125514,-1.55540955329,1.2095082443,0.228447472853,-0.00110908640868,-0.0669075747814
1588857678019403782,6695,1588857678019305213,,0.203393449956,-1.55529451943,1.20906601195,0.232150572788,-0.00177098125654,-0.0688090326717
1588857678022327468,6696,1588857678022239222,,0.203364813308,-1.55530582551,1.20905628518,0.232151305051,-0.00177276052717,-0.0688065162665
1588857678025402965,6697,1588857678025312423,,0.226189572884,-1.55541398364,1.20950826095,0.232172292271,-0.00177641454683,-0.0695549816795
1588857678031293817,6698,1588857678031194402,,0.225767675715,-1.55568082186,1.23257509386,0.232940993353,-0.00178861915464,-0.0695520115204
1588857678034462175,6699,1588857678034344851,,0.225334639493,-1.55594890505,1.25554819404,0.235584117722,-0.00180405643368,-0.0713172216127
1588857678037427416,6700,1588857678037310889,,0.22538532574,-1.5559758799,1.25550566646,0.235582557619,-0.00244878002622,-0.0713186366583
1588857678043270385,6701,1588857678043184747,,0.225377522993,-1.55597010089,1.25551422918,0.235582875151,-0.00244945200861,-0.0713175646871
1588857678046546206,6702,1588857678046436602,,0.248283629186,-1.55606129111,1.25600332044,0.236523393082,-0.00115339230773,-0.0720624182618
1588857678049384760,6703,1588857678049298623,,0.247987884751,-1.55637988727,1.27889406533,0.238222999092,-0.0011422936902,-0.0729378984975
1588857678055297092,6704,1588857678055205096,,0.248040641686,-1.55641935434,1.27883580195,0.238222966122,-0.00113168901769,-0.0729381714891
1588857678058365154,6705,1588857678058280133,,0.225088568418,-1.687885455,1.27981973639,0.238172133869,-0.00178729459702,-0.0713055204132
1588857678061469074,6706,1588857678061371711,,0.202223645231,-1.68779172347,1.27936400205,0.238149200025,-0.00178947033434,-0.0705635671598
1588857678067366525,6707,1588857678067247897,,0.225099052722,-1.68791953007,1.27977295133,0.238144453021,-0.00178709006773,-0.0704122667752
1588857678070449088,6708,1588857678070350597,,0.225121302801,-1.68791033138,1.27978116985,0.239112344477,-0.00179045254007,-0.0721962320066
1588857678073491511,6709,1588857678073383667,,0.225102125168,-1.68790367949,1.2797933163,0.239112586066,-0.00179300887808,-0.0721953684203
1588857678079469627,6710,1588857678079376638,,0.202212710107,-1.68780870861,1.27934332268,0.240939023191,-0.00245467411283,-0.0723257931719
1588857678082393154,6711,1588857678082285968,,0.202202662851,-1.6878260778,1.27932199563,0.240938829469,-0.00245565630183,-0.0723264051742
1588857678085427528,6712,1588857678085322282,,0.202173118482,-1.68782727958,1.27932507938,0.240938274816,-0.00246132505353,-0.072328060162
1588857678091416308,6713,1588857678091316765,,0.202145546438,-1.68783937455,1.27931347919,0.240938260147,-0.00246469795213,-0.0723279941682
1588857678094417576,6714,1588857678094211685,,0.201732887684,-1.68810600819,1.30237304731,0.241708333452,-0.00246962808138,-0.0723206355228
1588857678097314357,6715,1588857678097224352,,0.20165483372,-1.8198426584,1.30370343503,0.242572494371,-0.00247352424459,-0.0705406326809
1588857678103484044,6716,1588857678103330597,,0.224535745357,-1.81995071208,1.30413370091,0.242595756541,-0.0024705531887,-0.0712808619362
1588857678106368611,6717,1588857678106269962,,0.224542200267,-1.8199425221,1.30414401879,0.24259537043,-0.00247108408441,-0.0712821576015
1588857678109234300,6718,1588857678109161322,,0.224562587278,-1.81994217248,1.30414099638,0.242595558751,-0.00246784648838,-0.0712816288449
1588857678115579621,6719,1588857678115429813,,0.224109467133,-1.95205131073,1.32832943188,0.244348002415,-0.00246770801306,-0.0739304647351
1588857678118260768,6720,1588857678118182658,,0.224142041989,-1.95203987738,1.32834073743,0.244347666784,-0.00246492953543,-0.0739316667117
1588857678121291917,6721,1588857678121209053,,0.223762272181,-1.95228737055,1.3512851795,0.246031348078,-0.00246584871654,-0.0739176520965
1588857678127339167,6722,1588857678127216474,,0.223791485693,-1.95228444839,1.35128456349,0.246030768046,-0.00246360213053,-0.0739196575863
1588857678130198934,6723,1588857678130139049,,0.246434551315,-1.95262417343,1.37468380917,0.247804986635,-0.0018119050816,-0.0773349129955
1588857678136316415,6724,1588857678136225681,,0.246828511342,-1.95239261238,1.35170809434,0.247981622097,-0.00181101303723,-0.0782234876011
1588857678139300192,6725,1588857678139229533,,0.246450649352,-1.95260905159,1.37470240236,0.252419038449,-0.00247762965159,-0.0790935577069
1588857678142235507,6726,1588857678142161615,,0.246449202384,-1.95259898515,1.37471695989,0.252419195667,-0.00247803707703,-0.0790930431971
1588857678148562619,6727,1588857678148445002,,0.246027072596,-1.95284342558,1.39778408009,0.254131921917,-0.00248483891782,-0.0799688549664
1588857678151228081,6728,1588857678151150553,,0.268570292439,-1.95315651919,1.42123531113,0.256793942438,-0.00313885657473,-0.0824889752945
1588857678154295485,6729,1588857678154182108,,0.268463352798,-2.08507969784,1.42237661392,0.25681956641,-0.00314459911883,-0.0833806221036
1588857678157201801,6730,1588857678157108548,,0.26881954659,-2.08484724159,1.39942052118,0.256960052553,-0.00314979334769,-0.0833797136515
1588857678163484246,6731,1588857678163398808,,0.268387186657,-2.08507558947,1.42239701006,0.25867169592,-0.00250944226879,-0.0842528354904
1588857678166293308,6732,1588857678166209571,,0.268396001431,-2.08504921899,1.42243400227,0.259613274987,-0.00315785775974,-0.0851368111254
1588857678172196095,6733,1588857678172097611,,0.268385539474,-2.08503565445,1.42245585936,0.260546582557,-0.00316147220483,-0.0860298972705
1588857678175202110,6734,1588857678175124417,,0.291009333406,-2.08531296952,1.4459539099,0.262278234063,-0.00317090202379,-0.087657040988
1588857678178210618,6735,1588857678178149048,,0.291355687307,-2.08507256932,1.42300927067,0.262419447077,-0.00382995255499,-0.087650536742
1588857678184280259,6736,1588857678184202566,,0.26788908886,-2.08519572158,1.44554699942,0.263191303654,-0.00383178971906,-0.0877796860596
1588857678187379777,6737,1588857678187264987,,0.290937240175,-2.08527460353,1.44602374555,0.264156817127,-0.0038338814838,-0.0894137117185
1588857678190304552,6738,1588857678190187998,,0.290529283648,-2.08549152751,1.46901902635,0.265856590806,-0.00383907863313,-0.0903003830319
1588857678196323175,6739,1588857678196136286,,0.313504943495,-2.08558491666,1.46947368296,0.266770105782,-0.00318201839076,-0.0901396998222
1588857678199275811,6740,1588857678199201682,,0.290548633178,-2.08547607733,1.46903713309,0.266799994626,-0.00383810911463,-0.0911834868966
1588857678202277130,6741,1588857678202213516,,0.290570743343,-2.08549706653,1.46900296269,0.266826293374,-0.00383367504336,-0.0920755135255
1588857678208279271,6742,1588857678208201471,,0.290199712386,-2.08572436766,1.49208112052,0.2685276549,-0.00449080953464,-0.0929644051932
1588857678211288988,6743,1588857678211214826,,0.312783263393,-2.08603175251,1.51553986633,0.270285119407,-0.00449261029582,-0.0954842471607
1588857678214358023,6744,1588857678214239618,,0.312787440484,-2.08604415029,1.51552193944,0.272106200232,-0.00449933048321,-0.0954753967419
1588857678220286462,6745,1588857678220190989,,0.312798486484,-2.08607424284,1.51547823772,0.273075917337,-0.00449668220734,-0.0972624301105
1588857678226244674,6746,1588857678226171341,,0.335898194317,-2.08617740412,1.51592027428,0.276821324103,-0.0045017070449,-0.100680705586
1588857678229224488,6747,1588857678229143301,,0.335927408244,-2.08617733182,1.51591390026,0.276819325131,-0.00450183449307,-0.100686195887
1588857678232348287,6748,1588857678232289756,,0.335561252093,-2.08640277758,1.53890339686,0.278502922092,-0.00449980415415,-0.100669706897
1588857678235328836,6749,1588857678235249637,,0.335583223264,-2.08641071605,1.53888784298,0.278502184424,-0.00449779385849,-0.100671837468
1588857678238245845,6750,1588857678238141546,,0.335554849417,-2.21834339582,1.53997811071,0.279433585377,-0.00514703089783,-0.101559013564
1588857678244699421,6751,1588857678244587551,,0.335199992928,-2.2185481696,1.56298138155,0.28114109525,-0.00514835214196,-0.102442258199
1588857678247563504,6752,1588857678247492007,,0.358585884185,-2.21844051323,1.54041901344,0.282245846036,-0.00514862995628,-0.104079082104
1588857678253448728,6753,1588857678253360407,,0.358600655222,-2.21842857327,1.54043277017,0.282245967551,-0.0051472236263,-0.104078822135
1588857678256356056,6754,1588857678256272847,,0.357837951572,-2.21885655338,1.58652760342,0.283806055299,-0.00515087446808,-0.1049742242
1588857678259335153,6755,1588857678259251872,,0.357838293106,-2.2188596087,1.58652325332,0.283806147843,-0.00515043933228,-0.104973995351
1588857678265413632,6756,1588857678265253804,,0.357829021653,-2.21885924525,1.58652585277,0.284738998706,-0.0051528298288,-0.105860222694
1588857678268342965,6757,1588857678268261820,,0.380826897285,-2.21897188664,1.58695676458,0.284812032878,-0.00515276937343,-0.108403505618
1588857678274383659,6758,1588857678274216017,,0.380843161235,-2.21898159689,1.58693928405,0.284810073545,-0.00580996780932,-0.108406215585
1588857678277242534,6759,1588857678277160599,,0.38048996189,-2.21918095646,1.6099572512,0.288341286088,-0.00515704253192,-0.109285339104
1588857678280246749,6760,1588857678280173245,,0.380889038914,-2.08708453237,1.58584089608,0.287602234533,-0.00515188163741,-0.110184918484
1588857678283215403,6761,1588857678283144337,,0.357946138853,-2.08700061366,1.58535522797,0.289479185044,-0.00581115577239,-0.112118109112
1588857678289283361,6762,1588857678289169446,,0.357980838644,-2.08700809307,1.58533754677,0.289479204123,-0.00580555186687,-0.112118350164
1588857678292543323,6763,1588857678292407979,,0.403277193408,-2.08765189046,1.63228274587,0.29389568948,-0.00647422172754,-0.117186989702
1588857678298327892,6764,1588857678298209674,,0.403296278082,-2.08765170484,1.63227826804,0.293896534021,-0.0064696619344,-0.117185123468
1588857678304286745,6765,1588857678304138279,,0.402957536402,-2.08786253954,1.65530143484,0.297451755699,-0.00647406333124,-0.118962671163
1588857678307296434,6766,1588857678307198201,,0.402975544474,-2.08785402816,1.65530778647,0.298384160336,-0.00647333830021,-0.119851417435
1588857678313280777,6767,1588857678313193716,,0.402972616907,-2.21975760851,1.65633177063,0.296561735382,-0.00712603106796,-0.119864592354
1588857678316408525,6768,1588857678316221180,,0.425588782652,-2.22005937546,1.67992050717,0.298267545113,-0.00713176180671,-0.120606099824
1588857678322383053,6769,1588857678322306595,,0.402557912752,-2.21995716922,1.67947633803,0.298272788271,-0.00713455783769,-0.120747353578
1588857678325419037,6770,1588857678325328952,,0.425856627816,-2.2198583547,1.65681555556,0.299349872108,-0.00648629924723,-0.12148829478
1588857678328375910,6771,1588857678328288789,,0.425790245489,-2.21982029033,1.65688361481,0.29935211933,-0.00649420763293,-0.121482334917
1588857678331539086,6772,1588857678331426544,,0.402294365402,-2.21989249717,1.67962496435,0.301004597458,-0.00651806001313,-0.120717008786
1588857678337443575,6773,1588857678337366141,,0.424862678526,-2.22016623495,1.70316735916,0.302733224603,-0.00653299882845,-0.12235447899
1588857678340373340,6774,1588857678340299714,,0.424861412518,-2.22017162181,1.70316065289,0.302734516065,-0.00653020210691,-0.122351432866
1588857678346603137,6775,1588857678346530024,,0.401711798661,-2.22002068853,1.70280373259,0.302737599995,-0.00721552107854,-0.122504832409
1588857678349429508,6776,1588857678349348932,,0.401685609214,-2.22001805731,1.7028133412,0.302738616635,-0.00721743379599,-0.122502207353
1588857678352367256,6777,1588857678352289315,,0.447842001659,-2.35221840993,1.70466148878,0.303689152971,-0.0065468933097,-0.124005207471
1588857678355524291,6778,1588857678355407738,,0.447460400227,-2.22044795457,1.7267276195,0.304426163422,-0.00655787480361,-0.123097632432
1588857678361412827,6779,1588857678361333451,,0.424734026738,-2.22013996147,1.70323369439,0.303639788923,-0.00655461807681,-0.122345080488
1588857678364435446,6780,1588857678364338842,,0.424337966021,-2.35229724394,1.72725731814,0.304430094742,-0.00721334334587,-0.123247114197
1588857678370442106,6781,1588857678370356953,,0.424374596399,-2.35229531453,1.72725094631,0.30355032908,-0.00654810891165,-0.12415305308
1588857678373502634,6782,1588857678373368681,,0.447461848255,-2.35239656386,1.72771545997,0.304478311902,-0.0072117422825,-0.124899478381
1588857678376494984,6783,1588857678376339255,,0.447462095066,-2.35239084643,1.72772318068,0.304479327962,-0.00721019108056,-0.124897090973
1588857678379493644,6784,1588857678379419608,,0.447110559233,-2.35259122301,1.75084245927,0.305301393085,-0.0072048514166,-0.126682857462
1588857678385539503,6785,1588857678385373334,,0.447106568239,-2.3525806458,1.75085769084,0.305301572153,-0.00720582549579,-0.126682370512
1588857678388532796,6786,1588857678388456800,,0.446749759886,-2.35280043271,1.77385669223,0.306068189924,-0.00719987184643,-0.126674052578
1588857678394538186,6787,1588857678394415029,,0.446772671461,-2.35279635896,1.77385632506,0.306066534852,-0.00720019920546,-0.126678032862
1588857678397429797,6788,1588857678397345153,,0.447197711209,-2.35259029291,1.75082145085,0.306242122859,-0.00719798479647,-0.127586841751
1588857678400379270,6789,1588857678400308878,,0.469483213377,-2.35308989953,1.79733985743,0.307793355079,-0.00719963281786,-0.128331863734
1588857678406366898,6790,1588857678406134745,,0.469469018009,-2.35305645234,1.79738735369,0.307793199571,-0.00720429828719,-0.128331974882
1588857678409443153,6791,1588857678409332543,,0.446819221655,-2.4847989725,1.77479389867,0.308852693821,-0.00720332673376,-0.128470576035
1588857678412486470,6792,1588857678412377216,,0.446804150669,-2.48477195166,1.77483552267,0.307945985393,-0.00785503689175,-0.128477181721
1588857678418353451,6793,1588857678418268323,,0.446842854191,-2.48478414055,1.77480871417,0.307945083111,-0.00785071139606,-0.128479608753
1588857678424370080,6794,1588857678424279666,,0.446830180563,-2.48479837292,1.77479197908,0.30791762642,-0.00785400026195,-0.127585571064
1588857678430430614,6795,1588857678430335264,,0.447196628653,-2.48462036052,1.75174678842,0.307127034534,-0.00785209775313,-0.126681740487
1588857678433351989,6796,1588857678433243933,,0.423619309432,-2.61677289749,1.77527254036,0.305106678258,-0.00784892457768,-0.125043976464
1588857678436251473,6797,1588857678436178523,,0.423640347181,-2.61679317249,1.77523763411,0.305106271187,-0.00784562312966,-0.125045176896
1588857678442341822,6798,1588857678442208070,,0.446808287898,-2.61688978405,1.7756784766,0.30510347901,-0.00719157918556,-0.124903515386
1588857678445510881,6799,1588857678445423699,,0.423634354318,-2.61679971468,1.77522942067,0.305056750516,-0.00653532978482,-0.123249881472
1588857678448778302,6800,1588857678448703539,,0.446359913956,-2.61707684421,1.79872197109,0.304904541697,-0.00587535397801,-0.123096451854
1588857678454553234,6801,1588857678454386153,,0.446323215712,-2.6170605541,1.79875477869,0.304903126295,-0.00588358992198,-0.123099564322
1588857678457273440,6802,1588857678457197802,,0.423582809546,-2.61680954054,1.77522723641,0.303181640517,-0.0065381565499,-0.121462640357
1588857678460251669,6803,1588857678460148418,,0.40063400419,-2.61674010189,1.77472474479,0.303161621939,-0.0058643784993,-0.12070889953
1588857678466436559,6804,1588857678466372323,,0.423246275633,-2.61700125414,1.79823725291,0.303922977462,-0.00587181315011,-0.120558868727
1588857678469229544,6805,1588857678469153784,,0.400606690357,-2.61674473829,1.77472407438,0.303136416536,-0.00586625548028,-0.119810544449
1588857678472194438,6806,1588857678472124650,,0.400740821619,-2.61678469874,1.77463486956,0.303136100947,-0.00584774688416,-0.11981224772
1588857678478230273,6807,1588857678478155175,,0.400802737983,-2.61678005336,1.77462773659,0.303133324069,-0.00650328388167,-0.119817147993
1588857678484429542,6808,1588857678484342249,,0.423929454324,-2.48479905478,1.77414730634,0.304034577926,-0.0065016156548,-0.119668140233
1588857678490423747,6809,1588857678490352389,,0.423963928434,-2.48478475593,1.77415909477,0.304034597641,-0.00649809982662,-0.11966828111
1588857678493512987,6810,1588857678493401926,,0.400959642243,-2.48469492605,1.77370038259,0.304012980456,-0.00715241863519,-0.118913868498
1588857678496411721,6811,1588857678496306173,,0.400946452738,-2.48466794025,1.77374116663,0.304013495401,-0.00715493119078,-0.118912400837
1588857678502293636,6812,1588857678502191389,,0.423989257731,-2.48476841858,1.77417592273,0.304951185648,-0.00649726962724,-0.119660097185
1588857678505426773,6813,1588857678505332122,,0.400587486134,-2.48484305437,1.7967952398,0.303871688822,-0.00649630603736,-0.118918928247
1588857678508446105,6814,1588857678508327333,,0.400562577997,-2.48485566998,1.79678334618,0.303847408222,-0.00649535381521,-0.118008315942
1588857678514277173,6815,1588857678514161777,,0.400456917292,-2.61691167239,1.79773034875,0.302959495649,-0.00583830195508,-0.118918153622
1588857678517256091,6816,1588857678517151477,,0.400802729661,-2.61672560943,1.77470801619,0.301234917788,-0.00649964916577,-0.117128209947
1588857678523618160,6817,1588857678523518423,,0.378023435498,-2.61645854071,1.75122630055,0.298550188756,-0.00583474584479,-0.113690164072
1588857678526492555,6818,1588857678526364490,,0.378006436441,-2.61645172525,1.75124015264,0.298549588203,-0.00583832204592,-0.113691557519
1588857678529515699,6819,1588857678529419429,,0.378060368311,-2.48434055923,1.75035277298,0.297632825352,-0.00584020479469,-0.113699926072
1588857678535491493,6820,1588857678535340914,,0.377521559926,-2.61660611212,1.77433582748,0.298374553178,-0.00584810606434,-0.112793174486
1588857678538508392,6821,1588857678538355934,,0.377484549437,-2.61660263052,1.77434883598,0.298374524542,-0.00585278584913,-0.1127930075
1588857678548007359,6822,1588857678547768660,,0.377496341126,-2.6165761889,1.77438531976,0.298373366198,-0.00585523199585,-0.112795944701
1588857678550408409,6823,1588857678550322968,,0.377449029355,-2.61657533127,1.77439664927,0.298373661209,-0.00586036483811,-0.112794897756
1588857678553473858,6824,1588857678553348178,,0.37746712898,-2.61657163559,1.77439824877,0.298373507787,-0.00585873296383,-0.112795388372
1588857678559510139,6825,1588857678559409836,,0.377482987602,-2.61657880061,1.77438430932,0.298373392734,-0.00585660553491,-0.112795803198
1588857678562343876,6826,1588857678562246242,,0.377623302634,-2.48447354813,1.77347869758,0.297429400989,-0.00585178838456,-0.111912634292
1588857678565401784,6827,1588857678565321055,,0.377610167396,-2.48448313758,1.77346806043,0.297428482882,-0.00585463416006,-0.111914925472
1588857678571441280,6828,1588857678571312248,,0.377573559996,-2.48449017689,1.77346599307,0.297426947527,-0.00586178559205,-0.111918631465
1588857678574486992,6829,1588857678574410968,,0.354156894301,-2.48454910712,1.79611485293,0.298196278273,-0.00586686915845,-0.11205795341
1588857678577423493,6830,1588857678577327219,,0.354585040854,-2.48438851605,1.77302788552,0.297431611732,-0.00651360054474,-0.112058947675
1588857678583416442,6831,1588857678583278521,,0.354565057582,-2.48441176656,1.77299930256,0.297433394068,-0.00651111526816,-0.112054361248
1588857678586448570,6832,1588857678586350498,,0.377565308377,-2.48449460687,1.77346154376,0.297454272534,-0.00651649524921,-0.112807840875
1588857678589404729,6833,1588857678589295337,,0.354582851321,-2.48443494144,1.77296326979,0.297383991133,-0.0058458895974,-0.110250142002
1588857678595437627,6834,1588857678595291620,,0.354652553698,-2.48446996743,1.77290024532,0.297385413589,-0.00583224198403,-0.110247027883
1588857678598401061,6835,1588857678598294578,,0.354711061594,-2.35244190091,1.77196071784,0.29736014753,-0.00649138190285,-0.109347988909
1588857678601481238,6836,1588857678601403707,,0.354719098708,-2.35244419317,1.77195606575,0.29735802986,-0.00649465399387,-0.109353553227
1588857678607456352,6837,1588857678607326552,,0.354636164704,-2.48447498565,1.77289649137,0.297306305307,-0.00583816609638,-0.107556219838
1588857678610440089,6838,1588857678610356609,,0.354220080026,-2.48464664445,1.79596746171,0.298072186929,-0.00584418833577,-0.107550061985
1588857678613469570,6839,1588857678613378480,,0.354568324032,-2.48442729194,1.77297689421,0.29730638683,-0.00584927419047,-0.107555390965
1588857678619565475,6840,1588857678619467824,,0.354505276382,-2.48443214984,1.77298269439,0.297280560417,-0.00585743658129,-0.106660556817
1588857678622435950,6841,1588857678622363365,,0.354439612094,-2.48443911782,1.77298605859,0.297281064281,-0.00586408690649,-0.106658787028
1588857678628610275,6842,1588857678628529901,,0.353886392645,-2.61670725911,1.79695991803,0.297139633578,-0.00587261151413,-0.106661842862
1588857678631479008,6843,1588857678631327888,,0.331236997506,-2.61644691275,1.77346635535,0.296351100816,-0.00587313844394,-0.105919719657
1588857678634524714,6844,1588857678634350042,,0.331226051903,-2.61641976469,1.77350845129,0.2954060953,-0.00653616848518,-0.105037219713
1588857678640254001,6845,1588857678640153943,,0.354182557921,-2.61653391143,1.77392849257,0.295431078871,-0.00588049673114,-0.105781084305
1588857678643431936,6846,1588857678643303289,,0.354527665626,-2.61634806672,1.75090955604,0.293708099908,-0.00588052026781,-0.10399209754
1588857678646582528,6847,1588857678646471467,,0.331514958519,-2.61625935684,1.75046145284,0.293685651873,-0.00653622445272,-0.103241292646
1588857678652315724,6848,1588857678652230703,,0.354529192296,-2.61634277657,1.75091715185,0.293733301632,-0.00588185376513,-0.104898346523
1588857678655404055,6849,1588857678655271510,,0.377192106442,-2.61661587367,1.77439149778,0.294519640621,-0.00654032242859,-0.105643712857
1588857678658269032,6850,1588857678658174087,,0.354176404474,-2.61652047971,1.77394953268,0.294474413223,-0.0065338468259,-0.103982658365
1588857678664595088,6851,1588857678664477043,,0.354542219658,-2.6163758711,1.75086506075,0.292818730376,-0.00652875621969,-0.104897990483
1588857678667651740,6852,1588857678667519494,,0.353740852244,-2.61667982668,1.7970285195,0.294376520001,-0.00719343587031,-0.1057771645
1588857678670454300,6853,1588857678670328698,,0.353758766537,-2.61672317967,1.79696186433,0.294378439665,-0.00718506908567,-0.10577239063
1588857678676447021,6854,1588857678676362482,,0.353917979156,-2.48462805969,1.79605272902,0.294402913661,-0.00782884039089,-0.106668628827
1588857678679476434,6855,1588857678679389836,,0.353948893742,-2.4846475464,1.79601967895,0.294402670761,-0.00782444917699,-0.106669621419
1588857678685495391,6856,1588857678685413358,,0.330531416561,-2.48475006777,1.81861506935,0.295147501479,-0.00782481463494,-0.105911209257
1588857678688412286,6857,1588857678688332373,,0.330612747978,-2.48475515276,1.81859333793,0.295146826451,-0.00781614656244,-0.105913730405
1588857678691454093,6858,1588857678691349949,,0.354101367458,-2.48467429283,1.79595262089,0.295317236392,-0.00781080149565,-0.106668672737
1588857678694456375,6859,1588857678694354267,,0.353714198761,-2.48488042439,1.81897360548,0.297016413534,-0.00716386723766,-0.107549748066
1588857678700364203,6860,1588857678700281094,,0.353760349614,-2.48486420474,1.81898678785,0.297016452814,-0.00715911478702,-0.107549956043
1588857678703644005,6861,1588857678703506144,,0.353770460889,-2.48485292424,1.81900023124,0.296990432628,-0.00715954041915,-0.106655988379
1588857678709425058,6862,1588857678709336133,,0.353778725199,-2.48485543267,1.81899519727,0.296989428174,-0.00716047394439,-0.106658722638
1588857678712402742,6863,1588857678712326691,,0.353697537071,-2.61693774386,1.81989195469,0.296962191604,-0.00716187307841,-0.10576835246
1588857678715350612,6864,1588857678715287306,,0.35368640496,-2.6169228887,1.81991547914,0.296961255418,-0.00781329672922,-0.105768489034
1588857678718386554,6865,1588857678718310096,,0.354185891533,-2.4846444989,1.79597717266,0.295263080238,-0.0071613861393,-0.104889484124
1588857678724338746,6866,1588857678724260477,,0.353675138189,-2.61689564761,1.81995683899,0.296003969796,-0.0071654317551,-0.103976847848
1588857678727401173,6867,1588857678727311235,,0.331172009488,-2.48452938985,1.79556822336,0.2942993617,-0.00715886426716,-0.103241289959
1588857678733332784,6868,1588857678733255187,,0.331078112447,-2.61662849873,1.79646232426,0.294272459563,-0.00715970652336,-0.10235076573
1588857678736390752,6869,1588857678736299955,,0.330721067826,-2.61681086273,1.81949775529,0.294079938538,-0.00715737355681,-0.10056650637
1588857678739328667,6870,1588857678739267362,,0.307992975685,-2.61653972915,1.79601797712,0.29235014111,-0.00715174423319,-0.0989224216074
1588857678742430833,6871,1588857678742318640,,0.307991990872,-2.61655348419,1.79599810672,0.292349555135,-0.00715229571684,-0.0989241134804
1588857678748649204,6872,1588857678748583506,,0.308024334541,-2.61653670092,1.79601701092,0.292347828793,-0.00715310730861,-0.0989291564961
1588857678751428220,6873,1588857678751328791,,0.30766111505,-2.61672232024,1.81904963425,0.292222393521,-0.00714947004896,-0.0998359060782
1588857678757350959,6874,1588857678757266001,,0.331143265882,-2.61664523123,1.79642594357,0.292344440177,-0.00715271000456,-0.0987870182664
1588857678760326793,6875,1588857678760265937,,0.331080382531,-2.74877582221,1.79731805424,0.291453044556,-0.00714576168919,-0.0996889871907
1588857678763379591,6876,1588857678763286464,,0.308455057763,-2.61637382148,1.77294274553,0.289733284106,-0.00714040590881,-0.0980551795743
1588857678766452815,6877,1588857678766368312,,0.308482954319,-2.61636323429,1.7729535156,0.289731338348,-0.00714180540508,-0.0980608267947
1588857678772541342,6878,1588857678772387990,,0.308498003968,-2.61635970369,1.77295610712,0.289756410065,-0.00714081749205,-0.0989557788595
1588857678775445343,6879,1588857678775368816,,0.308112132098,-2.61653625993,1.79600259353,0.290497754567,-0.00714094187272,-0.0980541165919
1588857678784338666,6880,1588857678784259050,,0.308494307219,-2.61634526578,1.77297805625,0.287856537799,-0.00713738933482,-0.0962791046981
1588857678787378409,6881,1588857678787293410,,0.308543582807,-2.61634767231,1.77296593042,0.287854539884,-0.00713587455995,-0.0962851901613
1588857678793351076,6882,1588857678793271923,,0.28549160381,-2.61626324816,1.7725357531,0.287835074504,-0.00713415753107,-0.0955299235038
1588857678796314029,6883,1588857678796239052,,0.285473356228,-2.61624287753,1.77256875866,0.288717342631,-0.00648231748388,-0.0946293298003
1588857678799456313,6884,1588857678799375022,,0.30851989747,-2.61632171951,1.77300834972,0.286912867248,-0.00713663210198,-0.095397479525
1588857678805513875,6885,1588857678805384875,,0.285470989449,-2.61625472372,1.77255165519,0.28593588011,-0.00647559538059,-0.0928659300455
1588857678808357272,6886,1588857678808272057,,0.285438398833,-2.61626230551,1.77254571303,0.285936373884,-0.00647774221024,-0.092864259965
1588857678811343153,6887,1588857678811249028,,0.285425744769,-2.61624220275,1.7725774218,0.28501813136,-0.00713648053368,-0.0928730392628
1588857678817344145,6888,1588857678817277489,,0.28564930527,-2.74823780573,1.75041438707,0.283283799866,-0.00713680412834,-0.0910917240355
1588857678820378936,6889,1588857678820299044,,0.285661494536,-2.74825404977,1.75038689362,0.283284219836,-0.00713386534364,-0.0910906481703
1588857678823339077,6890,1588857678823236345,,0.285259147,-2.74841214409,1.77344881242,0.283144440141,-0.00647689455464,-0.0910917776681
1588857678829325271,6891,1588857678829258604,,0.285798355596,-2.6160494086,1.74956104819,0.281462351389,-0.00647044511145,-0.0911021750352
1588857678832298189,6892,1588857678832199369,,0.285655167227,-2.74823803177,1.75041307556,0.281437182077,-0.00647045278864,-0.0902089768921
1588857678835521648,6893,1588857678835422094,,0.26306820315,-2.61579505332,1.72597705601,0.279714200537,-0.00646438185467,-0.0885666313899
1588857678841370293,6894,1588857678841308020,,0.263082623712,-2.6158035781,1.72596193823,0.279714018485,-0.00646278163623,-0.0885673231331
1588857678844751028,6895,1588857678844678647,,0.263083604014,-2.61581723599,1.72594108925,0.27971414589,-0.00646171042387,-0.0885669989232
1588857678853387351,6896,1588857678853302889,,0.286030251109,-2.74808661493,1.72724854433,0.278795349114,-0.00580477577307,-0.0884302465341
1588857678856463987,6897,1588857678856353827,,0.286038289874,-2.7480912163,1.72723989221,0.276971036107,-0.00579971865785,-0.088446423099
1588857678859439726,6898,1588857678859346277,,0.239852607588,-2.74791940226,1.72639431007,0.276927376184,-0.0064577830238,-0.0869458074268
1588857678865345696,6899,1588857678865270356,,0.26285892473,-2.74801242621,1.7268078867,0.276923502533,-0.00646050619094,-0.0868016783534
1588857678868343868,6900,1588857678868237431,,0.262852972543,-2.74801652255,1.72680227389,0.275979731532,-0.00711680366033,-0.0859190822766
1588857678871364350,6901,1588857678871288236,,0.262842325444,-2.74801508389,1.72680618402,0.274130897802,-0.00645619586483,-0.0850325526392
1588857678877393467,6902,1588857678877285456,,0.285998941406,-2.74809917058,1.7272337525,0.274153156403,-0.00579772646064,-0.0857843592715
1588857678880405055,6903,1588857678880320909,,0.286368304668,-2.74792659641,1.70420669506,0.272505551631,-0.00579623735706,-0.0866991755518
1588857678883361625,6904,1588857678883274172,,0.240158304313,-2.74777988081,1.70332202395,0.272436410383,-0.00645468165261,-0.0842968598905
1588857678889304183,6905,1588857678889241612,,0.240143230814,-2.74778181843,1.70332102341,0.27243675484,-0.00645538722278,-0.0842956926126
1588857678892333025,6906,1588857678892255136,,0.263176029817,-2.7478657549,1.70374662344,0.27061003921,-0.00579359595515,-0.0841657147767
1588857678895337470,6907,1588857678895261249,,0.26334154989,-2.61567780835,1.70286727314,0.27063582673,-0.00579071088057,-0.0850563737253
1588857678901650999,6908,1588857678901580804,,0.263607883032,-2.74771596612,1.68067541909,0.268900895328,-0.00644047625126,-0.0832865596602
1588857678904459726,6909,1588857678904382139,,0.240569242791,-2.74763343269,1.68024865909,0.268853797141,-0.00644136918356,-0.081648576171
1588857678910340462,6910,1588857678910277218,,0.240567385433,-2.7476404353,1.68023747392,0.26885342486,-0.00644195603807,-0.0816497557118
1588857678913518338,6911,1588857678913443790,,0.240718793193,-2.6154403807,1.67936612973,0.267921229237,-0.00643893336165,-0.0807548179771
1588857678916366486,6912,1588857678916285684,,0.240719001133,-2.61544022668,1.67936633979,0.267003990709,-0.00643669143083,-0.0807627973091
1588857678922566703,6913,1588857678922489009,,0.240723072174,-2.6154452726,1.67935789771,0.267003642165,-0.00643677062696,-0.0807639432828
1588857678925418465,6914,1588857678925354231,,0.26414747192,-2.61534935426,1.65665984787,0.265339445936,-0.00577563174771,-0.0815242501473
1588857678928323057,6915,1588857678928250806,,0.26455061392,-2.61517011995,1.63363468135,0.264599327148,-0.00577220004593,-0.0824297028525
1588857678934305783,6916,1588857678934221651,,0.26452925579,-2.61517559883,1.63362936918,0.2645998115,-0.00577312098121,-0.0824280835696
1588857678937450767,6917,1588857678937386791,,0.264131994164,-2.61535355382,1.65665568586,0.263516521228,-0.00576993582572,-0.0815354307668
1588857678940324860,6918,1588857678940257802,,0.2641128927,-2.61536031219,1.65664806179,0.261693903605,-0.00511016553769,-0.0815486211374
1588857678946761848,6919,1588857678946652981,,0.264917618665,-2.61501684016,1.61057722991,0.261078061783,-0.00510745435287,-0.0815539103738
1588857678949653441,6920,1588857678949486887,,0.287665185947,-2.61527859283,1.63403410187,0.261865282665,-0.00510883215898,-0.0823012046766
1588857678952546036,6921,1588857678952473526,,0.287666144486,-2.6152824431,1.63402777073,0.26186485974,-0.00510939487834,-0.0823025153936
1588857678958507815,6922,1588857678958400723,,0.288061651831,-2.61512352512,1.61097446062,0.259247959637,-0.00575798474654,-0.0814325965163
1588857678964402127,6923,1588857678964303168,,0.288083432342,-2.61512719706,1.6109646051,0.259222363658,-0.00510160939308,-0.0805445489758
1588857678970574621,6924,1588857678970451935,,0.264958535573,-2.61504339002,1.6105273904,0.257392640108,-0.00509693278302,-0.0806986155313
1588857678973616336,6925,1588857678973443009,,0.26495240834,-2.61504175143,1.61053105902,0.257392604126,-0.00509769688025,-0.0806986820332
1588857678976395922,6926,1588857678976255670,,0.241926468055,-2.6149623974,1.61009416464,0.257344462734,-0.00509927645241,-0.0790635616683
1588857678982548293,6927,1588857678982455282,,0.241919941668,-2.61496210747,1.61009561613,0.257344623389,-0.00509961297842,-0.0790630170429
1588857678985484071,6928,1588857678985417692,,0.242312723566,-2.61478050366,1.58708248663,0.253795948682,-0.00509086116877,-0.0772995913937
1588857678988545565,6929,1588857678988469057,,0.242313744116,-2.61478353012,1.58707734459,0.253796161444,-0.00509018742311,-0.0772989372051
1588857678994600039,6930,1588857678994518439,,0.242310680958,-2.61477932249,1.5870847445,0.251029002301,-0.00573762266415,-0.0764292410043
1588857678997501356,6931,1588857678997429802,,0.242324462391,-2.61477909989,1.58708300709,0.25102889776,-0.00573651773488,-0.0764296673039
1588857679000533687,6932,1588857679000376937,,0.219613190778,-2.61452168661,1.56353099097,0.250237292302,-0.00573404101857,-0.0756866021264
1588857679006493146,6933,1588857679006420804,,0.242503604143,-2.48259093623,1.5861873764,0.249205585284,-0.0050747563003,-0.0764448099738
1588857679009511142,6934,1588857679009415157,,0.242508485493,-2.4825938028,1.58618214355,0.249205247695,-0.00507483221154,-0.0764459054466
1588857679012568682,6935,1588857679012475876,,0.242521602246,-2.48259397352,1.5861798709,0.24920485311,-0.00507432701995,-0.0764472252744
1588857679018506850,6936,1588857679018430435,,0.242519381515,-2.48259859038,1.58617298437,0.248287741279,-0.00507250293832,-0.0764548650867
1588857679021519627,6937,1588857679021418712,,0.242527988408,-2.48259991091,1.58616960156,0.248287277907,-0.00507254038615,-0.0764563673879
1588857679027544103,6938,1588857679027465722,,0.242543159616,-2.48259190927,1.58617980554,0.248286931023,-0.0050721249228,-0.0764575214246
1588857679030398549,6939,1588857679030331392,,0.219849076174,-2.48232461298,1.56262574084,0.248411742037,-0.00507223216076,-0.0757089618158
1588857679033371428,6940,1588857679033284554,,0.243370338044,-2.48221947246,1.54004592535,0.247667399183,-0.0050682549259,-0.0764640997984
1588857679039372509,6941,1588857679039279578,,0.243779184429,-2.4820307441,1.51703999783,0.246901018906,-0.00506540931604,-0.07647025613
1588857679042334965,6942,1588857679042272223,,0.243524445203,-2.35007633141,1.53910604305,0.245817616756,-0.00506178500935,-0.0755888322076
1588857679048598536,6943,1588857679048532208,,0.24354218039,-2.35007397038,1.53910684188,0.245843914729,-0.00505961085448,-0.0764772445417
1588857679051262156,6944,1588857679051203151,,0.244048630799,-2.21780734892,1.51509723934,0.244135556625,-0.00505431325952,-0.0755981779616
1588857679054498711,6945,1588857679054366919,,0.243549162016,-2.35005007546,1.53914222186,0.243996594148,-0.00440772152066,-0.0755968501469
1588857679057343667,6946,1588857679057251485,,0.24356442823,-2.35003565964,1.53916181681,0.243997272307,-0.00440537938819,-0.0755947978141
1588857679060548352,6947,1588857679060459339,,0.220997698522,-2.21768410835,1.51471049071,0.242292853283,-0.00440036505328,-0.0748558558541
1588857679066433770,6948,1588857679066376308,,0.221405600551,-2.21746539497,1.49172374219,0.241527203141,-0.0043962919411,-0.0748597490117
1588857679072376444,6949,1588857679072299580,,0.2448766453,-2.21733342998,1.46908067261,0.238904563486,-0.00438727556567,-0.0738374052878
1588857679075490831,6950,1588857679075268944,,0.244884194978,-2.21732602381,1.4690905925,0.237988883058,-0.00438241392909,-0.0738407000001
1588857679078358167,6951,1588857679078295241,,0.221939122935,-2.08523549836,1.46757278472,0.237060116749,-0.00437830113873,-0.0730978261334
1588857679087470418,6952,1588857679087325524,,0.221846938646,-2.21721827721,1.46868009461,0.236116514056,-0.00501795637793,-0.0722153733175
1588857679090291958,6953,1588857679090238705,,0.222239499524,-2.21700385581,1.44569997762,0.233554827283,-0.00500964905122,-0.0731170627336
1588857679096358873,6954,1588857679096286343,,0.199409308547,-2.08490859703,1.44417266743,0.2325989055,-0.00500583934395,-0.0714918021703
1588857679099278436,6955,1588857679099231277,,0.222354911355,-2.08499321184,1.44461060545,0.230789054748,-0.00499971732804,-0.0722459417599
1588857679102303548,6956,1588857679102251838,,0.222361753006,-2.08499022535,1.44461386273,0.2308169361,-0.00435564926223,-0.0731325223139
1588857679105336847,6957,1588857679105267037,,0.222365957608,-2.0849924973,1.44460993646,0.229883363086,-0.00435308633535,-0.0722517057132
1588857679111303850,6958,1588857679111212550,,0.222367250337,-2.08499336656,1.44460848287,0.22896713309,-0.00435015907182,-0.0722568833872
1588857679114450270,6959,1588857679114255244,,0.245494737553,-1.95319010936,1.44387454517,0.228990577928,-0.00369644170275,-0.0730052314759
1588857679120393240,6960,1588857679120271975,,0.200402383705,-1.82074403585,1.39576175546,0.227412306916,-0.00434516781624,-0.0715232966255
1588857679123453068,6961,1588857679123329603,,0.200410182386,-1.82074556295,1.39575864363,0.22741206981,-0.00434469395708,-0.0715240793002
