%time,field.header.seq,field.header.stamp,field.header.frame_id,field.vector.x,field.vector.y,field.vector.z
1588857677257021591,6512,1588857677256928549,,0.499901725581,-0.200911032377,0.213251414853
1588857677259946076,6513,1588857677259869813,,0.499901787515,-0.200910172654,0.213237793458
1588857677263023987,6514,1588857677262901198,,0.499902523742,-0.200909305056,0.213223751229
1588857677269003833,6515,1588857677268899374,,0.499902337262,-0.200906466581,0.213210442113
1588857677272004177,6516,1588857677271891163,,0.499902029998,-0.200905451368,0.213197204721
1588857677274958637,6517,1588857677274859882,,0.499902624232,-0.200904568063,0.213186490571
1588857677280987813,6518,1588857677280860290,,0.499902325591,-0.200901943664,0.21317287594
1588857677284012698,6519,1588857677283891243,,0.499901919165,-0.200901034752,0.213160865333
1588857677287041017,6520,1588857677286937374,,0.499901221193,-0.200898821632,0.213149454375
1588857677293063352,6521,1588857677292925986,,0.499901667387,-0.20089699633,0.213136429126
1588857677296043408,6522,1588857677295971311,,0.499901692549,-0.200897107542,0.213122779682
1588857677299011585,6523,1588857677298926666,,0.499901842227,-0.20089468503,0.213111865726
1588857677305111302,6524,1588857677304941731,,0.49990153802,-0.200894554858,0.213100464905
1588857677308011507,6525,1588857677307915295,,0.499902579256,-0.200890552364,0.21308943088
1588857677311092527,6526,1588857677310939928,,0.499902654978,-0.200889762287,0.213076717696
1588857677317069116,6527,1588857677316946401,,0.499904505344,-0.200886686265,0.213065531785
1588857677319970434,6528,1588857677319874463,,0.499905079076,-0.200883581582,0.213053462889
1588857677323050826,6529,1588857677322894044,,0.499905581789,-0.200882102993,0.21304279501
1588857677329036757,6530,1588857677328897297,,0.499906102704,-0.200877461019,0.213031259378
1588857677332083346,6531,1588857677331932641,,0.499905748223,-0.200876197652,0.213018147171
1588857677334928196,6532,1588857677334839147,,0.499906605195,-0.200872502204,0.213005350924
1588857677344548917,6533,1588857677344449666,,0.499908001446,-0.200867145759,0.212980088407
1588857677347403320,6534,1588857677347294204,,0.499907718129,-0.200861999324,0.212966650125
1588857677353074222,6535,1588857677352977198,,0.499907423816,-0.200859292447,0.212952881486
1588857677356027151,6536,1588857677355936700,,0.499907822552,-0.200856195603,0.212940765343
1588857677362051921,6537,1588857677361964249,,0.499908571179,-0.200851335785,0.21292897024
1588857677365046380,6538,1588857677364949516,,0.499907899546,-0.200845422963,0.212915488768
1588857677367994204,6539,1588857677367897034,,0.499908924609,-0.200841467841,0.212903794372
1588857677374143694,6540,1588857677373975232,,0.499908183553,-0.200836730505,0.212892110385
1588857677377060813,6541,1588857677376981903,,0.499907898706,-0.200831808757,0.212877842193
1588857677380029063,6542,1588857677379944064,,0.49990798282,-0.200825132081,0.212865319626
1588857677386048812,6543,1588857677385927200,,0.499907884829,-0.200819089623,0.21285327905
1588857677388980048,6544,1588857677388916013,,0.499908036405,-0.200813383628,0.212840573473
1588857677391976192,6545,1588857677391898228,,0.499908668718,-0.200803494671,0.212828569731
1588857677398011534,6546,1588857677397902815,,0.499908490627,-0.200792826677,0.212813994418
1588857677401101324,6547,1588857677401002177,,0.499909413937,-0.200783292583,0.212804327836
1588857677403987075,6548,1588857677403900747,,0.499908901231,-0.200773076462,0.212790527267
1588857677410073965,6549,1588857677409985381,,0.499909512636,-0.200764163341,0.212778406735
1588857677412975306,6550,1588857677412885965,,0.499908903706,-0.200754065015,0.212764988016
1588857677415915985,6551,1588857677415853006,,0.499908473159,-0.200743116076,0.212751286089
1588857677421974671,6552,1588857677421898160,,0.499908833545,-0.200731583075,0.212739226062
1588857677424980329,6553,1588857677424874733,,0.499908157371,-0.200720732158,0.212726225531
1588857677427995288,6554,1588857677427872780,,0.499908306738,-0.200707452112,0.212712319953
1588857677434000949,6555,1588857677433908194,,0.499908163606,-0.200690816668,0.21269834011
1588857677436981975,6556,1588857677436900376,,0.499908427088,-0.200675806486,0.212683055667
1588857677440013647,6557,1588857677439921906,,0.499908725234,-0.200661554805,0.212668317141
1588857677446218187,6558,1588857677446085472,,0.49990965608,-0.200645884376,0.212653886871
1588857677449030019,6559,1588857677448958915,,0.49990932339,-0.200632069988,0.212638883411
1588857677452023194,6560,1588857677451932590,,0.499909628131,-0.20061652107,0.212624172089
1588857677458102923,6561,1588857677457939622,,0.499909419004,-0.200599394441,0.212610542019
1588857677464071982,6562,1588857677463899922,,0.499910364128,-0.200563466044,0.212580177749
1588857677470080558,6563,1588857677469903054,,0.499911416065,-0.200545825833,0.212567134437
1588857677473124061,6564,1588857677472925554,,0.499912200139,-0.200527983405,0.212552595514
1588857677479066179,6565,1588857677478921743,,0.499912389036,-0.200506890298,0.212536921834
1588857677482048443,6566,1588857677481922814,,0.499913693494,-0.200487975626,0.212521493204
1588857677485035570,6567,1588857677484924161,,0.499914113936,-0.200467435575,0.212505655273
1588857677491091855,6568,1588857677490915196,,0.499914670569,-0.20044989113,0.212491675552
1588857677493978748,6569,1588857677493862260,,0.49991507737,-0.200427342747,0.212476275565
1588857677500019388,6570,1588857677499888089,,0.499916261128,-0.200399761191,0.212459787229
1588857677502945537,6571,1588857677502863869,,0.499915043334,-0.20038177613,0.212443897625
1588857677506092794,6572,1588857677505898355,,0.499915201641,-0.200359350241,0.21242912589
1588857677509033473,6573,1588857677508944042,,0.499915014658,-0.200332048124,0.212411796837
1588857677515070718,6574,1588857677514960561,,0.499916115731,-0.200305561175,0.212398425686
1588857677518030533,6575,1588857677517924758,,0.499915791799,-0.20027825853,0.212381865231
1588857677524021091,6576,1588857677523910624,,0.499915399775,-0.200253235758,0.212365793345
1588857677527001883,6577,1588857677526891889,,0.49991576203,-0.200226993776,0.212349982761
1588857677530096702,6578,1588857677529924028,,0.499916370093,-0.200197511833,0.212334067231
1588857677533061537,6579,1588857677532904620,,0.499917638686,-0.200166908675,0.212318103427
1588857677539114148,6580,1588857677538959869,,0.499917480794,-0.200139189836,0.212301037932
1588857677542088563,6581,1588857677541933300,,0.499917840603,-0.200107687454,0.212284810668
1588857677548372016,6582,1588857677548280200,,0.499918583575,-0.200075649023,0.212268378072
1588857677551125319,6583,1588857677550941356,,0.499920773102,-0.200042599674,0.21225195832
1588857677554047231,6584,1588857677553912021,,0.499919957527,-0.200008251727,0.21223308399
1588857677556994530,6585,1588857677556905557,,0.499920118837,-0.199973082092,0.212216355079
1588857677563108004,6586,1588857677562965475,,0.499920948109,-0.199938134029,0.212197389509
1588857677566011803,6587,1588857677565892933,,0.499922209017,-0.199901272995,0.21218053734
1588857677572136356,6588,1588857677571948289,,0.499923827689,-0.199868967489,0.212165332267
1588857677575057052,6589,1588857677574952645,,0.499925015204,-0.199832025862,0.212147250686
1588857677578001352,6590,1588857677577909849,,0.499927461501,-0.199792815609,0.212129237752
1588857677580980691,6591,1588857677580900784,,0.499926610573,-0.199756420228,0.212107756132
1588857677587081472,6592,1588857677586985196,,0.499928495976,-0.199717159883,0.212090714679
1588857677590117719,6593,1588857677589961547,,0.499928343488,-0.199675220526,0.212068210163
1588857677596003279,6594,1588857677595894757,,0.499929006207,-0.199631726778,0.212047368624
1588857677599102597,6595,1588857677598965244,,0.499929523121,-0.199591342098,0.212027886584
1588857677602004453,6596,1588857677601914130,,0.49992901112,-0.199545884884,0.212004206002
1588857677605026283,6597,1588857677604945488,,0.499929166394,-0.199500722981,0.211982510673
1588857677611032130,6598,1588857677610950545,,0.499930168632,-0.199456706635,0.211962284419
1588857677614041954,6599,1588857677613959855,,0.499928956708,-0.199407532678,0.211937230243
1588857677620037727,6600,1588857677619942070,,0.499929521267,-0.199359566475,0.211915835309
1588857677623061494,6601,1588857677622965230,,0.49992830543,-0.199314340163,0.211892986451
1588857677626024941,6602,1588857677625917244,,0.499929128139,-0.199267154924,0.21187323953
1588857677632053099,6603,1588857677631939049,,0.499929048766,-0.199213347454,0.211852197391
1588857677635006964,6604,1588857677634912278,,0.4999279044,-0.19916663689,0.211833963465
1588857677638003890,6605,1588857677637903642,,0.499927941518,-0.199116613263,0.211818119385
1588857677644518904,6606,1588857677644384983,,0.49992593375,-0.199061593122,0.211800484026
1588857677647391902,6607,1588857677647272778,,0.499924113783,-0.199006920589,0.211782066925
1588857677650091185,6608,1588857677649982041,,0.499924124762,-0.198955042449,0.211766084515
1588857677656100783,6609,1588857677655983242,,0.499923207156,-0.198900931331,0.211747738566
1588857677659008357,6610,1588857677658925199,,0.49992328869,-0.198848633898,0.211734024032
1588857677662089553,6611,1588857677661989234,,0.499920871882,-0.198795712527,0.211717404304
1588857677667943586,6612,1588857677667878246,,0.499921591881,-0.198740521995,0.21170406676
1588857677671034810,6613,1588857677670924036,,0.499920019917,-0.198688291375,0.211686854419
1588857677674036401,6614,1588857677673943329,,0.499917475859,-0.198634755482,0.211669558378
1588857677680192299,6615,1588857677680007451,,0.499917097899,-0.198584223003,0.211659998761
1588857677683105027,6616,1588857677682988337,,0.499917595699,-0.198532084159,0.211649688444
1588857677686168186,6617,1588857677686026486,,0.499915010565,-0.198480174644,0.211633380177
1588857677692169656,6618,1588857677691996358,,0.499915745001,-0.198430317222,0.211623592161
1588857677695082891,6619,1588857677694977335,,0.49991686315,-0.198376464484,0.211613857495
1588857677698154571,6620,1588857677698045862,,0.499916837689,-0.198318770737,0.211601311086
1588857677704234341,6621,1588857677704138059,,0.49991614573,-0.198266660737,0.211589472932
1588857677706997578,6622,1588857677706921452,,0.499916357178,-0.198208922584,0.211575835225
1588857677710068285,6623,1588857677709951492,,0.499916124825,-0.198150841379,0.211564711981
1588857677716150942,6624,1588857677715967851,,0.499915915896,-0.198090691633,0.211553327422
1588857677719055291,6625,1588857677718963469,,0.499916026715,-0.198028843861,0.211540547321
1588857677722086366,6626,1588857677721942597,,0.499916255578,-0.197965955932,0.211527987264
1588857677728097043,6627,1588857677727993311,,0.499915535641,-0.197905727459,0.211511771267
1588857677731098985,6628,1588857677730995052,,0.499915259735,-0.197843804435,0.211496902018
1588857677734091934,6629,1588857677733988614,,0.499916571502,-0.197780474072,0.2114861362
1588857677740119704,6630,1588857677739938290,,0.499917559948,-0.197718765504,0.211472007803
1588857677743107479,6631,1588857677742988744,,0.499918995581,-0.197658119094,0.211460806824
1588857677749103572,6632,1588857677748994514,,0.499917989023,-0.197598261874,0.211448091326
1588857677752101859,6633,1588857677751960463,,0.499919401586,-0.19753654549,0.211438783543
1588857677755153109,6634,1588857677755032352,,0.499920052887,-0.19747783348,0.211426636079
1588857677764145395,6635,1588857677763968947,,0.499921168181,-0.197355687046,0.211405777035
1588857677767041868,6636,1588857677766898109,,0.499922728398,-0.197298570688,0.211396876978
1588857677772975942,6637,1588857677772895034,,0.499923900619,-0.197240274612,0.21138758713
1588857677776191671,6638,1588857677776007329,,0.499925110355,-0.197178483583,0.211377247401
1588857677779055756,6639,1588857677778954526,,0.499928001359,-0.19712193971,0.211366649778
1588857677785222627,6640,1588857677785044415,,0.49992748317,-0.19706484091,0.211354269303
1588857677788070245,6641,1588857677787980350,,0.499928889998,-0.197001943751,0.211344731256
1588857677791159911,6642,1588857677791004587,,0.49993040001,-0.196952658544,0.211335981023
1588857677797285369,6643,1588857677797092663,,0.499931381781,-0.196892773512,0.211326848443
1588857677800124975,6644,1588857677800012152,,0.49993486971,-0.196818120094,0.211316802213
1588857677803105758,6645,1588857677803020038,,0.499935975786,-0.196765008795,0.211305397323
1588857677809200785,6646,1588857677809069522,,0.499937265967,-0.196699168534,0.211295636247
1588857677812180943,6647,1588857677812020441,,0.499940016953,-0.196627180162,0.211284385992
1588857677815074224,6648,1588857677814963279,,0.499942119685,-0.196563146951,0.211275162385
1588857677824065751,6649,1588857677823975088,,0.499946743191,-0.196436157192,0.211256747758
1588857677827097318,6650,1588857677826982127,,0.499949240019,-0.196369594836,0.211248396402
1588857677833165940,6651,1588857677833039682,,0.499951208125,-0.196304176508,0.211237190801
1588857677836088317,6652,1588857677835998357,,0.499953338806,-0.196239098834,0.211225815313
1588857677839102734,6653,1588857677838967734,,0.49995569474,-0.19617506388,0.211219032113
1588857677845524432,6654,1588857677845302298,,0.499957621251,-0.196101722526,0.211207574913
1588857677848425432,6655,1588857677848343672,,0.499960936085,-0.196034225535,0.211197313512
1588857677851093236,6656,1588857677851014428,,0.499962347709,-0.195984421592,0.211187719247
1588857677857101571,6657,1588857677856967926,,0.499964682782,-0.195912241037,0.21117582636
1588857677860125228,6658,1588857677860016938,,0.499968901673,-0.195831663262,0.211164623618
1588857677866165861,6659,1588857677866026250,,0.499970903769,-0.195775483271,0.211156261659
1588857677869268814,6660,1588857677869010028,,0.499973041201,-0.195702381947,0.211144696999
1588857677872114799,6661,1588857677872003080,,0.499976031196,-0.19562423668,0.211131775942
1588857677878220781,6662,1588857677878047929,,0.499978382721,-0.195547870266,0.211122042945
1588857677881116702,6663,1588857677881037251,,0.499982228831,-0.195478060075,0.211113419517
1588857677887141003,6664,1588857677887037132,,0.499984665048,-0.195406577271,0.211102351861
1588857677890189813,6665,1588857677890074556,,0.499988706367,-0.195331766851,0.211090844718
1588857677893144961,6666,1588857677893055791,,0.499992059254,-0.195259031656,0.21107817123
1588857677896029403,6667,1588857677895940655,,0.499997431365,-0.195180354397,0.211070900559
1588857677902286135,6668,1588857677902066460,,0.500001800712,-0.195104061563,0.211058042636
1588857677905195721,6669,1588857677905074825,,0.500006128276,-0.195025773378,0.211046461093
1588857677911195716,6670,1588857677911019756,,0.500011623855,-0.194941169809,0.211035518999
1588857677914184956,6671,1588857677914028709,,0.500015894253,-0.194860434289,0.211025878442
1588857677917143651,6672,1588857677917025146,,0.500021067766,-0.194775008919,0.211014009213
1588857677920187843,6673,1588857677920062324,,0.500026011948,-0.19469007824,0.211004373419
1588857677926150316,6674,1588857677926033289,,0.500031818339,-0.194602269903,0.210991884572
1588857677929190915,6675,1588857677929087509,,0.500035833282,-0.194518974947,0.210981144841
1588857677935132495,6676,1588857677935046776,,0.500041799779,-0.1944279302,0.210972556684
1588857677938124000,6677,1588857677938019321,,0.500047564143,-0.194346672916,0.210961327519
1588857677944634439,6678,1588857677944545421,,0.500058128659,-0.194171127644,0.210942264991
1588857677950199713,6679,1588857677950039793,,0.500064333949,-0.194086264523,0.210928557437
1588857677953072830,6680,1588857677952997396,,0.500067410365,-0.193996456467,0.210917965703
1588857677959151371,6681,1588857677958991966,,0.500073263405,-0.193904737725,0.210908122316
1588857677962117166,6682,1588857677961987494,,0.500077595516,-0.193817408784,0.210894655274
1588857677965203265,6683,1588857677965021825,,0.500081478129,-0.193730330648,0.210882283874
1588857677968076538,6684,1588857677967959682,,0.500086733275,-0.193640903029,0.210875900266
1588857677974129493,6685,1588857677974018587,,0.500090435657,-0.193569486381,0.210865712466
1588857677977150070,6686,1588857677976982153,,0.500095209697,-0.193477941072,0.210855017672
1588857677983162906,6687,1588857677982979403,,0.500101499342,-0.193373607727,0.210842217471
1588857677986242864,6688,1588857677986068388,,0.500105023663,-0.193304120855,0.210834275323
1588857677989142517,6689,1588857677989014944,,0.500109583511,-0.193207621937,0.210823185234
1588857677992143699,6690,1588857677992003131,,0.500114873379,-0.193102201959,0.210809178333
1588857677998186581,6691,1588857677998019215,,0.50011882133,-0.193013508483,0.21079869418
1588857678007276293,6692,1588857678007063806,,0.500127715651,-0.19282973256,0.210774266128
1588857678010150526,6693,1588857678010046085,,0.500133077513,-0.19273603733,0.210767633923
1588857678013228183,6694,1588857678013067128,,0.500138522348,-0.192646647996,0.210755736388
1588857678019202091,6695,1588857678019096953,,0.500143503466,-0.192555026345,0.210743879338
1588857678022141567,6696,1588857678022031812,,0.500149953189,-0.19246256368,0.210735119012
1588857678025214092,6697,1588857678025073019,,0.50015490214,-0.192373113837,0.210721703857
1588857678031155906,6698,1588857678031030713,,0.500159293987,-0.192304662713,0.210714987188
1588857678034155793,6699,1588857678034049563,,0.500163836063,-0.192232013934,0.21070808163
1588857678037195479,6700,1588857678037075649,,0.500169989666,-0.192127316367,0.210695970396
1588857678043093465,6701,1588857678042991198,,0.50017449294,-0.192043167137,0.210687767324
1588857678046412919,6702,1588857678046209635,,0.500176359337,-0.191977592796,0.210676173222
1588857678049203628,6703,1588857678049043600,,0.500183582067,-0.191871386832,0.210665858558
1588857678055125074,6704,1588857678055009554,,0.500187104469,-0.191770196592,0.210654194623
1588857678058149571,6705,1588857678058045635,,0.500192525639,-0.191684152286,0.210641042156
1588857678061237165,6706,1588857678061152912,,0.500196622976,-0.191601422295,0.210629778168
1588857678067230418,6707,1588857678067062490,,0.500202456865,-0.191512617047,0.21062118112
1588857678070156042,6708,1588857678070068370,,0.500206761634,-0.191424223462,0.21060714816
1588857678073221586,6709,1588857678073096065,,0.500211348617,-0.191333146271,0.210597455004
1588857678079167960,6710,1588857678079049554,,0.500217296624,-0.191238405527,0.210586797937
1588857678082106514,6711,1588857678082009894,,0.5002239885,-0.191134225905,0.210578486338
1588857678085182960,6712,1588857678085033947,,0.500228980761,-0.191035685795,0.210567203911
1588857678091135671,6713,1588857678091043116,,0.500237069802,-0.190931872697,0.210559488635
1588857678094196686,6714,1588857678094036840,,0.50024334675,-0.19082691445,0.210552727437
1588857678097171974,6715,1588857678097041481,,0.500248890263,-0.190722506617,0.210542882096
1588857678103206652,6716,1588857678103052059,,0.500257253318,-0.190609423925,0.210537310835
1588857678106168486,6717,1588857678106035099,,0.500261895352,-0.190507553773,0.210529337237
1588857678109133824,6718,1588857678109018755,,0.500268958045,-0.190394206138,0.210519813658
1588857678115189092,6719,1588857678115083149,,0.500274954362,-0.190284943684,0.210514114204
1588857678118136559,6720,1588857678118029814,,0.500279696458,-0.190174129353,0.210502521031
1588857678121119051,6721,1588857678121038796,,0.500286319737,-0.190063554426,0.210494692428
1588857678127222669,6722,1588857678127051527,,0.500289891046,-0.18995397893,0.21048163743
1588857678130064925,6723,1588857678129984844,,0.500296029877,-0.18984636192,0.210471465438
1588857678136180070,6724,1588857678136039019,,0.500300860103,-0.189736249151,0.21045995065
1588857678139130255,6725,1588857678139019656,,0.500307639163,-0.189629101546,0.210447215268
1588857678142109490,6726,1588857678142010854,,0.500313181695,-0.18952017171,0.210434462724
1588857678148379811,6727,1588857678148293943,,0.500319591464,-0.189412141528,0.21042195599
1588857678151090730,6728,1588857678150998150,,0.500325707989,-0.189302654584,0.210408889746
1588857678154200444,6729,1588857678154027901,,0.500330950804,-0.189196429105,0.21039804032
1588857678157074975,6730,1588857678156985943,,0.500336928174,-0.189091831851,0.210385022113
1588857678163343220,6731,1588857678163095310,,0.500344758478,-0.188984666457,0.21037742281
1588857678166205199,6732,1588857678166044793,,0.500350091182,-0.188877826145,0.210365307275
1588857678172100336,6733,1588857678171974101,,0.50035720922,-0.188770277433,0.210355434825
1588857678175108070,6734,1588857678175001886,,0.500364263593,-0.188661138803,0.21034330281
1588857678178104201,6735,1588857678178011744,,0.500372358128,-0.188548889949,0.210335945757
1588857678184152902,6736,1588857678184015618,,0.500379500314,-0.188439058923,0.210328973718
1588857678187221347,6737,1588857678187079834,,0.500385892936,-0.188328270466,0.210319491386
1588857678190211528,6738,1588857678190044950,,0.50039239944,-0.188216218981,0.210308691243
1588857678196073232,6739,1588857678195999310,,0.50039773203,-0.188102267672,0.210299966309
1588857678199130418,6740,1588857678199055180,,0.500404233128,-0.187989933186,0.210290379126
1588857678202118434,6741,1588857678202031708,,0.50041083089,-0.187874607706,0.210280182522
1588857678208091835,6742,1588857678208034442,,0.500417502614,-0.187760372527,0.210271317781
1588857678211159054,6743,1588857678211048207,,0.500422951815,-0.187648928714,0.210261335739
1588857678214114162,6744,1588857678214016430,,0.500429890335,-0.187536919744,0.210245903467
1588857678220109749,6745,1588857678220037269,,0.500435579696,-0.187425446831,0.210236880408
1588857678226107942,6746,1588857678226018910,,0.500442268559,-0.187313114154,0.210225502081
1588857678229108723,6747,1588857678228994588,,0.500447673274,-0.187204290544,0.210212050217
1588857678232194158,6748,1588857678232091597,,0.500455260611,-0.187093078973,0.210204225922
1588857678235179278,6749,1588857678235065272,,0.500461312187,-0.186984658763,0.21019136852
1588857678238085184,6750,1588857678238002797,,0.500468575236,-0.18687568552,0.21018189112
1588857678244579084,6751,1588857678244488636,,0.500475840532,-0.1867660424,0.210170279493
1588857678247540127,6752,1588857678247372215,,0.500482559091,-0.186657901846,0.21016023516
1588857678253192952,6753,1588857678253092544,,0.500490656496,-0.186549327331,0.210151953883
1588857678256158568,6754,1588857678256039270,,0.500499688312,-0.18644000088,0.210144144522
1588857678259205129,6755,1588857678259090001,,0.500505815043,-0.186330114153,0.210133269793
1588857678265171020,6756,1588857678265076644,,0.500514460988,-0.186222103899,0.210125850062
1588857678268149239,6757,1588857678268046882,,0.500522898565,-0.186113022886,0.210116633018
1588857678274207758,6758,1588857678274043544,,0.500530317058,-0.186000976112,0.210107358815
1588857678277120149,6759,1588857678277019688,,0.500538212142,-0.185886594524,0.210097424085
1588857678280123202,6760,1588857678280024986,,0.500546128094,-0.185776423248,0.21008761834
1588857678283090072,6761,1588857678283007111,,0.500553826347,-0.185663445926,0.210076994893
1588857678289149595,6762,1588857678289033381,,0.500561434658,-0.185551698976,0.210067831125
1588857678292337064,6763,1588857678292123130,,0.50057045716,-0.185441106739,0.210057864676
1588857678298217596,6764,1588857678298024934,,0.500579395662,-0.185327524652,0.210050918787
1588857678304165070,6765,1588857678303983313,,0.500597176542,-0.185106898711,0.210034910497
1588857678307147151,6766,1588857678307055389,,0.500605829556,-0.184998623159,0.21002636544
1588857678313207157,6767,1588857678313053708,,0.500615164879,-0.184890536756,0.210018252434
1588857678316161743,6768,1588857678316039948,,0.500623850448,-0.184784158684,0.210009697081
1588857678322222340,6769,1588857678322085032,,0.500633749389,-0.184677779031,0.210004344594
1588857678325206975,6770,1588857678325111009,,0.500644278059,-0.184576652186,0.209998010025
1588857678328166297,6771,1588857678328069604,,0.500654615662,-0.184474615097,0.209991629308
1588857678331199465,6772,1588857678331121989,,0.500662721959,-0.184394554202,0.209986147555
1588857678337209496,6773,1588857678337120175,,0.50067241479,-0.184290879935,0.209977718057
1588857678340132968,6774,1588857678340037778,,0.500684556959,-0.184174923619,0.209970231295
1588857678346341229,6775,1588857678346248754,,0.500691205514,-0.184102317711,0.209963514455
1588857678349199613,6776,1588857678349100354,,0.500701815292,-0.183998525589,0.209956892293
1588857678352145968,6777,1588857678352069918,,0.500711968158,-0.183882283595,0.209947528232
1588857678355259196,6778,1588857678355122941,,0.500720882459,-0.183786055597,0.209937945724
1588857678361189974,6779,1588857678361113729,,0.500730773385,-0.183685171484,0.209932775102
1588857678364230061,6780,1588857678364092311,,0.500740173894,-0.183583483084,0.20992451022
1588857678370232264,6781,1588857678370120465,,0.500749303361,-0.183480584905,0.209920659446
1588857678373287507,6782,1588857678373124800,,0.500759230359,-0.183379896108,0.209913871555
1588857678376205082,6783,1588857678376092563,,0.500768037498,-0.183273175809,0.209908134865
1588857678379295097,6784,1588857678379100140,,0.500777746047,-0.183166553479,0.209903761676
1588857678385210351,6785,1588857678385131981,,0.500787563245,-0.18305983557,0.209896467836
1588857678388304967,6786,1588857678388152755,,0.500797047159,-0.182947045389,0.209889455078
1588857678394184462,6787,1588857678394092355,,0.500806777762,-0.182840385335,0.20987973472
1588857678397261079,6788,1588857678397100386,,0.500816298725,-0.182732151975,0.209873162471
1588857678400177945,6789,1588857678400074861,,0.500827149332,-0.182620632263,0.209863561938
1588857678406157785,6790,1588857678406031614,,0.50083655846,-0.182513734593,0.209854897988
1588857678409156527,6791,1588857678409081933,,0.500847428243,-0.182405242723,0.209846922016
1588857678412249606,6792,1588857678412080678,,0.500858079939,-0.182299230778,0.209839492475
1588857678418202732,6793,1588857678418090833,,0.500869326671,-0.182191343241,0.209834263437
1588857678424289216,6794,1588857678424101120,,0.500892020736,-0.181983947122,0.209821747767
1588857678430273812,6795,1588857678430142599,,0.500902377422,-0.181882468522,0.209819571075
1588857678433179490,6796,1588857678433069077,,0.500913162958,-0.181783186587,0.209811686839
1588857678436177443,6797,1588857678436072732,,0.500923659772,-0.181679524094,0.209807066519
1588857678442179646,6798,1588857678442078729,,0.500933738184,-0.181577937047,0.209805180662
1588857678445404305,6799,1588857678445284796,,0.500943641564,-0.181478427473,0.209801454801
1588857678448540255,6800,1588857678448467609,,0.500953770038,-0.181378154219,0.209798593858
1588857678454346624,6801,1588857678454119847,,0.500961346967,-0.181299386909,0.209795061774
1588857678457174710,6802,1588857678457055566,,0.500972272815,-0.181197931638,0.20979138475
1588857678460154455,6803,1588857678460027849,,0.500982159113,-0.181085579536,0.20978620114
1588857678466215062,6804,1588857678466120508,,0.500990477527,-0.181003965284,0.209783877993
1588857678469099808,6805,1588857678469030880,,0.501001824491,-0.180906163808,0.209781371971
1588857678472147063,6806,1588857678472017286,,0.50101113388,-0.180799112862,0.209773211975
1588857678478184089,6807,1588857678478047923,,0.501020661687,-0.180706379156,0.209768611384
1588857678484257504,6808,1588857678484137844,,0.501038400619,-0.180529772389,0.209759504946
1588857678490213554,6809,1588857678490126397,,0.501047160852,-0.180441803482,0.209753979498
1588857678493226545,6810,1588857678493145170,,0.501054783093,-0.180357704319,0.209752351309
1588857678496219480,6811,1588857678496100096,,0.501064623949,-0.180272201623,0.209751987524
1588857678502222219,6812,1588857678502076141,,0.501074332886,-0.180186574121,0.209747866464
1588857678505183281,6813,1588857678505091315,,0.501083853748,-0.180104030529,0.209742658851
1588857678508185473,6814,1588857678508087519,,0.501094530463,-0.180021072486,0.209743387771
1588857678514203748,6815,1588857678514054313,,0.501105934369,-0.17993661021,0.209740633907
1588857678517165230,6816,1588857678517044648,,0.501115910717,-0.179852681055,0.209736738272
1588857678523306282,6817,1588857678523199399,,0.501126873795,-0.179768547468,0.209736103194
1588857678526248380,6818,1588857678526121149,,0.50113621967,-0.179684328292,0.209731548942
1588857678529222410,6819,1588857678529114090,,0.501145839688,-0.179601390376,0.209727889421
1588857678535210005,6820,1588857678535110803,,0.501154928931,-0.179517070734,0.209725966213
1588857678538226788,6821,1588857678538066391,,0.501163754663,-0.17943263839,0.209721653788
1588857678547574780,6822,1588857678547456814,,0.501178247141,-0.179259648119,0.209711862885
1588857678550184708,6823,1588857678550071295,,0.501187967847,-0.17917165893,0.209707381344
1588857678553194981,6824,1588857678553108668,,0.501195373479,-0.179082338763,0.209701291088
1588857678559193911,6825,1588857678559121361,,0.501203092068,-0.178993521642,0.209697263748
1588857678562145149,6826,1588857678562044313,,0.501210586009,-0.178905132054,0.209692215864
1588857678565210242,6827,1588857678565085960,,0.501217848901,-0.178820766757,0.209686251577
1588857678571182392,6828,1588857678571113268,,0.501224434262,-0.178752497142,0.209686334543
1588857678574310305,6829,1588857678574168652,,0.50123049144,-0.178682021503,0.209681839836
1588857678577250380,6830,1588857678577080626,,0.501239005998,-0.178592308084,0.209679973631
1588857678583167431,6831,1588857678583056991,,0.501246144885,-0.178513862412,0.209679582227
1588857678586232630,6832,1588857678586088020,,0.501251732019,-0.178455181883,0.209676785391
1588857678589218063,6833,1588857678589113234,,0.501258972802,-0.178371750406,0.209674165976
1588857678595174570,6834,1588857678595082748,,0.501267357189,-0.178290030567,0.209671461709
1588857678598199127,6835,1588857678598088236,,0.50127417144,-0.178222730029,0.209670571201
1588857678601266440,6836,1588857678601167491,,0.501279222588,-0.178160899887,0.209665729572
1588857678607226897,6837,1588857678607140922,,0.501286189033,-0.178098747911,0.20966202355
1588857678610268772,6838,1588857678610171946,,0.50129205527,-0.178037217247,0.209659857215
1588857678613255802,6839,1588857678613142300,,0.501298077329,-0.177973437783,0.209655609876
1588857678619294572,6840,1588857678619197634,,0.501303950622,-0.177907046964,0.209651893915
1588857678622250271,6841,1588857678622138774,,0.501310524646,-0.177838377721,0.209649179074
1588857678628245709,6842,1588857678628130909,,0.501317740104,-0.177769853451,0.209644603378
1588857678631235874,6843,1588857678631093808,,0.501324167273,-0.177697754912,0.209642648184
1588857678634289373,6844,1588857678634103432,,0.501329746098,-0.17762520402,0.209636340789
1588857678640174002,6845,1588857678640043446,,0.501337864429,-0.177550346238,0.209637480483
1588857678643284501,6846,1588857678643100293,,0.501344353433,-0.177476312178,0.209634386104
1588857678646440843,6847,1588857678646239690,,0.501350502787,-0.177395660381,0.209633939495
1588857678652234634,6848,1588857678652117616,,0.501357208575,-0.177324217715,0.209633052885
1588857678655231848,6849,1588857678655120639,,0.501363815442,-0.177244253772,0.209629923042
1588857678658241527,6850,1588857678658037223,,0.501369482631,-0.177164132726,0.209632908011
1588857678664310666,6851,1588857678664098708,,0.501377980234,-0.177084791616,0.209635124099
1588857678667392498,6852,1588857678667159039,,0.501383482405,-0.177009597822,0.209632450344
1588857678670177602,6853,1588857678670090408,,0.501390655137,-0.17692915188,0.209633468817
1588857678676242558,6854,1588857678676134618,,0.501395813872,-0.176853346756,0.209630593596
1588857678679214437,6855,1588857678679120346,,0.501401785325,-0.176779009205,0.209629928591
1588857678685259706,6856,1588857678685179799,,0.50140747933,-0.176706527082,0.20962894416
1588857678688204981,6857,1588857678688109105,,0.501411909051,-0.176632670072,0.209626628873
1588857678691253660,6858,1588857678691123971,,0.501415757616,-0.176563994257,0.209621820821
1588857678694310921,6859,1588857678694108693,,0.501422252397,-0.176498871901,0.209621703518
1588857678700198247,6860,1588857678700084675,,0.5014257579,-0.176431262056,0.209619151524
1588857678703313647,6861,1588857678703228936,,0.501430956143,-0.176369955007,0.209615369257
1588857678709226890,6862,1588857678709124433,,0.50143646248,-0.176306776538,0.209612219713
1588857678712236934,6863,1588857678712121184,,0.50144084773,-0.176247815931,0.209608134378
1588857678715218085,6864,1588857678715103193,,0.501445696583,-0.176187654029,0.209607212388
1588857678718215623,6865,1588857678718125040,,0.501450840315,-0.176127929452,0.209605356035
1588857678724183305,6866,1588857678724072938,,0.501456044737,-0.176068450355,0.209605272345
1588857678727139477,6867,1588857678727074197,,0.501460248032,-0.176008323449,0.209601465353
1588857678733185372,6868,1588857678733086665,,0.50146497138,-0.175950721051,0.209600825981
1588857678736210655,6869,1588857678736114808,,0.50147158872,-0.175888973796,0.209602780716
1588857678739176035,6870,1588857678739083056,,0.501475949419,-0.175825984584,0.209600748902
1588857678742207337,6871,1588857678742122768,,0.501481755951,-0.175768434784,0.209601704512
1588857678748495954,6872,1588857678748416365,,0.501487262811,-0.175708716904,0.209600954868
1588857678751250557,6873,1588857678751162363,,0.501492993945,-0.175645971868,0.209600987873
1588857678757220757,6874,1588857678757105621,,0.501499803679,-0.175588651776,0.209604646264
1588857678760183595,6875,1588857678760106211,,0.50150252996,-0.175528085675,0.209605197368
1588857678763223368,6876,1588857678763099189,,0.501509435446,-0.175469118671,0.209607902125
1588857678766248909,6877,1588857678766127738,,0.50151419363,-0.175415954904,0.20960535311
1588857678772328718,6878,1588857678772147620,,0.501519799436,-0.175363895082,0.209607553297
1588857678775220198,6879,1588857678775144694,,0.501523398902,-0.175307018022,0.209608037822
1588857678784208461,6880,1588857678784086867,,0.501533676792,-0.175204851002,0.20961428458
1588857678787191429,6881,1588857678787087119,,0.501536763166,-0.175159112371,0.209613257911
1588857678793203295,6882,1588857678793106478,,0.501541502206,-0.175112526236,0.209619021915
1588857678796216508,6883,1588857678796083876,,0.501545435377,-0.175067016651,0.209621746119
1588857678799350531,6884,1588857678799161442,,0.501549841641,-0.175022645174,0.209622395537
1588857678805352757,6885,1588857678805181587,,0.501554176187,-0.174979213273,0.209625703028
1588857678808224947,6886,1588857678808116318,,0.501558390027,-0.174940640238,0.209630390406
1588857678811209852,6887,1588857678811112263,,0.501561502436,-0.174904864478,0.209632370434
1588857678817229482,6888,1588857678817125834,,0.501566318876,-0.174866479401,0.209636418725
1588857678820276092,6889,1588857678820148402,,0.501569638718,-0.17482362653,0.209640002988
1588857678823196217,6890,1588857678823100210,,0.501572902972,-0.174791627689,0.209642438859
1588857678829272887,6891,1588857678829117461,,0.501576025124,-0.174753120302,0.209646640656
1588857678832126806,6892,1588857678832062700,,0.501580412431,-0.174713845902,0.209649716013
1588857678835295154,6893,1588857678835131888,,0.50158340551,-0.174678355528,0.209653100599
1588857678841228872,6894,1588857678841168105,,0.501586444883,-0.174644749275,0.209655976941
1588857678844635431,6895,1588857678844533065,,0.501590083848,-0.174609499857,0.209658433339
1588857678853329099,6896,1588857678853104638,,0.501597232646,-0.174547439964,0.209666931511
1588857678856246025,6897,1588857678856141643,,0.50160024838,-0.174515755978,0.209669155485
1588857678859268783,6898,1588857678859146920,,0.501602731431,-0.174483797755,0.209673554291
1588857678865269276,6899,1588857678865108375,,0.501606456116,-0.174453531907,0.209678579408
1588857678868194065,6900,1588857678868099191,,0.501609592479,-0.174426359945,0.209682569978
1588857678871237851,6901,1588857678871149603,,0.501612007926,-0.174400589523,0.209685749593
1588857678877210321,6902,1588857678877147157,,0.501614308836,-0.174374568413,0.209689441236
1588857678880307925,6903,1588857678880148036,,0.501616425924,-0.174351674806,0.209692475248
1588857678883223038,6904,1588857678883101807,,0.501619663465,-0.17432833512,0.209697593918
1588857678889236418,6905,1588857678889102557,,0.501620832343,-0.174308958071,0.209703533874
1588857678892234002,6906,1588857678892115013,,0.501622791675,-0.174290211056,0.209708255986
1588857678895221935,6907,1588857678895108412,,0.50162489536,-0.174267874206,0.209711982114
1588857678901436056,6908,1588857678901325582,,0.501627481944,-0.174246385441,0.209714515297
1588857678904256335,6909,1588857678904154344,,0.501629008806,-0.174228394747,0.20971557807
1588857678910236464,6910,1588857678910136656,,0.50163092948,-0.174211917037,0.209718655773
1588857678913348249,6911,1588857678913217549,,0.501632569721,-0.174197280789,0.209722627676
1588857678916205680,6912,1588857678916122485,,0.501634536656,-0.17418280368,0.209727412752
1588857678922344456,6913,1588857678922229815,,0.501635530373,-0.174168546461,0.209731261182
1588857678925272980,6914,1588857678925178017,,0.501635971758,-0.174154984399,0.209735835052
1588857678928210438,6915,1588857678928083860,,0.501636858293,-0.174140225745,0.209738972469
1588857678934141849,6916,1588857678934081880,,0.501638691205,-0.174127722287,0.209744422017
1588857678937334457,6917,1588857678937177851,,0.501639632273,-0.174114561086,0.209747899714
1588857678940217729,6918,1588857678940100555,,0.501640988638,-0.174102460867,0.209751670404
1588857678946485892,6919,1588857678946352993,,0.50164207069,-0.174090411167,0.20975601522
1588857678949336686,6920,1588857678949223302,,0.501642780641,-0.174077260463,0.209759579949
1588857678952303283,6921,1588857678952204157,,0.50164383228,-0.174067011275,0.209764450837
1588857678958324009,6922,1588857678958150262,,0.501645062971,-0.17405585898,0.209769873161
1588857678964315727,6923,1588857678964172258,,0.501647705543,-0.174033372163,0.209778723198
1588857678970318470,6924,1588857678970205285,,0.501648482204,-0.174025067506,0.209782607733
1588857678973339242,6925,1588857678973218258,,0.501650240505,-0.174015930505,0.209786318364
1588857678976156770,6926,1588857678976093899,,0.501651274587,-0.174007692674,0.20978955072
1588857678982320326,6927,1588857678982198176,,0.501652081523,-0.174000594803,0.209794003551
1588857678985316400,6928,1588857678985189987,,0.501653039327,-0.173993453899,0.209798259174
1588857678988309860,6929,1588857678988244869,,0.501653907023,-0.173985568617,0.209803790598
1588857678994356683,6930,1588857678994202370,,0.50165437324,-0.17397896357,0.209809058755
1588857678997316801,6931,1588857678997217374,,0.501654683539,-0.17397199265,0.209812964764
1588857679000297974,6932,1588857679000173111,,0.50165577859,-0.173966091676,0.209817047183
1588857679006332841,6933,1588857679006208369,,0.501656186602,-0.173961170359,0.20982066553
1588857679009272550,6934,1588857679009205808,,0.501657271949,-0.173957109181,0.209823311554
1588857679012316321,6935,1588857679012225662,,0.501658339899,-0.173953380157,0.209826784556
1588857679018398690,6936,1588857679018195451,,0.501659339562,-0.173949711088,0.209829260731
1588857679021291202,6937,1588857679021222178,,0.50166116062,-0.173947489344,0.209833047663
1588857679027348657,6938,1588857679027243464,,0.501661702386,-0.173945324756,0.209836147149
1588857679030244245,6939,1588857679030162040,,0.501662913166,-0.173944236858,0.209840292873
1588857679033234809,6940,1588857679033128441,,0.501663914993,-0.173941822198,0.209843798717
1588857679039246853,6941,1588857679039107910,,0.501665084479,-0.173940685816,0.209847795316
1588857679042185246,6942,1588857679042110591,,0.501666630095,-0.173939748576,0.20985185418
1588857679048518175,6943,1588857679048426232,,0.501668246695,-0.173937778541,0.209856567104
1588857679051203255,6944,1588857679051099186,,0.501670990862,-0.173937040485,0.209863079073
1588857679054336387,6945,1588857679054182774,,0.501672648843,-0.173936878139,0.209869078146
1588857679057255243,6946,1588857679057146783,,0.501676142163,-0.173934710495,0.209876604288
1588857679060421945,6947,1588857679060279843,,0.501679049167,-0.173935579492,0.209884226651
1588857679066366673,6948,1588857679066201091,,0.501682208114,-0.173933756579,0.209891116244
1588857679072204261,6949,1588857679072129495,,0.501685938626,-0.173932705104,0.20989979469
1588857679075258005,6950,1588857679075136501,,0.501688735192,-0.173931469133,0.209908323714
1588857679078280332,6951,1588857679078159654,,0.501691191022,-0.173930639259,0.209915206934
1588857679087380270,6952,1588857679087203134,,0.501694508146,-0.173931575065,0.209928350978
1588857679090194069,6953,1588857679090121673,,0.501697532384,-0.17393188098,0.209936328605
1588857679096343711,6954,1588857679096185482,,0.501697635152,-0.173932630642,0.209940122207
1588857679099172996,6955,1588857679099113589,,0.501699509795,-0.173933117239,0.209946542934
1588857679102201887,6956,1588857679102139281,,0.50170105634,-0.173933818232,0.209951519559
1588857679105228250,6957,1588857679105155950,,0.501702340297,-0.173936166514,0.209955849002
1588857679111202049,6958,1588857679111092156,,0.501703741848,-0.173937209075,0.209960758996
1588857679114241336,6959,1588857679114140334,,0.501704151253,-0.173938845556,0.209964523334
1588857679120272558,6960,1588857679120154198,,0.501705972816,-0.173941817233,0.209970511346
1588857679123368521,6961,1588857679123219733,,0.501707166028,-0.173943986129,0.209975763084
1588857679126249378,6962,1588857679126140559,,0.50170738439,-0.173947161417,0.209979472002
1588857679129202265,6963,1588857679129132276,,0.501708652957,-0.17394904775,0.20998589983
1588857679135320560,6964,1588857679135198432,,0.501709983689,-0.173953258049,0.209992083888
1588857679138223311,6965,1588857679138109782,,0.501710955813,-0.173954291762,0.20999833739
1588857679144413964,6966,1588857679144336044,,0.501711771485,-0.173957990442,0.210003373986
1588857679147492829,6967,1588857679147431579,,0.501713212566,-0.173960178635,0.210009124718
1588857679150261978,6968,1588857679150201131,,0.501713075437,-0.173962861806,0.210013345457
1588857679153458026,6969,1588857679153271271,,0.501713630513,-0.173965866691,0.210018159506
1588857679159284095,6970,1588857679159194686,,0.501713624206,-0.173969781155,0.210022184737
1588857679162325209,6971,1588857679162215410,,0.501713581432,-0.173974523522,0.210026583387
1588857679168243644,6972,1588857679168155246,,0.501713902862,-0.173980393898,0.210031366714
1588857679171286066,6973,1588857679171160264,,0.501714114855,-0.173986139929,0.210035973593
1588857679174279143,6974,1588857679174150610,,0.501714065196,-0.173992118095,0.210039148534
1588857679180317184,6975,1588857679180197649,,0.501713812058,-0.173996294362,0.210043772733
1588857679183377405,6976,1588857679183177367,,0.501714932689,-0.17400236454,0.210048716328
1588857679186309271,6977,1588857679186218292,,0.501714930077,-0.174007720102,0.21005278158
1588857679192326167,6978,1588857679192214936,,0.501714977907,-0.174012637019,0.210056725769
1588857679195250429,6979,1588857679195166535,,0.50171480922,-0.174017683696,0.210060537034
1588857679198294646,6980,1588857679198172256,,0.501715715424,-0.174019921888,0.210065405111
1588857679204304399,6981,1588857679204156747,,0.501715816801,-0.174024114808,0.210067964157
1588857679207282749,6982,1588857679207117467,,0.501715653293,-0.174027905945,0.210071103766
1588857679210333758,6983,1588857679210172562,,0.501716248824,-0.174028762666,0.210073858819
1588857679216388980,6984,1588857679216262416,,0.50171688654,-0.174030167578,0.210077395669
1588857679219350375,6985,1588857679219259104,,0.501717045865,-0.174030681283,0.210079346615
1588857679222392352,6986,1588857679222262711,,0.501717818809,-0.174031381748,0.210082664962
1588857679228529434,6987,1588857679228385580,,0.50171773461,-0.174030146431,0.210085346788
1588857679231343769,6988,1588857679231218746,,0.501717661423,-0.174028704963,0.210087071511
1588857679234326844,6989,1588857679234231668,,0.501718504046,-0.174028444882,0.210089940679
1588857679240366965,6990,1588857679240243008,,0.501718351828,-0.174028097453,0.21009233
1588857679243327314,6991,1588857679243221853,,0.501718544716,-0.174024841755,0.210094800412
1588857679246633732,6992,1588857679246492191,,0.501718900244,-0.174024324103,0.210097536206
1588857679252309374,6993,1588857679252233699,,0.501718777441,-0.174021995365,0.210100204285
1588857679255425511,6994,1588857679255268545,,0.501719069058,-0.174019436809,0.210103254956
1588857679258429034,6995,1588857679258261260,,0.501719430881,-0.174016155697,0.210105993744
1588857679264347591,6996,1588857679264185348,,0.501719562514,-0.174013264015,0.210109046194
1588857679267341663,6997,1588857679267191030,,0.501720931643,-0.174010416,0.210112066697
1588857679270345139,6998,1588857679270180073,,0.50172249041,-0.174005851842,0.210114838781
1588857679276361752,6999,1588857679276191117,,0.501723344174,-0.174002618774,0.210117323152
1588857679279368952,7000,1588857679279183176,,0.50172462648,-0.173997528971,0.210119621945
1588857679282383856,7001,1588857679282235432,,0.501726402779,-0.173994351631,0.210122936519
1588857679288366655,7002,1588857679288216881,,0.501727552782,-0.17398638056,0.210124917934
1588857679291349052,7003,1588857679291221521,,0.501728111554,-0.173979296546,0.210126865169
1588857679297436048,7004,1588857679297251651,,0.501730319053,-0.173970588385,0.210128808387
1588857679300328974,7005,1588857679300244688,,0.501732054554,-0.17396032361,0.210129902369
1588857679303265461,7006,1588857679303186946,,0.501734401952,-0.173946078587,0.210130470882
1588857679309292479,7007,1588857679309188722,,0.501736178912,-0.173930486162,0.210129676229
1588857679312406600,7008,1588857679312241413,,0.5017377065,-0.17391615336,0.210129570344
1588857679315287618,7009,1588857679315169899,,0.501739433613,-0.173903484444,0.210128736531
1588857679324285780,7010,1588857679324174157,,0.50174261354,-0.173876213557,0.210130187514
1588857679327313430,7011,1588857679327209572,,0.501743686391,-0.173860308123,0.210129250241
1588857679333468616,7012,1588857679333272642,,0.501745298195,-0.173843840092,0.210130069804
1588857679336300548,7013,1588857679336211649,,0.501746291138,-0.173829078893,0.210129020252
1588857679339380172,7014,1588857679339260870,,0.501748124596,-0.173812884948,0.210127661511
1588857679345855294,7015,1588857679345674599,,0.501749163325,-0.173796598049,0.210127620696
1588857679348681039,7016,1588857679348602818,,0.501749925277,-0.173782019484,0.210127417483
1588857679351345639,7017,1588857679351212859,,0.501750870518,-0.173768060064,0.210126083198
1588857679357368088,7018,1588857679357241099,,0.501750137803,-0.173753531955,0.21012462804
1588857679360387227,7019,1588857679360287824,,0.501749969236,-0.173740584803,0.210123582721
1588857679363307381,7020,1588857679363160398,,0.501749711061,-0.173730634434,0.210122908085
1588857679369269727,7021,1588857679369170365,,0.501748690004,-0.173720895608,0.210120564466
1588857679372287924,7022,1588857679372186768,,0.501748250843,-0.173711177843,0.210119485992
1588857679375477694,7023,1588857679375291516,,0.501747892665,-0.173703902295,0.210119068635
1588857679384260594,7024,1588857679384136644,,0.501746356808,-0.173688540704,0.210115385169
1588857679387263355,7025,1588857679387167163,,0.501745494564,-0.173682240273,0.210113236784
1588857679393304698,7026,1588857679393238677,,0.501744464101,-0.173677550233,0.210111948825
1588857679396322506,7027,1588857679396209345,,0.501743680037,-0.173674271719,0.210110389629
1588857679402306169,7028,1588857679402211893,,0.501742540628,-0.173672706137,0.210109647866
1588857679405300259,7029,1588857679405201421,,0.501742176618,-0.173669722751,0.210109049091
1588857679411428508,7030,1588857679411215750,,0.501740386863,-0.173667938174,0.21010671585
1588857679417331179,7031,1588857679417159623,,0.501739111216,-0.173665396254,0.210104251252
1588857679420312767,7032,1588857679420187664,,0.501738147767,-0.173665166928,0.210103761957
1588857679426248142,7033,1588857679426139147,,0.50173757347,-0.173663139052,0.210102513297
1588857679429211108,7034,1588857679429135621,,0.50173630748,-0.173663602635,0.210099793799
1588857679435346889,7035,1588857679435212048,,0.501735314992,-0.173664301648,0.210098638665
1588857679438358851,7036,1588857679438265404,,0.50173412975,-0.173664340626,0.210096916053
1588857679441470649,7037,1588857679441402113,,0.501732981491,-0.173664595642,0.210094860749
1588857679444394309,7038,1588857679444280896,,0.50173140319,-0.173664671784,0.210092639237
1588857679450417037,7039,1588857679450242901,,0.501730514539,-0.173665836095,0.210089810819
1588857679453433798,7040,1588857679453294187,,0.501729085347,-0.173665898037,0.210087620356
1588857679459386599,7041,1588857679459224282,,0.501727256402,-0.173668954912,0.210084968559
1588857679462426980,7042,1588857679462254692,,0.501726476365,-0.173668621389,0.210082695598
1588857679465402188,7043,1588857679465289949,,0.50172509449,-0.17366962576,0.210080599621
1588857679468254415,7044,1588857679468163005,,0.50172322133,-0.173671632659,0.210077142131
1588857679474336138,7045,1588857679474248526,,0.501722521806,-0.173673499172,0.210075401777
1588857679477407430,7046,1588857679477291353,,0.501720879325,-0.17367334247,0.210072075268
1588857679483404511,7047,1588857679483258283,,0.501720042494,-0.173675934037,0.210069265864
1588857679486400150,7048,1588857679486252819,,0.501719785539,-0.173678035221,0.210066967169
1588857679489477072,7049,1588857679489291935,,0.501718730339,-0.173681310583,0.210063108847
1588857679492480910,7050,1588857679492312120,,0.501718420795,-0.173684551672,0.210059947462
1588857679498380447,7051,1588857679498264605,,0.501717400911,-0.173686670421,0.210055448099
1588857679507388274,7052,1588857679507200684,,0.50171680194,-0.173698236202,0.210038729931
1588857679510341766,7053,1588857679510159306,,0.501717422316,-0.173705527923,0.210029225086
1588857679513317902,7054,1588857679513220471,,0.501717609895,-0.173711921668,0.210020821156
1588857679516303849,7055,1588857679516196695,,0.501718227391,-0.173720108297,0.210011451601
1588857679522381624,7056,1588857679522235350,,0.50171831331,-0.173727001649,0.210001583448
1588857679525469591,7057,1588857679525283368,,0.5017195839,-0.173735283052,0.209993602633
1588857679531462520,7058,1588857679531285541,,0.501720902881,-0.173745489621,0.209984364841
1588857679537348275,7059,1588857679537233875,,0.501722676698,-0.17376601229,0.20996707873
1588857679543391623,7060,1588857679543275522,,0.501724523318,-0.173778894477,0.209959191161
1588857679546528343,7061,1588857679546442833,,0.501726761549,-0.173791466751,0.209953115144
1588857679549626436,7062,1588857679549552848,,0.501728605435,-0.173804034986,0.209944213584
1588857679555420654,7063,1588857679555254624,,0.501732106567,-0.173817318897,0.20993874519
1588857679558370106,7064,1588857679558215255,,0.501734529246,-0.173831166886,0.209929594001
1588857679561633880,7065,1588857679561474363,,0.50173700231,-0.173843553551,0.209922382614
1588857679567440072,7066,1588857679567268067,,0.501739221825,-0.173856383383,0.209915940419
1588857679570432876,7067,1588857679570313620,,0.501741538237,-0.173868159014,0.209909277031
1588857679573402150,7068,1588857679573268379,,0.501744868035,-0.173882554467,0.209900018458
1588857679579449949,7069,1588857679579249538,,0.501747296797,-0.173895793058,0.209891354221
1588857679582345848,7070,1588857679582239445,,0.501750707478,-0.173911462498,0.209884631816
1588857679585388462,7071,1588857679585268807,,0.501754223359,-0.173925571462,0.209877991494
1588857679591420545,7072,1588857679591231738,,0.501758505737,-0.173940640464,0.209869102677
1588857679597453186,7073,1588857679597269895,,0.501765429104,-0.17396961591,0.209857617046
1588857679603515436,7074,1588857679603306151,,0.50177084549,-0.173988220805,0.209851302381
1588857679606423739,7075,1588857679606301864,,0.501775312155,-0.174005063539,0.209844385886
1588857679609372818,7076,1588857679609263178,,0.501779424608,-0.174019738283,0.209839694764
1588857679615423012,7077,1588857679615279306,,0.501783941136,-0.174038547525,0.209833060105
1588857679618434904,7078,1588857679618289879,,0.501788729219,-0.174057315793,0.209824261541
1588857679621652890,7079,1588857679621547246,,0.501792999879,-0.174075654555,0.209816406253
1588857679627410212,7080,1588857679627286467,,0.501797078709,-0.174093934306,0.209812433075
1588857679630452490,7081,1588857679630285265,,0.501801848964,-0.174115419867,0.209802359842
1588857679633406063,7082,1588857679633278402,,0.501807538775,-0.174135049947,0.209795735243
1588857679639366339,7083,1588857679639242538,,0.50181157953,-0.174151762436,0.20979025841
1588857679642375930,7084,1588857679642279595,,0.501816928633,-0.174168647002,0.209782173859
1588857679645758602,7085,1588857679645621458,,0.501821949778,-0.174187946598,0.209772478476
1588857679651411054,7086,1588857679651288690,,0.501827936359,-0.174204008545,0.209764588445
1588857679657356972,7087,1588857679657273688,,0.501840402556,-0.174237999497,0.209751174569
1588857679663372790,7088,1588857679663271314,,0.501846361232,-0.174253384672,0.209742612917
1588857679666378136,7089,1588857679666254875,,0.50185193087,-0.174266592161,0.209736104922
1588857679669377686,7090,1588857679669302967,,0.501857119281,-0.174281423115,0.209724587466
1588857679675426133,7091,1588857679675295066,,0.501862190997,-0.174295298581,0.209715073184
1588857679678450227,7092,1588857679678279767,,0.501867585138,-0.174308999709,0.209706488721
1588857679684481210,7093,1588857679684311129,,0.501873117991,-0.174325091103,0.209692843331
1588857679687385279,7094,1588857679687247937,,0.501878437255,-0.174339310631,0.20968500735
1588857679690414189,7095,1588857679690295540,,0.501884067947,-0.174354325232,0.209676667953
1588857679696315114,7096,1588857679696228020,,0.501889805063,-0.174371183661,0.209660819554
1588857679699504605,7097,1588857679699331177,,0.501894867621,-0.174386142281,0.209646659553
1588857679702482287,7098,1588857679702328151,,0.501900584841,-0.174401081836,0.209635066743
1588857679708706312,7099,1588857679708618291,,0.501906752656,-0.174417004416,0.209620824292
1588857679711462457,7100,1588857679711311225,,0.50191337336,-0.174432209367,0.209607847019
1588857679714481876,7101,1588857679714373728,,0.501919309723,-0.174447635803,0.209595614697
1588857679720476706,7102,1588857679720341537,,0.501926269923,-0.174465403132,0.209582188935
1588857679723510287,7103,1588857679723317144,,0.501932312241,-0.174478749609,0.209569259082
1588857679726433688,7104,1588857679726345491,,0.50193897134,-0.174494166471,0.209557933672
1588857679732473202,7105,1588857679732316310,,0.501946040258,-0.174510877572,0.209543588694
1588857679735541475,7106,1588857679735254929,,0.501952984835,-0.174524473713,0.20953114144
1588857679738401444,7107,1588857679738284521,,0.501959685754,-0.174539390763,0.209515528475
1588857679744444961,7108,1588857679744340619,,0.501967117387,-0.174552216492,0.209503129368
1588857679747521935,7109,1588857679747436319,,0.501974578577,-0.17456497167,0.209489112474
1588857679753356846,7110,1588857679753285850,,0.501981879255,-0.174575940332,0.209474419334
1588857679756480110,7111,1588857679756308277,,0.501988460065,-0.1745871647,0.209457651654
1588857679759640738,7112,1588857679759367019,,0.501995542539,-0.174601324142,0.209443712692
1588857679762550319,7113,1588857679762349817,,0.502001514808,-0.174614099716,0.20943035115
1588857679768438891,7114,1588857679768359744,,0.502006618555,-0.174626683126,0.209415355866
1588857679771432856,7115,1588857679771308252,,0.502012348854,-0.174640495929,0.209401246441
1588857679780483002,7116,1588857679780326624,,0.502023382814,-0.174662776058,0.209375769993
1588857679783507768,7117,1588857679783323294,,0.502029377517,-0.17467404973,0.209363575639
1588857679786448636,7118,1588857679786311533,,0.502035819905,-0.174687008075,0.209348842905
1588857679792534242,7119,1588857679792337285,,0.502042529963,-0.174695252322,0.20933789963
1588857679795398450,7120,1588857679795289596,,0.502048858954,-0.17470790899,0.209322184254
1588857679804536688,7121,1588857679804320314,,0.502061219515,-0.174730035114,0.209297996203
1588857679807599280,7122,1588857679807375408,,0.502067257857,-0.174741118416,0.209284233911
1588857679813402736,7123,1588857679813263993,,0.50207344518,-0.174751991818,0.20927080238
1588857679816461359,7124,1588857679816279860,,0.502078985356,-0.174760489124,0.209258092884
1588857679822460577,7125,1588857679822311875,,0.502083555198,-0.174769454952,0.209246099913
1588857679825369951,7126,1588857679825291461,,0.502089523199,-0.174778343157,0.209230496761
1588857679828375366,7127,1588857679828277514,,0.502095343879,-0.174789545982,0.209216251018
1588857679831382207,7128,1588857679831274292,,0.502099555146,-0.174797199755,0.209204702875
1588857679837448195,7129,1588857679837282422,,0.502105909281,-0.174809449948,0.209191083695
1588857679840480383,7130,1588857679840297998,,0.502112192723,-0.174819723453,0.20917942144
1588857679846645802,7131,1588857679846510194,,0.502116667933,-0.174828173329,0.209166058557
1588857679849662668,7132,1588857679849589978,,0.502122575238,-0.174837004239,0.209155644536
1588857679852380841,7133,1588857679852255861,,0.502128146595,-0.174848013636,0.209141660324
1588857679855394402,7134,1588857679855303314,,0.502134367628,-0.174859936675,0.209128226604
1588857679864473666,7135,1588857679864349601,,0.502148167052,-0.174881162467,0.209103045719
1588857679870463063,7136,1588857679870345850,,0.502155388923,-0.174895845723,0.209089045983
1588857679873431242,7137,1588857679873310282,,0.502162556843,-0.174907144904,0.20907550351
1588857679876428725,7138,1588857679876297166,,0.502170336489,-0.174920269353,0.209061343171
1588857679879381025,7139,1588857679879264891,,0.502177133561,-0.17493327643,0.20904475121
1588857679885502909,7140,1588857679885340949,,0.502184404975,-0.174948716603,0.20902722906
1588857679888580466,7141,1588857679888461568,,0.502190541194,-0.174964350809,0.209009889844
1588857679897447110,7142,1588857679897309400,,0.502204657855,-0.174995047232,0.208976430121
1588857679900360057,7143,1588857679900257743,,0.502213484238,-0.175013751367,0.208959834042
1588857679903379630,7144,1588857679903280276,,0.502220341035,-0.175030354816,0.208944931176
1588857679909346454,7145,1588857679909252026,,0.502228649015,-0.175047744652,0.208923243699
1588857679912533136,7146,1588857679912358721,,0.50223626548,-0.175064740273,0.20890662406
1588857679918452790,7147,1588857679918268459,,0.502244694017,-0.175085163624,0.20888860011
1588857679924423163,7148,1588857679924283694,,0.502258769201,-0.17512047162,0.208858208062
1588857679927430344,7149,1588857679927253463,,0.502264976163,-0.175138612967,0.208838871458
1588857679933606124,7150,1588857679933396810,,0.502271924056,-0.175159568093,0.20882218792
1588857679936423660,7151,1588857679936291730,,0.502277496553,-0.175175070299,0.20880849735
1588857679942392673,7152,1588857679942264185,,0.502283820482,-0.175196157111,0.208790970112
1588857679945792850,7153,1588857679945689182,,0.502291515567,-0.175216582862,0.20877359964
1588857679948707906,7154,1588857679948610134,,0.502298506037,-0.17523907249,0.208756753842
1588857679954420263,7155,1588857679954293550,,0.502304353662,-0.175255367952,0.208741969207
1588857679957365242,7156,1588857679957253544,,0.50231156125,-0.175276529441,0.208724911101
1588857679960444252,7157,1588857679960313288,,0.502318177139,-0.175298453905,0.208705092046
1588857679966500070,7158,1588857679966318383,,0.502323884101,-0.17531695184,0.208690359965
1588857679969477545,7159,1588857679969326044,,0.502331095908,-0.175342089891,0.208674236411
1588857679972499324,7160,1588857679972378607,,0.502337731858,-0.175364956543,0.208652650415
1588857679978549001,7161,1588857679978349560,,0.502345085706,-0.175388349835,0.208634575858
1588857679984514782,7162,1588857679984357708,,0.502359755861,-0.175440270089,0.208597546147
1588857679990580964,7163,1588857679990374586,,0.502367549404,-0.175467773317,0.208579213601
1588857679993430300,7164,1588857679993302879,,0.502375467276,-0.17549466763,0.20856086224
