%time,field.header.seq,field.header.stamp,field.header.frame_id,field.vector.x,field.vector.y,field.vector.z
1589273497206091765,749,1589273497205858555,,0.50004873798,-0.199247478537,0.216815189291
1589273497211920491,750,1589273497211767992,,0.500047146796,-0.199248181888,0.216809013054
1589273497220960128,751,1589273497220801004,,0.500045519466,-0.199249245778,0.216800388883
1589273497226969126,752,1589273497226811409,,0.50004508965,-0.199248620951,0.216797825863
1589273497232912830,753,1589273497232784157,,0.500043638015,-0.199248287301,0.216791167256
1589273497238994206,754,1589273497238809199,,0.500042609931,-0.199248035615,0.216787969088
1589273497244932757,755,1589273497244801574,,0.50004110592,-0.199245664814,0.216781631297
1589273497251056415,756,1589273497250807856,,0.50004004853,-0.199245715547,0.216778794569
1589273497256944307,757,1589273497256797133,,0.500038419917,-0.19924371274,0.216772719053
1589273497262948073,758,1589273497262787488,,0.500036609724,-0.199242430179,0.216767774044
1589273497269029984,759,1589273497268815097,,0.500034702016,-0.199239152688,0.216760803342
1589273497274903688,760,1589273497274784825,,0.500033259512,-0.199237327444,0.216756922706
1589273497280933539,761,1589273497280802599,,0.500031174069,-0.19923178891,0.216748037639
1589273497286962209,762,1589273497286826199,,0.50002959588,-0.19923177237,0.216742760943
1589273497292954567,763,1589273497292804054,,0.500027801267,-0.19922612226,0.216734806294
1589273497298927096,764,1589273497298789737,,0.500027313338,-0.19922474025,0.216731264018
1589273497304866344,765,1589273497304764735,,0.500025466055,-0.199219756368,0.216723862842
1589273497307929358,766,1589273497307808168,,0.500024714548,-0.199217545607,0.216719469182
1589273497314011819,767,1589273497313858987,,0.500022918725,-0.199212559256,0.216712753592
1589273497319991839,768,1589273497319865036,,0.500021941293,-0.199209568655,0.216708325961
1589273497325842339,769,1589273497325756352,,0.500020426399,-0.199202328771,0.216699508964
1589273497331938764,770,1589273497331804154,,0.500019574964,-0.199196106507,0.216694642453
1589273497337910361,771,1589273497337816347,,0.500018466344,-0.199182708721,0.216687080567
1589273497344174861,772,1589273497343910141,,0.500019314795,-0.199148745036,0.216673915641
1589273497349977429,773,1589273497349844372,,0.50001922739,-0.199140669403,0.216668798452
1589273497355985510,774,1589273497355850783,,0.500020120972,-0.199124350094,0.216660836732
1589273497362050549,775,1589273497361871253,,0.500022175902,-0.199112281888,0.216657392185
1589273497368048219,776,1589273497367870403,,0.500025706048,-0.199090864896,0.216648798307
1589273497373954505,777,1589273497373811813,,0.50002657704,-0.19908309483,0.216645028802
1589273497379920825,778,1589273497379790316,,0.500027022677,-0.199068934949,0.216637665599
1589273497386296466,779,1589273497386184037,,0.500026508699,-0.199061582545,0.216632876249
1589273497391933759,780,1589273497391820231,,0.500025526376,-0.199047465691,0.216623370485
1589273497398069976,781,1589273497397938193,,0.500024819992,-0.199041901119,0.216620102045
1589273497403934980,782,1589273497403819291,,0.500023160717,-0.199027083988,0.216607506773
1589273497410052064,783,1589273497409859007,,0.500022511305,-0.199019501697,0.216603122474
1589273497415979807,784,1589273497415825428,,0.500019807584,-0.199002307271,0.216590641459
1589273497421955868,785,1589273497421851898,,0.500019281249,-0.198994922119,0.21658552649
1589273497428004643,786,1589273497427846632,,0.500018041596,-0.198980235051,0.21657410597
1589273497433959456,787,1589273497433824241,,0.500017210709,-0.19897336456,0.216569936101
1589273497439997559,788,1589273497439888769,,0.500016706011,-0.198959661492,0.216561171983
1589273497445956637,789,1589273497445850434,,0.500016156661,-0.198953531142,0.216555664088
1589273497452008785,790,1589273497451841374,,0.500014999871,-0.198947484962,0.216550852275
1589273497458223587,791,1589273497458089844,,0.500014549748,-0.198940686613,0.216545155578
1589273497464089298,792,1589273497463893136,,0.50001372747,-0.198930041535,0.216535308888
1589273497469988259,793,1589273497469843230,,0.50001321928,-0.198923313453,0.216530493592
1589273497476024535,794,1589273497475853076,,0.500011569913,-0.198911175255,0.216521412495
1589273497482527615,795,1589273497482314618,,0.500010024485,-0.198905070669,0.216515093748
1589273497488041214,796,1589273497487891632,,0.500008693525,-0.19888868566,0.216504435276
1589273497493979313,797,1589273497493809434,,0.500008112342,-0.198879377825,0.216499553489
1589273497500069224,798,1589273497499875177,,0.500007150631,-0.198864483807,0.216488844937
1589273497506037535,799,1589273497505872068,,0.500006574486,-0.198857637415,0.216482918705
1589273497511989480,800,1589273497511823099,,0.500006257989,-0.198844556942,0.216473891187
1589273497518030126,801,1589273497517920791,,0.500006305551,-0.198836089146,0.216467715795
1589273497524133791,802,1589273497523931019,,0.50000524766,-0.198824409935,0.21645853543
1589273497530066473,803,1589273497529906024,,0.500004405576,-0.198819541767,0.216452269113
1589273497536080777,804,1589273497535910257,,0.50000387717,-0.198806774492,0.216442150987
1589273497542033460,805,1589273497541842381,,0.500002767832,-0.198801495942,0.216435521621
1589273497548047278,806,1589273497547868531,,0.500001869822,-0.198785845255,0.216422014278
1589273497554076395,807,1589273497553885177,,0.500001535919,-0.198777461321,0.216415448191
1589273497559973765,808,1589273497559837819,,0.500000306416,-0.198762811199,0.216400486873
1589273497566008473,809,1589273497565871384,,0.500000073024,-0.198754134265,0.21639377368
1589273497572026610,810,1589273497571891453,,0.499998558824,-0.198739305677,0.216378264845
1589273497578142211,811,1589273497578012539,,0.499997701831,-0.198732281854,0.216369242461
1589273497584163897,812,1589273497584048875,,0.499996483434,-0.198717047458,0.216352452906
1589273497590010629,813,1589273497589892399,,0.499996290106,-0.198710573609,0.216344378517
1589273497596092014,814,1589273497595924663,,0.499994679708,-0.198694156887,0.216326883805
1589273497601971634,815,1589273497601847542,,0.499994234183,-0.198686603053,0.216318451312
1589273497604944819,816,1589273497604852402,,0.499993048357,-0.198669795935,0.216302789254
1589273497610976365,817,1589273497610859919,,0.49999171889,-0.19866132341,0.216292509595
1589273497617014138,818,1589273497616877237,,0.499989837163,-0.198643421114,0.216276385479
1589273497623037140,819,1589273497622908791,,0.499988531131,-0.198636674263,0.216268183644
1589273497629024026,820,1589273497628892540,,0.499985341439,-0.198617145449,0.21625103433
1589273497635051380,821,1589273497634876387,,0.499984028911,-0.198608090677,0.216242198189
1589273497640980817,822,1589273497640814079,,0.499981853294,-0.198588139809,0.216225074484
1589273497647051004,823,1589273497646863287,,0.499980996413,-0.198577177342,0.216216290393
1589273497653015928,824,1589273497652865858,,0.499980129358,-0.198564165621,0.216207399806
1589273497658980221,825,1589273497658882930,,0.499978414215,-0.19855305609,0.216197997049
1589273497665052429,826,1589273497664918755,,0.49997544925,-0.1985312536,0.216179846239
1589273497671272195,827,1589273497670950648,,0.499974899819,-0.19851851657,0.216171133388
1589273497676978305,828,1589273497676865237,,0.499973882607,-0.198490901284,0.216153566998
1589273497683303271,829,1589273497683137975,,0.499973333529,-0.198480540195,0.216145603402
1589273497689024254,830,1589273497688907267,,0.499969942637,-0.198455591691,0.216126343871
1589273497695116074,831,1589273497694964403,,0.49996921286,-0.198444839243,0.216118750929
1589273497701082527,832,1589273497700938719,,0.499965651538,-0.198419255487,0.216099634111
1589273497703970322,833,1589273497703856604,,0.499965170967,-0.198406197857,0.216091063538
1589273497710078425,834,1589273497709925596,,0.499961914854,-0.198382716788,0.216072820022
1589273497715956020,835,1589273497715887984,,0.499960143969,-0.198371624252,0.216063968388
1589273497722083262,836,1589273497721944375,,0.499957146316,-0.198346915793,0.216045478741
1589273497728007562,837,1589273497727902606,,0.49995601403,-0.198333403793,0.216035603468
1589273497734087652,838,1589273497733934402,,0.499953444312,-0.198306212083,0.216016573109
1589273497740115584,839,1589273497739968961,,0.499952258344,-0.198292373123,0.216006078401
1589273497746042888,840,1589273497745925275,,0.499951401639,-0.198275985629,0.215996938585
1589273497751958456,841,1589273497751856140,,0.499948909509,-0.19826066499,0.215985075748
1589273497758162420,842,1589273497758046698,,0.499946289079,-0.198226342413,0.215962348013
1589273497764105819,843,1589273497763903145,,0.49994388822,-0.1982112657,0.215950903773
1589273497770006369,844,1589273497769859695,,0.499940110233,-0.198183290774,0.21592984107
1589273497776032399,845,1589273497775886525,,0.499937543373,-0.198169024747,0.215918888468
1589273497782455253,846,1589273497782226266,,0.499933546569,-0.198136255358,0.215894917264
1589273497788100952,847,1589273497787940344,,0.49993169773,-0.198120917554,0.21588431825
1589273497794046407,848,1589273497793935720,,0.499929371233,-0.198088772394,0.215864956877
1589273497800023545,849,1589273497799911931,,0.499927252905,-0.198074697801,0.215854008696
1589273497806027821,850,1589273497805916258,,0.499922907496,-0.198045461283,0.215834849718
1589273497812028837,851,1589273497811890988,,0.499920356965,-0.198029348167,0.215822890773
1589273497818183030,852,1589273497818067320,,0.499915479648,-0.197993315894,0.215804652131
1589273497824016322,853,1589273497823875461,,0.499910843366,-0.1979568581,0.21578969381
1589273497830099902,854,1589273497829908841,,0.499907424439,-0.197937412162,0.215777957058
1589273497836102900,855,1589273497835947246,,0.499903404757,-0.197919590443,0.215767079942
1589273497842070935,856,1589273497841953175,,0.499898207575,-0.197887335185,0.215744506606
1589273497848077398,857,1589273497847908813,,0.499896135458,-0.197868986682,0.215731688281
1589273497854067052,858,1589273497853927586,,0.49989196515,-0.197837751467,0.215708622908
1589273497860125758,859,1589273497859902734,,0.499889991657,-0.197821094493,0.215696346236
1589273497866045365,860,1589273497865924333,,0.499883060944,-0.197788711963,0.215667949175
1589273497872004493,861,1589273497871856329,,0.499879563849,-0.197773765437,0.215655002433
1589273497874945523,862,1589273497874819866,,0.4998730096,-0.197745503889,0.21562957953
1589273497877935319,863,1589273497877840214,,0.499869776107,-0.197731228287,0.215615986555
1589273497881162607,864,1589273497880980996,,0.499863202588,-0.197699309313,0.215589253802
1589273497887027691,865,1589273497886894198,,0.499859113102,-0.197685100468,0.215575155006
1589273497892993799,866,1589273497892873684,,0.499856452498,-0.197670330529,0.215562495621
1589273497899057034,867,1589273497898914997,,0.49984965461,-0.197637026204,0.215535429672
1589273497904988763,868,1589273497904872950,,0.499841813575,-0.197604676874,0.215508414753
1589273497907999416,869,1589273497907870756,,0.499837812617,-0.197585058878,0.215494389705
1589273497914042034,870,1589273497913908216,,0.49983433791,-0.197566729151,0.215483512922
1589273497920085651,871,1589273497919950497,,0.4998274769,-0.197525150624,0.215464198758
1589273497925989832,872,1589273497925859418,,0.499820059719,-0.197486382205,0.215441954926
1589273497931972111,873,1589273497931892630,,0.499815413038,-0.197465008861,0.215428429062
1589273497937955324,874,1589273497937874619,,0.49981133229,-0.197446280741,0.215413465372
1589273497944009259,875,1589273497943864055,,0.499804364302,-0.197409975968,0.215387165635
1589273497947025860,876,1589273497946883473,,0.499796651195,-0.197374802535,0.215358151374
1589273497953247498,877,1589273497953018333,,0.499792674014,-0.1973590503,0.2153425662
1589273497956079972,878,1589273497955946707,,0.499787097461,-0.197341119077,0.215324995915
1589273497962021722,879,1589273497961915482,,0.499779023389,-0.197307109444,0.215296813035
1589273497968016685,880,1589273497967894164,,0.499768925438,-0.197272050924,0.215263927652
1589273497974059904,881,1589273497973928850,,0.499766021934,-0.19725382275,0.215250071411
1589273497980075146,882,1589273497979945106,,0.49976181703,-0.197233566265,0.215234009958
1589273497986350107,883,1589273497986248404,,0.499754432715,-0.197190099665,0.215204558745
1589273497992007724,884,1589273497991884777,,0.499751643019,-0.197170186414,0.215192993512
1589273497998053089,885,1589273497997894357,,0.499744573711,-0.197123257016,0.215166990091
1589273498004098605,886,1589273498003964219,,0.499742136823,-0.197099193827,0.215154167258
1589273498010019290,887,1589273498009934363,,0.499735815988,-0.197048375649,0.215125616017
1589273498016162224,888,1589273498016058599,,0.499732723349,-0.197023047879,0.215111434824
1589273498022052669,889,1589273498021891922,,0.499726203431,-0.196974346745,0.215080735444
1589273498024991749,890,1589273498024893421,,0.499723963291,-0.196947343855,0.215064652867
1589273498028017320,891,1589273498027886635,,0.4997207894,-0.196921179037,0.215047995833
1589273498031445644,892,1589273498031289511,,0.49971449914,-0.196871547636,0.215012444307
1589273498036989097,893,1589273498036912032,,0.499712170975,-0.196846879244,0.214996715104
1589273498043089073,894,1589273498042911038,,0.49970505374,-0.196798411218,0.214957284306
1589273498049111005,895,1589273498049004318,,0.499704311467,-0.196773883041,0.214941747297
1589273498055127865,896,1589273498054992818,,0.499699951049,-0.196724635649,0.214906292912
1589273498057981290,897,1589273498057868201,,0.499697639991,-0.196701232712,0.214888448396
1589273498061012107,898,1589273498060870059,,0.499694095025,-0.196650866441,0.214851977612
1589273498063997936,899,1589273498063901238,,0.4996921421,-0.196629583709,0.214836128403
1589273498066997058,900,1589273498066888749,,0.49968712895,-0.196580165396,0.214797949483
1589273498070014492,901,1589273498069925275,,0.499684731793,-0.196555249293,0.214779399365
1589273498075958115,902,1589273498075852270,,0.499681466635,-0.196505367407,0.214742734847
1589273498078959906,903,1589273498078881440,,0.499678725021,-0.196480130646,0.214723250824
1589273498082286104,904,1589273498082193425,,0.499678643363,-0.196453383053,0.214706352433
1589273498085295121,905,1589273498085237963,,0.49967490846,-0.196400798566,0.214669305735
1589273498087946674,906,1589273498087864332,,0.499671400369,-0.196348500625,0.214631200053
1589273498091526277,907,1589273498091423948,,0.499669754964,-0.196318281427,0.214610584956
1589273498096940844,908,1589273498096842109,,0.499667281798,-0.196293088701,0.214591054413
1589273498100033999,909,1589273498099922104,,0.49966588221,-0.196265332044,0.21457241417
1589273498102957425,910,1589273498102875255,,0.499661801467,-0.196217062067,0.214533864008
1589273498109047917,911,1589273498108927427,,0.499660241503,-0.196187261303,0.214513984282
1589273498112031878,912,1589273498111871045,,0.499657368172,-0.196130128514,0.214473224316
1589273498115044029,913,1589273498114914906,,0.499654847592,-0.196105323244,0.214452458253
1589273498121048791,914,1589273498120940684,,0.4996501076,-0.196054253856,0.214411683877
1589273498124023015,915,1589273498123942677,,0.499646879779,-0.196028990931,0.214390084811
1589273498130081613,916,1589273498129963401,,0.499642626793,-0.195971096488,0.214347248562
1589273498136018059,917,1589273498135953441,,0.499640305873,-0.1959462173,0.214327250581
1589273498138987916,918,1589273498138917121,,0.49963614508,-0.195891703762,0.214284577995
1589273498142005520,919,1589273498141881842,,0.499632953939,-0.195864302331,0.214260447676
1589273498145197351,920,1589273498144969150,,0.499629661615,-0.195804828425,0.214215584156
1589273498147973078,921,1589273498147888232,,0.499626992897,-0.195775598129,0.214188748213
1589273498153944801,922,1589273498153879310,,0.499620673884,-0.195697246093,0.214109196659
1589273498157056728,923,1589273498156940885,,0.499616072676,-0.195641077527,0.214064933574
1589273498160010963,924,1589273498159879179,,0.499612480344,-0.195614673786,0.214042883412
1589273498163009468,925,1589273498162891552,,0.499604588944,-0.195566893784,0.214002352484
1589273498166029405,926,1589273498165886034,,0.499602488194,-0.195542076343,0.213984713754
1589273498168969091,927,1589273498168861581,,0.499594834299,-0.19549422133,0.213945159296
1589273498171992237,928,1589273498171905120,,0.499591174467,-0.195472159168,0.213926720371
1589273498174964718,929,1589273498174833709,,0.499588807431,-0.195448752256,0.213908352087
1589273498178129880,930,1589273498178053545,,0.499582150162,-0.195399735132,0.213872469256
1589273498181003861,931,1589273498180894651,,0.499579217714,-0.19537706145,0.213853362413
1589273498184118964,932,1589273498184034872,,0.499572699789,-0.19532536746,0.213815484118
1589273498186983266,933,1589273498186858846,,0.499568267319,-0.195300789114,0.213796142155
1589273498189957419,934,1589273498189879779,,0.499561807829,-0.195249077853,0.213756662414
1589273498192970932,935,1589273498192864322,,0.499559238777,-0.195224419148,0.213738552702
1589273498196010287,936,1589273498195915890,,0.49955599664,-0.195201546606,0.213720667665
1589273498199005319,937,1589273498198890713,,0.499552606812,-0.195176242179,0.213701030665
1589273498202018705,938,1589273498201933135,,0.499550281975,-0.195153035394,0.213684192755
1589273498205016698,939,1589273498204901445,,0.499547001311,-0.195128809317,0.213664986489
1589273498208022736,940,1589273498207897335,,0.499544082643,-0.195106455123,0.21364864168
1589273498213973449,941,1589273498213883446,,0.49953733549,-0.19503699014,0.213597238264
1589273498217081279,942,1589273498216990257,,0.499534126553,-0.195011489999,0.213577041922
1589273498223078009,943,1589273498222951090,,0.49952714461,-0.194963157863,0.213539077778
1589273498226032558,944,1589273498225925430,,0.499524409952,-0.194941866843,0.21352234483
1589273498229059001,945,1589273498228944406,,0.499518698407,-0.194891936076,0.213486179772
1589273498232067652,946,1589273498231927336,,0.499514828449,-0.194867836285,0.213466646681
1589273498235085272,947,1589273498234962015,,0.499508911167,-0.194823217737,0.213429846946
1589273498238141219,948,1589273498238051154,,0.49950617667,-0.19480098757,0.21341192418
1589273498241100535,949,1589273498240973708,,0.499500854001,-0.19477945109,0.213392035116
1589273498247124457,950,1589273498246957412,,0.499499080564,-0.194756742686,0.213375165412
1589273498253056904,951,1589273498252920411,,0.499495621371,-0.194733850342,0.213356037846
1589273498256065140,952,1589273498255944961,,0.499488014785,-0.19468835528,0.213317449448
1589273498259043882,953,1589273498258950217,,0.499483973756,-0.194665346636,0.213297325174
1589273498262081739,954,1589273498261958723,,0.499475274427,-0.194620410327,0.213255535742
1589273498265042667,955,1589273498264946478,,0.499472399716,-0.194593800029,0.213236396016
1589273498268054227,956,1589273498267921222,,0.499464830897,-0.194545383908,0.21319716592
1589273498274093390,957,1589273498273941603,,0.49945264694,-0.194466503494,0.213133528761
1589273498277124005,958,1589273498276963822,,0.499448310797,-0.194440386702,0.213112477083
1589273498283382286,959,1589273498283226223,,0.499441535366,-0.194388288589,0.213071703034
1589273498289091040,960,1589273498288923470,,0.499438732848,-0.194362434781,0.213052375992
1589273498292027461,961,1589273498291919684,,0.499434960998,-0.194334127518,0.213032988338
1589273498295107360,962,1589273498294984777,,0.499431477064,-0.194309143625,0.21301298827
1589273498301129044,963,1589273498300984493,,0.499427206642,-0.194287002878,0.212993668673
1589273498304090626,964,1589273498304017977,,0.499422795905,-0.194263265853,0.21297411657
1589273498310083432,965,1589273498309955775,,0.499417688719,-0.194242342417,0.212953527734
1589273498316107821,966,1589273498315984068,,0.499407650261,-0.194194970642,0.212912345036
1589273498322152927,967,1589273498321969168,,0.499403376044,-0.194174913801,0.212894716216
1589273498328143037,968,1589273498327998357,,0.499398557876,-0.194151042987,0.212875378836
1589273498334106522,969,1589273498333965558,,0.499394269074,-0.194128066211,0.212857345488
1589273498340162391,970,1589273498339995876,,0.499388808398,-0.194105546156,0.212837394311
1589273498346138299,971,1589273498346005366,,0.4993841199,-0.194082936496,0.212819063338
1589273498352127716,972,1589273498352022549,,0.499379283888,-0.194058998445,0.212810525731
1589273498358190715,973,1589273498358033002,,0.499372414208,-0.194029910323,0.212814747514
1589273498364135639,974,1589273498363983297,,0.49936686617,-0.194006308144,0.212789997658
1589273498370207690,975,1589273498370029832,,0.49936237717,-0.19398380726,0.212771628199
1589273498376213874,976,1589273498375994113,,0.499358062671,-0.193961359845,0.212754714538
1589273498382559467,977,1589273498382383692,,0.499355410585,-0.193935078225,0.212736090394
1589273498388172398,978,1589273498388031675,,0.499352608656,-0.193910859917,0.212716248011
1589273498394081394,979,1589273498393947303,,0.499350399433,-0.193886339572,0.212698614634
1589273498400054544,980,1589273498399945600,,0.499345049694,-0.193861658138,0.212677242072
1589273498406116799,981,1589273498405968912,,0.499339578078,-0.193834173571,0.212654766193
1589273498412112032,982,1589273498411998262,,0.49933557999,-0.193808644288,0.212633777594
1589273498418327270,983,1589273498418193970,,0.499330971859,-0.193780569938,0.212612465881
1589273498424048537,984,1589273498423957498,,0.499325812947,-0.193751450865,0.212589367406
1589273498430153201,985,1589273498429974689,,0.499320453902,-0.193723680966,0.212566308975
1589273498436123645,986,1589273498435939664,,0.499314203112,-0.193698339523,0.212542793142
1589273498439142711,987,1589273498439005732,,0.499308588031,-0.193672469104,0.21252332066
1589273498445126663,988,1589273498444990796,,0.499304321122,-0.19365078558,0.212505140519
1589273498454167738,989,1589273498454023748,,0.499295962834,-0.193601491204,0.212468554445
1589273498457143769,990,1589273498457005902,,0.499291945954,-0.19357638971,0.212453744685
1589273498463148540,991,1589273498463005322,,0.499287386307,-0.193555113459,0.212438984932
1589273498466132394,992,1589273498465994911,,0.499283073447,-0.193531081524,0.212424148715
1589273498472184046,993,1589273498472015587,,0.499277801076,-0.193509373129,0.212409401221
1589273498478261727,994,1589273498478162406,,0.499272202522,-0.193485952239,0.212393951945
1589273498484257180,995,1589273498484141887,,0.499267556841,-0.193460793954,0.21237905225
1589273498490215591,996,1589273498490029968,,0.499264243396,-0.193443551597,0.212367460014
1589273498496127590,997,1589273498495959365,,0.499259700651,-0.19342028492,0.212351196989
1589273498499086336,998,1589273498498970732,,0.49925352723,-0.193393302442,0.212330837646
1589273498505156638,999,1589273498504987317,,0.499249701816,-0.193370631983,0.212315212008
1589273498508132081,1000,1589273498507988490,,0.49924576209,-0.193345119706,0.212298565923
1589273498514166475,1001,1589273498513985293,,0.499236724051,-0.193285171187,0.21226239042
1589273498520180424,1002,1589273498519995739,,0.499234022772,-0.193256119736,0.212247845524
1589273498526243860,1003,1589273498526090217,,0.499230590774,-0.19322854517,0.212231777997
1589273498532208547,1004,1589273498532045052,,0.499227912998,-0.19319735609,0.212217799866
1589273498538152833,1005,1589273498538050255,,0.499224120014,-0.193165726502,0.212200792041
1589273498541145367,1006,1589273498540999315,,0.499221895856,-0.193135606393,0.21218430843
1589273498544057426,1007,1589273498543957005,,0.499220421282,-0.193101217573,0.212167534296
1589273498547085392,1008,1589273498546964854,,0.499216164556,-0.193070021431,0.212147037706
1589273498550069183,1009,1589273498549984453,,0.499213848583,-0.193037466695,0.212128676419
1589273498556165377,1010,1589273498556046038,,0.499211171775,-0.19301065583,0.212112560314
1589273498559128250,1011,1589273498559025093,,0.499207536075,-0.19297604324,0.212093288493
1589273498562245972,1012,1589273498562028125,,0.499203951244,-0.19293916335,0.212071407138
1589273498568227995,1013,1589273498568054907,,0.499202123173,-0.1929129524,0.212055864682
1589273498574198691,1014,1589273498574026051,,0.499198422805,-0.19288307359,0.212037003296
1589273498580155887,1015,1589273498580022691,,0.499194753184,-0.192849381751,0.21201712692
1589273498586508958,1016,1589273498586327196,,0.499192329036,-0.192818990608,0.212001929149
1589273498592153553,1017,1589273498591987536,,0.499188696099,-0.19278998253,0.211985875347
1589273498598253500,1018,1589273498598137276,,0.49918559077,-0.192763610045,0.211969359858
1589273498604172785,1019,1589273498604038054,,0.499183447216,-0.192737627999,0.211955307306
1589273498610260514,1020,1589273498610028837,,0.499181262745,-0.19270867748,0.21194086446
1589273498616179912,1021,1589273498616054613,,0.499179400204,-0.192680586736,0.211925683255
1589273498619212113,1022,1589273498619045879,,0.499176885823,-0.192652896375,0.211908954225
1589273498622146947,1023,1589273498621994674,,0.49917468824,-0.192620792975,0.211891712991
1589273498625096890,1024,1589273498624976838,,0.499173875257,-0.192588701658,0.211874751606
1589273498628175373,1025,1589273498628011840,,0.499171982635,-0.192566393308,0.211862202389
1589273498634125217,1026,1589273498634011440,,0.499167344458,-0.192494561749,0.211821446473
1589273498637158563,1027,1589273498637001279,,0.49916615173,-0.192459574372,0.211804303604
1589273498640092460,1028,1589273498640023440,,0.499163872633,-0.192422198922,0.211784049535
1589273498643210651,1029,1589273498643023215,,0.499163133339,-0.192377944881,0.211763128173
1589273498646148580,1030,1589273498646058162,,0.499161010486,-0.192336206455,0.211740489167
1589273498652224514,1031,1589273498652071478,,0.499160822277,-0.192295898074,0.211720852445
1589273498655191774,1032,1589273498655058384,,0.49915964375,-0.19225397705,0.211698245204
1589273498661244753,1033,1589273498661051676,,0.49915897213,-0.192215283622,0.21167961202
1589273498667152684,1034,1589273498666981258,,0.499157635882,-0.192170647195,0.211656544392
1589273498670107060,1035,1589273498669977174,,0.499155310921,-0.192130129133,0.211633523019
1589273498676188829,1036,1589273498676032113,,0.499151637043,-0.192087308459,0.211607723274
1589273498682561841,1037,1589273498682411022,,0.499151530568,-0.192044442266,0.211587571422
1589273498688207953,1038,1589273498688045015,,0.499151246487,-0.19200188953,0.211567866684
1589273498694294693,1039,1589273498694101056,,0.499149861706,-0.191959132616,0.211546287143
1589273498700181436,1040,1589273498700024668,,0.499146407552,-0.191920350619,0.211522945404
1589273498703108305,1041,1589273498702979002,,0.499145629587,-0.191880257485,0.211500438488
1589273498706190396,1042,1589273498706037005,,0.499143796208,-0.191840403741,0.211479486055
1589273498709111641,1043,1589273498709030147,,0.499141003724,-0.191806870949,0.211459124995
1589273498712051736,1044,1589273498711976916,,0.499138182536,-0.191769084293,0.21143939969
1589273498715209692,1045,1589273498715070040,,0.499135166852,-0.191730758499,0.211417748541
1589273498718200924,1046,1589273498718117385,,0.499134561224,-0.191689239197,0.211398309286
1589273498721137792,1047,1589273498721068135,,0.499131283574,-0.191652935875,0.211376106401
1589273498724114679,1048,1589273498724024679,,0.499129365402,-0.191614961767,0.211354370941
1589273498730229486,1049,1589273498730059170,,0.499129930736,-0.191573008788,0.211335185645
1589273498736179140,1050,1589273498736011396,,0.499128566764,-0.191530571657,0.211312251315
1589273498739127192,1051,1589273498738996165,,0.499126865532,-0.191488209826,0.211288578805
1589273498742123866,1052,1589273498741996629,,0.49912602674,-0.191443791492,0.21126704223
1589273498745106569,1053,1589273498745000468,,0.499125707738,-0.191402383257,0.211246913834
1589273498748084545,1054,1589273498748000088,,0.49912428272,-0.191351666454,0.211221169573
1589273498754171636,1055,1589273498754078329,,0.499125226072,-0.191206436618,0.211149300493
1589273498757140518,1056,1589273498757031625,,0.499124576384,-0.191106738413,0.211099723927
1589273498763174153,1057,1589273498763073935,,0.499125605931,-0.19105904832,0.211074458795
1589273498769170833,1058,1589273498769030725,,0.499127463072,-0.191002242258,0.211050631868
1589273498772153133,1059,1589273498772002997,,0.499126943378,-0.190951620453,0.21102322792
1589273498775184969,1060,1589273498775026729,,0.499124805266,-0.190906928332,0.210996850016
1589273498778085696,1061,1589273498778002876,,0.499123995761,-0.190860215899,0.210972984869
1589273498781214147,1062,1589273498781043321,,0.499122462195,-0.190813428004,0.210950058943
1589273498787145681,1063,1589273498787025791,,0.499116903986,-0.190698175893,0.210886079845
1589273498790150936,1064,1589273498790018449,,0.499114744389,-0.19067296077,0.210868381664
1589273498796240774,1065,1589273498796021916,,0.499111183121,-0.190598196205,0.210829904274
1589273498799132098,1066,1589273498799011728,,0.499109416673,-0.190573795708,0.210815025652
1589273498802235243,1067,1589273498802090701,,0.499106592769,-0.190497793084,0.210785844498
1589273498805200412,1068,1589273498805032062,,0.499105128667,-0.190463997017,0.210768768739
1589273498808221058,1069,1589273498808036554,,0.499104948773,-0.190424677736,0.21075284809
1589273498814197578,1070,1589273498814039082,,0.499103722513,-0.190343767313,0.21071591182
1589273498817280834,1071,1589273498817071789,,0.499103238158,-0.190299262878,0.210693376022
1589273498823183369,1072,1589273498823064041,,0.499102467516,-0.190253712264,0.210669484074
1589273498826197731,1073,1589273498826051055,,0.499102274625,-0.190207297545,0.210645239454
1589273498829146186,1074,1589273498829010150,,0.499104945462,-0.190101701513,0.210599029589
1589273498832083574,1075,1589273498831975990,,0.499104787139,-0.190057642256,0.210574960143
1589273498835132526,1076,1589273498835014328,,0.499106199186,-0.189997051567,0.210546642156
1589273498838144684,1077,1589273498838026051,,0.499109006488,-0.18993200989,0.210517872974
1589273498841147027,1078,1589273498841035832,,0.499110462776,-0.189884082747,0.210496803929
1589273498845179850,1079,1589273498844057904,,0.499109643524,-0.189823978443,0.21046791091
1589273498847195414,1080,1589273498847054879,,0.49910753565,-0.189766185463,0.21044012672
1589273498850174718,1081,1589273498850061667,,0.49910715047,-0.189714934152,0.210418495282
1589273498853130845,1082,1589273498853006976,,0.499105364731,-0.18966405878,0.210394098575
1589273498856239622,1083,1589273498856139319,,0.499103737895,-0.189622300069,0.210372755121
1589273498859224061,1084,1589273498859052875,,0.499103996899,-0.189582770668,0.210355139344
1589273498862129273,1085,1589273498862017200,,0.499101513794,-0.189548782058,0.210334657154
1589273498865147053,1086,1589273498865010548,,0.499098631785,-0.189488844716,0.210304015302
1589273498868166329,1087,1589273498868061809,,0.499095610682,-0.189428322004,0.210274947918
1589273498874161884,1088,1589273498874036161,,0.499092706174,-0.189318049329,0.210228358128
1589273498877229788,1089,1589273498877078379,,0.499092739226,-0.189273802557,0.210208397148
1589273498883495898,1090,1589273498883306856,,0.499093918946,-0.189226603621,0.210189199812
1589273498889264212,1091,1589273498889110363,,0.499094680034,-0.18917299395,0.210163695036
1589273498895194970,1092,1589273498895047671,,0.499095699721,-0.189117237887,0.210139026647
1589273498898281860,1093,1589273498898180096,,0.499098271714,-0.189061398101,0.210113965777
1589273498901136169,1094,1589273498901053915,,0.499099351024,-0.189001266654,0.210085223416
1589273498904113094,1095,1589273498904001321,,0.499102269046,-0.188941264311,0.210059233762
1589273498907186328,1096,1589273498907037551,,0.499105847821,-0.188870551317,0.210029350955
1589273498910147740,1097,1589273498910032033,,0.499110070577,-0.188801968581,0.210001662026
1589273498913112687,1098,1589273498913012422,,0.499112150675,-0.188735915352,0.209971527138
1589273498916119545,1099,1589273498916016154,,0.499115706923,-0.188668137635,0.2099419708
1589273498919155666,1100,1589273498919067037,,0.499119828659,-0.188609921159,0.209918337076
1589273498922179451,1101,1589273498922062906,,0.499122507345,-0.188543501591,0.209889703352
1589273498925123150,1102,1589273498925021948,,0.499124438612,-0.188476818875,0.209861369587
1589273498928143515,1103,1589273498928020469,,0.499126222673,-0.188423748931,0.209839211917
1589273498931761230,1104,1589273498931630706,,0.499127364242,-0.188365949339,0.20981566687
1589273498937214473,1105,1589273498937058853,,0.499126299284,-0.188308809211,0.209788585333
1589273498940124401,1106,1589273498939996831,,0.499126891623,-0.188265962897,0.209769313706
1589273498943144255,1107,1589273498943054857,,0.499126609007,-0.188224565079,0.209749510378
1589273498946079098,1108,1589273498945998070,,0.499126400487,-0.188187972858,0.209732796541
1589273498949110052,1109,1589273498949009787,,0.499125910286,-0.188124636865,0.209701712079
1589273498952121472,1110,1589273498952033533,,0.499124822067,-0.18808854477,0.209683813819
1589273498955105498,1111,1589273498955026898,,0.499124910416,-0.188054354614,0.209667713104
1589273498958261526,1112,1589273498958165553,,0.499123296044,-0.188016368442,0.209650076177
1589273498961118435,1113,1589273498961025217,,0.499122573657,-0.18797318623,0.209631184555
1589273498964104727,1114,1589273498963994246,,0.499124242318,-0.187928949127,0.209612791638
1589273498970169169,1115,1589273498970023974,,0.499124185024,-0.187880828205,0.209589819765
1589273498973252902,1116,1589273498973034204,,0.499124281246,-0.187828316934,0.209562941469
1589273498976178579,1117,1589273498976074541,,0.499125757538,-0.187773298258,0.209539570046
1589273498979092414,1118,1589273498978978463,,0.499126867054,-0.187718165744,0.209513425807
1589273498982518619,1119,1589273498982413116,,0.49912901227,-0.187654781272,0.209486154902
1589273498988203977,1120,1589273498988052456,,0.499130111862,-0.187592625819,0.209457685321
1589273498991822292,1121,1589273498991698003,,0.499133150748,-0.18752764741,0.209429277786
1589273498997293676,1122,1589273498997128294,,0.499135358425,-0.18745867203,0.209399588661
1589273499003227552,1123,1589273499003114918,,0.499136667988,-0.187390236296,0.209369146794
1589273499006070701,1124,1589273499006001222,,0.49914058068,-0.187322185641,0.209340377927
1589273499009139726,1125,1589273499009017845,,0.499142236536,-0.187256883572,0.209312573378
1589273499012249382,1126,1589273499012056227,,0.499142774114,-0.187189264356,0.209282409857
1589273499015160145,1127,1589273499015073472,,0.499141956752,-0.18713010061,0.209253259431
1589273499018120043,1128,1589273499018027844,,0.499141747957,-0.187074014654,0.209230014041
1589273499021275579,1129,1589273499021085635,,0.499140623767,-0.187032303594,0.209208938307
1589273499024137455,1130,1589273499024037791,,0.499139509459,-0.186981203001,0.209183936858
1589273499027225533,1131,1589273499027059172,,0.499138923982,-0.186932064841,0.209161755618
1589273499030150855,1132,1589273499030043030,,0.499138216303,-0.18690158466,0.209147712126
1589273499033185109,1133,1589273499033103425,,0.49913582063,-0.186862340965,0.209128965887
1589273499036162225,1134,1589273499036024771,,0.499133139974,-0.18682302565,0.209110175928
1589273499039198674,1135,1589273499039080554,,0.499131506644,-0.18678669244,0.209092069471
1589273499042182006,1136,1589273499042017121,,0.499129981984,-0.186754714735,0.209077786169
1589273499045089672,1137,1589273499045002152,,0.499128018341,-0.186733549448,0.209065875261
1589273499048223763,1138,1589273499048025882,,0.499128049565,-0.186697544787,0.209050658174
1589273499051389830,1139,1589273499051282042,,0.49912621875,-0.186655400044,0.209029310629
1589273499057222800,1140,1589273499057062405,,0.49912679987,-0.186623382412,0.209015844446
1589273499063186189,1141,1589273499063022031,,0.499127312099,-0.186578184919,0.208997669559
1589273499066238728,1142,1589273499066078602,,0.499125937352,-0.186527674547,0.20897278852
1589273499069201910,1143,1589273499069081545,,0.499128017783,-0.186475666336,0.208952510648
1589273499072205624,1144,1589273499072096969,,0.499129061854,-0.186439021636,0.208936196599
1589273499075220923,1145,1589273499075094108,,0.499128997974,-0.186388654199,0.208914023435
1589273499078223631,1146,1589273499078093689,,0.499130581781,-0.186328580736,0.208890018567
1589273499081211213,1147,1589273499081124490,,0.499131726324,-0.186287104453,0.208872086665
1589273499087220194,1148,1589273499087087658,,0.499134159343,-0.186168765104,0.208826118679
1589273499090260097,1149,1589273499090117894,,0.499133372832,-0.186117196376,0.20880224734
1589273499093173767,1150,1589273499093077233,,0.499134423065,-0.186061169766,0.208779322828
1589273499096200677,1151,1589273499096078368,,0.499136044477,-0.186007090257,0.208757939564
1589273499099237185,1152,1589273499099032886,,0.499136405808,-0.185953187667,0.208736178232
1589273499102294643,1153,1589273499102080634,,0.49913723252,-0.185900752557,0.208713939301
1589273499105165644,1154,1589273499105050398,,0.499135951902,-0.185847956996,0.208690018104
1589273499108231710,1155,1589273499108035720,,0.499135331746,-0.185797467272,0.208668417245
1589273499111971199,1156,1589273499111863098,,0.499133970523,-0.18574856331,0.208649237208
1589273499117232479,1157,1589273499117086788,,0.499132639287,-0.185704594762,0.208631108833
1589273499120164462,1158,1589273499120066257,,0.499131850703,-0.185670457067,0.208616754843
1589273499123157527,1159,1589273499123055967,,0.499130503096,-0.185628082455,0.208596452943
1589273499126202281,1160,1589273499126020208,,0.499128394078,-0.1855841811,0.208575662541
1589273499129168509,1161,1589273499129066576,,0.499127912242,-0.18555630511,0.208565039255
1589273499132176492,1162,1589273499132079882,,0.499125273963,-0.185517330229,0.208548401757
1589273499135222102,1163,1589273499135101754,,0.499123091429,-0.185475236332,0.208528956499
1589273499138132965,1164,1589273499138044125,,0.499122943402,-0.185435223503,0.208512805429
1589273499141227895,1165,1589273499141084647,,0.499122687621,-0.185397842238,0.208497469673
1589273499144139976,1166,1589273499144039178,,0.499121011856,-0.185359051214,0.208477868872
1589273499147215575,1167,1589273499147085948,,0.499120214854,-0.185318650479,0.208458264492
1589273499150295280,1168,1589273499150127546,,0.499121382139,-0.185273321553,0.208437810433
1589273499156248779,1169,1589273499156096050,,0.499120851842,-0.185227794831,0.208414726161
1589273499159107079,1170,1589273499158979427,,0.499120724751,-0.185178514209,0.208392220771
1589273499162146886,1171,1589273499162039328,,0.499122175215,-0.185122984419,0.208368632679
1589273499165216404,1172,1589273499165095914,,0.499123661936,-0.18507601756,0.208346724829
1589273499168277785,1173,1589273499168119309,,0.499124881558,-0.185016163088,0.208322679673
1589273499171257946,1174,1589273499171167379,,0.499127710451,-0.184957235203,0.208298219712
1589273499174167586,1175,1589273499174040352,,0.499128831067,-0.184904595711,0.208274964598
1589273499177159619,1176,1589273499177030943,,0.499129303001,-0.18484638679,0.208248065931
1589273499180151513,1177,1589273499180057910,,0.499131653126,-0.184788936523,0.208224493618
1589273499183407900,1178,1589273499183278348,,0.499133809562,-0.184732345029,0.208204412081
1589273499186515929,1179,1589273499186349712,,0.499132885512,-0.184681691143,0.208181235959
1589273499189219884,1180,1589273499189085670,,0.499133116465,-0.184623295829,0.208156406068
1589273499192174528,1181,1589273499192082716,,0.499132821676,-0.184572244126,0.208136103453
1589273499195145006,1182,1589273499195050496,,0.499130291216,-0.184526960012,0.208114800321
1589273499198469395,1183,1589273499198384492,,0.499130705927,-0.184481435846,0.208096254619
1589273499201341567,1184,1589273499201100930,,0.499128881271,-0.184436401659,0.208077957367
1589273499204206916,1185,1589273499204066021,,0.499125465055,-0.184401156004,0.208057682034
1589273499207201301,1186,1589273499207068331,,0.499123797517,-0.184363227651,0.208040790836
1589273499210170362,1187,1589273499210067752,,0.499122337847,-0.184328066988,0.208026137879
1589273499216239624,1188,1589273499216098244,,0.499120617409,-0.184292922176,0.208010168893
1589273499219171184,1189,1589273499219053778,,0.499117760694,-0.184258115346,0.207994094105
1589273499222217761,1190,1589273499222081865,,0.499116198981,-0.184224046549,0.207978272125
1589273499225327376,1191,1589273499225143515,,0.499114818191,-0.184189801987,0.207961499947
1589273499228219733,1192,1589273499228099006,,0.499113162385,-0.184150641285,0.207942328395
1589273499234250747,1193,1589273499234098778,,0.49911201793,-0.18406469485,0.207906085273
1589273499237207680,1194,1589273499237033324,,0.499111262909,-0.184017840537,0.207885658072
1589273499240137483,1195,1589273499240040112,,0.499110129941,-0.183966263328,0.207863909411
1589273499243158290,1196,1589273499243020444,,0.49910921931,-0.183917168529,0.207842125242
1589273499246231782,1197,1589273499246059687,,0.499108679085,-0.183865578674,0.207820473635
1589273499249274448,1198,1589273499249116012,,0.499109702292,-0.183807210349,0.207796901312
1589273499252115747,1199,1589273499252007672,,0.499109837604,-0.183750791408,0.207773612611
1589273499255190834,1200,1589273499255088446,,0.499108085921,-0.183693681915,0.207746349115
1589273499258234116,1201,1589273499258132170,,0.499109273929,-0.183636561961,0.207724779263
1589273499261239468,1202,1589273499261101612,,0.499109494934,-0.183580151851,0.207701760621
1589273499264227893,1203,1589273499264124884,,0.499109074462,-0.18351944924,0.207677419119
1589273499267239045,1204,1589273499267129688,,0.499108328293,-0.183464215038,0.207653374183
1589273499270196545,1205,1589273499270061965,,0.499106880528,-0.183409117371,0.207629126047
1589273499276186357,1206,1589273499276083887,,0.499106464809,-0.183359492693,0.207610193077
1589273499279206333,1207,1589273499279089650,,0.499103622142,-0.183312691059,0.207589527251
1589273499282567614,1208,1589273499282467210,,0.499101149166,-0.183264313761,0.207571345003
1589273499285492627,1209,1589273499285389713,,0.499097727843,-0.183227340731,0.207554385268
1589273499288168154,1210,1589273499288074184,,0.499095368236,-0.183199827386,0.207542494593
1589273499291399627,1211,1589273499291282591,,0.499091775284,-0.183165367297,0.207526095246
1589273499294232886,1212,1589273499294111730,,0.499087774622,-0.183131470171,0.207508937043
1589273499297332652,1213,1589273499297155770,,0.499086470279,-0.183110264999,0.207500130197
1589273499300276258,1214,1589273499300120218,,0.499083112297,-0.183083094288,0.207488067126
1589273499303234806,1215,1589273499303115990,,0.499078946744,-0.183051977965,0.207470827468
1589273499309254130,1216,1589273499309157715,,0.499076130371,-0.183020183818,0.207458039864
1589273499312205723,1217,1589273499312098153,,0.499073126961,-0.182990751041,0.207444450561
1589273499315242584,1218,1589273499315105657,,0.499070685311,-0.182956960668,0.207428991991
1589273499318244273,1219,1589273499318109729,,0.499068936382,-0.182925309417,0.207415263459
1589273499321213728,1220,1589273499321095024,,0.499066039537,-0.182885066747,0.207395971416
1589273499324128043,1221,1589273499324022403,,0.499065096802,-0.182843926924,0.20737676561
1589273499327144355,1222,1589273499327044543,,0.49906407264,-0.182805321206,0.207358264191
1589273499330174049,1223,1589273499330057107,,0.499062619706,-0.182761363166,0.207338349652
1589273499333146781,1224,1589273499333047391,,0.499061433002,-0.182711969483,0.207317331168
1589273499336217474,1225,1589273499336091674,,0.499060759863,-0.18266772412,0.207297819125
1589273499339209920,1226,1589273499339075224,,0.499058898312,-0.182618724743,0.207275578791
1589273499342124782,1227,1589273499342039945,,0.499058126065,-0.182574308032,0.207255617359
1589273499345179803,1228,1589273499345071608,,0.499058010012,-0.182525825935,0.207238224164
1589273499348254793,1229,1589273499348097809,,0.499055951345,-0.182478751047,0.207218045206
1589273499354408155,1230,1589273499354159827,,0.499051053087,-0.182386477605,0.20717639077
1589273499357343856,1231,1589273499357201733,,0.499049454259,-0.182342635241,0.207158750419
1589273499360332296,1232,1589273499360158813,,0.499047282087,-0.182297285424,0.207139111576
1589273499363209154,1233,1589273499363079688,,0.499044936696,-0.182253809947,0.207120693183
1589273499366240791,1234,1589273499366094716,,0.499041382752,-0.182214485799,0.207102666143
1589273499369177031,1235,1589273499369076912,,0.499038731299,-0.182174173521,0.207085558283
1589273499372180583,1236,1589273499372058145,,0.499034519338,-0.182137877749,0.207069204826
1589273499375238410,1237,1589273499375088602,,0.499031312683,-0.182100334665,0.207053966311
1589273499378584839,1238,1589273499378446375,,0.499027079984,-0.182066458602,0.207037828078
1589273499381170124,1239,1589273499381044201,,0.499021248927,-0.182035693788,0.207022444144
1589273499384810522,1240,1589273499384726978,,0.499017709385,-0.182006193342,0.207008235821
1589273499387228344,1241,1589273499387132648,,0.499013614387,-0.181976468298,0.20699364832
1589273499391522384,1242,1589273499391407659,,0.499009793204,-0.181947804871,0.206982025325
1589273499396257393,1243,1589273499396080877,,0.499006799765,-0.181915738132,0.206974164467
1589273499399168687,1244,1589273499399046566,,0.499002388835,-0.181886364904,0.206959904325
1589273499402211842,1245,1589273499402080265,,0.498999069486,-0.181866093498,0.206950528478
1589273499405212584,1246,1589273499405069938,,0.498996035331,-0.181834936397,0.206937842329
1589273499408204941,1247,1589273499408066184,,0.498992013123,-0.181801558095,0.206923150494
1589273499414245531,1248,1589273499414108581,,0.498985345956,-0.181747451373,0.20689942226
1589273499417202535,1249,1589273499417084975,,0.498981591977,-0.18171580122,0.206886171282
1589273499423327062,1250,1589273499423195259,,0.498977951224,-0.181684092066,0.206874481895
1589273499426331891,1251,1589273499426145432,,0.498974674155,-0.181654865139,0.206862114689
1589273499429239971,1252,1589273499429131734,,0.498970295647,-0.181622156901,0.2068460305
1589273499432249426,1253,1589273499432100074,,0.498966679582,-0.181595108602,0.206832214368
1589273499435176484,1254,1589273499435097720,,0.498964377514,-0.181566261903,0.206819764184
1589273499438266352,1255,1589273499438182294,,0.498961578008,-0.181535555284,0.206806221593
1589273499441171966,1256,1589273499441064347,,0.498958303321,-0.181503591511,0.206792372611
1589273499444238984,1257,1589273499444078244,,0.498952718629,-0.181476182726,0.206775503072
1589273499447157077,1258,1589273499447065920,,0.498950470699,-0.181447030308,0.206764566754
1589273499450146115,1259,1589273499450056601,,0.498945925784,-0.181418187366,0.206751563925
1589273499453159571,1260,1589273499453078115,,0.498942605191,-0.181385903778,0.206739397162
1589273499456213094,1261,1589273499456132786,,0.498938202533,-0.181355031529,0.206727094734
1589273499459185197,1262,1589273499459082588,,0.498934826167,-0.181326203806,0.206717027994
1589273499462197319,1263,1589273499462111744,,0.498930499654,-0.181298489583,0.206704233254
1589273499465181962,1264,1589273499465073305,,0.49892471014,-0.181268186083,0.206688527363
1589273499468237015,1265,1589273499468114910,,0.498921460328,-0.181238748975,0.206676931087
1589273499474215325,1266,1589273499474055924,,0.498913426569,-0.181186253784,0.206654587295
1589273499477203292,1267,1589273499477073391,,0.498906639067,-0.181157017352,0.20663882463
1589273499480243648,1268,1589273499480117442,,0.49890381897,-0.181128184969,0.206629242629
1589273499483590771,1269,1589273499483462044,,0.498900687686,-0.181098270217,0.206618755322
1589273499489281454,1270,1589273499489132326,,0.498894720909,-0.181074266113,0.20660393032
1589273499492261495,1271,1589273499492141531,,0.498891804179,-0.181050265658,0.206593901698
1589273499495233023,1272,1589273499495142933,,0.498888545824,-0.181027130059,0.206583337398
1589273499498654615,1273,1589273499498574856,,0.498885177387,-0.181005101053,0.206572670248
1589273499504187056,1274,1589273499504095038,,0.498881170531,-0.180980384964,0.206561301262
1589273499507230037,1275,1589273499507130899,,0.498877886685,-0.180952761845,0.206550758055
1589273499510216400,1276,1589273499510113145,,0.498874455909,-0.180933663001,0.206541993881
1589273499513257149,1277,1589273499513149365,,0.498870440495,-0.180912423743,0.206531426871
1589273499516240584,1278,1589273499516127734,,0.498866758596,-0.180887047427,0.206520347537
1589273499519272879,1279,1589273499519113973,,0.498863247788,-0.18086246401,0.206508980401
1589273499522334635,1280,1589273499522160224,,0.498860491034,-0.180840602453,0.206500376603
1589273499525676781,1281,1589273499525138069,,0.498858380396,-0.180817864096,0.206492277642
1589273499528287743,1282,1589273499528157542,,0.498856070548,-0.180795721409,0.206484312823
1589273499534344888,1283,1589273499534204959,,0.498850570653,-0.180755179285,0.20646465163
1589273499537281815,1284,1589273499537142485,,0.498847943279,-0.180733470803,0.206454040634
1589273499540211231,1285,1589273499540099246,,0.49884485909,-0.180712621024,0.20644403321
1589273499543322426,1286,1589273499543161398,,0.498841869848,-0.180694186283,0.206435429191
1589273499549301525,1287,1589273499549109082,,0.498840931757,-0.180677006359,0.206429819689
1589273499552289553,1288,1589273499552172302,,0.498838379554,-0.18065520712,0.206421777284
1589273499555318574,1289,1589273499555133994,,0.498835344106,-0.180635682831,0.206411974167
1589273499558294703,1290,1589273499558182842,,0.498832851267,-0.180618375806,0.206405152874
1589273499561300590,1291,1589273499561129395,,0.498829784505,-0.180598650132,0.206396773042
1589273499567259970,1292,1589273499567151971,,0.498824324625,-0.180556947914,0.206380326436
1589273499570260365,1293,1589273499570148206,,0.498820677752,-0.180539482245,0.206371286884
1589273499573258554,1294,1589273499573135035,,0.498817152481,-0.180521269999,0.206361177738
1589273499576244056,1295,1589273499576157291,,0.498815798857,-0.1805048728,0.206356345411
1589273499579228797,1296,1589273499579141514,,0.498813321233,-0.180488579807,0.206348185898
1589273499582208314,1297,1589273499582123996,,0.498810842122,-0.180471262255,0.206339769968
1589273499585457116,1298,1589273499585283435,,0.498808760357,-0.180454299142,0.20633104303
1589273499588282952,1299,1589273499588124438,,0.498807209428,-0.180436291183,0.206325273571
1589273499594263251,1300,1589273499594126129,,0.498803008373,-0.180403765697,0.206309637691
1589273499597258094,1301,1589273499597146381,,0.498800896916,-0.180384933938,0.206303894515
1589273499600263569,1302,1589273499600165206,,0.498799280729,-0.180366786836,0.206296914649
1589273499603219861,1303,1589273499603134033,,0.49879761349,-0.18035105069,0.206290696603
1589273499606251155,1304,1589273499606135314,,0.498795718855,-0.18033594903,0.206285450596
1589273499609433928,1305,1589273499609202191,,0.498794336801,-0.180316408822,0.206277843672
1589273499612275052,1306,1589273499612162238,,0.498792305427,-0.180299949788,0.206272498843
1589273499615301049,1307,1589273499615172760,,0.498790149075,-0.180281245694,0.206264990884
1589273499618549579,1308,1589273499618456961,,0.498786788486,-0.180266820907,0.206256424189
1589273499621232824,1309,1589273499621099869,,0.498785486373,-0.180251124944,0.20625149747
1589273499624192122,1310,1589273499624110830,,0.498783710264,-0.180235029957,0.206244147419
1589273499627207748,1311,1589273499627104517,,0.49878169997,-0.180219554704,0.206236770523
1589273499630206933,1312,1589273499630114621,,0.498779730914,-0.180203201399,0.206230727279
1589273499636256222,1313,1589273499636140752,,0.498778168349,-0.180186532198,0.206222735139
1589273499639290801,1314,1589273499639137123,,0.49877697709,-0.180171217668,0.20621678348
1589273499642409824,1315,1589273499642217506,,0.498775447463,-0.18015880035,0.206209950213
1589273499645336117,1316,1589273499645133852,,0.498774328627,-0.180143077899,0.206203536684
1589273499648195956,1317,1589273499648106733,,0.498771973652,-0.180127114838,0.206196397293
1589273499654352886,1318,1589273499654143679,,0.498767456519,-0.180099695686,0.206184813457
1589273499657220274,1319,1589273499657101833,,0.498765568124,-0.180083530462,0.206179676298
1589273499660253850,1320,1589273499660119349,,0.498763496107,-0.180069204436,0.206174714458
1589273499663310237,1321,1589273499663201844,,0.498761958727,-0.180053331657,0.206170010357
1589273499666286865,1322,1589273499666145741,,0.498760718751,-0.180040603132,0.206165862742
1589273499669283377,1323,1589273499669172653,,0.498759626737,-0.180025909934,0.206160590382
1589273499672242961,1324,1589273499672074157,,0.498757602754,-0.180013568055,0.206153680765
1589273499675308524,1325,1589273499675155891,,0.498756364813,-0.179997756631,0.206147966732
1589273499678598104,1326,1589273499678512013,,0.498755708837,-0.179984907431,0.206144113961
1589273499681330380,1327,1589273499681178535,,0.498753932172,-0.179970521516,0.206138383733
1589273499685047047,1328,1589273499684939703,,0.498752170864,-0.179959306273,0.206134279313
1589273499690242184,1329,1589273499690137467,,0.498749956882,-0.179946541565,0.206128790182
1589273499693379290,1330,1589273499693188756,,0.498747979732,-0.179932662141,0.206124102782
1589273499696222205,1331,1589273499696119945,,0.498746503563,-0.179920458843,0.206121415011
1589273499699308311,1332,1589273499699159335,,0.498744480942,-0.179905981258,0.206117409613
1589273499702300132,1333,1589273499702156171,,0.498742342252,-0.179892969348,0.206113124106
1589273499705485948,1334,1589273499705369448,,0.498740382637,-0.17987925769,0.206108714414
1589273499708294822,1335,1589273499708185063,,0.49873833508,-0.179868969624,0.206105381248
1589273499711407847,1336,1589273499711276249,,0.49873691412,-0.179856987501,0.206102354868
1589273499714251194,1337,1589273499714156094,,0.498734988317,-0.179844697164,0.206099401173
1589273499717301640,1338,1589273499717188371,,0.498732622696,-0.179832793058,0.206095056622
1589273499720319211,1339,1589273499720196255,,0.498730263867,-0.179820692938,0.206090804073
1589273499723375670,1340,1589273499723156652,,0.498727230133,-0.179809447329,0.206086397927
1589273499726339958,1341,1589273499726176992,,0.498724526034,-0.179796915236,0.206082881812
1589273499729291380,1342,1589273499729142089,,0.498721498226,-0.179785565356,0.206078486905
1589273499732294203,1343,1589273499732145416,,0.498719592923,-0.179775422735,0.206076285408
1589273499735280067,1344,1589273499735176476,,0.498716135414,-0.179762797506,0.206071975812
1589273499738610179,1345,1589273499738511455,,0.498714414914,-0.179751828462,0.206069545315
1589273499741265020,1346,1589273499741134739,,0.4987114935,-0.179740784234,0.206065902787
1589273499747302133,1347,1589273499747188602,,0.4987056799,-0.179713701079,0.206057645005
1589273499750330953,1348,1589273499750214267,,0.498701974764,-0.179702300087,0.206053272898
1589273499756420418,1349,1589273499756217203,,0.498699452078,-0.179690043075,0.206050903915
1589273499759322209,1350,1589273499759200540,,0.498696404236,-0.179679335581,0.206046459418
1589273499762366559,1351,1589273499762203355,,0.498693168657,-0.17966785191,0.206043694049
1589273499765504290,1352,1589273499765365858,,0.498691148524,-0.179656662559,0.206042001521
1589273499768304051,1353,1589273499768168001,,0.498688610782,-0.17964740149,0.206040727978
1589273499774231570,1354,1589273499774149137,,0.498682512357,-0.179627356934,0.206034000045
1589273499777253541,1355,1589273499777128874,,0.49867921864,-0.179617555594,0.206030257456
1589273499780276679,1356,1589273499780116283,,0.498675534735,-0.179608092641,0.20602767539
1589273499783643970,1357,1589273499783483590,,0.498672064139,-0.179598716363,0.206024216532
1589273499786572016,1358,1589273499786466783,,0.498669070146,-0.179587477273,0.206022107813
1589273499789361821,1359,1589273499789223861,,0.498665986985,-0.179577795879,0.206018938648
1589273499792232184,1360,1589273499792110661,,0.498662381171,-0.179568702271,0.206015699919
1589273499795295239,1361,1589273499795167412,,0.498659579122,-0.179558012717,0.20601393336
1589273499798427627,1362,1589273499798328493,,0.498656079927,-0.179548059551,0.206009991077
1589273499801271762,1363,1589273499801164038,,0.498653186074,-0.179536728048,0.206007947891
1589273499804300752,1364,1589273499804194886,,0.498651170183,-0.179528356199,0.206007819341
1589273499807246608,1365,1589273499807141900,,0.498648370565,-0.179520315513,0.206006647134
1589273499810283133,1366,1589273499810177601,,0.498645807379,-0.179511444915,0.206002916729
1589273499816323026,1367,1589273499816173537,,0.498644425428,-0.179503906192,0.206001399887
1589273499819264906,1368,1589273499819139972,,0.498642084638,-0.179496176645,0.205996872109
1589273499822266337,1369,1589273499822176360,,0.498641090313,-0.179489601576,0.205995340041
1589273499825300519,1370,1589273499825169203,,0.498638620431,-0.179481242192,0.20599094676
1589273499828307249,1371,1589273499828192071,,0.498636538805,-0.179474449524,0.205987651733
1589273499834314377,1372,1589273499834215735,,0.498631453122,-0.179459075152,0.205982776407
1589273499837222493,1373,1589273499837113758,,0.498629136021,-0.179452888895,0.205979780253
1589273499840373387,1374,1589273499840205362,,0.49862708189,-0.179445742678,0.205978302466
1589273499843320027,1375,1589273499843222267,,0.498625269979,-0.179440560707,0.205976783225
1589273499846195668,1376,1589273499846113882,,0.498623138137,-0.179433755677,0.205975973901
1589273499849256416,1377,1589273499849132297,,0.498621919673,-0.179428752989,0.205974744946
1589273499852343599,1378,1589273499852200509,,0.498620080631,-0.179423317652,0.2059728503
1589273499855315000,1379,1589273499855164963,,0.498618906502,-0.179418963102,0.205971650939
1589273499858794966,1380,1589273499858701834,,0.498617087536,-0.17941500414,0.205970269822
1589273499861264575,1381,1589273499861148952,,0.49861571066,-0.179410870668,0.205968262335
1589273499867388980,1382,1589273499867229172,,0.498612140624,-0.179400029282,0.205969423077
1589273499870256589,1383,1589273499870165059,,0.498610440973,-0.179395422021,0.205972587914
1589273499873266917,1384,1589273499873160870,,0.498608576297,-0.17939096507,0.205975210855
1589273499876301378,1385,1589273499876180358,,0.49860731139,-0.179386171016,0.205976432983
1589273499879265495,1386,1589273499879149024,,0.498605210649,-0.17938096224,0.20597573029
1589273499882226155,1387,1589273499882145238,,0.498603693182,-0.179378534194,0.205973735435
1589273499885412017,1388,1589273499885302489,,0.498602891202,-0.179373730618,0.205971432286
1589273499888319691,1389,1589273499888235634,,0.49860214852,-0.179370219479,0.205970622151
1589273499891713105,1390,1589273499891614517,,0.498601170059,-0.179365175941,0.205969690772
1589273499894232574,1391,1589273499894149863,,0.498599185109,-0.179362305884,0.205966685716
1589273499897450292,1392,1589273499897268807,,0.498598568509,-0.179359636768,0.205967021769
1589273499900234544,1393,1589273499900148930,,0.498597122654,-0.179354885414,0.205965530591
1589273499903263792,1394,1589273499903159459,,0.498596060195,-0.17935080006,0.205964481078
1589273499906259573,1395,1589273499906196505,,0.49859465694,-0.179346431902,0.205962293649
1589273499912204187,1396,1589273499912113365,,0.498593496816,-0.179343743696,0.20596105089
1589273499915209195,1397,1589273499915106019,,0.498591985182,-0.179338492007,0.205958956122
1589273499918773551,1398,1589273499918686384,,0.498591204901,-0.179335003618,0.205958373505
1589273499921260344,1399,1589273499921137990,,0.498589873097,-0.179331556853,0.205957078724
1589273499927281020,1400,1589273499927169154,,0.498587979493,-0.179326945582,0.205954076466
1589273499930251987,1401,1589273499930128522,,0.498587371257,-0.179322888467,0.20595386478
1589273499936284145,1402,1589273499936122779,,0.498585982833,-0.179318799341,0.205953726483
1589273499939441432,1403,1589273499939223100,,0.498585528486,-0.179314919921,0.205952940822
1589273499942387916,1404,1589273499942260597,,0.498584410253,-0.179311152899,0.205952421263
