%time,field.header.seq,field.header.stamp,field.header.frame_id,field.vector.x,field.vector.y,field.vector.z
1588856866362196969,10233,1588856866362063764,,0.500336255129,-0.200407005787,0.217489946676
1588856866368315870,10234,1588856866368145921,,0.500343853152,-0.200415260815,0.217482033873
1588856866374420304,10235,1588856866374289449,,0.500347866269,-0.200420323535,0.217476696326
1588856866380203520,10236,1588856866380060128,,0.500356405921,-0.200428775847,0.217466947434
1588856866386251781,10237,1588856866386080829,,0.500360236372,-0.200434829892,0.217458941029
1588856866392216188,10238,1588856866392082348,,0.500369485057,-0.200446192354,0.217452665272
1588856866398249616,10239,1588856866398103113,,0.50037359867,-0.200451202366,0.217446896304
1588856866404263351,10240,1588856866404070252,,0.500382131513,-0.200465027115,0.217435817326
1588856866410219123,10241,1588856866410066163,,0.500386155353,-0.200470043785,0.217433070264
1588856866416259961,10242,1588856866416105928,,0.500393892982,-0.200482539317,0.217423600568
1588856866422207454,10243,1588856866422027449,,0.500397196076,-0.200488612879,0.217416748384
1588856866428353873,10244,1588856866428076854,,0.500403859327,-0.200501224591,0.217408416098
1588856866434247734,10245,1588856866434087587,,0.500407982639,-0.200506931489,0.217404669737
1588856866440286385,10246,1588856866440117837,,0.500415582489,-0.200518624455,0.217393591
1588856866446217323,10247,1588856866446070495,,0.500419017738,-0.200524381698,0.217390615765
1588856866452196523,10248,1588856866452059696,,0.500426179625,-0.200536744054,0.217379117301
1588856866458170408,10249,1588856866458054056,,0.50042852152,-0.200541491924,0.217373973502
1588856866464245387,10250,1588856866464122069,,0.500432183632,-0.20054693614,0.217369718926
1588856866470195784,10251,1588856866470085092,,0.500438134836,-0.200558496414,0.217359090039
1588856866476599545,10252,1588856866476432522,,0.500445398763,-0.200568186395,0.217350449499
1588856866482262897,10253,1588856866482118756,,0.500448966314,-0.200574388958,0.217346424425
1588856866488232443,10254,1588856866488093878,,0.500452458066,-0.200579939828,0.217341243752
1588856866494301066,10255,1588856866494145637,,0.500458272234,-0.200592594625,0.217331387883
1588856866500216015,10256,1588856866500098427,,0.500461346114,-0.200597999993,0.217326281746
1588856866506270543,10257,1588856866506114472,,0.500466956018,-0.200609125225,0.217317133679
1588856866512184643,10258,1588856866512083413,,0.500469429134,-0.200614943258,0.21731158437
1588856866518302598,10259,1588856866518146482,,0.500476206641,-0.200627052999,0.217302839044
1588856866524270002,10260,1588856866524101782,,0.500478826759,-0.200632707856,0.21729575182
1588856866530288212,10261,1588856866530147043,,0.500485424538,-0.200644814485,0.217286977268
1588856866536219833,10262,1588856866536080195,,0.500488571986,-0.200649798959,0.21728255732
1588856866542259715,10263,1588856866542112720,,0.500493904107,-0.20066088182,0.217272310124
1588856866548234631,10264,1588856866548075220,,0.50049592891,-0.200665830429,0.217267578248
1588856866554238912,10265,1588856866554105973,,0.500501682603,-0.200676036115,0.217257889962
1588856866560215453,10266,1588856866560070894,,0.500503953358,-0.200679863109,0.217253954737
1588856866566219471,10267,1588856866566104954,,0.500509650387,-0.200688148687,0.217244944352
1588856866572265514,10268,1588856866572102713,,0.500512314783,-0.200692021288,0.217240843189
1588856866578280207,10269,1588856866578077667,,0.50051702462,-0.200701159398,0.217231415016
1588856866584319986,10270,1588856866584171005,,0.500519826478,-0.200707077459,0.21722744667
1588856866590271072,10271,1588856866590076542,,0.500525005908,-0.200715779438,0.217219199052
1588856866596303076,10272,1588856866596132771,,0.500526843229,-0.200720217655,0.217215000893
1588856866602282649,10273,1588856866602061466,,0.500530646628,-0.200729932784,0.217204689696
1588856866608334886,10274,1588856866608109165,,0.500533716658,-0.2007346937,0.217202324353
1588856866614258686,10275,1588856866614101798,,0.50053695113,-0.200744769596,0.217191652712
1588856866620311236,10276,1588856866620102675,,0.500538620611,-0.200748460025,0.217186691018
1588856866626183630,10277,1588856866626086724,,0.500542198323,-0.200756665775,0.217175303101
1588856866632276294,10278,1588856866632122440,,0.500544013896,-0.200760368925,0.217170331746
1588856866638195838,10279,1588856866638088454,,0.500546671861,-0.200767343228,0.217155949592
1588856866644252533,10280,1588856866644161541,,0.500548354878,-0.200771511101,0.217149569513
1588856866650281095,10281,1588856866650135929,,0.500549827697,-0.200774351637,0.217143381525
1588856866656251072,10282,1588856866656130046,,0.500552212708,-0.200778487025,0.217131123421
1588856866662215210,10283,1588856866662115265,,0.500554972254,-0.200782942372,0.217116993218
1588856866668311338,10284,1588856866668143665,,0.500556442124,-0.200783817109,0.217112247016
1588856866674599651,10285,1588856866674456439,,0.50055829552,-0.200783236276,0.217105425492
1588856866680297099,10286,1588856866680170322,,0.500560764576,-0.200785587524,0.217091285064
1588856866686404075,10287,1588856866686163628,,0.50056358477,-0.200783069516,0.21708014442
1588856866692241085,10288,1588856866692111516,,0.500565302527,-0.200781090433,0.217072863946
1588856866698190775,10289,1588856866698072863,,0.500569427351,-0.200776864107,0.217058418496
1588856866704235873,10290,1588856866704084739,,0.500571412932,-0.200771496575,0.21705102531
1588856866710197236,10291,1588856866710109581,,0.500577640573,-0.200759405069,0.217033676768
1588856866716292872,10292,1588856866716112470,,0.500582241182,-0.20075042635,0.217027674554
1588856866722272539,10293,1588856866722123799,,0.500589913181,-0.200730150094,0.217010851159
1588856866728326309,10294,1588856866728098019,,0.500595275095,-0.200716185114,0.217004785307
1588856866734242526,10295,1588856866734122923,,0.500606484871,-0.200681142634,0.21698950124
1588856866740272704,10296,1588856866740113217,,0.50061256216,-0.200655539717,0.216979149631
1588856866746175388,10297,1588856866746085083,,0.500626650459,-0.200599081209,0.216961397845
1588856866752273428,10298,1588856866752150062,,0.500633704032,-0.200575244431,0.216952902963
1588856866758225922,10299,1588856866758069070,,0.500646557574,-0.200522074363,0.216931419637
1588856866764275492,10300,1588856866764120013,,0.500654733285,-0.20048980755,0.216920436871
1588856866770247615,10301,1588856866770091276,,0.500661372311,-0.200458162374,0.216907723473
1588856866776460265,10302,1588856866776260497,,0.500670614335,-0.200402369986,0.216878559907
1588856866782302601,10303,1588856866782113336,,0.500672070704,-0.200374032149,0.216857886696
1588856866788200857,10304,1588856866788101701,,0.500672429355,-0.20031849788,0.216818148605
1588856866794332375,10305,1588856866794156080,,0.500673513076,-0.200289882532,0.216800452385
1588856866800229097,10306,1588856866800126116,,0.500677226967,-0.200236857861,0.216759274574
1588856866806267329,10307,1588856866806106240,,0.500677639035,-0.200213646246,0.216736349926
1588856866812296412,10308,1588856866812149230,,0.500679673022,-0.200163505175,0.216689217497
1588856866818275625,10309,1588856866818139062,,0.500680551182,-0.200141240242,0.216668853379
1588856866824370421,10310,1588856866824199655,,0.500682866785,-0.200090730799,0.216629574679
1588856866830419311,10311,1588856866830180179,,0.500683180645,-0.200066360782,0.216609779479
1588856866836237733,10312,1588856866836088297,,0.500685809173,-0.200013070692,0.216570780451
1588856866842328581,10313,1588856866842096909,,0.500686869737,-0.199989572066,0.216550034003
1588856866848223545,10314,1588856866848099195,,0.500690595255,-0.199935235308,0.216506949355
1588856866854256427,10315,1588856866854129772,,0.500692401387,-0.199904986374,0.216483879596
1588856866860306865,10316,1588856866860156019,,0.500697046804,-0.199850434461,0.216440549243
1588856866866334056,10317,1588856866866194998,,0.500699546017,-0.199819074342,0.216415761714
1588856866872693193,10318,1588856866872561167,,0.500702800573,-0.199762634039,0.216364597816
1588856866878883198,10319,1588856866878548468,,0.500704617372,-0.199733110334,0.216340161047
1588856866884331559,10320,1588856866884155494,,0.500710724471,-0.199676503618,0.216290679063
1588856866890326089,10321,1588856866890194528,,0.500713355298,-0.199648370043,0.216266444646
1588856866896422607,10322,1588856866896152418,,0.500716040458,-0.19961905966,0.216242376456
1588856866902453983,10323,1588856866902233258,,0.500723349988,-0.199564346943,0.216198404769
1588856866908317368,10324,1588856866908145232,,0.500730229051,-0.199509515108,0.216150959037
1588856866914318086,10325,1588856866914136031,,0.500734660114,-0.199481764805,0.216125395188
1588856866920278437,10326,1588856866920171174,,0.500743577379,-0.199421154421,0.216079321032
1588856866926324231,10327,1588856866926144949,,0.50074793358,-0.199393488325,0.216053396013
1588856866932326678,10328,1588856866932175211,,0.500755151487,-0.199336523871,0.215997937543
1588856866938242584,10329,1588856866938125050,,0.500759254236,-0.199307044112,0.215971084257
1588856866944323754,10330,1588856866944156415,,0.500763442897,-0.199277960434,0.215942230686
1588856866950350716,10331,1588856866950133608,,0.500771242326,-0.199219214875,0.21588933007
1588856866956321442,10332,1588856866956163824,,0.500780373123,-0.199157214967,0.215834666228
1588856866962400043,10333,1588856866962200926,,0.500784157236,-0.199128880328,0.215805825461
1588856866968300471,10334,1588856866968168111,,0.500789035179,-0.199094477177,0.215779026285
1588856866974617564,10335,1588856866974508257,,0.500797970546,-0.199027289888,0.215724141242
1588856866980273874,10336,1588856866980145926,,0.500802453002,-0.198989845811,0.215694560526
1588856866986318839,10337,1588856866986169110,,0.500811382053,-0.198916118837,0.215636070528
1588856866992313746,10338,1588856866992137470,,0.500817356805,-0.198874039086,0.215606664602
1588856866998273380,10339,1588856866998167545,,0.500827867028,-0.198791443449,0.215542142897
1588856867004378287,10340,1588856867004148016,,0.500833054284,-0.198751812179,0.21551067109
1588856867010361187,10341,1588856867010143475,,0.500844944259,-0.198663961111,0.215443566289
1588856867016268868,10342,1588856867016127534,,0.500851726263,-0.198621398726,0.215412978062
1588856867022246838,10343,1588856867022101630,,0.500862794633,-0.198535647436,0.215345624596
1588856867028432402,10344,1588856867028298694,,0.500869411354,-0.198494503752,0.215313287043
1588856867034292383,10345,1588856867034155263,,0.500880760347,-0.198405476761,0.215247579736
1588856867040401059,10346,1588856867040192238,,0.500887877917,-0.198363308071,0.215216263294
1588856867046315244,10347,1588856867046157975,,0.500898657122,-0.198281330713,0.215145033279
1588856867052289807,10348,1588856867052180992,,0.500906136789,-0.198234083057,0.215114358103
1588856867058300653,10349,1588856867058141461,,0.50091915856,-0.198145130369,0.215041339231
1588856867064319014,10350,1588856867064191379,,0.500925609774,-0.198103685017,0.215006747357
1588856867070371706,10351,1588856867070204627,,0.500940500097,-0.198009152736,0.214932396717
1588856867076466701,10352,1588856867076289084,,0.500947733472,-0.197963190876,0.214894403492
1588856867082441796,10353,1588856867082217592,,0.500960680199,-0.197868053716,0.214819093225
1588856867088427071,10354,1588856867088237450,,0.500970004045,-0.197815123839,0.214782019635
1588856867094477923,10355,1588856867094206682,,0.500983508421,-0.197715900215,0.214706995938
1588856867100354976,10356,1588856867100195208,,0.500993139524,-0.197658402599,0.214671240392
1588856867106335273,10357,1588856867106136389,,0.50101055082,-0.197547741159,0.214595591385
1588856867112327459,10358,1588856867112223264,,0.501019256166,-0.197492990028,0.214558582019
1588856867118311257,10359,1588856867118214619,,0.501037026069,-0.197378860804,0.21448145818
1588856867124355461,10360,1588856867124248603,,0.501045400138,-0.197323108843,0.214443777065
1588856867130299330,10361,1588856867130193243,,0.501063545461,-0.19720871421,0.214366697994
1588856867136438003,10362,1588856867136199040,,0.501070772531,-0.197152233689,0.214326565289
1588856867142278899,10363,1588856867142174515,,0.501088895752,-0.197037633128,0.214248559508
1588856867148355610,10364,1588856867148242290,,0.501096981894,-0.19698148456,0.214208485425
1588856867154355378,10365,1588856867154216354,,0.501113668503,-0.196870606249,0.214127399633
1588856867160444219,10366,1588856867160284813,,0.501123197493,-0.19681194235,0.214085858282
1588856867166329061,10367,1588856867166178105,,0.501141370745,-0.196694890969,0.214005990323
1588856867172489125,10368,1588856867172215683,,0.501151690806,-0.196633746712,0.213967173401
1588856867178679182,10369,1588856867178541803,,0.501172786735,-0.196509866693,0.213888172099
1588856867184410782,10370,1588856867184237743,,0.501182361213,-0.196448855072,0.213846600395
1588856867190436473,10371,1588856867190204540,,0.501205104694,-0.19631833888,0.21376842444
1588856867196212222,10372,1588856867196128859,,0.501214833926,-0.19625518815,0.213727340412
1588856867202285006,10373,1588856867202199374,,0.501235829475,-0.19611407547,0.213638278414
1588856867208270609,10374,1588856867208155671,,0.501245324488,-0.196049844889,0.213593297629
1588856867214308090,10375,1588856867214177407,,0.501262843871,-0.195906872235,0.213500608403
1588856867220361919,10376,1588856867220168329,,0.501273632412,-0.195833935012,0.213452901372
1588856867226225968,10377,1588856867226103770,,0.501290204208,-0.19569075334,0.213358692751
1588856867232372937,10378,1588856867232117348,,0.50129987493,-0.195617792953,0.213311226383
1588856867238254714,10379,1588856867238136721,,0.501306757862,-0.195548029542,0.213261668634
1588856867244279234,10380,1588856867244145761,,0.501326584743,-0.195405103793,0.213172498732
1588856867250347103,10381,1588856867250222457,,0.501345994514,-0.195258294611,0.213082069311
1588856867256428929,10382,1588856867256215682,,0.501355353673,-0.19518377819,0.213036294239
1588856867262449682,10383,1588856867262248227,,0.50137395869,-0.195037469648,0.212943531865
1588856867268221800,10384,1588856867268105821,,0.501381466642,-0.194963014575,0.212897386383
1588856867274591160,10385,1588856867274475843,,0.501398405333,-0.194815369933,0.21279971616
1588856867280247810,10386,1588856867280151888,,0.501407774132,-0.194737368614,0.212752476074
1588856867286298491,10387,1588856867286156728,,0.501416047737,-0.194659166915,0.212698072679
1588856867292200986,10388,1588856867292115679,,0.501432567481,-0.194503810884,0.212603689453
1588856867298268385,10389,1588856867298109782,,0.501441674879,-0.19441857983,0.212551669413
1588856867304426584,10390,1588856867304268116,,0.501459302742,-0.194256630074,0.212458926914
1588856867310393052,10391,1588856867310195918,,0.501468973728,-0.194173537093,0.212411619892
1588856867316287743,10392,1588856867316178575,,0.501487981696,-0.194002082799,0.212320349826
1588856867322414540,10393,1588856867322244352,,0.501495786466,-0.193921553711,0.212272514465
1588856867328331725,10394,1588856867328190611,,0.501516695597,-0.193750932659,0.212186340292
1588856867334342050,10395,1588856867334203576,,0.501525643638,-0.193670331724,0.212139442871
1588856867340374674,10396,1588856867340211092,,0.501543258702,-0.193503177653,0.212048310778
1588856867346312271,10397,1588856867346199535,,0.501553446725,-0.193417279,0.212000812585
1588856867352341703,10398,1588856867352211668,,0.501569495424,-0.193253454955,0.211905992162
1588856867358405660,10399,1588856867358249531,,0.50157902554,-0.193167184944,0.21185914183
1588856867364471349,10400,1588856867364294723,,0.501595175169,-0.193003312032,0.211766966047
1588856867370317089,10401,1588856867370196663,,0.50160401484,-0.192913308146,0.211721820606
1588856867376402658,10402,1588856867376285712,,0.501619157921,-0.192744048892,0.211625122046
1588856867382287150,10403,1588856867382195510,,0.50162735971,-0.192653963163,0.211578096814
1588856867388245696,10404,1588856867388148044,,0.501644670108,-0.192475637133,0.211486910197
1588856867394379787,10405,1588856867394255863,,0.501652062628,-0.192388232946,0.211440492551
1588856867400380670,10406,1588856867400261208,,0.501668000828,-0.192204514175,0.211348537584
1588856867406257765,10407,1588856867406162932,,0.501675123239,-0.192113348807,0.211301823814
1588856867415418432,10408,1588856867415272833,,0.501694432799,-0.191850489199,0.211162566719
1588856867421250787,10409,1588856867421138229,,0.501706454393,-0.191680919405,0.211072424649
1588856867427367988,10410,1588856867427250241,,0.501711980721,-0.191599541229,0.211026840242
1588856867433395424,10411,1588856867433175044,,0.501724687147,-0.191425315503,0.210941344394
1588856867439449070,10412,1588856867439344664,,0.50172985972,-0.191343585724,0.21089709811
1588856867445403823,10413,1588856867445265314,,0.501740930187,-0.191169900207,0.210813618629
1588856867451437066,10414,1588856867451237460,,0.501744841469,-0.191088413241,0.210770389049
1588856867457282528,10415,1588856867457197029,,0.501754674858,-0.190922668926,0.210688298895
1588856867463412435,10416,1588856867463251294,,0.501758673025,-0.190836747264,0.210645871351
1588856867469388139,10417,1588856867469195967,,0.501766505371,-0.1906722283,0.210563645565
1588856867475651617,10418,1588856867475501451,,0.501770337679,-0.190590786688,0.2105218857
1588856867481466830,10419,1588856867481256289,,0.5017777652,-0.190425150749,0.21044134958
1588856867487399777,10420,1588856867487279301,,0.50178097305,-0.190344586545,0.210400482704
1588856867493381186,10421,1588856867493256277,,0.501789585672,-0.190184584829,0.210325513112
1588856867499477891,10422,1588856867499369575,,0.501792266993,-0.190109648635,0.210286945175
1588856867505510791,10423,1588856867505290562,,0.50180006556,-0.189956100863,0.210212952637
1588856867511424531,10424,1588856867511223473,,0.501802794289,-0.18988303088,0.210175212856
1588856867517369253,10425,1588856867517219243,,0.501809066339,-0.189731293919,0.210102761726
1588856867523298726,10426,1588856867523182500,,0.501813093841,-0.189659460712,0.210067894997
1588856867529391897,10427,1588856867529197682,,0.501814439263,-0.18958723341,0.210032118027
1588856867535346830,10428,1588856867535215346,,0.501822044953,-0.189440565681,0.209961489658
1588856867541358107,10429,1588856867541258332,,0.501824857307,-0.189369167027,0.209927583953
1588856867547389149,10430,1588856867547227103,,0.501832244446,-0.189223180462,0.209857706254
1588856867553382795,10431,1588856867553227563,,0.501834000012,-0.189156510215,0.209822657746
1588856867559401496,10432,1588856867559230217,,0.501840677056,-0.189012479935,0.209754066801
1588856867565335962,10433,1588856867565185139,,0.501844530907,-0.188939453884,0.209721138509
1588856867571289273,10434,1588856867571180196,,0.501852481118,-0.188794026531,0.209654094754
1588856867574732363,10435,1588856867574645548,,0.501855771762,-0.188721653797,0.209618750889
1588856867580328277,10436,1588856867580246474,,0.501861177366,-0.188573738588,0.209547048836
1588856867586381093,10437,1588856867586173248,,0.501865036974,-0.188503104237,0.209514149773
1588856867592830736,10438,1588856867592723656,,0.501869957749,-0.188358822083,0.209443580376
1588856867598415980,10439,1588856867598252817,,0.50187352453,-0.188288485385,0.209410250793
1588856867604471700,10440,1588856867604289208,,0.501877576474,-0.188149408731,0.209341121006
1588856867610445960,10441,1588856867610256427,,0.501880921317,-0.188079353251,0.209309524623
1588856867616231501,10442,1588856867616157850,,0.501883921746,-0.187947745447,0.209242680987
1588856867622313560,10443,1588856867622206500,,0.501885657245,-0.187883877387,0.209212556289
1588856867628327384,10444,1588856867628217973,,0.501889163717,-0.187757277112,0.209149783093
1588856867634300332,10445,1588856867634186718,,0.501889532743,-0.187702120887,0.209119682521
1588856867640338945,10446,1588856867640230554,,0.501892099843,-0.187642123239,0.209090354403
1588856867646312438,10447,1588856867646203501,,0.501894558434,-0.187522520659,0.209028074356
1588856867652309204,10448,1588856867652216154,,0.501898179176,-0.187458434072,0.209001177581
1588856867658269331,10449,1588856867658170632,,0.501900212833,-0.187337979818,0.208939670528
1588856867664349092,10450,1588856867664197692,,0.501903366425,-0.187272958046,0.208909747723
1588856867670300951,10451,1588856867670171289,,0.501906979411,-0.187145356956,0.208847090486
1588856867673324302,10452,1588856867673175702,,0.501911688958,-0.187015199027,0.208782475797
1588856867676534585,10453,1588856867676383244,,0.501913736357,-0.186950170002,0.208750064323
1588856867682488546,10454,1588856867682267189,,0.501916920905,-0.186884399861,0.208720709792
1588856867688359125,10455,1588856867688195173,,0.501919251418,-0.186759053635,0.208657054481
1588856867694454979,10456,1588856867694302736,,0.501921042175,-0.186639990328,0.208596130222
1588856867700356500,10457,1588856867700167358,,0.50192413337,-0.186577777084,0.208568812566
1588856867706350101,10458,1588856867706261979,,0.501925588483,-0.186520523371,0.208541589624
1588856867715390301,10459,1588856867715226579,,0.501927616636,-0.186358122471,0.208457906618
1588856867721392586,10460,1588856867721246797,,0.501929456377,-0.186260226062,0.208407012698
1588856867727436070,10461,1588856867727257302,,0.501929079018,-0.186212444064,0.208380641289
1588856867733446947,10462,1588856867733334699,,0.501929793813,-0.186123111669,0.208331736644
1588856867739409368,10463,1588856867739295795,,0.501931864278,-0.186025065624,0.208279212172
1588856867745393289,10464,1588856867745259099,,0.501932738116,-0.185983420874,0.208255234586
1588856867751451169,10465,1588856867751298796,,0.501933568887,-0.185940232606,0.20822975489
1588856867757325211,10466,1588856867757222096,,0.501934246237,-0.185848683985,0.208176826498
1588856867763380310,10467,1588856867763250888,,0.501936359846,-0.185800655612,0.208151709193
1588856867769516526,10468,1588856867769358691,,0.501938339887,-0.185708917027,0.208100134883
1588856867775677853,10469,1588856867775525788,,0.501939977944,-0.185661678474,0.208075310933
1588856867781354095,10470,1588856867781258585,,0.501942702226,-0.185567649271,0.208022883089
1588856867787580485,10471,1588856867787430921,,0.501943953462,-0.185522828629,0.207997795361
1588856867793394178,10472,1588856867793307596,,0.501946018297,-0.185431991829,0.207945109555
1588856867799335127,10473,1588856867799264610,,0.501947132045,-0.185389976593,0.207920902234
1588856867805515791,10474,1588856867805358653,,0.501950595054,-0.185304338923,0.207875222347
1588856867811392494,10475,1588856867811268296,,0.501950389656,-0.185263754525,0.207851492209
1588856867817476900,10476,1588856867817314659,,0.501953614721,-0.185185720454,0.207810207663
1588856867823451988,10477,1588856867823292025,,0.501956164734,-0.185147098786,0.207790871764
1588856867829548843,10478,1588856867829346348,,0.501958808044,-0.185071849341,0.207749696622
1588856867835430795,10479,1588856867835290760,,0.501960896302,-0.18503599137,0.207730372213
1588856867841413826,10480,1588856867841242892,,0.501962990485,-0.184963393347,0.207687360102
1588856867847377318,10481,1588856867847253553,,0.501965747462,-0.184922798057,0.207668884998
1588856867853380849,10482,1588856867853258199,,0.501965632084,-0.184889462536,0.207644290753
1588856867859605745,10483,1588856867859511186,,0.50197107489,-0.184809569877,0.207605275297
1588856867865383172,10484,1588856867865259166,,0.501972280472,-0.184776410829,0.20758521549
1588856867871415348,10485,1588856867871268039,,0.501974045098,-0.184750528316,0.207568946771
1588856867877814168,10486,1588856867877660898,,0.501979233002,-0.184669402619,0.207530127713
1588856867883390913,10487,1588856867883272803,,0.501980711409,-0.1846431741,0.207515595111
1588856867889501818,10488,1588856867889338973,,0.501985643784,-0.184567635496,0.207482101783
1588856867895470228,10489,1588856867895320950,,0.501987824009,-0.184530339288,0.207465507983
1588856867901422285,10490,1588856867901292213,,0.501992365585,-0.184468994529,0.20743913431
1588856867907488839,10491,1588856867907348389,,0.501993794537,-0.184443247649,0.207426554286
1588856867913438341,10492,1588856867913301886,,0.501997126979,-0.184385628204,0.207398844415
1588856867919472169,10493,1588856867919343131,,0.501998289771,-0.184358591812,0.207385744476
1588856867925489458,10494,1588856867925347782,,0.502002900545,-0.184304055192,0.207361920824
1588856867931368657,10495,1588856867931245693,,0.502004420829,-0.184276410453,0.207348668995
1588856867937392965,10496,1588856867937293371,,0.502007952261,-0.184219374518,0.207323284851
1588856867943497024,10497,1588856867943343855,,0.502010024333,-0.184189470742,0.207310170808
1588856867949456960,10498,1588856867949288218,,0.502013775794,-0.184132726708,0.207284692247
1588856867955689944,10499,1588856867955349112,,0.502017450923,-0.184100984478,0.207275083546
1588856867961435223,10500,1588856867961247120,,0.502022928689,-0.184042198223,0.207251259079
1588856867967473863,10501,1588856867967340080,,0.502025250682,-0.184012160061,0.207237916438
1588856867973483445,10502,1588856867973386004,,0.502027708596,-0.18395367604,0.207214375631
1588856867979670215,10503,1588856867979565444,,0.502030606091,-0.183924187445,0.207203834133
1588856867985470050,10504,1588856867985355583,,0.50203480207,-0.183868361541,0.207183048704
1588856867991520067,10505,1588856867991317455,,0.502036717223,-0.183841671263,0.207173033776
1588856867997449798,10506,1588856867997306479,,0.502040850676,-0.183793216979,0.207154025993
1588856868003589150,10507,1588856868003387892,,0.502043275105,-0.183769606611,0.207146418999
1588856868009537737,10508,1588856868009361223,,0.502043603588,-0.183749709858,0.207136697156
1588856868015549784,10509,1588856868015384756,,0.502046578209,-0.183727219555,0.207129251316
1588856868021517554,10510,1588856868021332016,,0.502050494357,-0.183685893655,0.20711473794
1588856868027476409,10511,1588856868027348556,,0.50205117528,-0.18366722375,0.207107222646
1588856868033593749,10512,1588856868033343569,,0.502055680626,-0.183632246389,0.207095858036
1588856868042487100,10513,1588856868042300433,,0.502060918716,-0.183576843478,0.207076831031
1588856868048420849,10514,1588856868048295381,,0.502061355885,-0.183557999585,0.207070842243
1588856868054490633,10515,1588856868054363380,,0.502063798235,-0.183523605175,0.207058901906
1588856868060472062,10516,1588856868060366937,,0.502064540026,-0.183506023331,0.207053584243
1588856868066473752,10517,1588856868066296247,,0.502066541889,-0.183473769293,0.207043591467
1588856868075640332,10518,1588856868075562003,,0.502069519172,-0.183428701061,0.207036003647
1588856868081529881,10519,1588856868081337700,,0.502070364141,-0.183414037676,0.207035326804
1588856868087451866,10520,1588856868087319533,,0.502072636973,-0.183383521106,0.207037742709
1588856868093378347,10521,1588856868093280553,,0.502073839147,-0.183369913785,0.207040989426
1588856868102531229,10522,1588856868102329979,,0.50207628494,-0.183333923451,0.207049439238
1588856868108406830,10523,1588856868108295007,,0.502076709457,-0.183324041678,0.207050223354
1588856868114450418,10524,1588856868114315989,,0.502077519956,-0.183316440981,0.207051489138
1588856868120624844,10525,1588856868120425260,,0.502078731785,-0.183307324959,0.207052906525
1588856868126468507,10526,1588856868126339089,,0.502080118158,-0.183292127705,0.207057003033
1588856868135472467,10527,1588856868135305516,,0.502082000332,-0.183270322042,0.207065246163
1588856868141402899,10528,1588856868141296682,,0.502083269599,-0.183264908304,0.207068929063
1588856868147399628,10529,1588856868147288368,,0.502083748812,-0.183257702167,0.207070736995
1588856868153453279,10530,1588856868153324542,,0.50208605006,-0.183246747117,0.207078047636
1588856868159685968,10531,1588856868159536716,,0.50208699892,-0.183241467831,0.20708132163
1588856868165386845,10532,1588856868165291684,,0.502088173159,-0.183237099127,0.20708539591
1588856868171437465,10533,1588856868171266507,,0.502090106595,-0.183227845984,0.207092278696
1588856868174830119,10534,1588856868174679344,,0.502090975918,-0.183223870694,0.207094929566
1588856868180527630,10535,1588856868180360148,,0.502094406841,-0.183214367538,0.20709896231
1588856868186492426,10536,1588856868186375819,,0.502095330542,-0.183208430844,0.207100362492
1588856868195516263,10537,1588856868195293911,,0.5021022132,-0.183188620593,0.207108469072
1588856868201443261,10538,1588856868201326920,,0.50210718496,-0.183173226828,0.207116553211
1588856868207522751,10539,1588856868207381044,,0.50210965337,-0.183162717674,0.2071219881
1588856868213535780,10540,1588856868213316520,,0.502116200304,-0.183143168722,0.207132745448
1588856868219604244,10541,1588856868219503178,,0.502120452649,-0.183130564384,0.207139177066
1588856868225503337,10542,1588856868225385022,,0.502130337523,-0.18310219301,0.207150786878
1588856868231496706,10543,1588856868231374361,,0.502135317266,-0.183087002544,0.207156353483
1588856868237503615,10544,1588856868237304385,,0.502144443298,-0.183055829594,0.207166648058
1588856868243592283,10545,1588856868243338837,,0.502149407238,-0.183038761584,0.207173441113
1588856868249479383,10546,1588856868249345222,,0.502159966612,-0.183001734556,0.207188599078
1588856868255641858,10547,1588856868255418496,,0.50216504717,-0.182981175857,0.207196246458
1588856868261524173,10548,1588856868261377191,,0.502176992865,-0.182939068743,0.207211301095
1588856868267563155,10549,1588856868267424930,,0.502183526394,-0.18291686118,0.207220172789
1588856868273645908,10550,1588856868273443997,,0.502195535425,-0.18287385832,0.207236071386
1588856868279798246,10551,1588856868279689910,,0.502201173767,-0.182851653381,0.207245354299
1588856868285514035,10552,1588856868285368170,,0.502212124734,-0.182808802894,0.207263625494
1588856868291559433,10553,1588856868291343268,,0.502217868369,-0.182784146385,0.20727255043
1588856868297684345,10554,1588856868297376997,,0.502227950928,-0.182741774818,0.207293736408
1588856868303598921,10555,1588856868303431809,,0.502233417727,-0.182721635118,0.20730331145
1588856868309486249,10556,1588856868309380359,,0.502242313612,-0.182681709857,0.2073242523
1588856868315530026,10557,1588856868315382767,,0.502247823789,-0.182659667515,0.207336656231
1588856868321472440,10558,1588856868321316347,,0.502256188782,-0.182619095782,0.207360058503
1588856868327504958,10559,1588856868327383688,,0.502259824001,-0.182600149221,0.207371158319
1588856868333489684,10560,1588856868333369871,,0.502266837955,-0.18256442875,0.207395447987
1588856868339601550,10561,1588856868339473656,,0.502269450063,-0.182548065735,0.207404994832
1588856868345538007,10562,1588856868345386791,,0.502273007962,-0.182530660375,0.20741596405
1588856868351533609,10563,1588856868351335093,,0.502279086544,-0.182500602433,0.207441027918
1588856868357460789,10564,1588856868357355653,,0.502282404182,-0.18248401936,0.207452923431
1588856868363579598,10565,1588856868363423517,,0.502288725548,-0.182451702853,0.207478265053
1588856868369540701,10566,1588856868369437789,,0.50229394522,-0.18242281559,0.207504196163
1588856868375744866,10567,1588856868375602172,,0.502296434586,-0.182407683232,0.207515731287
1588856868381517146,10568,1588856868381360061,,0.502298912343,-0.182394483624,0.207528173325
1588856868387477272,10569,1588856868387336729,,0.502304066423,-0.182363518462,0.207553521036
1588856868393491061,10570,1588856868393335894,,0.502308542683,-0.182333300276,0.207580609501
1588856868399842958,10571,1588856868399731013,,0.502310750111,-0.182317499777,0.207589488673
1588856868405484186,10572,1588856868405367291,,0.502313281414,-0.182300680308,0.207603519381
1588856868411499001,10573,1588856868411364018,,0.502316301317,-0.182268246839,0.207624117398
1588856868417577354,10574,1588856868417374287,,0.502319241863,-0.182235063232,0.207643659056
1588856868423614936,10575,1588856868423452393,,0.502320276354,-0.182220560587,0.207652957747
1588856868429520546,10576,1588856868429393025,,0.502320304892,-0.182206016548,0.207657326801
1588856868435528461,10577,1588856868435331175,,0.502316414366,-0.182174175777,0.20766511996
1588856868441671333,10578,1588856868441426519,,0.502313072358,-0.182160247521,0.207668750539
1588856868447605231,10579,1588856868447419499,,0.50230598075,-0.182128147801,0.207667875156
1588856868453426768,10580,1588856868453320151,,0.502302218994,-0.182110281748,0.207667810969
1588856868459914372,10581,1588856868459795385,,0.502296297403,-0.182078699707,0.207665204986
1588856868465488338,10582,1588856868465385926,,0.502293311402,-0.182063132335,0.207663947418
1588856868471594536,10583,1588856868471463288,,0.502290905058,-0.182047910803,0.207662102937
1588856868477984588,10584,1588856868477748699,,0.502287999554,-0.182032325056,0.207661022224
1588856868483498541,10585,1588856868483406027,,0.502283182167,-0.182002592224,0.207661419001
1588856868489532037,10586,1588856868489373097,,0.502279878794,-0.181975739369,0.207665059155
1588856868495537326,10587,1588856868495433762,,0.502279174693,-0.181961009202,0.207668194995
1588856868501689224,10588,1588856868501484119,,0.502278330486,-0.181946205377,0.207669958862
1588856868507605510,10589,1588856868507473755,,0.502276881556,-0.181933536054,0.207669738294
1588856868513519420,10590,1588856868513398787,,0.502275245956,-0.181907077538,0.207672328837
1588856868519723742,10591,1588856868519617982,,0.502273361043,-0.181895655149,0.207671438058
1588856868525540568,10592,1588856868525407234,,0.502270469473,-0.181874457943,0.207673215603
1588856868531561359,10593,1588856868531400934,,0.50226971989,-0.181865332226,0.207672960967
1588856868537592765,10594,1588856868537412318,,0.502269229182,-0.181854776031,0.207673631763
1588856868543541035,10595,1588856868543410056,,0.502268408893,-0.181845983693,0.207675303222
1588856868549579138,10596,1588856868549421421,,0.502267790678,-0.181829575168,0.207676424931
1588856868555534510,10597,1588856868555373801,,0.502267378381,-0.181819037999,0.20767839571
1588856868561470585,10598,1588856868561340050,,0.502267045684,-0.181804128421,0.20768170905
1588856868567562311,10599,1588856868567421091,,0.502266779418,-0.181796153408,0.207683688615
1588856868573543774,10600,1588856868573437639,,0.502267394714,-0.18179161485,0.207685429416
1588856868579946784,10601,1588856868579830071,,0.502266928242,-0.181780763615,0.207688307393
1588856868585567818,10602,1588856868585436660,,0.502266982905,-0.181775063877,0.207689392704
1588856868591583807,10603,1588856868591458012,,0.502267059555,-0.181765214556,0.207691643787
1588856868597526928,10604,1588856868597390019,,0.502266309399,-0.181761287957,0.207691190129
1588856868603557827,10605,1588856868603450642,,0.502267152487,-0.181751277677,0.207692985397
1588856868609593164,10606,1588856868609427166,,0.502266609386,-0.181748669682,0.207692846403
1588856868615521067,10607,1588856868615410957,,0.502267008013,-0.181743074103,0.207693882272
1588856868621567568,10608,1588856868621418167,,0.502267481436,-0.181739377017,0.207695214979
1588856868627582564,10609,1588856868627440402,,0.502266636404,-0.181732210824,0.207694615731
1588856868633569646,10610,1588856868633396469,,0.502266716882,-0.181729295732,0.207694381391
1588856868642544393,10611,1588856868642351900,,0.502266915349,-0.181722743003,0.207692166957
1588856868648498504,10612,1588856868648395910,,0.502267538381,-0.181720273684,0.207692186935
1588856868654537083,10613,1588856868654385864,,0.502266962471,-0.18172016685,0.207691113668
1588856868660514639,10614,1588856868660378941,,0.502266706813,-0.181719141207,0.207689752154
1588856868666513122,10615,1588856868666399886,,0.502266781486,-0.181719156837,0.207688331505
1588856868675763662,10616,1588856868675627155,,0.502266642062,-0.181720957487,0.207683889631
1588856868681507876,10617,1588856868681389800,,0.502266761802,-0.181724264292,0.207680098346
1588856868687577141,10618,1588856868687426820,,0.50226686477,-0.181724783825,0.207677546889
1588856868693536069,10619,1588856868693388934,,0.502267743121,-0.181728286075,0.207670344884
1588856868699823877,10620,1588856868699705343,,0.502267459027,-0.181732670106,0.207663374985
1588856868705562341,10621,1588856868705430894,,0.502268628553,-0.181738454994,0.207647056731
1588856868711505006,10622,1588856868711395989,,0.502268210874,-0.18174500446,0.207635878048
1588856868717569224,10623,1588856868717387532,,0.502269378202,-0.181755881878,0.207613995841
1588856868723561921,10624,1588856868723392750,,0.502269277073,-0.181761090318,0.207600693849
1588856868729555516,10625,1588856868729470997,,0.50226951413,-0.181776474848,0.207576385555
1588856868735548275,10626,1588856868735438230,,0.502269558369,-0.181784294351,0.207564453047
1588856868741598123,10627,1588856868741428941,,0.502268129308,-0.181804923529,0.207540295907
1588856868747582562,10628,1588856868747390005,,0.502267770794,-0.181816649071,0.20752745127
1588856868753514239,10629,1588856868753397280,,0.502267028457,-0.18184519927,0.207506165612
1588856868759909444,10630,1588856868759805323,,0.502266522157,-0.181863144358,0.207492871784
1588856868765576025,10631,1588856868765455795,,0.502265265636,-0.181904644061,0.207470958601
1588856868771736599,10632,1588856868771521635,,0.502265268394,-0.181927305183,0.207458610157
1588856868777858112,10633,1588856868777687413,,0.502267268862,-0.181949846411,0.207449179727
1588856868783533203,10634,1588856868783405382,,0.502271670046,-0.181998913796,0.207431535733
1588856868789551508,10635,1588856868789382400,,0.502275689264,-0.182048459655,0.207412601297
1588856868795530204,10636,1588856868795419178,,0.502277993255,-0.182073995024,0.207399796759
1588856868801592198,10637,1588856868801448575,,0.502280330742,-0.182098575395,0.207392152698
1588856868807514222,10638,1588856868807385921,,0.502286288419,-0.18214572224,0.207366470271
1588856868813466039,10639,1588856868813341395,,0.502293153562,-0.182194736993,0.207342542294
1588856868819747177,10640,1588856868819654950,,0.502295809912,-0.182220962226,0.207329438501
1588856868825572243,10641,1588856868825428681,,0.502298257255,-0.182243033643,0.207313358388
1588856868831704708,10642,1588856868831481677,,0.502304500866,-0.182290275212,0.207283037922
1588856868837583753,10643,1588856868837447824,,0.502311414833,-0.182332416501,0.20725046885
1588856868843679536,10644,1588856868843578744,,0.50231554385,-0.18235103175,0.20723628263
1588856868849626330,10645,1588856868849459922,,0.502319522663,-0.182372045769,0.207220523088
1588856868855658901,10646,1588856868855485686,,0.502327719274,-0.182410583095,0.207190460059
1588856868861591405,10647,1588856868861421166,,0.502334842268,-0.182443865408,0.207157576291
1588856868867658325,10648,1588856868867444478,,0.502338043979,-0.182460904127,0.207137889896
1588856868873742493,10649,1588856868873527588,,0.502342275065,-0.182474321298,0.207122648714
1588856868879559284,10650,1588856868879441478,,0.502349603637,-0.18250367332,0.207084307611
1588856868885481727,10651,1588856868885406115,,0.502358704003,-0.182527528917,0.20704507988
1588856868891627681,10652,1588856868891483225,,0.502364445935,-0.182541278975,0.207020949149
1588856868897604464,10653,1588856868897466607,,0.502369759339,-0.182550471765,0.207003629087
1588856868903536397,10654,1588856868903421741,,0.502379529539,-0.182571850106,0.206963143112
1588856868909598728,10655,1588856868909444908,,0.502389257719,-0.182592850722,0.206923509408
1588856868915564306,10656,1588856868915422090,,0.502393508564,-0.182605169881,0.206902545759
1588856868921650122,10657,1588856868921495670,,0.502399055421,-0.182615995562,0.206883637376
1588856868927645368,10658,1588856868927492287,,0.50240818932,-0.182635767839,0.206838460717
1588856868933601734,10659,1588856868933387883,,0.502412103146,-0.18264796625,0.206815178112
1588856868939871930,10660,1588856868939700889,,0.502419356957,-0.182666445932,0.206770116238
1588856868945512830,10661,1588856868945418360,,0.502423135433,-0.182676507504,0.206746760884
1588856868951599746,10662,1588856868951466923,,0.502428776826,-0.182695397372,0.206698060216
1588856868957609151,10663,1588856868957447609,,0.502432047357,-0.182704507367,0.206673024427
1588856868963607692,10664,1588856868963438949,,0.50243681205,-0.18272145403,0.206627207797
1588856868969572591,10665,1588856868969463740,,0.502438793881,-0.182729897161,0.206604069282
1588856868975832352,10666,1588856868975718257,,0.502442874566,-0.182744799064,0.206559538011
1588856868981639936,10667,1588856868981497150,,0.502444359501,-0.182754322396,0.20653550184
1588856868987617733,10668,1588856868987487054,,0.502446830891,-0.182769262968,0.206490405661
1588856868993611191,10669,1588856868993465248,,0.502448321787,-0.18277794309,0.206465969786
1588856868999726623,10670,1588856868999534019,,0.502449830282,-0.182793365252,0.206418026377
1588856869008604882,10671,1588856869008486776,,0.502451819921,-0.182820465146,0.20634675381
1588856869014597515,10672,1588856869014463202,,0.502452406659,-0.18282713134,0.206325589698
1588856869020583699,10673,1588856869020483621,,0.502452627352,-0.18284303092,0.206279106425
1588856869026854132,10674,1588856869026696849,,0.502453506377,-0.182849619865,0.206258082136
1588856869032610836,10675,1588856869032510815,,0.502453572365,-0.182865893229,0.206212007373
1588856869038574418,10676,1588856869038455964,,0.502453562105,-0.182873564377,0.206187131689
1588856869044656948,10677,1588856869044475598,,0.502453822835,-0.182886496879,0.206141941523
1588856869050570372,10678,1588856869050453415,,0.502453695267,-0.18289645928,0.206114978634
1588856869056597828,10679,1588856869056494870,,0.502452989247,-0.182913697899,0.206067544506
1588856869062559843,10680,1588856869062443858,,0.502452503815,-0.182922287243,0.206042317647
1588856869068519431,10681,1588856869068414714,,0.50245206418,-0.182941147833,0.20599566425
1588856869071633660,10682,1588856869071455873,,0.502451131199,-0.182952325337,0.205969508112
1588856869074852845,10683,1588856869074741578,,0.502450313667,-0.182963276198,0.205946376922
1588856869077892589,10684,1588856869077743462,,0.502449814025,-0.18297284361,0.205923434388
1588856869083571763,10685,1588856869083486958,,0.502449161933,-0.182991579647,0.205876054546
1588856869089586241,10686,1588856869089485564,,0.50244885926,-0.183000362708,0.205853922603
1588856869095611575,10687,1588856869095498803,,0.502448145189,-0.183017117217,0.205812289103
1588856869101579322,10688,1588856869101467103,,0.502448001099,-0.183026113836,0.20578485072
1588856869107620827,10689,1588856869107504676,,0.502446839213,-0.183034146726,0.205763464397
1588856869113608909,10690,1588856869113487453,,0.502445897682,-0.183050785866,0.205720182596
1588856869119672002,10691,1588856869119532018,,0.502446442746,-0.183058939341,0.205694215677
1588856869125521237,10692,1588856869125414529,,0.502444861219,-0.183073229259,0.205654020885
1588856869131800131,10693,1588856869131507400,,0.502444594924,-0.183078635245,0.205635971516
1588856869137562380,10694,1588856869137435112,,0.502443969529,-0.183091918247,0.205593305398
1588856869143679707,10695,1588856869143549679,,0.502443343049,-0.183097038134,0.205577216716
1588856869149599283,10696,1588856869149476149,,0.502443229813,-0.183109679855,0.205531402301
1588856869155563160,10697,1588856869155458909,,0.502442917491,-0.183114734255,0.205513019159
1588856869161652563,10698,1588856869161546227,,0.502442849669,-0.183120461063,0.205491287557
1588856869167620730,10699,1588856869167461568,,0.502442618174,-0.183130420324,0.205447150667
1588856869173688820,10700,1588856869173543838,,0.502441531121,-0.183136780506,0.205423847866
1588856869179623621,10701,1588856869179550930,,0.502440923048,-0.183149077116,0.205373844267
1588856869185571731,10702,1588856869185440215,,0.502440047878,-0.183155972172,0.205348645026
1588856869197618802,10703,1588856869197487707,,0.502435987504,-0.183185722849,0.205239305047
1588856869203791264,10704,1588856869203587638,,0.502435265214,-0.183191814965,0.205213033193
1588856869209681587,10705,1588856869209519582,,0.502432488934,-0.183199935692,0.205180039895
1588856869215625475,10706,1588856869215519107,,0.502427431197,-0.18321826929,0.205116211377
1588856869221607542,10707,1588856869221489018,,0.502422134733,-0.183227807427,0.205084686632
1588856869227642376,10708,1588856869227533472,,0.502412745177,-0.183250087471,0.205018014736
1588856869233586269,10709,1588856869233497006,,0.502408751088,-0.183261165653,0.204986938816
1588856869239727018,10710,1588856869239614218,,0.502402618598,-0.183286704418,0.204924984597
1588856869245551507,10711,1588856869245453600,,0.502399903236,-0.183299267603,0.204894985329
1588856869251634760,10712,1588856869251449599,,0.502395217415,-0.183329655843,0.2048295887
1588856869257602957,10713,1588856869257501469,,0.502393119454,-0.183343573281,0.204803457445
1588856869263669372,10714,1588856869263578374,,0.502388081851,-0.183375915268,0.204743080828
1588856869269756001,10715,1588856869269565291,,0.502385846005,-0.183394610692,0.204711808258
1588856869275816339,10716,1588856869275690858,,0.502379863246,-0.183431477581,0.204644195404
1588856869281559143,10717,1588856869281475853,,0.502377770495,-0.183451458736,0.204611510263
1588856869287667675,10718,1588856869287525350,,0.50237093232,-0.183500817574,0.204538272376
1588856869293583894,10719,1588856869293500258,,0.502367037803,-0.183528653917,0.204502297037
1588856869299585640,10720,1588856869299504567,,0.502359409634,-0.183584680024,0.204429303681
1588856869305631133,10721,1588856869305496782,,0.502354013557,-0.183611881977,0.204392232613
1588856869311641478,10722,1588856869311478465,,0.502344931935,-0.183676060497,0.204318090465
1588856869317628956,10723,1588856869317484137,,0.502339488549,-0.183709122899,0.204278724992
1588856869323688843,10724,1588856869323509197,,0.502328517967,-0.183786886481,0.204199450327
1588856869329697502,10725,1588856869329566209,,0.502323804279,-0.183821045901,0.204160310262
1588856869335792955,10726,1588856869335592873,,0.502312284491,-0.183901209758,0.204083923263
1588856869341671141,10727,1588856869341524343,,0.502306271579,-0.183941163586,0.204042118123
1588856869347649356,10728,1588856869347515163,,0.502294079885,-0.184028971883,0.203959739529
1588856869353617887,10729,1588856869353457328,,0.502288735914,-0.184070116393,0.203919962917
1588856869362592876,10730,1588856869362449617,,0.502282609789,-0.184197509428,0.203821612689
1588856869368593065,10731,1588856869368471468,,0.502286006659,-0.184289883637,0.203762137538
1588856869374992438,10732,1588856869374864026,,0.502285992085,-0.184333567906,0.203726223637
1588856869380604189,10733,1588856869380475952,,0.502288909925,-0.184427966175,0.203671998504
1588856869386603354,10734,1588856869386515471,,0.502289787845,-0.184472613683,0.203642751546
1588856869392747303,10735,1588856869392606138,,0.502290268161,-0.184523240082,0.203609200413
1588856869398641202,10736,1588856869398497191,,0.502291628757,-0.184619033685,0.203542292172
1588856869404616488,10737,1588856869404498980,,0.502291392229,-0.1847216404,0.203469320175
1588856869410871618,10738,1588856869410588546,,0.502291050546,-0.184775649669,0.203430546943
1588856869416709333,10739,1588856869416508442,,0.502290022502,-0.184831080836,0.20338971735
1588856869422725234,10740,1588856869422534362,,0.502291226609,-0.184936533386,0.203309424119
1588856869428633569,10741,1588856869428536345,,0.502290481167,-0.185041417197,0.20322965161
1588856869434720958,10742,1588856869434546966,,0.502290877737,-0.185089826144,0.203193610965
1588856869440618462,10743,1588856869440493404,,0.502290051058,-0.185140187225,0.203159968943
1588856869446892902,10744,1588856869446796632,,0.502291479631,-0.185185497107,0.203126098253
1588856869452648037,10745,1588856869452522797,,0.502295244971,-0.185279170642,0.203060700658
1588856869458673835,10746,1588856869458499439,,0.502296712689,-0.185321597134,0.203024606195
1588856869464662293,10747,1588856869464464207,,0.502300103278,-0.185403302509,0.202963950327
1588856869470608052,10748,1588856869470462481,,0.502300577044,-0.185450894331,0.202924668553
1588856869473785121,10749,1588856869473627130,,0.502301424695,-0.185533803556,0.202853249414
1588856869479672857,10750,1588856869479573326,,0.50230338074,-0.185584323031,0.202807992794
1588856869491666157,10751,1588856869491548468,,0.502302349801,-0.185731055281,0.202676249786
1588856869497639579,10752,1588856869497576010,,0.502301924769,-0.185782668426,0.202635131022
1588856869503725938,10753,1588856869503548203,,0.502301250293,-0.185835476663,0.202591865652
1588856869509643757,10754,1588856869509533803,,0.502299904615,-0.18589026351,0.202544316443
1588856869515685748,10755,1588856869515550938,,0.502299588604,-0.185948347291,0.202493687552
1588856869521694803,10756,1588856869521572562,,0.502300666709,-0.186007821247,0.202441355747
1588856869527741933,10757,1588856869527617403,,0.502302047581,-0.186127103833,0.202329819226
1588856869533753338,10758,1588856869533584207,,0.502301976484,-0.186187106627,0.202277120974
1588856869539889880,10759,1588856869539788280,,0.502302925751,-0.186295872325,0.202170925702
1588856869545662699,10760,1588856869545537548,,0.502304393744,-0.18634699832,0.202122493294
1588856869551717159,10761,1588856869551578087,,0.502308351972,-0.186450584412,0.202023312997
1588856869557739560,10762,1588856869557577131,,0.502311429842,-0.186504437952,0.201978944325
1588856869563770171,10763,1588856869563579923,,0.502322541241,-0.186601369168,0.2018891393
1588856869569674376,10764,1588856869569571766,,0.502327250986,-0.186654493411,0.201845158169
1588856869575936565,10765,1588856869575776573,,0.502331844806,-0.186708772036,0.201796972067
1588856869581729977,10766,1588856869581573794,,0.502337689926,-0.18682893609,0.201703680241
1588856869587638484,10767,1588856869587546745,,0.50233903477,-0.186957633958,0.201595396483
1588856869593670090,10768,1588856869593530706,,0.502339580313,-0.187026725984,0.201539396687
1588856869599696720,10769,1588856869599580187,,0.50234042173,-0.187097887414,0.201478805801
1588856869611655125,10770,1588856869611512676,,0.502330421961,-0.187408419186,0.201240346075
1588856869617765204,10771,1588856869617631125,,0.502326233052,-0.18748526732,0.201182998994
1588856869623682998,10772,1588856869623555562,,0.502323425095,-0.187556302926,0.201127165661
1588856869629666320,10773,1588856869629574477,,0.50232403425,-0.187697546678,0.201018126611
1588856869635693862,10774,1588856869635571642,,0.50233132232,-0.187817447639,0.200921948583
1588856869641742512,10775,1588856869641591040,,0.502334975425,-0.187870996358,0.200876680519
1588856869647727565,10776,1588856869647550071,,0.50234460911,-0.187973561493,0.20078473082
1588856869653628472,10777,1588856869653511058,,0.50234917537,-0.188019947188,0.200738838736
1588856869660188330,10778,1588856869660074071,,0.502356997609,-0.18811351789,0.200648658262
1588856869666462592,10779,1588856869666355298,,0.502357523311,-0.188176826318,0.200589101541
1588856869671732897,10780,1588856869671547695,,0.502358684135,-0.188220616115,0.200548113468
1588856869678069076,10781,1588856869677921994,,0.502359061339,-0.188352776972,0.20043041607
1588856869683696119,10782,1588856869683582301,,0.50235787998,-0.18841662543,0.200379126384
1588856869689596691,10783,1588856869689517635,,0.502353738468,-0.1885562604,0.200266826665
1588856869695759295,10784,1588856869695621958,,0.502351928883,-0.188625985106,0.200211212391
1588856869701705521,10785,1588856869701550073,,0.502346105821,-0.188773699155,0.200094926924
1588856869707715671,10786,1588856869707603844,,0.502343493698,-0.188849662515,0.200041653127
1588856869713722277,10787,1588856869713588200,,0.502339407483,-0.188982715694,0.19993249258
1588856869719603700,10788,1588856869719525362,,0.502338640667,-0.189040677769,0.199880070135
1588856869725723362,10789,1588856869725577880,,0.502343998627,-0.189141126014,0.199777737217
1588856869731691013,10790,1588856869731505869,,0.502348746866,-0.189184453747,0.199732978197
1588856869737795485,10791,1588856869737664169,,0.502361380121,-0.189261140399,0.199638205964
1588856869743798079,10792,1588856869743615901,,0.502369493674,-0.189294402614,0.199595523207
1588856869749739814,10793,1588856869749628451,,0.502381831254,-0.189374517491,0.199499878884
1588856869755789955,10794,1588856869755657038,,0.502388042605,-0.189419978977,0.199452476588
1588856869761670524,10795,1588856869761539414,,0.50239807976,-0.189523568781,0.199356212605
1588856869767751015,10796,1588856869767592114,,0.502399687132,-0.189582325924,0.199299020334
1588856869773688557,10797,1588856869773589964,,0.502401995206,-0.189705900524,0.199188199857
1588856869780389587,10798,1588856869780269654,,0.502401892491,-0.189776181401,0.199126249016
1588856869785696188,10799,1588856869785585805,,0.502403778915,-0.189924823295,0.198999852166
1588856869791734329,10800,1588856869791583340,,0.50240445706,-0.190002837832,0.198937597314
1588856869797736113,10801,1588856869797615871,,0.50240307288,-0.190082048219,0.198874961955
1588856869803741644,10802,1588856869803596747,,0.502401553675,-0.190154208325,0.198814595024
1588856869809722095,10803,1588856869809604361,,0.502398025325,-0.190293709475,0.198712042046
1588856869815730484,10804,1588856869815589116,,0.502403391568,-0.190408161064,0.198613679122
1588856869821736369,10805,1588856869821579297,,0.502408933618,-0.190454724798,0.19856709275
1588856869827774748,10806,1588856869827609902,,0.502413664068,-0.190483477379,0.198532083607
1588856869833755049,10807,1588856869833594711,,0.502430061139,-0.190551464473,0.198465996438
1588856869840252326,10808,1588856869840144718,,0.502435771591,-0.190568249258,0.198443577051
1588856869846176831,10809,1588856869846032358,,0.502453790318,-0.190624678922,0.198370983504
1588856869851869410,10810,1588856869851638826,,0.502461682677,-0.190656136221,0.198339262621
1588856869857786937,10811,1588856869857599912,,0.502472476707,-0.190728389282,0.19825206295
1588856869863773595,10812,1588856869863628779,,0.502474975839,-0.190771601356,0.198208613646
1588856869869802603,10813,1588856869869617026,,0.502474970585,-0.190856658866,0.198119889556
1588856869876056458,10814,1588856869875884261,,0.50247455912,-0.190906025608,0.19807366011
1588856869881819896,10815,1588856869881642252,,0.502476233186,-0.191005374658,0.19797327627
1588856869887798945,10816,1588856869887679814,,0.502477674486,-0.191059410484,0.197925381751
1588856869893784055,10817,1588856869893638497,,0.50248236961,-0.191171933745,0.197834033128
1588856869900245529,10818,1588856869900139519,,0.502484684638,-0.191226025149,0.197788695877
1588856869906839880,10819,1588856869906716838,,0.502483330212,-0.191337730495,0.197699618125
1588856869911787312,10820,1588856869911640170,,0.502482965602,-0.191389644051,0.197658918779
1588856869917774259,10821,1588856869917615413,,0.502483472735,-0.191437938259,0.197616173607
1588856869923782165,10822,1588856869923623948,,0.502486502312,-0.191520461668,0.197534817028
1588856869929808589,10823,1588856869929641757,,0.502490470216,-0.191555951277,0.197497117375
1588856869935818684,10824,1588856869935656358,,0.502499151757,-0.191618497549,0.197426426456
1588856869941824216,10825,1588856869941674457,,0.502503340369,-0.191645163689,0.197395459989
1588856869947749857,10826,1588856869947612624,,0.502508143345,-0.191670241209,0.197366834865
1588856869953757218,10827,1588856869953618642,,0.502514347708,-0.191715604256,0.197313997549
1588856869959787256,10828,1588856869959656175,,0.502516676011,-0.191735501003,0.197290018209
1588856869965716578,10829,1588856869965644602,,0.502519868621,-0.191799180393,0.197229921916
1588856869971843328,10830,1588856869971679850,,0.502521363334,-0.191824475218,0.197205340674
1588856869978173448,10831,1588856869977982927,,0.502526166688,-0.191898820947,0.197138350112
1588856869983750218,10832,1588856869983596410,,0.502527020875,-0.191961713201,0.197079186836
1588856869989737028,10833,1588856869989561431,,0.502526375858,-0.191988861265,0.197051915362
1588856869995850613,10834,1588856869995635280,,0.502526021056,-0.192016559512,0.197025529843
1588856870001841514,10835,1588856870001662728,,0.502522387941,-0.192071428647,0.196969795324
1588856870007748874,10836,1588856870007640937,,0.502523298082,-0.192099837803,0.196942835689
1588856870013715414,10837,1588856870013597474,,0.502524954483,-0.192155923832,0.196884326463
1588856870020258064,10838,1588856870020152171,,0.502526403367,-0.192183141792,0.196854905374
1588856870025754873,10839,1588856870025598357,,0.502528071324,-0.19223566755,0.196800836829
1588856870031760606,10840,1588856870031604602,,0.502527254719,-0.1922597282,0.196771529994
1588856870037732555,10841,1588856870037601555,,0.502527526334,-0.192303127666,0.196715808148
1588856870043774989,10842,1588856870043610812,,0.502528115157,-0.192322231802,0.196689844671
1588856870049764789,10843,1588856870049589600,,0.502529341697,-0.192358579457,0.196640200117
1588856870055747808,10844,1588856870055638597,,0.502528975553,-0.192376120167,0.196617586485
1588856870061771319,10845,1588856870061623030,,0.502530050553,-0.192408831273,0.196572584908
1588856870067738527,10846,1588856870067599730,,0.502529811857,-0.1924262639,0.1965480806
1588856870073722411,10847,1588856870073601595,,0.502530264254,-0.192454487163,0.196510399325
1588856870082721348,10848,1588856870082553661,,0.502527629172,-0.192493551814,0.19645581672
1588856870088894701,10849,1588856870088702437,,0.502527054564,-0.192506006728,0.196441843454
1588856870094743479,10850,1588856870094602975,,0.50252625126,-0.192533948046,0.196407014626
1588856870100827638,10851,1588856870100608703,,0.502526451874,-0.192546108586,0.19639559256
1588856870106798561,10852,1588856870106621582,,0.502525667956,-0.192566054032,0.196374594106
1588856870113742088,10853,1588856870113639640,,0.502525739739,-0.192573169686,0.196364557149
1588856870118785068,10854,1588856870118638313,,0.502524489907,-0.192589583929,0.196343857991
1588856870124779650,10855,1588856870124650244,,0.502524130608,-0.192598282208,0.196333605019
1588856870130729888,10856,1588856870130626701,,0.502523739689,-0.192616428026,0.196305023027
1588856870136805527,10857,1588856870136638200,,0.502522718621,-0.192626525935,0.19629124234
1588856870142826500,10858,1588856870142671293,,0.502522302368,-0.19264585636,0.196261066647
1588856870148813875,10859,1588856870148652889,,0.502521450484,-0.192654388968,0.196247991968
1588856870154859274,10860,1588856870154689000,,0.502519800594,-0.192672615211,0.196219050886
1588856870160730281,10861,1588856870160622049,,0.502518583974,-0.19268278479,0.196205538202
1588856870167135421,10862,1588856870167001461,,0.502517089451,-0.192699105461,0.19618287214
1588856870173759908,10863,1588856870173664636,,0.50251600552,-0.192707524325,0.196172422892
1588856870184849906,10864,1588856870184655282,,0.502513494995,-0.192729903593,0.196146096867
1588856870190758776,10865,1588856870190609620,,0.502513288847,-0.192742596991,0.196131861689
1588856870196823202,10866,1588856870196645212,,0.502513210449,-0.192749363974,0.196123016151
1588856870202746432,10867,1588856870202609731,,0.502512525987,-0.192760810255,0.196106659591
1588856870208813182,10868,1588856870208640697,,0.502511884925,-0.192766487783,0.196098605408
1588856870214776643,10869,1588856870214632600,,0.502512061448,-0.19276947105,0.196092325221
1588856870220845037,10870,1588856870220645607,,0.502511562407,-0.19277693496,0.196081053641
1588856870226799338,10871,1588856870226654721,,0.502510707462,-0.192783902353,0.196071372256
1588856870233061654,10872,1588856870232845946,,0.502511361543,-0.192784202197,0.196068685223
1588856870238746822,10873,1588856870238658343,,0.502511189303,-0.192785533751,0.19606481551
1588856870244820131,10874,1588856870244682618,,0.502511655589,-0.192788384755,0.196061266759
1588856870250780496,10875,1588856870250657883,,0.502511905971,-0.192790216496,0.196060346967
1588856870256746308,10876,1588856870256557009,,0.502512602683,-0.192791187603,0.196058329697
1588856870260386761,10877,1588856870260202346,,0.502512598475,-0.192791315994,0.196057849
1588856870266951444,10878,1588856870266847697,,0.502512764489,-0.192791376982,0.196056930771
