%time,field.header.seq,field.header.stamp,field.header.frame_id,field.wrench.force.x,field.wrench.force.y,field.wrench.force.z,field.wrench.torque.x,field.wrench.torque.y,field.wrench.torque.z
1588857079993679516,4400,1588857079993586582,,0.0370681367432,-0.21717987599,0.0386679148816,0.0,0.0,0.0
1588857079999506746,4401,1588857079999396286,,0.0370675169812,-0.217180049019,0.0386675371713,0.0,0.0,0.0
1588857080002622636,4402,1588857080002527660,,0.0302615017044,-0.0881140431805,0.0314037499666,0.0,0.0,0.0
1588857080005474958,4403,1588857080005400131,,0.0370664047679,-0.217180030557,0.0386687070247,0.0,0.0,0.0
1588857080008476370,4404,1588857080008394413,,0.0178989592312,-0.216595687868,0.038227902963,0.0,0.0,0.0
1588857080014652473,4405,1588857080014544792,,0.030260777878,-0.088114285628,0.031403767186,0.0,0.0,0.0
1588857080017467594,4406,1588857080017392916,,0.0302608674268,-0.088114166681,0.0314040146425,0.0,0.0,0.0
1588857080023569587,4407,1588857080023433919,,0.0299304757045,-0.0863505984938,0.015643551816,0.0,0.0,0.0
1588857080026471334,4408,1588857080026394818,,0.0370653192539,-0.217180175211,0.0386689351034,0.0,0.0,0.0
1588857080029604988,4409,1588857080029514377,,0.0563579181272,-0.218912299418,0.058504611426,0.0,0.0,0.0
1588857080032677858,4410,1588857080032571413,,0.030844285505,-0.0906536588308,0.048192890305,0.0,0.0,0.0
1588857080038655390,4411,1588857080038549396,,0.0315443431222,-0.0935924003812,0.0662214010716,0.0,0.0,0.0
1588857080041761443,4412,1588857080041633702,,0.0368697102062,-0.218044756292,0.057934640769,0.0,0.0,0.0
1588857080047703631,4413,1588857080047567882,,0.0368708440426,-0.218044598574,0.0579345127745,0.0,0.0,0.0
1588857080050683071,4414,1588857080050569861,,0.0370711797032,-0.217179570456,0.038666713722,0.0,0.0,0.0
1588857080053634116,4415,1588857080053527207,,0.0370704870929,-0.217179589502,0.0386672707625,0.0,0.0,0.0
1588857080060065617,4416,1588857080059936900,,0.0370719143442,-0.217179435541,0.0386667671642,0.0,0.0,0.0
1588857080062968171,4417,1588857080062875432,,0.0368733408387,-0.218044350755,0.0579338564,0.0,0.0,0.0
1588857080065657666,4418,1588857080065556792,,0.0302638562384,-0.0881133692972,0.0314033717881,0.0,0.0,0.0
1588857080071688576,4419,1588857080071587840,,0.036872980777,-0.218044131474,0.0579349108615,0.0,0.0,0.0
1588857080074575114,4420,1588857080074493540,,0.0308458704049,-0.0906531757711,0.0481927845766,0.0,0.0,0.0
1588857080077598947,4421,1588857080077479769,,0.0308458541259,-0.0906531693235,0.0481928071242,0.0,0.0,0.0
1588857080083699950,4422,1588857080083600615,,0.030845908494,-0.0906526281326,0.0481937903208,0.0,0.0,0.0
1588857080086603972,4423,1588857080086502890,,0.0179031187185,-0.216594939314,0.0382301963568,0.0,0.0,0.0
1588857080089563093,4424,1588857080089443374,,0.0179031299788,-0.21659501676,0.0382297523075,0.0,0.0,0.0
1588857080095672822,4425,1588857080095523731,,0.0144567501777,-0.0863058780198,0.0304988000201,0.0,0.0,0.0
1588857080098705828,4426,1588857080098585592,,0.0144563602985,-0.0863057627874,0.0304993109058,0.0,0.0,0.0
1588857080101625095,4427,1588857080101555861,,0.0144560389916,-0.086305790398,0.0304993850691,0.0,0.0,0.0
1588857080107640784,4428,1588857080107529404,,0.0144560117567,-0.0863056771355,0.0304997184808,0.0,0.0,0.0
1588857080110721329,4429,1588857080110605539,,0.0144559513341,-0.0863057218772,0.0304996205127,0.0,0.0,0.0
1588857080113632672,4430,1588857080113555960,,0.0144564997538,-0.0863058554755,0.0304989825182,0.0,0.0,0.0
1588857080119721756,4431,1588857080119638365,,0.0144561800956,-0.0863059235425,0.0304989414186,0.0,0.0,0.0
1588857080122627629,4432,1588857080122549352,,0.0144555790802,-0.0863058023071,0.0304995693528,0.0,0.0,0.0
1588857080125469448,4433,1588857080125393208,,0.014454644782,-0.0863057850728,0.0305000609233,0.0,0.0,0.0
1588857080131694178,4434,1588857080131596760,,0.030260201544,-0.088113372079,0.0314068856522,0.0,0.0,0.0
1588857080134666739,4435,1588857080134502730,,0.0302599245077,-0.088113458005,0.0314069115032,0.0,0.0,0.0
1588857080137716687,4436,1588857080137593546,,0.0368631088344,-0.218043521426,0.0579434884128,0.0,0.0,0.0
1588857080143702326,4437,1588857080143614371,,0.0370618802464,-0.21717935553,0.0386768341811,0.0,0.0,0.0
1588857080146631659,4438,1588857080146534841,,0.0370612104324,-0.217179515814,0.0386765759878,0.0,0.0,0.0
1588857080149677501,4439,1588857080149510660,,0.0370617730841,-0.217179640402,0.0386753372144,0.0,0.0,0.0
1588857080155798103,4440,1588857080155636290,,0.0368618931867,-0.218043932777,0.0579427138478,0.0,0.0,0.0
1588857080158708755,4441,1588857080158588818,,0.0368635492063,-0.218043936848,0.0579416449702,0.0,0.0,0.0
1588857080161815018,4442,1588857080161727099,,0.0368660360217,-0.218043395229,0.0579421009559,0.0,0.0,0.0
1588857080167696504,4443,1588857080167600050,,0.0368689814784,-0.218042382594,0.0579440374463,0.0,0.0,0.0
1588857080170530573,4444,1588857080170457952,,0.0368729715771,-0.218041616216,0.0579443823269,0.0,0.0,0.0
1588857080176417121,4445,1588857080176340083,,0.0368750903941,-0.218041460925,0.0579436183231,0.0,0.0,0.0
1588857080179469305,4446,1588857080179360127,,0.0479954570681,-0.0928611291546,0.0496481510915,0.0,0.0,0.0
1588857080182784589,4447,1588857080182649026,,0.0479969811953,-0.0928605279172,0.0496478022165,0.0,0.0,0.0
1588857080185655355,4448,1588857080185576282,,0.0563752610317,-0.218906330294,0.0585102369754,0.0,0.0,0.0
1588857080191654013,4449,1588857080191558583,,0.0563785661474,-0.21890528463,0.0585109645318,0.0,0.0,0.0
1588857080194635714,4450,1588857080194548062,,0.0302707455597,-0.0881099314327,0.0314063775238,0.0,0.0,0.0
1588857080197650052,4451,1588857080197552598,,0.030271995005,-0.0881095601229,0.031406214932,0.0,0.0,0.0
1588857080203872186,4452,1588857080203726230,,0.0370956720855,-0.217174099258,0.0386739532746,0.0,0.0,0.0
1588857080206644454,4453,1588857080206539079,,0.0370992828189,-0.217173615231,0.038673207775,0.0,0.0,0.0
1588857080212787457,4454,1588857080212665694,,0.0144706670789,-0.0863033978901,0.0304992182857,0.0,0.0,0.0
1588857080215728042,4455,1588857080215589892,,0.0144713498206,-0.0863035400287,0.0304984921269,0.0,0.0,0.0
1588857080218640254,4456,1588857080218556259,,0.0299471218946,-0.0863449000045,0.0156431481164,0.0,0.0,0.0
1588857080221717270,4457,1588857080221608535,,0.0144061186632,-0.0843146896164,0.0150127721932,0.0,0.0,0.0
1588857080227714891,4458,1588857080227522964,,0.0144063169841,-0.0843145547377,0.015013339379,0.0,0.0,0.0
1588857080230706220,4459,1588857080230612141,,0.0302769858083,-0.0881085715395,0.0314041773434,0.0,0.0,0.0
1588857080236636721,4460,1588857080236546380,,0.0302746650317,-0.0881094164212,0.0314040442956,0.0,0.0,0.0
1588857080239643696,4461,1588857080239569099,,0.0302724593435,-0.0881101707875,0.0314040540707,0.0,0.0,0.0
1588857080242639906,4462,1588857080242525447,,0.0302715106484,-0.0881104703456,0.0314041280969,0.0,0.0,0.0
1588857080248704626,4463,1588857080248623808,,0.030853433768,-0.0906502371465,0.0481934706539,0.0,0.0,0.0
1588857080251725322,4464,1588857080251621695,,0.0308525855718,-0.0906511765319,0.0481922466853,0.0,0.0,0.0
1588857080254625005,4465,1588857080254535806,,0.0308522269537,-0.0906514022447,0.0481920516967,0.0,0.0,0.0
1588857080261095451,4466,1588857080261003351,,0.0308509094748,-0.0906513980735,0.0481929029584,0.0,0.0,0.0
1588857080263997572,4467,1588857080263917197,,0.0308502996278,-0.0906512633283,0.0481935468036,0.0,0.0,0.0
1588857080266601473,4468,1588857080266503269,,0.0308501358437,-0.0906513157081,0.0481935531214,0.0,0.0,0.0
1588857080272717873,4469,1588857080272543263,,0.0479964887805,-0.0928619795325,0.0496455631039,0.0,0.0,0.0
1588857080275726956,4470,1588857080275638640,,0.0368776929894,-0.218042226771,0.0579390799251,0.0,0.0,0.0
1588857080281679434,4471,1588857080281586182,,0.0368760580423,-0.218042021288,0.0579408937966,0.0,0.0,0.0
1588857080284457910,4472,1588857080284377831,,0.0368750319129,-0.218041536555,0.0579433709414,0.0,0.0,0.0
1588857080287701108,4473,1588857080287604308,,0.0368737585774,-0.218042205463,0.0579416641415,0.0,0.0,0.0
1588857080290750183,4474,1588857080290662574,,0.0370735990916,-0.217178096217,0.0386726739686,0.0,0.0,0.0
1588857080296723304,4475,1588857080296586851,,0.037074409173,-0.217177772464,0.0386737154945,0.0,0.0,0.0
1588857080299801647,4476,1588857080299712248,,0.0368786231334,-0.218041971108,0.0579394500264,0.0,0.0,0.0
1588857080302671170,4477,1588857080302576847,,0.0368784145914,-0.218041847147,0.0579400492578,0.0,0.0,0.0
1588857080308769064,4478,1588857080308604608,,0.0368789993599,-0.218042163181,0.0579384877231,0.0,0.0,0.0
1588857080311699986,4479,1588857080311632196,,0.0368791336575,-0.218041806286,0.0579397453411,0.0,0.0,0.0
1588857080317659044,4480,1588857080317539802,,0.0368769649944,-0.218041574952,0.0579419961968,0.0,0.0,0.0
1588857080320703916,4481,1588857080320614538,,0.0308490516841,-0.0906514095138,0.0481940706625,0.0,0.0,0.0
1588857080323737038,4482,1588857080323634310,,0.0368752467628,-0.218042028782,0.0579413819209,0.0,0.0,0.0
1588857080326578410,4483,1588857080326496456,,0.036874604537,-0.218042054604,0.0579416934717,0.0,0.0,0.0
1588857080332677634,4484,1588857080332573884,,0.0146505564238,-0.089136908917,0.0471249956667,0.0,0.0,0.0
1588857080335650222,4485,1588857080335573721,,0.014650206073,-0.0891366678011,0.0471255606516,0.0,0.0,0.0
1588857080341919517,4486,1588857080341734415,,0.0308471297069,-0.0906517899591,0.0481945852739,0.0,0.0,0.0
1588857080344807810,4487,1588857080344683050,,0.0308465111379,-0.0906521924358,0.0481942241443,0.0,0.0,0.0
1588857080347838248,4488,1588857080347667793,,0.030846452552,-0.0906515591484,0.0481954528206,0.0,0.0,0.0
1588857080353727980,4489,1588857080353613792,,0.0146493953621,-0.0891370472524,0.04712509495,0.0,0.0,0.0
1588857080356656315,4490,1588857080356546072,,0.014649009013,-0.0891365615559,0.0471261337298,0.0,0.0,0.0
1588857080359842515,4491,1588857080359681822,,0.0144573612435,-0.0863051343739,0.0305006146775,0.0,0.0,0.0
1588857080365636615,4492,1588857080365552676,,0.0144584181782,-0.0863051330437,0.0305001174296,0.0,0.0,0.0
1588857080368779231,4493,1588857080368550010,,0.0471740870939,-0.0907128075797,0.0326084561852,0.0,0.0,0.0
1588857080371652872,4494,1588857080371573790,,0.0302629068094,-0.0881131106225,0.0314050125117,0.0,0.0,0.0
1588857080377661539,4495,1588857080377520553,,0.0308475244747,-0.0906525688855,0.0481928674381,0.0,0.0,0.0
1588857080380680121,4496,1588857080380567869,,0.0302638627029,-0.0881133108241,0.0314035296247,0.0,0.0,0.0
1588857080386577566,4497,1588857080386484741,,0.014458739195,-0.0863057176338,0.0304983109981,0.0,0.0,0.0
1588857080389669221,4498,1588857080389473874,,0.0302651951066,-0.0881131405446,0.0314027233135,0.0,0.0,0.0
1588857080392592936,4499,1588857080392485624,,0.0182038535116,-0.216031847578,0.0191879461967,0.0,0.0,0.0
1588857080395656905,4500,1588857080395542748,,0.0182057265313,-0.216031769123,0.0191870524346,0.0,0.0,0.0
1588857080401706507,4501,1588857080401589327,,0.0182097417237,-0.216031421925,0.0191871513679,0.0,0.0,0.0
1588857080404659734,4502,1588857080404554231,,0.0565092877794,-0.21808812241,0.0391698083223,0.0,0.0,0.0
1588857080410752635,4503,1588857080410631856,,0.0179152465588,-0.216595083903,0.038223695264,0.0,0.0,0.0
1588857080413763906,4504,1588857080413638114,,0.0179171151638,-0.2165947706,0.0382245947352,0.0,0.0,0.0
1588857080416730158,4505,1588857080416577241,,0.0176479222527,-0.217488744528,0.0574474876855,0.0,0.0,0.0
1588857080419685075,4506,1588857080419589946,,0.0368894426931,-0.218045122271,0.0579207005276,0.000730477961742,0.000139033249708,3.37013910214e-05
1588857080425584469,4507,1588857080425496946,,0.0368866777818,-0.218046854407,0.0579159404977,0.000730478508513,0.000139026493511,3.37174075935e-05
1588857080428724267,4508,1588857080428618138,,0.0171556076871,-0.220059222431,0.0967737680491,0.00950974624239,0.00130296067337,0.000695872097389
1588857080434640406,4509,1588857080434527686,,0.0166911434945,-0.223237413536,0.137297484576,0.0137597998751,0.00153835114566,0.000869820946107
1588857080437717413,4510,1588857080437571660,,0.0162182857845,-0.226608942715,0.179166634579,0.0235075600021,0.00184413974147,0.000529575987561
1588857080440720217,4511,1588857080440600302,,0.0372024385206,-0.355677969256,0.208576854427,0.027034471418,0.00240993552976,0.000706129204668
1588857080446700408,4512,1588857080446592312,,0.0369320141976,-0.356784179565,0.230070797358,0.0314542936514,0.00249636647805,0.000795117343322
1588857080449738671,4513,1588857080449599872,,0.0149901495048,-0.35997760171,0.294959282841,0.0419588237409,0.00208672572012,0.00311908490916
1588857080452647053,4514,1588857080452544261,,0.0355681805639,-0.362327788047,0.339639258743,0.0480946795123,0.00269045806895,0.00187971872757
1588857080458681337,4515,1588857080458566187,,0.0361810244071,-0.489830680806,0.322809019185,0.0509801579289,0.00271067915802,0.00194191538769
1588857080461835473,4516,1588857080461749749,,0.0348520097581,-0.493227167141,0.411659085381,0.0622782749231,0.00218486238948,0.00297997768883
1588857080464952089,4517,1588857080464819094,,0.0341758544405,-0.494872388626,0.456393159427,0.0674903100638,0.00279040429302,0.00228450592873
1588857080470708901,4518,1588857080470601270,,0.0334894960541,-0.49646455344,0.501451590145,0.0791026346304,0.00221691951356,0.00251578228832
1588857080473570590,4519,1588857080473484843,,0.0334885139879,-0.496465085439,0.501451129023,0.0791026273339,0.00221695656987,0.00251597904732
1588857080476689222,4520,1588857080476597992,,0.0334925586645,-0.496448342623,0.501467434684,0.0836953893725,0.0022217035322,0.00178308539872
1588857080482625937,4521,1588857080482535419,,0.033496284845,-0.625526251051,0.505489492501,0.0882642722855,0.00222522586289,0.00186568742431
1588857080485788254,4522,1588857080485641591,,0.0103150380586,-0.627446465626,0.572639048873,0.0942274011798,0.00222749150986,0.00267311818695
1588857080488612646,4523,1588857080488532130,,-0.0117769650432,-0.627388597247,0.572222578654,0.0960711519705,0.00162233507319,0.00174104864733
1588857080494670445,4524,1588857080494550690,,0.010323113913,-0.627445872166,0.572639553604,0.0988235623168,0.00162185433359,0.00108924006618
1588857080500746625,4525,1588857080500645265,,0.00996299657446,-0.628088843831,0.595356531846,0.109757887454,0.000997119498296,-0.00294714034261
1588857080506880225,4526,1588857080506696123,,0.00995850472791,-0.628092179514,0.595353087901,0.109757881052,0.000995647755762,-0.00294787626613
1588857080509762807,4527,1588857080509668647,,0.00935472025626,-0.758520002714,0.621276924171,0.114223643126,0.000991880523616,-0.00457679084132
1588857080512629646,4528,1588857080512519842,,0.0308712083638,-0.759722469704,0.666997030869,0.117626922197,0.000988076829009,-0.00610242403046
1588857080518769426,4529,1588857080518564674,,0.0308604535567,-0.759725038197,0.666994602984,0.117626947381,0.000986652764739,-0.0061021690025
1588857080521587922,4530,1588857080521490403,,0.0532179596891,-0.8902380436,0.670268644706,0.123183027118,0.00097971865809,-0.00845497073311
1588857080524612006,4531,1588857080524519678,,0.052825569676,-0.890714052099,0.693056952567,0.125762784409,0.000972292012261,-0.00757256490297
1588857080530753511,4532,1588857080530540261,,0.0752100099967,-0.890807524259,0.69352035933,0.12763025674,0.000965447855068,-0.00912136884509
1588857080533750368,4533,1588857080533625670,,0.0523230319127,-1.02204890491,0.71826064148,0.132038866253,0.000956448733235,-0.0083533362093
1588857080539822215,4534,1588857080539709375,,0.0519641051904,-1.02248413014,0.740958664292,0.134636203281,0.0009527574955,-0.00832449132992
1588857080542788613,4535,1588857080542695673,,0.0511553863815,-1.02333317125,0.786541595708,0.140797495531,0.00157231813998,-0.00997422526266
1588857080545690417,4536,1588857080545595940,,0.0511535626529,-1.023324401,0.786553124748,0.140797289719,0.00156936832362,-0.0099775945341
1588857080548778219,4537,1588857080548678032,,0.0279451234167,-1.15479616817,0.811055392004,0.144294670022,0.000927989892677,-0.00921399638246
1588857080554719016,4538,1588857080554620139,,0.050248012633,-1.15524302752,0.834275178561,0.149698872982,0.000916588371671,-0.0116011531742
1588857080557836748,4539,1588857080557668602,,0.0502471283633,-1.15521485876,0.83431423647,0.149698742291,0.000914777115262,-0.011602982403
1588857080561028301,4540,1588857080560945352,,0.0498534762433,-1.15561090201,0.857181453166,0.153210750284,0.00154598963813,-0.0115603497427
1588857080566703130,4541,1588857080566595677,,0.050036901923,-1.0245741302,0.855011516932,0.154128184717,0.000906175958395,-0.0115502893139
1588857080569761760,4542,1588857080569601102,,0.0720886962037,-1.15603765233,0.880467624754,0.159576072804,0.000897001162769,-0.015684299863
1588857080572833312,4543,1588857080572735713,,0.0948075034511,-1.1561223836,0.880924071866,0.163273461209,0.000890972398328,-0.0172506201486
1588857080578691343,4544,1588857080578545238,,0.0948230607906,-1.15611686307,0.880929642499,0.163273572398,0.000894021890141,-0.0172494099463
1588857080581765362,4545,1588857080581614218,,0.071583602203,-1.28769062529,0.905269463524,0.166835698946,0.00024868776621,-0.0190914913964
1588857080584682864,4546,1588857080584600417,,0.0944421167904,-1.15649635958,0.903741213588,0.168705453328,0.00024574350887,-0.02067232004
1588857080590744825,4547,1588857080590575865,,0.0944415522585,-1.15650876216,0.90372540107,0.168706051666,0.000249844605651,-0.020667387289
1588857080593686124,4548,1588857080593579833,,0.0940417416412,-1.15689545975,0.926542261637,0.170476200328,0.000248079397329,-0.0241356682632
1588857080599785723,4549,1588857080599634964,,0.116683310669,-1.15699473673,0.926992917516,0.172347451166,0.000246914058844,-0.0257182625407
1588857080602693134,4550,1588857080602580393,,0.115978575265,-1.15774254283,0.972779596565,0.177646762728,0.000242906628493,-0.0291692515983
1588857080605802690,4551,1588857080605648309,,0.115986033835,-1.15776625309,0.972750488074,0.177646866724,0.000245339137308,-0.0291685978746
1588857080611756299,4552,1588857080611650291,,0.161401012476,-1.15799908014,0.973655149719,0.180473005594,0.000244070981631,-0.0323685175981
1588857080614806676,4553,1588857080614674342,,0.161053403959,-1.15836540237,0.996520627568,0.184083385932,-0.000397594969668,-0.0358500473546
1588857080617794094,4554,1588857080617659839,,0.161025217051,-1.15838479731,0.996502637402,0.184083932708,-0.000399006012187,-0.0358472239731
1588857080620739401,4555,1588857080620646244,,0.183701096091,-1.15849732227,0.996979863291,0.185048487905,-0.000400286126748,-0.0374510181807
1588857080626694635,4556,1588857080626601911,,0.160326060264,-1.29021183858,1.04425119568,0.190395129068,-0.00104583677543,-0.0428326116483
1588857080629771406,4557,1588857080629628308,,0.160314744019,-1.29020410042,1.04426249373,0.190395163591,-0.00104772226941,-0.0428324121111
1588857080635658150,4558,1588857080635567078,,0.160678187721,-1.28986346971,1.02128817667,0.191476528673,-0.00104979284615,-0.0437016270197
1588857080638685865,4559,1588857080638607566,,0.183038098335,-1.42167966573,1.04646670222,0.194092088476,-0.00170643819594,-0.044421844624
1588857080641721080,4560,1588857080641619869,,0.205897966265,-1.42177988571,1.04694536503,0.195966025006,-0.00170987113918,-0.046035937654
1588857080647706608,4561,1588857080647598565,,0.205824645021,-1.29042691608,1.04520727028,0.199730053294,-0.0023676087373,-0.0495380846453
1588857080650672701,4562,1588857080650577748,,0.205812547209,-1.29041895391,1.04521948263,0.199729994968,-0.00237006914097,-0.0495382021542
1588857080653669034,4563,1588857080653572264,,0.205503343606,-1.42210129554,1.06981773136,0.201430413022,-0.00237347020861,-0.0504069147769
1588857080659766067,4564,1588857080659692684,,0.1826357159,-1.42198675933,1.06936025972,0.201433592426,-0.00301247719092,-0.0505449663303
1588857080662813184,4565,1588857080662734810,,0.182250693744,-1.29096717214,1.09054210149,0.203144424204,-0.00301800750893,-0.0514226945651
1588857080665826554,4566,1588857080665695259,,0.205090411393,-1.29109451669,1.09099600116,0.203195100452,-0.00237550340874,-0.0530440975467
1588857080671679281,4567,1588857080671597310,,0.22793710962,-1.42251976088,1.09317751936,0.205067500196,-0.00237845090489,-0.0546569536079
1588857080674829938,4568,1588857080674714755,,0.227943494323,-1.42253917752,1.09315092127,0.206971346611,-0.00302048367673,-0.0573007979737
1588857080677838066,4569,1588857080677738596,,0.227166322993,-1.29187815479,1.13737975226,0.210441073668,-0.00238508098435,-0.0608179630592
1588857080684045066,4570,1588857080683695811,,0.227198598801,-1.29190720231,1.13734031112,0.210440419595,-0.002380189282,-0.0608204178534
1588857080686727500,4571,1588857080686617035,,0.24979183028,-1.42359096103,1.16242358098,0.212200286267,-0.00302318664526,-0.0633303712329
1588857080689732713,4572,1588857080689621838,,0.272242761415,-1.42402957133,1.18580328015,0.215801276235,-0.00302876265352,-0.0667141917506
1588857080695777370,4573,1588857080695659286,,0.272235274626,-1.42404086491,1.18579143642,0.215802092469,-0.0030270292096,-0.0667116300897
1588857080698732532,4574,1588857080698623931,,0.294665930412,-1.29326447232,1.20758089727,0.219411789833,-0.00303623109561,-0.070095353112
1588857080704611613,4575,1588857080704529844,,0.294795419642,-1.42445100908,1.20922143771,0.221288689402,-0.00369232803972,-0.0718661837657
1588857080707716240,4576,1588857080707603345,,0.317627033275,-1.42457426897,1.20970278596,0.224161078042,-0.00369632160826,-0.0761508662671
1588857080710807978,4577,1588857080710704208,,0.317631876095,-1.4245840391,1.20969000875,0.226038414703,-0.00370024723025,-0.077925913331
1588857080713637237,4578,1588857080713552762,,0.317265965907,-1.4248712012,1.23274922509,0.227750756755,-0.00370789580938,-0.07880397762
1588857080719690806,4579,1588857080719600284,,0.317261796664,-1.4248503159,1.2327744379,0.228684268547,-0.0037124722932,-0.079686962832
1588857080722779743,4580,1588857080722687722,,0.316985441462,-1.5565339107,1.25724168388,0.230420998592,-0.00437391286239,-0.0814614200975
1588857080728796358,4581,1588857080728712897,,0.340000476767,-1.6882211484,1.25915211452,0.232321838746,-0.00438478769347,-0.0839762285661
1588857080731907989,4582,1588857080731795552,,0.339630301008,-1.68846390076,1.2821251108,0.2348787683,-0.00504004833694,-0.0830763562991
1588857080734709119,4583,1588857080734627108,,0.362066555028,-1.68882445058,1.30570115591,0.238521126611,-0.00441592558255,-0.0873645659899
1588857080740731943,4584,1588857080740625850,,0.362071307473,-1.68880600977,1.30572368952,0.238521041968,-0.00441663728561,-0.087364761106
1588857080743873566,4585,1588857080743741410,,0.339235197917,-1.82036065058,1.30661364778,0.240345226544,-0.00507084131383,-0.0874989968825
1588857080749858866,4586,1588857080749703707,,0.339225511611,-1.82035027288,1.30663062054,0.242221059389,-0.00508016181298,-0.0892806320385
1588857080752788678,4587,1588857080752669486,,0.338858082069,-1.8205671182,1.3296240723,0.245805199015,-0.00574618371256,-0.0919414208591
1588857080755737261,4588,1588857080755585211,,0.338825172417,-1.82056893386,1.32962997293,0.247626629578,-0.00575553612482,-0.0919302052396
1588857080758729859,4589,1588857080758645645,,0.361791855718,-1.95251225644,1.33132766319,0.24773109089,-0.00641084445622,-0.0953624551072
1588857080765011652,4590,1588857080764924655,,0.361382282443,-1.82092868609,1.35305387149,0.250317516517,-0.0064168074617,-0.0953469456199
1588857080767672784,4591,1588857080767579164,,0.383633292307,-1.95329504127,1.40080794555,0.255627564628,-0.00577367264952,-0.0996409468838
1588857080773781273,4592,1588857080773680256,,0.383644351433,-1.9532863087,1.40081709349,0.255627784726,-0.0057723255944,-0.0996404602709
1588857080776824054,4593,1588857080776637662,,0.429652150654,-1.95355538479,1.40169673271,0.257606027642,-0.00642438415594,-0.104707192116
1588857080779823151,4594,1588857080779718661,,0.429680690482,-1.95354980209,1.40169576494,0.260452105504,-0.00642916588564,-0.108274422716
1588857080782876139,4595,1588857080782719808,,0.429713191905,-1.95356362837,1.40166653134,0.260453543807,-0.00642072747187,-0.108271463586
1588857080788798086,4596,1588857080788663206,,0.429804318534,-2.08548262821,1.40276115822,0.262275140876,-0.00641910456552,-0.108258213846
1588857080791752078,4597,1588857080791635792,,0.475752091516,-1.95383533533,1.40255812418,0.264224817401,-0.00707462865398,-0.112440787441
1588857080800840057,4598,1588857080800722015,,0.452455112751,-1.953939909,1.42505604305,0.267814590883,-0.00707696374446,-0.115251210959
1588857080803673000,4599,1588857080803572035,,0.452416254621,-1.95394812292,1.42505711757,0.268731041483,-0.00772797162711,-0.11524066688
1588857080806684938,4600,1588857080806574567,,0.452421442077,-1.95392662654,1.42508494473,0.268732251643,-0.00772670778895,-0.115237929599
1588857080812824435,4601,1588857080812708279,,0.452020884686,-1.95415398399,1.44807706248,0.269554407328,-0.00772946676946,-0.117017341831
1588857080815794824,4602,1588857080815694327,,0.45198102378,-1.95414394023,1.44810305822,0.272309632805,-0.00709297701696,-0.117901495897
1588857080821869514,4603,1588857080821742471,,0.451935060081,-1.95415278538,1.44810546752,0.272310598493,-0.007097420938,-0.117898998047
1588857080824895152,4604,1588857080824780914,,0.474088263049,-1.95471365597,1.49469492478,0.27663065893,-0.00776274712061,-0.119513101143
1588857080827810766,4605,1588857080827700554,,0.474017388743,-1.95468732311,1.49475183901,0.276632143753,-0.00777287035025,-0.119509006258
1588857080830912822,4606,1588857080830690465,,0.474066913195,-2.08653214363,1.49587876156,0.277577677874,-0.00777416975656,-0.12039155487
1588857080836814544,4607,1588857080836653269,,0.474100303644,-2.08656019393,1.4958290521,0.278510553383,-0.00776952394172,-0.121291302262
1588857080839637904,4608,1588857080839552976,,0.474076738802,-2.0865359496,1.49587033885,0.279479455183,-0.00777926998401,-0.123078424688
1588857080845843910,4609,1588857080845740206,,0.473733959015,-2.08676111009,1.51884052102,0.281175352348,-0.00778041095007,-0.123966668824
1588857080848781386,4610,1588857080848693469,,0.473797865876,-2.08681304004,1.51874923572,0.281174951063,-0.00776752539959,-0.123968387042
1588857080851875469,4611,1588857080851654161,,0.473891303069,-2.21876105592,1.51977380635,0.28208941124,-0.00776539258918,-0.123964082999
1588857080857924578,4612,1588857080857814802,,0.496507974387,-2.08714780678,1.54221625222,0.285663715035,-0.00844222118112,-0.126504160817
1588857080861159196,4613,1588857080861060247,,0.496536666602,-2.08714806336,1.54220666739,0.285663124011,-0.00843899782023,-0.12650571049
1588857080864151301,4614,1588857080864013716,,0.496193457785,-2.08736388751,1.56520009031,0.290175648115,-0.00844900021732,-0.13007585945
1588857080869882361,4615,1588857080869713983,,0.495893729275,-2.08756785711,1.58829967795,0.293732333162,-0.00844974664576,-0.131858723342
1588857080872680350,4616,1588857080872594990,,0.495918629298,-2.08755433424,1.58830967712,0.293731335501,-0.00844889863039,-0.131861000079
1588857080875810874,4617,1588857080875670466,,0.495922017763,-2.08754793463,1.58831703028,0.293783795334,-0.0091095811211,-0.133657032552
1588857080881822243,4618,1588857080881673987,,0.495617703524,-2.0877457418,1.61133082055,0.295478328654,-0.0091091179546,-0.134548397194
1588857080884793899,4619,1588857080884659100,,0.518618955574,-2.08786033663,1.61179735486,0.298340866858,-0.00911989809124,-0.138890168368
1588857080887833983,4620,1588857080887727726,,0.518995852839,-2.08765050277,1.58877727146,0.300353983642,-0.00977473073679,-0.140683819072
1588857080893820464,4621,1588857080893697231,,0.518978420948,-2.08763433521,1.58880420956,0.300354159321,-0.00977859618848,-0.140683175378
1588857080896757817,4622,1588857080896663565,,0.518233800539,-2.08803410008,1.63487003513,0.302854137461,-0.00978505525092,-0.142468967477
1588857080899786110,4623,1588857080899682986,,0.540970348175,-2.2202115461,1.65940904362,0.30455543219,-0.00978634413389,-0.143213370824
1588857080905770511,4624,1588857080905624850,,0.540916730656,-2.08834631107,1.65836428788,0.306481908204,-0.00978916403689,-0.14680684213
1588857080908805390,4625,1588857080908617635,,0.540532786976,-2.08854431107,1.68151104281,0.308128384976,-0.00979569027141,-0.145885195557
1588857080911797858,4626,1588857080911679034,,0.540522336571,-2.08853871865,1.68152134824,0.309945872036,-0.00980738052663,-0.14587729006
1588857080920867601,4627,1588857080920670694,,0.563672153903,-2.22050513392,1.68304349967,0.311846783715,-0.00982577284037,-0.148439253476
1588857080923857606,4628,1588857080923671342,,0.563233342803,-2.22068358252,1.70612224188,0.313542116545,-0.0105035497256,-0.149326101257
1588857080929832009,4629,1588857080929681821,,0.58620644968,-2.22082012831,1.70657929689,0.315386566453,-0.0105091507008,-0.150063282597
1588857080932874892,4630,1588857080932670995,,0.586180116858,-2.2208352611,1.70656864913,0.316379765083,-0.0105175310179,-0.152767440839
1588857080935814941,4631,1588857080935713240,,0.585830454366,-2.22103938402,1.72958707342,0.31802128045,-0.0105214694697,-0.151859692386
1588857080941670786,4632,1588857080941581543,,0.585104904297,-2.22143999619,1.77575328257,0.321436901257,-0.0105280614993,-0.153634502623
1588857080944654013,4633,1588857080944473858,,0.585154092504,-2.22148439371,1.77568153191,0.321436097642,-0.0105178844246,-0.153636881006
1588857080947699409,4634,1588857080947470145,,0.585135838505,-2.35338046547,1.77669442643,0.323308933239,-0.0105348662217,-0.155432431986
1588857080953669202,4635,1588857080953573805,,0.585202036134,-2.35337357133,1.7766817555,0.323307111579,-0.0105286000173,-0.155436645666
1588857080956727548,4636,1588857080956581106,,0.60845630669,-2.35351319598,1.77707244516,0.32610466794,-0.0111786414767,-0.157979642428
1588857080959794437,4637,1588857080959701087,,0.561882213465,-2.22150405029,1.79830135644,0.328682284244,-0.0111921799863,-0.157355125821
1588857080965826725,4638,1588857080965720238,,0.607331614521,-2.22210352803,1.84545018835,0.333978758704,-0.0105388247967,-0.161542029152
1588857080968840030,4639,1588857080968732162,,0.60741859273,-2.2221475508,1.84536855198,0.333978680834,-0.0105207426864,-0.161543368782
1588857080971745323,4640,1588857080971634963,,0.60752315741,-2.3540535526,1.84628613217,0.334881426528,-0.0105183627376,-0.161541894988
1588857080977922050,4641,1588857080977820116,,0.607541074679,-2.35406121584,1.8462704655,0.338480082585,-0.0111860449555,-0.159702695148
1588857080980779348,4642,1588857080980671221,,0.58405935876,-2.35411375186,1.86888529371,0.341070560103,-0.0111904136933,-0.159822794693
1588857080986861098,4643,1588857080986776635,,0.584070510524,-2.3541011508,1.8688976812,0.341070150759,-0.0111904897317,-0.159823662927
1588857080989707256,4644,1588857080989624848,,0.560642249673,-2.35418200075,1.89150164926,0.34540395815,-0.011207627574,-0.157233341806
1588857080992729254,4645,1588857080992613393,,0.560615824227,-2.35416486375,1.89153081017,0.345402923507,-0.011215174178,-0.157235076552
1588857080995829332,4646,1588857080995681763,,0.560561884226,-2.35418478238,1.89152200576,0.345377678964,-0.010560542873,-0.156324967453
1588857081001785645,4647,1588857081001682135,,0.537018882907,-2.48624723314,1.91502659931,0.348731079815,-0.0105762045816,-0.151029008689
1588857081004936339,4648,1588857081004823205,,0.536954517524,-2.48625386557,1.91503603701,0.34873090981,-0.0105856093591,-0.151028742349
1588857081011055071,4649,1588857081010898058,,0.536889404538,-2.48628059498,1.91501959031,0.350527837837,-0.0112591611077,-0.150110930673
1588857081014954875,4650,1588857081013541555,,0.536470131818,-2.4864604241,1.93819552799,0.353958963141,-0.0106169232093,-0.147374658997
1588857081016729656,4651,1588857081016625145,,0.536476998935,-2.48643993771,1.93821990844,0.35486303037,-0.0106244161906,-0.147371741753
1588857081019592940,4652,1588857081019526316,,0.536070551297,-2.48663550464,1.96127504201,0.355631229845,-0.00996410514299,-0.147361370341
1588857081025680267,4653,1588857081025573818,,0.536435388957,-2.35450235163,1.93729779618,0.355757838246,-0.0099688659566,-0.14645752399
1588857081028687764,4654,1588857081028599054,,0.536442320667,-2.48644266061,1.93822601359,0.356637919284,-0.00997030647382,-0.145542958978
1588857081034670494,4655,1588857081034549799,,0.512996142318,-2.48653150344,1.96083109611,0.358274824809,-0.00997771098296,-0.143872617088
1588857081040546026,4656,1588857081040473869,,0.535750312995,-2.48683036924,1.98431075522,0.359942391971,-0.00997020729767,-0.143716270829
1588857081046653541,4657,1588857081046510284,,0.512708969217,-2.48672975496,1.98385500788,0.360864702641,-0.00996773110822,-0.143848264045
1588857081049842603,4658,1588857081049712260,,0.512816677649,-2.48670570042,1.98385732053,0.362662209586,-0.00996087061934,-0.142935475239
1588857081052807048,4659,1588857081052710202,,0.512493984335,-2.48687876028,2.00692524325,0.36439329548,-0.00995756239817,-0.144721723029
1588857081058865059,4660,1588857081058718427,,0.512521753659,-2.48686596076,2.00693401225,0.36439325273,-0.00995433012144,-0.144722053029
1588857081062045749,4661,1588857081061929629,,0.512572306284,-2.48684419926,2.00694806702,0.366240780786,-0.00995356013794,-0.145616537769
1588857081065137824,4662,1588857081065036537,,0.512205398893,-2.48703412078,2.0301085432,0.369766747562,-0.00930332354105,-0.146481160224
1588857081073830866,4663,1588857081073720772,,0.512610933207,-2.61883364378,2.00783481214,0.369912618679,-0.0099509405,-0.146481518074
1588857081076986819,4664,1588857081076859626,,0.512198976909,-2.61900003907,2.03102534405,0.370684235161,-0.00995287455718,-0.146468711685
1588857081082817102,4665,1588857081082723425,,0.512206726388,-2.61895581047,2.03108042111,0.370683002509,-0.00995744551015,-0.146471520581
1588857081085787779,4666,1588857081085695837,,0.512190683814,-2.6189482813,2.03109417509,0.370657522369,-0.00996308141247,-0.145573843888
1588857081091811327,4667,1588857081091726370,,0.512140931346,-2.61894186952,2.0311149882,0.370657823497,-0.00997026897583,-0.145572585062
1588857081094848563,4668,1588857081094741334,,0.511601489323,-2.75117954747,2.05506358565,0.372293587231,-0.00933475085648,-0.143743816607
1588857081100897641,4669,1588857081100782056,,0.511087502052,-2.75131505561,2.07821375322,0.373034441047,-0.00935961110185,-0.142838026984
1588857081106969436,4670,1588857081106769588,,0.510964658203,-2.88342861888,2.0790494838,0.373058813041,-0.00870426624507,-0.143739762169
1588857081109696196,4671,1588857081109592622,,0.487935319145,-2.88336155378,2.07855949761,0.373919230272,-0.00936383942299,-0.142078592903
1588857081115804411,4672,1588857081115684195,,0.487790585791,-2.88332671499,2.07864179444,0.374860154635,-0.00938803720842,-0.142968595685
1588857081118791171,4673,1588857081118697209,,0.464617169959,-2.88324785352,2.07817895076,0.375722746018,-0.00938956895441,-0.141301074143
1588857081121752806,4674,1588857081121677753,,0.487877250496,-2.88340778552,2.07850899479,0.376658562234,-0.00937881612909,-0.142055420179
1588857081124786198,4675,1588857081124686481,,0.487859983701,-2.88336171903,2.07857695169,0.376657842308,-0.00938573794082,-0.142056871884
1588857081130834275,4676,1588857081130740856,,0.487495252989,-2.8835123358,2.1016636296,0.37838022258,-0.00938454256025,-0.14383862327
1588857081133769758,4677,1588857081133649925,,0.487603075102,-2.88356414082,2.10156753671,0.378381178781,-0.0093643943533,-0.14383742102
1588857081139807158,4678,1588857081139711163,,0.51074705068,-2.75150047326,2.10125720819,0.380284571004,-0.00937114013465,-0.146382901939
1588857081142758132,4679,1588857081142678264,,0.510778659472,-2.75153295278,2.10120699358,0.380285388645,-0.00936263137886,-0.146381322264
1588857081145744009,4680,1588857081145650320,,0.510920161467,-2.75153033699,2.1011760165,0.380285504924,-0.00934218098215,-0.146382326768
1588857081151789155,4681,1588857081151684587,,0.533657682456,-2.75177945881,2.12480584668,0.38294841261,-0.00867725162075,-0.148924243914
1588857081154814294,4682,1588857081154715160,,0.533704834409,-2.75179239361,2.12477725191,0.382949707778,-0.00866675084503,-0.148921524918
1588857081161175743,4683,1588857081161063894,,0.533741935551,-2.75178064994,2.12478314162,0.38295061654,-0.00866025454086,-0.148919565955
1588857081164385878,4684,1588857081164271441,,0.556856163822,-2.88398403907,2.12603053632,0.388442073838,-0.00867533074226,-0.149625656308
1588857081166719904,4685,1588857081166585053,,0.556874798202,-2.88398593939,2.12602307764,0.388444204637,-0.00866824165909,-0.149620535313
1588857081169590464,4686,1588857081169496721,,0.556487538935,-2.75202522898,2.14834857729,0.389260155305,-0.00801246980835,-0.151412431328
1588857081175882866,4687,1588857081175757676,,0.533222467962,-2.88405758341,2.14867686888,0.389215808107,-0.00867806557144,-0.149750065795
1588857081178722321,4688,1588857081178612477,,0.533624242028,-2.75175089359,2.12485123856,0.389387340326,-0.00935565644933,-0.150653991217
1588857081184838074,4689,1588857081184753323,,0.510068502093,-2.75184476246,2.14748674529,0.391933766513,-0.00937535958517,-0.148970222789
1588857081187909465,4690,1588857081187757273,,0.510005732515,-2.75184524739,2.14750103188,0.39193175544,-0.00938890720122,-0.148974660523
1588857081191546196,4691,1588857081190740608,,0.532557107389,-2.88421497691,2.17183555057,0.393624304446,-0.0094026225827,-0.149715816512
1588857081193910125,4692,1588857081193791742,,0.509393259208,-2.88416603638,2.1713529735,0.394521257005,-0.00941385711848,-0.14895019117
1588857081199850725,4693,1588857081199725402,,0.509350779291,-2.88414961342,2.17138475276,0.394519995892,-0.00942363475186,-0.148952913142
1588857081202810277,4694,1588857081202668539,,0.531941160432,-3.01655930893,2.19577721275,0.39620397025,-0.00876504841241,-0.14879133187
1588857081209019997,4695,1588857081208744498,,0.508748261587,-3.01647220332,2.19535293527,0.395266624666,-0.00943860035882,-0.148041800173
1588857081211864048,4696,1588857081211766266,,0.508368170552,-3.01662186557,2.21844735454,0.396879263891,-0.00944291107727,-0.145311927616
1588857081214846760,4697,1588857081214741477,,0.485260605931,-3.01653400911,2.21800670994,0.397767511187,-0.00944572694202,-0.144544393916
1588857081218041626,4698,1588857081217915280,,0.485238318902,-3.01657572377,2.21795485206,0.397768750714,-0.00944345214012,-0.144541131491
1588857081223822988,4699,1588857081223717583,,0.485230400314,-3.01657707716,2.21795474374,0.399591898304,-0.00945234201856,-0.144525838801
1588857081226894303,4700,1588857081226698441,,0.48527370434,-3.01661454313,2.217894312,0.399591719571,-0.00944436845631,-0.144526854237
1588857081232838093,4701,1588857081232733580,,0.485319951262,-3.01657955589,2.21793177917,0.401415792959,-0.009446396303,-0.144509544446
1588857081235818416,4702,1588857081235735147,,0.485323344463,-3.01658413782,2.21792480483,0.401416241083,-0.00944469094744,-0.144508411117
1588857081238764282,4703,1588857081238670959,,0.484993089586,-3.01673330759,2.24101241371,0.402183518219,-0.00943710530741,-0.144499297117
1588857081244795764,4704,1588857081244727421,,0.507740581941,-3.01696927473,2.2645486655,0.405712092696,-0.00943989329165,-0.145218426023
1588857081247857396,4705,1588857081247757788,,0.507788808933,-3.01697946169,2.26452428004,0.407560178676,-0.00943678522154,-0.146100716108
1588857081256876392,4706,1588857081256762857,,0.484540316551,-2.88491670852,2.28649007063,0.408288991163,-0.00941761260301,-0.14443189928
1588857081261455189,4707,1588857081261347248,,0.484597785374,-2.88492849461,2.28646302046,0.40920635585,-0.00874900698121,-0.144425553939
1588857081266108031,4708,1588857081266017634,,0.507714637826,-2.88501340256,2.28690266125,0.410109285679,-0.00874901811499,-0.144263028531
1588857081268871525,4709,1588857081268739766,,0.507719603169,-2.88499097484,2.28692985203,0.410108386281,-0.00875179163839,-0.144265417076
1588857081271910666,4710,1588857081271804860,,0.484526478305,-3.01704800176,2.287231368,0.411006357228,-0.00875314404956,-0.143499467782
1588857081274835981,4711,1588857081274736554,,0.461306713311,-3.01691062906,2.28686439951,0.411849470281,-0.00876092411492,-0.140924202879
1588857081280802001,4712,1588857081280698164,,0.461204958802,-3.01689704021,2.2869028497,0.411850016638,-0.00877470666687,-0.14092174863
1588857081283778216,4713,1588857081283676372,,0.461097471985,-3.01687261136,2.28695675022,0.413592360707,-0.00879999819562,-0.137289099855
1588857081286708165,4714,1588857081286613722,,0.461067992045,-3.01689146547,2.28693782196,0.413592846538,-0.00880184960858,-0.137287517563
1588857081292930052,4715,1588857081292824033,,0.414881631655,-2.88457411101,2.28531112221,0.412543554663,-0.00947456555548,-0.132170440365
1588857081295825349,4716,1588857081295731405,,0.414807489009,-2.88455321812,2.28535095213,0.412543578982,-0.00948633069619,-0.132169520551
1588857081298773038,4717,1588857081298650042,,0.414629504108,-3.01672987118,2.28607755872,0.412521839057,-0.00882390219337,-0.131258578522
1588857081304696956,4718,1588857081304600993,,0.414660748408,-3.01672706712,2.28607559194,0.413393246579,-0.00882603708621,-0.129450634784
1588857081307898779,4719,1588857081307768201,,0.414090676698,-3.1490678077,2.30991543691,0.41319932121,-0.00816172640359,-0.127637843576
1588857081311058342,4720,1588857081310803595,,0.413680519717,-3.14922667964,2.33300649776,0.413003254164,-0.00816410934798,-0.125839210534
1588857081316759603,4721,1588857081316671659,,0.390387780749,-3.28134062978,2.3333285981,0.412053680589,-0.0081660475522,-0.124183259398
1588857081319665729,4722,1588857081319579399,,0.390431461471,-3.28133579905,2.3333280829,0.412939780784,-0.00751076816488,-0.123274944396
1588857081322784693,4723,1588857081322689605,,0.367276876542,-3.28124619244,2.33289943736,0.412898769368,-0.00750460601307,-0.121615372784
1588857081328816478,4724,1588857081328644571,,0.367530381963,-3.41339380229,2.31045372097,0.412088133935,-0.00683360190077,-0.119813023774
1588857081331779592,4725,1588857081331656732,,0.367597756649,-3.41338772618,2.31045197915,0.412087808954,-0.00682648516071,-0.119814547209
1588857081334693124,4726,1588857081334609977,,0.390868074604,-3.41348469836,2.31084722312,0.41210454262,-0.00748500342466,-0.120576782368
1588857081340825990,4727,1588857081340750037,,0.390896547575,-3.41351276826,2.31080094259,0.413001145834,-0.0068195843023,-0.119667477388
1588857081343795823,4728,1588857081343695619,,0.390953145884,-3.41352582052,2.31077208669,0.412978243865,-0.00681415065154,-0.118769910998
1588857081346800847,4729,1588857081346690317,,0.3910207039,-3.41350624454,2.31078957369,0.412977769109,-0.00680803409723,-0.118771912535
1588857081352986261,4730,1588857081352771897,,0.391127250503,-3.41354034092,2.31072117338,0.414802962754,-0.0068005169874,-0.118755353868
1588857081355933416,4731,1588857081355816473,,0.367710566951,-3.28134326603,2.3326945736,0.41554994964,-0.00746423002543,-0.117989886123
1588857081358983940,4732,1588857081358865463,,0.391204925362,-3.41352946526,2.31072409051,0.417567406906,-0.00680303161487,-0.119631687069
1588857081365036571,4733,1588857081364939302,,0.391268394101,-3.41355625831,2.31067376352,0.417566858317,-0.00679511418195,-0.119634051837
1588857081367872666,4734,1588857081367785935,,0.344563170037,-3.41353437481,2.33293004651,0.417333732063,-0.00745811156665,-0.116320898094
1588857081370865514,4735,1588857081370721548,,0.367866452787,-3.28134551712,2.33266682887,0.418248244442,-0.00679613879489,-0.116159554403
1588857081376732483,4736,1588857081376636246,,0.367888351873,-3.28134601294,2.33266267776,0.418247844535,-0.0067943426505,-0.116161099385
1588857081379754433,4737,1588857081379656974,,0.368112770878,-3.41347890668,2.3102352628,0.41745803729,-0.00679524112185,-0.115271259432
1588857081382744121,4738,1588857081382657879,,0.344973834907,-3.41338050291,2.3098464692,0.416478677914,-0.00613355742548,-0.112715546583
1588857081388758448,4739,1588857081388617491,,0.344964165449,-3.41338045393,2.30984798568,0.416479124503,-0.00613362318647,-0.112713892868
1588857081391838005,4740,1588857081391744931,,0.344700795595,-3.28124043471,2.33228824785,0.417225507524,-0.00613933904318,-0.111801885562
1588857081397882092,4741,1588857081397797247,,0.344682620345,-3.28121850784,2.33232178205,0.417225378454,-0.0061430450106,-0.111802163663
1588857081400782371,4742,1588857081400674996,,0.34504120542,-3.28106510113,2.30923791509,0.415506408993,-0.0061443469906,-0.11001983299
1588857081403960575,4743,1588857081403792388,,0.344982532496,-3.2810365156,2.30928729597,0.415506947226,-0.0061517097509,-0.110017388805
1588857081409809811,4744,1588857081409650843,,0.321427574722,-3.28108861495,2.33199202645,0.416256862078,-0.00615870163637,-0.109250160073
1588857081412759582,4745,1588857081412657246,,0.321632036669,-3.41321244762,2.30959125851,0.415446145149,-0.00615818275751,-0.107447678864
1588857081415698296,4746,1588857081415623724,,0.321567940117,-3.41321171946,2.30960125974,0.415425653939,-0.00616343124705,-0.106542917703
1588857081421798388,4747,1588857081421688979,,0.298098393055,-3.54546501754,2.30982443083,0.41444541724,-0.00616858400811,-0.103986035723
1588857081424725146,4748,1588857081424645099,,0.29807116175,-3.54544028729,2.30986590426,0.414446087903,-0.00617113034134,-0.103983211612
1588857081427802125,4749,1588857081427707685,,0.298073732061,-3.54544094677,2.30986456033,0.413537880746,-0.00616770447194,-0.103993112661
1588857081433882925,4750,1588857081433764624,,0.297869458236,-3.67780076745,2.31048596951,0.41262046947,-0.00616227127905,-0.104000177896
1588857081436819378,4751,1588857081436735011,,0.274553346572,-3.54552424115,2.3325095605,0.412432058536,-0.00549447773614,-0.102343589277
1588857081439797070,4752,1588857081439659875,,0.274738418225,-3.6777422807,2.31004198438,0.411643374773,-0.00549288491981,-0.101451134735
1588857081445766546,4753,1588857081445666573,,0.274696887867,-3.67773727122,2.3100548987,0.4116441254,-0.00549582779945,-0.101447929594
1588857081448748070,4754,1588857081448648038,,0.274485613617,-3.54548051987,2.33258398898,0.412411897682,-0.00550101891662,-0.101437959089
1588857081451690134,4755,1588857081451596965,,0.274497495148,-3.54547844818,2.33258573971,0.412414292905,-0.00484224307296,-0.101433445968
1588857081458057408,4756,1588857081457970014,,0.251257286819,-3.54540375738,2.33216727987,0.413272675528,-0.0048449113734,-0.0988500834282
1588857081460974435,4757,1588857081460799286,,0.251237666349,-3.5454066675,2.33216496958,0.413273784637,-0.00484402962057,-0.0988454895618
1588857081463924433,4758,1588857081463811842,,0.274849308074,-3.54534692949,2.30948582705,0.411585706756,-0.00417689339485,-0.0987236075204
1588857081469901227,4759,1588857081469801658,,0.251641160062,-3.54528988123,2.30903624676,0.41156634839,-0.00483913608862,-0.0979654680505
1588857081472716768,4760,1588857081472623540,,0.274460090899,-3.54548054927,2.33258694752,0.411424317783,-0.00417237042027,-0.0978220185085
1588857081475884070,4761,1588857081475657156,,0.251221912182,-3.54539727202,2.33218094981,0.411426388168,-0.00483871719172,-0.0979633303722
1588857081481693447,4762,1588857081481576555,,0.251239878111,-3.54539744148,2.33217875685,0.410464988187,-0.00483446538512,-0.0961648908033
1588857081484652840,4763,1588857081484571525,,0.274884764043,-3.54533219476,2.30950422671,0.40882815893,-0.00482852132652,-0.0978540588882
1588857081487782847,4764,1588857081487637096,,0.275315403518,-3.54521488709,2.28637501754,0.408060777219,-0.00482232230005,-0.0978623578818
1588857081493715337,4765,1588857081493595120,,0.27535256213,-3.54522819817,2.28634990264,0.40806100421,-0.00481687877219,-0.0978616794728
1588857081496649610,4766,1588857081496566631,,0.274943900049,-3.54537682274,2.30942867708,0.407887918124,-0.00481785726937,-0.0969563658033
1588857081502846444,4767,1588857081502727834,,0.275371701853,-3.54525509183,2.28630589545,0.407120413225,-0.00481247057228,-0.0969651029876
1588857081505711685,4768,1588857081505609357,,0.252153996463,-3.54520218454,2.2858518016,0.40617392848,-0.00414474978838,-0.0953171128176
1588857081508749876,4769,1588857081508613143,,0.275378554008,-3.54527351601,2.28627650046,0.406192312911,-0.00414319050852,-0.0960739577793
1588857081511799845,4770,1588857081511647008,,0.275382432469,-3.5452835423,2.2862604857,0.40619268964,-0.00414129668492,-0.096072446642
1588857081517911565,4771,1588857081517799385,,0.275359453096,-3.54529641588,2.28624329044,0.406193014435,-0.00414250412782,-0.0960710213473
1588857081520762760,4772,1588857081520653155,,0.229209819613,-3.41284945922,2.2847114379,0.40617729368,-0.00480785907664,-0.0954567065578
1588857081523748300,4773,1588857081523606869,,0.275339442545,-3.54530234969,2.28623649882,0.406192931319,-0.00480529685184,-0.0960662217574
1588857081529707436,4774,1588857081529613611,,0.229177145624,-3.41285074307,2.28471279785,0.406179550034,-0.00480529134549,-0.0954472343587
1588857081532976257,4775,1588857081532867040,,0.252061503836,-3.54523506163,2.2858110119,0.404339790715,-0.00480150191042,-0.0953216640176
1588857081538728436,4776,1588857081538621042,,0.25205654854,-3.54523086451,2.28581806795,0.404340792884,-0.00479951478366,-0.0953175129481
1588857081541700779,4777,1588857081541601062,,0.252634148538,-3.41276610729,2.26196846327,0.402662468625,-0.00479634055,-0.0953327537332
1588857081547697363,4778,1588857081547615858,,0.229087135618,-3.41284192146,2.28473500227,0.403416099608,-0.00479892342386,-0.0945654859516
1588857081553748100,4779,1588857081553677733,,0.229456564406,-3.41269818631,2.26154623603,0.401726820144,-0.00544946241941,-0.094579914674
1588857081556803637,4780,1588857081556676325,,0.252777697949,-3.28047246329,2.26129385732,0.400836317855,-0.00544669429079,-0.0953460245745
1588857081563130677,4781,1588857081563025071,,0.229668380974,-3.28040720645,2.26085919414,0.399923019029,-0.00478880805187,-0.0954993385798
1588857081566229991,4782,1588857081566120019,,0.252774915641,-3.28046888272,2.26129936268,0.399009849549,-0.00544072280057,-0.0953658367708
1588857081571732146,4783,1588857081571646343,,0.252757494793,-3.28047866516,2.26128711852,0.39901114857,-0.00478822824651,-0.0953652522636
1588857081574813435,4784,1588857081574669421,,0.252771138046,-3.2804872469,2.26127314379,0.399032813996,-0.00478589102332,-0.09626455806
1588857081577871208,4785,1588857081577764665,,0.252772454778,-3.28049065258,2.26126805589,0.39815802788,-0.00478262844899,-0.0980839805201
1588857081580699689,4786,1588857081580583694,,0.252763766966,-3.28048513236,2.26127703536,0.398158182752,-0.00478348533607,-0.0980833100521
1588857081586737588,4787,1588857081586601047,,0.276176145833,-3.14830731811,2.26099442633,0.39728975523,-0.00477935264697,-0.0997524122873
1588857081589785405,4788,1588857081589670299,,0.299514264135,-3.28047944194,2.23904522789,0.395621976232,-0.00477384920573,-0.100528253555
1588857081595753470,4789,1588857081595643856,,0.299519605231,-3.28046927551,2.23905940842,0.395621746397,-0.00477427883809,-0.100529137647
1588857081598698617,4790,1588857081598615865,,0.299519449151,-3.28046792614,2.23906140627,0.395622013295,-0.00477364026512,-0.100528117617
1588857081601713878,4791,1588857081601637975,,0.299534719809,-3.28047096669,2.23905490872,0.393794263442,-0.00476977050093,-0.100553705655
1588857081604719378,4792,1588857081604583504,,0.276649537221,-3.14813205542,2.23792453189,0.392856777156,-0.0047661406027,-0.0998126550849
1588857081610854125,4793,1588857081610742769,,0.300202437067,-3.14805545889,2.21525415569,0.392127868145,-0.00476264262532,-0.1014828077
1588857081613712306,4794,1588857081613630653,,0.27737371911,-3.28008547036,2.19245639657,0.39040948028,-0.00475893986448,-0.0998567404247
1588857081619800952,4795,1588857081619718737,,0.27740973528,-3.28008242008,2.19245640321,0.389489576708,-0.00475659448068,-0.0998736288371
1588857081622729425,4796,1588857081622632941,,0.300726255274,-3.14788841222,2.19216988388,0.387679762993,-0.00475217145531,-0.100655867625
1588857081625865470,4797,1588857081625683082,,0.301161471773,-3.14773230758,2.16898455011,0.385989969636,-0.00474648105183,-0.100678374608
1588857081628715819,4798,1588857081628647081,,0.27767344706,-3.14780895002,2.19174350641,0.385833164451,-0.00474665159815,-0.0999283176387
1588857081634718769,4799,1588857081634639558,,0.301190883929,-3.14772340104,2.16899339161,0.385080019473,-0.00474541230885,-0.100695153288
1588857081637793924,4800,1588857081637691788,,0.301199656771,-3.14771600653,2.16900290452,0.3841837939,-0.00474241390835,-0.101604972879
1588857081643668762,4801,1588857081643602858,,0.301380529012,-3.01549797643,2.16824536148,0.384205566883,-0.00474234493512,-0.102516035254
1588857081646712436,4802,1588857081646639292,,0.301404615707,-3.01549614043,2.16824456679,0.38144730587,-0.00473594519891,-0.101642913412
1588857081649664629,4803,1588857081649600093,,0.301426221638,-3.01549473082,2.1682435237,0.381446498918,-0.00473545376679,-0.101645964603
1588857081655753396,4804,1588857081655667268,,0.301458001805,-3.01549030956,2.1682452543,0.381466090419,-0.0053892691257,-0.102560923329
1588857081658700285,4805,1588857081658626547,,0.301889049363,-3.01533971858,2.14514600762,0.378883324248,-0.00538202690854,-0.103494088502
1588857081661859784,4806,1588857081661773137,,0.325078415437,-3.01541434874,2.14557985983,0.377971158349,-0.00538075769583,-0.103364911885
1588857081667727563,4807,1588857081667653744,,0.301674669262,-2.88332683294,2.16744328403,0.378741111192,-0.00538269418461,-0.103500735334
1588857081670830915,4808,1588857081670634851,,0.302089184949,-2.88317043339,2.14434537574,0.375227909851,-0.0060353980302,-0.103541428147
1588857081673721736,4809,1588857081673618263,,0.325282574785,-2.88325422246,2.14476735579,0.375292208056,-0.00537141426983,-0.106098674085
1588857081679676109,4810,1588857081679583135,,0.302120088941,-2.88318508605,2.1443213205,0.374340691398,-0.00603235846738,-0.104455716042
1588857081682769488,4811,1588857081682621088,,0.325875627699,-2.75099611312,2.1208164574,0.370893531507,-0.00535848236422,-0.107063465477
1588857081685743947,4812,1588857081685671071,,0.32589896109,-2.75100135264,2.12080607554,0.3709140431,-0.00602024385703,-0.107965744465
1588857081691731227,4813,1588857081691660684,,0.325535045205,-2.75119473032,2.1438563836,0.370761859872,-0.00601831542501,-0.107972349486
1588857081694715856,4814,1588857081694640563,,0.325563652879,-2.75123465911,2.14380079805,0.369830532929,-0.00601233598759,-0.107086211565
1588857081697874290,4815,1588857081697738742,,0.326122645569,-2.61906684274,2.11978029496,0.368190199602,-0.0060029857959,-0.108904122464
1588857081703711120,4816,1588857081703626747,,0.349593459453,-2.61901198529,2.09697536684,0.36746152188,-0.00599711189592,-0.110576826592
1588857081706812622,4817,1588857081706739167,,0.326943283682,-2.61879071492,2.07340813086,0.364826570157,-0.00598692533513,-0.108941710374
1588857081709750373,4818,1588857081709681262,,0.326944632151,-2.61880821878,2.07338581001,0.363070505672,-0.00597968860415,-0.111664910302
1588857081715697809,4819,1588857081715588173,,0.34973038463,-2.48708245387,2.09600923819,0.362916424295,-0.00597764106551,-0.111521101837
1588857081718855308,4820,1588857081718748164,,0.396318870939,-2.48707181512,2.07379971028,0.357655071209,-0.00529941271672,-0.113983853808
1588857081721861088,4821,1588857081721777051,,0.396320062438,-2.48708250861,2.07378665799,0.357655259352,-0.00529814721886,-0.113983322284
1588857081727850764,4822,1588857081727766281,,0.350518391673,-2.48674292102,2.04980379806,0.354989933074,-0.00595268697162,-0.11159956784
1588857081733741342,4823,1588857081733623303,,0.374057643941,-2.35470587165,2.02623722829,0.350593427131,-0.00593712964649,-0.112395185815
1588857081739898154,4824,1588857081739804069,,0.39795407755,-2.35440414945,1.98043478823,0.343650483577,-0.00591834133171,-0.115014048139
1588857081742969906,4825,1588857081742873385,,0.397947777619,-2.35439039491,1.98045240586,0.343651869803,-0.00591651662649,-0.115010000035
1588857081745938619,4826,1588857081745808859,,0.397944862283,-2.35437266922,1.98047406402,0.342735985487,-0.00525353762063,-0.115017607516
1588857081752100091,4827,1588857081751994574,,0.398386386934,-2.22229588097,1.95644582859,0.34106258434,-0.00524942142881,-0.115032237315
1588857081754986253,4828,1588857081754812301,,0.421790954863,-2.09039349998,1.93283051007,0.336732433168,-0.00523859995912,-0.118524669008
1588857081760806636,4829,1588857081760687763,,0.421783742389,-2.0903794274,1.93284730364,0.335824309422,-0.00589998120387,-0.118533241261
1588857081764275415,4830,1588857081763986468,,0.445251951441,-1.95857341932,1.90909708335,0.332360738649,-0.00589177948127,-0.120225049933
1588857081767120841,4831,1588857081767000382,,0.445221459481,-1.95855860619,1.90911939148,0.332388183878,-0.00523173769594,-0.121117486175
1588857081769777914,4832,1588857081769677384,,0.445189997718,-1.82698625322,1.90803921395,0.329672160604,-0.00589123361488,-0.122037711665
1588857081775914572,4833,1588857081775811866,,0.444825014306,-1.82719845472,1.9312302787,0.328592297988,-0.00589294271021,-0.121152111008
1588857081778805987,4834,1588857081778703683,,0.44552229877,-1.82675487635,1.88497648535,0.3243518495,-0.00654590466551,-0.122083522352
1588857081784782082,4835,1588857081784693994,,0.445494936851,-1.69530932708,1.88384631976,0.322544105664,-0.00654478336046,-0.122995650939
1588857081787955835,4836,1588857081787810443,,0.445825834814,-1.69508607241,1.86076436996,0.319024023715,-0.00654018233374,-0.122126247182
1588857081791420210,4837,1588857081791291104,,0.423103211045,-1.56345367243,1.83600835521,0.314581202986,-0.00653190166066,-0.121406480199
1588857081796880754,4838,1588857081796713301,,0.423093321884,-1.56345834592,1.8360066544,0.314581282349,-0.00653338326172,-0.121406194836
1588857081799817330,4839,1588857081799699597,,0.423424019799,-1.56322576787,1.81282231025,0.311938198699,-0.00719020447564,-0.11963219422
1588857081802795413,4840,1588857081802687064,,0.423699656512,-1.43185490702,1.78849280548,0.31029452437,-0.00652876472766,-0.120536831762
1588857081808834916,4841,1588857081808748206,,0.423673812822,-1.43185313169,1.78850034905,0.309352980385,-0.00653174122813,-0.119646522755
1588857081811865802,4842,1588857081811739082,,0.40070442855,-1.17001141818,1.78547302699,0.305636990584,-0.00586426395874,-0.117117503762
1588857081814788125,4843,1588857081814704146,,0.400694081129,-1.17002939443,1.78546356932,0.305636966577,-0.00586590830211,-0.117117484065
1588857081820753162,4844,1588857081820670479,,0.40068394641,-1.17004208355,1.78545752838,0.30376309592,-0.00586292290935,-0.115329156664
1588857081823762419,4845,1588857081823687530,,0.40099148321,-1.16983646415,1.76231547178,0.302031582025,-0.00520068084807,-0.113548295916
1588857081826788829,4846,1588857081826704198,,0.35578140102,-1.0385951634,1.71365689444,0.295788989419,-0.00584585888041,-0.108494838672
1588857081832792175,4847,1588857081832712213,,0.355755445347,-1.03862411379,1.71364473681,0.295789959273,-0.00584701980219,-0.108492131967
1588857081835874801,4848,1588857081835737622,,0.356067890746,-1.16894731609,1.6918348985,0.292218920265,-0.00518271738659,-0.105823514092
1588857081838780191,4849,1588857081838702566,,0.333193807349,-1.16881085863,1.69136403051,0.290297365175,-0.00453836640766,-0.102395680337
1588857081844847987,4850,1588857081844725373,,0.333199502356,-1.03822425184,1.69004643019,0.288413453752,-0.00453780618644,-0.100620473096
1588857081847881945,4851,1588857081847751756,,0.333485538052,-1.16849392358,1.66830647871,0.284742041476,-0.00321897927903,-0.0943682220473
1588857081856902535,4852,1588857081856789320,,0.310494644267,-1.16836898244,1.66783423008,0.283754451296,-0.00387246729622,-0.0918183340728
1588857081859778912,4853,1588857081859703015,,0.28763598622,-1.16822464257,1.66737840131,0.280010359973,-0.00386268135931,-0.0884075659239
1588857081863149276,4854,1588857081863059248,,0.264687804487,-1.16808673463,1.66692171252,0.279965012534,-0.00320783140958,-0.0867628746427
