%time,field.header.seq,field.header.stamp,field.header.frame_id,field.vector.x,field.vector.y,field.vector.z
1588764323406238321,3962,1588764323406172502,,-0.0584565126769,-28.742320675,22.0897940037
1588764323409294239,3963,1588764323409233452,,-0.0574581780263,-29.2275483876,22.3987819787
1588764323412249673,3964,1588764323412187609,,-0.0568677308848,-29.3214527752,22.4469570425
1588764323415366041,3965,1588764323415293849,,-0.0591246011025,-29.2356829193,22.3687951635
1588764323418584337,3966,1588764323418491517,,-0.0598922847379,-29.8961823302,22.7958776742
1588764323423998131,3967,1588764323423906491,,-0.0604871036149,-30.5618794054,23.2231131025
1588764323427345696,3968,1588764323427290537,,-0.0632604997357,-30.4613455335,23.1351778287
1588764323430328570,3969,1588764323430228385,,-0.0601473722146,-31.1213450074,23.5674586286
1588764323433284043,3970,1588764323433208506,,-0.0643401490651,-31.0222709823,23.477717521
1588764323442335884,3971,1588764323442248419,,-0.0634569746558,-31.6701486932,23.9008506162
1588764323448056821,3972,1588764323447993348,,-0.0619833113664,-32.3385786463,24.3348165052
1588764323454159038,3973,1588764323454100143,,-0.0639294371736,-33.000688726,24.7634803181
1588764323459883982,3974,1588764323459812673,,-0.0607863884751,-33.6627042419,25.1936383829
1588764323466202860,3975,1588764323466129007,,-0.0609390841217,-34.3206306116,25.6266734604
1588764323472085146,3976,1588764323472008357,,-0.0601864348035,-34.982748306,26.0592309446
1588764323478246254,3977,1588764323478119106,,-0.0573485111962,-35.6477566186,26.4913543245
1588764323484393866,3978,1588764323484307670,,-0.0543427245845,-36.3070212152,26.9280621099
1588764323490334971,3979,1588764323490252914,,-0.0567959668195,-36.9665832239,27.3501608106
1588764323495993540,3980,1588764323495870401,,-0.0530077685982,-36.8485405303,27.2640528919
1588764323502337191,3981,1588764323502237019,,-0.0539825692507,-37.5084740102,27.6928999333
1588764323508340447,3982,1588764323508266005,,-0.0528378012614,-38.1722546197,28.1245533536
1588764323514643322,3983,1588764323514557898,,-0.0545126002469,-38.8218351689,28.5491237373
1588764323517283958,3984,1588764323517217724,,-0.0543342439561,-39.4732824145,28.9696944976
1588764323523232685,3985,1588764323523152331,,-0.0557822371564,-40.127095966,29.3933373341
1588764323529423189,3986,1588764323529283471,,-0.0548565107278,-39.9991182672,29.2993017655
1588764323535399466,3987,1588764323535267108,,-0.0560839486453,-40.6377863601,29.711530852
1588764323541296995,3988,1588764323541216526,,-0.0567252793141,-41.2894921511,30.131213752
1588764323547177287,3989,1588764323547083658,,-0.0563852654413,-41.9258877346,30.5496964066
1588764323553299075,3990,1588764323553198444,,-0.0582441870438,-42.5576347224,30.9596954523
1588764323559331189,3991,1588764323559204665,,-0.0559899788325,-43.1948128038,31.3773783994
1588764323565207751,3992,1588764323565118393,,-0.0559287129148,-43.8166782052,31.7827334745
1588764323571237725,3993,1588764323571144156,,-0.0569465988957,-44.4468757382,32.1910870892
1588764323577269453,3994,1588764323577187888,,-0.0555511141292,-45.0691292129,32.602243267
1588764323589398294,3995,1588764323589236958,,-0.0556623491668,-45.5423905085,32.907364555
1588764323595411237,3996,1588764323595216826,,-0.0562816548367,-46.1601377159,33.3116338465
1588764323601165970,3997,1588764323601104205,,-0.0559544890728,-46.7666551151,33.7100416658
1588764323607152587,3998,1588764323607067517,,-0.0567748263733,-47.3683863739,34.1023281552
1588764323613341401,3999,1588764323613171622,,-0.0538351469102,-47.9727817296,34.4989463703
1588764323619560182,4000,1588764323619474150,,-0.0538684325762,-48.4099100956,34.7707694382
1588764323625131551,4001,1588764323625035481,,-0.0538828748888,-49.0018765197,35.1598108023
1588764323631339769,4002,1588764323631234729,,-0.0586595230938,-49.5892902097,35.5370941925
1588764323637187211,4003,1588764323637100617,,-0.0562871034915,-50.1669498619,35.9176688868
1588764323649529531,4004,1588764323649450231,,-0.062348759056,-51.0200398831,36.4496142478
1588764323655184316,4005,1588764323655116838,,-0.0647985515446,-51.1822315054,36.5351428905
1588764323661290759,4006,1588764323661199263,,-0.0651965234102,-51.7505670737,36.902563393
1588764323667089973,4007,1588764323667022505,,-0.0659571978925,-52.3116685957,37.2699354819
1588764323673040431,4008,1588764323672974463,,-0.0663490178485,-52.8719752258,37.6319216984
1588764323679076897,4009,1588764323679024967,,-0.0667115736641,-53.42637376,37.994171157
1588764323685102153,4010,1588764323685011063,,-0.07072038458,-53.9843576263,38.3509299305
1588764323691520629,4011,1588764323691397990,,-0.0695390617458,-54.5711474015,38.7341379561
1588764323697201796,4012,1588764323697063182,,-0.0682923804959,-55.1461054812,39.1148502282
1588764323709344796,4013,1588764323709164094,,-0.0611973950797,-55.52116036,39.3719451027
1588764323715485834,4014,1588764323715364503,,-0.0604961314394,-56.090153801,39.7479310474
1588764323718341484,4015,1588764323718273952,,-0.058902726517,-56.5893032521,40.0964211354
1588764323724006769,4016,1588764323723924475,,-0.0603002401219,-57.0947167229,40.4377819451
1588764323730052595,4017,1588764323729975069,,-0.0626463162123,-57.6187194034,40.784520122
1588764323736538510,4018,1588764323736419801,,-0.06613925197,-58.1413716816,41.1219093749
1588764323742003716,4019,1588764323741897785,,-0.0661594716412,-58.0378190995,41.0409858045
1588764323748431304,4020,1588764323748326944,,-0.0676742923826,-58.5428328248,41.358694033
1588764323754317005,4021,1588764323754211174,,-0.0700664180263,-59.0123470611,41.6576040866
1588764323760336591,4022,1588764323760245586,,-0.0689936940717,-59.5325261012,41.985644823
1588764323766271173,4023,1588764323766209607,,-0.0754862164976,-60.0103459159,42.2770985317
1588764323772403765,4024,1588764323772304784,,-0.0728603108352,-60.4462191172,42.5694070258
1588764323778608325,4025,1588764323778537826,,-0.0718006684539,-60.9614867086,42.8892345285
1588764323784623734,4026,1588764323784501985,,-0.0721860632305,-61.4556121153,43.2020002717
1588764323790553941,4027,1588764323790481397,,-0.0714104507763,-61.8733790294,43.4835509283
1588764323796475292,4028,1588764323796374082,,-0.0689611519132,-62.3326589694,43.7901825146
1588764323802445150,4029,1588764323802379343,,-0.0689351819531,-62.2188047626,43.7054250684
1588764323808417154,4030,1588764323808307237,,-0.0709585518323,-62.6229873699,43.9822670183
1588764323814458238,4031,1588764323814379943,,-0.0666596769854,-63.0260806928,44.2667881395
1588764323820540898,4032,1588764323820451999,,-0.0713327607876,-63.44881575,44.5449809056
1588764323826477630,4033,1588764323826382383,,-0.0697650502219,-63.8666438973,44.8227556737
1588764323832574919,4034,1588764323832346069,,-0.0732913593003,-64.268690053,45.0814058579
1588764323838446421,4035,1588764323838361363,,-0.0721642903027,-64.6631777521,45.3353261763
1588764323844473688,4036,1588764323844364118,,-0.071765171815,-65.0323706225,45.5688293993
1588764323850647569,4037,1588764323850538769,,-0.0722202327171,-65.3893179206,45.7937814469
1588764323856389818,4038,1588764323856312045,,-0.073795682873,-65.7350554331,46.0087733234
1588764323862297163,4039,1588764323862203569,,-0.0718250228638,-65.5522306462,45.8761348218
1588764323868604232,4040,1588764323868485975,,-0.0715614935839,-65.9391699533,46.1107388532
1588764323874486715,4041,1588764323874393841,,-0.0727652350558,-66.3052824932,46.3270151052
1588764323880331145,4042,1588764323880253945,,-0.0735826782786,-66.5666323382,46.5016555245
1588764323886344680,4043,1588764323886247807,,-0.0733532001438,-66.8930219565,46.7083482628
1588764323892367192,4044,1588764323892275131,,-0.0754787218239,-67.2305925742,46.9229579491
1588764323898517688,4045,1588764323898429125,,-0.0800277313957,-67.4689480693,47.095994509
1588764323904391237,4046,1588764323904308030,,-0.0831336668101,-67.7249437575,47.2727793286
1588764323910030383,4047,1588764323909947363,,-0.0865724022271,-68.0034843373,47.4626510015
1588764323919373011,4048,1588764323919291791,,-0.092045778488,-68.0891345898,47.5196535513
1588764323925069175,4049,1588764323924972707,,-0.0893822369226,-68.3437969992,47.6844580152
1588764323931122298,4050,1588764323931039825,,-0.0895940369742,-68.5836744101,47.8314859136
1588764323937217684,4051,1588764323937154236,,-0.087663477374,-68.7999228453,47.9689611983
1588764323949603897,4052,1588764323949529173,,-0.0873567863632,-68.8344666675,47.9648616178
1588764323955516933,4053,1588764323955420281,,-0.088972543696,-69.0030823408,48.0719757797
1588764323961519059,4054,1588764323961430914,,-0.0936995599086,-69.1812064795,48.175373156
1588764323967420750,4055,1588764323967302861,,-0.0967859203367,-69.3437858672,48.2724178298
1588764323973531355,4056,1588764323973437072,,-0.103068844956,-69.5006416356,48.3597837686
1588764323979571869,4057,1588764323979495208,,-0.104020620658,-69.6413915604,48.437050873
1588764323985314071,4058,1588764323985242119,,-0.1075986135,-69.7677892893,48.5079814517
1588764323991484368,4059,1588764323991367170,,-0.106794504272,-69.8916826886,48.5820378776
1588764323997332006,4060,1588764323997262954,,-0.109031996049,-69.9966568186,48.6419822484
1588764324009541502,4061,1588764324009379722,,-0.109656147969,-69.8723262794,48.5488770294
1588764324015828242,4062,1588764324015702325,,-0.111402864767,-69.9364289259,48.5971195145
1588764324018746805,4063,1588764324018664846,,-0.110787501372,-70.003897464,48.6428007342
1588764324024353039,4064,1588764324024278692,,-0.111480138444,-70.053446701,48.6746606311
1588764324030160993,4065,1588764324030079737,,-0.111021136843,-70.0959510501,48.7065823453
1588764324036302015,4066,1588764324036090116,,-0.109598132869,-69.8727006848,48.5568997353
1588764324042118625,4067,1588764324042043423,,-0.109089667935,-69.9080837294,48.5776590155
1588764324048117959,4068,1588764324048004234,,-0.108125098909,-69.9264332529,48.5929533424
1588764324054245983,4069,1588764324054106681,,-0.10581244896,-69.9401440617,48.5997586515
1588764324060359174,4070,1588764324060210924,,-0.105160448418,-69.9410393976,48.6011032874
1588764324066504569,4071,1588764324066387058,,-0.103628120681,-69.9346423378,48.5904726139
1588764324072623170,4072,1588764324072496303,,-0.10630732488,-69.919126335,48.5754482084
1588764324078322829,4073,1588764324078254728,,-0.106399472528,-69.8922516064,48.5531377953
1588764324084339617,4074,1588764324084213915,,-0.108811819408,-69.8527161674,48.5213862397
1588764324090560696,4075,1588764324090460429,,-0.108993218454,-69.7980061388,48.4814981965
1588764324096768475,4076,1588764324096636339,,-0.112218595943,-69.744590583,48.4288603412
1588764324102633653,4077,1588764324102415966,,-0.111119605079,-69.5224205481,48.2737437785
1588764324108595773,4078,1588764324108438724,,-0.113229493804,-69.4471560038,48.2097298106
1588764324114600391,4079,1588764324114473451,,-0.112461454123,-69.3647017095,48.1481117166
1588764324120559975,4080,1588764324120438557,,-0.113100787321,-69.2704355977,48.0740711119
1588764324126456077,4081,1588764324126354057,,-0.114399459242,-69.1679334396,47.9952477334
1588764324132296604,4082,1588764324132162320,,-0.115123221385,-69.049277222,47.9138454221
1588764324138238734,4083,1588764324138113140,,-0.116560266232,-68.9174871357,47.8165317234
1588764324144018466,4084,1588764324143908041,,-0.115999818186,-68.7784041665,47.7251406114
1588764324150585881,4085,1588764324150486760,,-0.116020235562,-68.614814581,47.6198656391
1588764324156857263,4086,1588764324156788608,,-0.116481840619,-68.4448799737,47.510974997
1588764324162545317,4087,1588764324162445687,,-0.114379479807,-68.2068227352,47.3588110995
1588764324168449708,4088,1588764324168369849,,-0.113722082296,-68.0259766748,47.2407482368
1588764324174226678,4089,1588764324174052067,,-0.114860156359,-67.8422616473,47.1132492028
1588764324180471867,4090,1588764324180389945,,-0.110164301808,-67.6939637629,47.0107735258
1588764324186491967,4091,1588764324186404149,,-0.108863618707,-67.4797949929,46.8663047134
1588764324192461568,4092,1588764324192378818,,-0.106497845373,-67.2209134226,46.7023331412
1588764324198626133,4093,1588764324198513433,,-0.103130462305,-67.0577623958,46.5870357879
1588764324204470080,4094,1588764324204381999,,-0.105641722525,-66.8149686774,46.4342901504
1588764324210389063,4095,1588764324210293675,,-0.107502481633,-66.5422474316,46.2604354868
1588764324222381445,4096,1588764324222267606,,-0.109709194801,-66.1572458931,46.0057427217
1588764324228253598,4097,1588764324228184825,,-0.11410878437,-65.9064178248,45.8332482323
1588764324234287620,4098,1588764324234210906,,-0.113974248455,-65.6198158649,45.6491387877
1588764324240172144,4099,1588764324240086320,,-0.110307092481,-65.4162102559,45.5058502962
1588764324246081227,4100,1588764324245995086,,-0.112300361059,-65.1366485783,45.3122796179
1588764324252508229,4101,1588764324252418709,,-0.112049957093,-64.8265928062,45.1123362066
1588764324258281971,4102,1588764324258195255,,-0.112021411714,-64.5396292972,44.9154747036
1588764324264401929,4103,1588764324264271241,,-0.111732978972,-64.2446518043,44.7151849667
1588764324270289045,4104,1588764324270195202,,-0.112262487106,-63.9405621043,44.5069038318
1588764324276580564,4105,1588764324276470779,,-0.10938120608,-63.3166007172,44.087775888
1588764324282474495,4106,1588764324282351464,,-0.108926960368,-63.4185176774,44.1430396642
1588764324288163657,4107,1588764324288092030,,-0.104448817742,-63.0766924846,43.9111893355
1588764324294767182,4108,1588764324294665330,,-0.10061240117,-62.7162182977,43.6677814401
1588764324300705089,4109,1588764324300586269,,-0.099763513419,-62.3414018656,43.4103066514
1588764324306459248,4110,1588764324306388654,,-0.0959398134701,-61.9712275413,43.1594988773
1588764324312284709,4111,1588764324312187938,,-0.0952591124412,-61.6352129697,42.9242229415
1588764324315605305,4112,1588764324315501691,,-0.0938783255524,-61.39994594,42.7657340862
1588764324318633757,4113,1588764324318563056,,-0.0904584417925,-60.9547440177,42.4874610655
1588764324324317574,4114,1588764324324221029,,-0.0890654382569,-60.6002835221,42.2372774837
1588764324330599284,4115,1588764324330497066,,-0.0894857869348,-60.1698507678,41.9596080143
1588764324336372770,4116,1588764324336275102,,-0.0901497734029,-59.9149209931,41.8012405658
1588764324342216236,4117,1588764324342104958,,-0.0868026317873,-59.5000369622,41.5256136707
1588764324348345933,4118,1588764324348286583,,-0.0889733015833,-59.0681509191,41.2467561007
1588764324354554612,4119,1588764324354450067,,-0.0872097040188,-58.6315234705,40.9588249267
1588764324360520377,4120,1588764324360429979,,-0.0862619025471,-58.1914027855,40.6660292059
1588764324366481495,4121,1588764324366375588,,-0.0855974441655,-57.7431569781,40.3583245199
1588764324372617808,4122,1588764324372508166,,-0.0809864712907,-57.2784441203,40.0491059366
1588764324378498775,4123,1588764324378383165,,-0.0766518543517,-56.8111449518,39.7320975001
1588764324384829199,4124,1588764324384716844,,-0.0753702731722,-56.3275596566,39.4079572092
1588764324390460827,4125,1588764324390369499,,-0.0728414878295,-55.8416135946,39.0839700495
1588764324396509241,4126,1588764324396415482,,-0.0778446637923,-55.3491662764,38.7445324307
1588764324402486358,4127,1588764324402380505,,-0.0805084102431,-55.1363237211,38.5906610394
1588764324408558922,4128,1588764324408395894,,-0.0774751714192,-54.6366242792,38.2511701974
1588764324414702600,4129,1588764324414554401,,-0.0781557859476,-54.1175899968,37.8934274504
1588764324420555432,4130,1588764324420451258,,-0.0731793315976,-53.5880094122,37.5435152691
1588764324426526564,4131,1588764324426452475,,-0.0667199219596,-53.0628120319,37.1774526842
1588764324432443294,4132,1588764324432307111,,-0.0587666408856,-52.5180548381,36.8028180032
1588764324438198005,4133,1588764324438117963,,-0.0432210305836,-51.9622808028,36.4461152855
1588764324444178500,4134,1588764324444092995,,-0.0451275986901,-51.4052960608,36.0584280505
1588764324450583219,4135,1588764324450466649,,-0.0456685777462,-50.8235068561,35.6734910352
1588764324456609931,4136,1588764324456455467,,-0.0430796474654,-50.5883162667,35.5265702377
1588764324462664943,4137,1588764324462580306,,-0.0419459780203,-50.0053367966,35.1455675571
1588764324468582483,4138,1588764324468464567,,-0.0372661452568,-49.4143866708,34.7652924082
1588764324474437422,4139,1588764324474360457,,-0.0336785488899,-48.8168264614,34.3773893393
1588764324480532255,4140,1588764324480380406,,-0.0131481635428,-48.2411286352,34.002094274
1588764324486491733,4141,1588764324486367649,,-0.00523953083031,-47.6412274413,33.6173615526
1588764324492621815,4142,1588764324492527732,,-0.00309643175234,-47.0400036552,33.2260112783
1588764324498501385,4143,1588764324498396817,,0.000778017578806,-46.4495125584,32.8335271595
1588764324504635883,4144,1588764324504500234,,0.00125522523065,-45.84393464,32.4322272446
1588764324510553288,4145,1588764324510429840,,0.00134747448555,-45.2371515334,32.0324756656
1588764324517473267,4146,1588764324517347154,,0.0309434078836,-44.6582038682,31.6352680589
1588764324522535023,4147,1588764324522449686,,0.0318331170155,-44.4485359966,31.4907461538
1588764324528544615,4148,1588764324528432090,,0.02551973735,-43.8241543064,31.0687856861
1588764324534420842,4149,1588764324534332354,,0.0276832485024,-43.2149467348,30.6636043845
1588764324540051164,4150,1588764324539985511,,0.02312713305,-42.591989863,30.2346283799
1588764324546494991,4151,1588764324546220342,,0.0174139945552,-41.9588939249,29.8100754661
1588764324552676657,4152,1588764324552577216,,0.019979886581,-41.3319439239,29.3904320902
1588764324558565599,4153,1588764324558472149,,0.01628122129,-40.6968691596,28.9656848219
1588764324564406409,4154,1588764324564308238,,0.015075706129,-40.0555463073,28.5414646771
1588764324570247311,4155,1588764324570134790,,0.0514126444868,-39.4482853564,28.1221788422
1588764324576642026,4156,1588764324576562241,,0.0576893216049,-38.7978561236,27.6949754538
1588764324582869142,4157,1588764324582738678,,0.0529947009169,-38.5741827261,27.5536153945
1588764324588566274,4158,1588764324588462801,,0.0577650529869,-37.9444571586,27.1237902526
1588764324594638608,4159,1588764324594535839,,0.0578073431292,-37.292439956,26.7053794779
1588764324600603442,4160,1588764324600494742,,0.0493011491187,-36.6415131921,26.2769355677
1588764324606610700,4161,1588764324606518013,,0.0503717244473,-36.0066079579,25.8526076562
1588764324612677842,4162,1588764324612591918,,0.0469478697698,-35.3738258645,25.4301327078
1588764324618978044,4163,1588764324618869730,,0.0488334369089,-34.7917870391,25.0344257316
1588764324624441859,4164,1588764324624349328,,0.0991295173751,-34.2511992791,24.6385100026
1588764324630140191,4165,1588764324630060706,,0.101698408984,-33.585269324,24.2036666558
1588764324636662469,4166,1588764324636584873,,0.0976868890072,-32.9741559743,23.789394158
1588764324642137470,4167,1588764324642053511,,0.102374040772,-32.8625242769,23.6938314105
1588764324648572093,4168,1588764324648489788,,0.0955767461044,-32.2169536041,23.2782013998
1588764324654060177,4169,1588764324653974291,,0.0805128941945,-31.5761932891,22.8604647079
1588764324660200708,4170,1588764324660080736,,0.0794026105022,-30.9949636334,22.4765788824
1588764324666099871,4171,1588764324666002924,,0.076795712624,-30.4150244809,22.0851164938
1588764324672222858,4172,1588764324672071939,,0.0704585917775,-29.831405795,21.6905784852
1588764324678128794,4173,1588764324678031167,,0.06957275661,-29.2526703838,21.2983195031
1588764324684081791,4174,1588764324683963691,,0.0723030076404,-28.6756669382,20.9062976239
1588764324690796827,4175,1588764324690679832,,0.075476760554,-28.0842679671,20.5208983241
1588764324696832483,4176,1588764324696694356,,0.133414455038,-27.5497733159,20.1383471945
1588764324702576569,4177,1588764324702462137,,0.140295272683,-27.3752454887,20.0292638135
1588764324708699505,4178,1588764324708589578,,0.137371373824,-26.7669884463,19.6311019208
1588764324714570473,4179,1588764324714475983,,0.14260178377,-26.1886571345,19.2399652079
1588764324720626354,4180,1588764324720511330,,0.136967167214,-25.589713389,18.8342705242
1588764324726613977,4181,1588764324726512778,,0.129491890696,-24.9756709831,18.431342828
1588764324732639700,4182,1588764324732472774,,0.133282972191,-24.3985307461,18.0471154295
1588764324738525678,4183,1588764324738380686,,0.131528490883,-23.8077260164,17.6494816613
1588764324744476081,4184,1588764324744391382,,0.130888849974,-23.2134899449,17.2627527972
1588764324750480729,4185,1588764324750387565,,0.134359644923,-22.6372950269,16.8822903759
1588764324756897219,4186,1588764324756779515,,0.137139206208,-22.0599131339,16.5045367484
1588764324762641981,4187,1588764324762530867,,0.141564435917,-21.8689370711,16.3881641398
1588764324768688575,4188,1588764324768543838,,0.215861285363,-21.3705532043,16.0398492885
1588764324774689779,4189,1588764324774579766,,0.227263485665,-20.8028971876,15.6728065283
1588764324780687075,4190,1588764324780532029,,0.225129647996,-20.2276019405,15.2967460955
1588764324786681529,4191,1588764324786524574,,0.23529748438,-19.7216203711,14.9508033791
1588764324792377759,4192,1588764324792252669,,0.235171518684,-19.1866571767,14.5962366372
1588764324798448126,4193,1588764324798338399,,0.223031764751,-18.6541522747,14.2409460555
1588764324804330424,4194,1588764324804233766,,0.223046062482,-18.1650469191,13.9090513003
1588764324810398504,4195,1588764324810303347,,0.222392081751,-17.6723090924,13.5799117855
1588764324822790265,4196,1588764324822556684,,0.216705910856,-17.0259055354,13.152830021
1588764324828384739,4197,1588764324828273965,,0.215332318972,-16.3890773965,12.7339111414
1588764324834665325,4198,1588764324834548967,,0.219149992523,-15.9353650802,12.4397204023
1588764324840685074,4199,1588764324840603422,,0.218560901867,-15.330092955,12.0479400119
1588764324846539456,4200,1588764324846441928,,0.301750226124,-14.9782794609,11.7842477804
1588764324852508437,4201,1588764324852406336,,0.302481671314,-14.3621627482,11.3732540447
1588764324858558105,4202,1588764324858456448,,0.308337389984,-13.9902069267,11.1038555812
1588764324864366940,4203,1588764324864177541,,0.290092571335,-13.4123252744,10.6996194034
1588764324870464277,4204,1588764324870357344,,0.292890180835,-13.0445267899,10.4506553466
1588764324876650845,4205,1588764324876497292,,0.285731552068,-12.7170702658,10.2455134236
1588764324882671883,4206,1588764324882563147,,0.290541134913,-12.3537454186,10.0132697984
1588764324888390993,4207,1588764324888308685,,0.299509414244,-11.8610777049,9.71206950083
1588764324894776901,4208,1588764324894653826,,0.306628968839,-11.5378228654,9.51258713252
1588764324900826812,4209,1588764324900677153,,0.313514174408,-11.088227227,9.24316976733
1588764324906802057,4210,1588764324906677905,,0.319795063785,-10.7973820872,9.06566946603
1588764324912696397,4211,1588764324912563750,,0.324121751349,-10.40069743,8.81065696655
1588764324918965828,4212,1588764324918877062,,0.412762773165,-10.2379895111,8.65820600769
1588764324924411830,4213,1588764324924312845,,0.411089192464,-9.84541430708,8.37460907848
1588764324930471814,4214,1588764324930353776,,0.415676468397,-9.661603844,8.21421178895
1588764324937020855,4215,1588764324936892721,,0.400002821514,-9.31877648439,7.97056075338
1588764324942512433,4216,1588764324942421705,,0.402314572443,-9.2075178724,7.87932479238
1588764324948500485,4217,1588764324948399662,,0.401879501332,-8.90470806295,7.68734763883
1588764324954694425,4218,1588764324954578248,,0.409568427814,-8.76270109886,7.60351289382
1588764324960683338,4219,1588764324960569230,,0.425136486023,-8.51131012999,7.47039619376
1588764324966636923,4220,1588764324966519019,,0.435937812375,-8.39723449732,7.41738670445
1588764324972817515,4221,1588764324972674920,,0.445863490667,-8.15809924952,7.29957003583
1588764324978596534,4222,1588764324978488720,,0.448331228903,-8.0249824681,7.25047380984
1588764324984764861,4223,1588764324984606068,,0.450014456993,-7.86611546783,7.20664721568
1588764324990491953,4224,1588764324990402082,,0.451311586028,-7.59547015106,7.09049273358
1588764324996739371,4225,1588764324996622671,,0.453091891677,-7.30237654161,6.98360139907
1588764325002541938,4226,1588764325002423174,,0.456897354592,-7.2023181447,6.90844098485
1588764325008494207,4227,1588764325008397848,,0.568801452234,-6.9987545657,6.8621086276
1588764325014442655,4228,1588764325014356533,,0.594722991611,-6.76339439362,6.88540725635
1588764325020294077,4229,1588764325020178752,,0.602849020928,-6.41743315085,6.83195866126
1588764325026272106,4230,1588764325026195636,,0.597965623726,-6.1628424342,6.87744489876
1588764325032747612,4231,1588764325032656847,,0.602486980522,-5.80391068307,6.88263379676
1588764325038294325,4232,1588764325038202248,,0.604974831359,-5.5082001441,6.95776266722
1588764325044294246,4233,1588764325044206805,,0.609599102212,-5.20313781574,7.04722373206
1588764325050483773,4234,1588764325050374091,,0.624985815465,-4.80758310197,7.09518614734
1588764325059335179,4235,1588764325059232139,,0.649681489448,-4.31777686644,7.11854897681
1588764325065637940,4236,1588764325065540664,,0.658126533448,-3.97071226464,7.25184299025
1588764325071586277,4237,1588764325071472337,,0.66986359058,-3.5472322614,7.33487407303
1588764325077346459,4238,1588764325077233991,,0.675156508375,-3.17722745671,7.48014074251
1588764325083634437,4239,1588764325083550976,,0.683835168089,-2.73255347258,7.58673283723
1588764325089722027,4240,1588764325089621716,,0.686918241481,-2.36445302552,7.74408270062
1588764325095503857,4241,1588764325095414771,,0.69690470788,-2.21316414814,7.66388589124
1588764325101578032,4242,1588764325101473706,,0.703536315999,-1.81088941624,7.84632665892
1588764325107380056,4243,1588764325107274382,,0.716777479823,-1.3295317909,8.00209993225
1588764325113346307,4244,1588764325113259269,,0.722422947325,-0.903913270913,8.20870624526
1588764325119694546,4245,1588764325119624224,,0.738249734421,-0.402904504241,8.38956441617
1588764325125349032,4246,1588764325125199138,,0.744060028307,0.0493477200286,8.61840907313
1588764325131613967,4247,1588764325131531622,,0.758127669634,0.572013936376,8.82457552687
1588764325137515056,4248,1588764325137396920,,0.76361138918,1.04718309574,9.07065266862
1588764325143799316,4249,1588764325143698312,,0.775938013775,1.59001292419,9.28661722142
1588764325149533435,4250,1588764325149432073,,0.783483266098,1.63668456885,9.24997882669
1588764325155868480,4251,1588764325155729300,,0.796448559679,2.18027779427,9.47919183452
1588764325161640675,4252,1588764325161548149,,0.802698219455,2.68736744412,9.76060747913
1588764325167608797,4253,1588764325167518709,,0.815476268092,3.24580312356,10.0199054389
1588764325173644398,4254,1588764325173575049,,0.821640854128,3.77036029379,10.3146000485
1588764325179591675,4255,1588764325179474960,,0.838688317872,4.34767659618,10.593417632
1588764325185402047,4256,1588764325185292942,,0.84739588069,4.89060471419,10.910834954
1588764325191585117,4257,1588764325191504752,,0.861711109482,5.47669241509,11.2134911961
1588764325197455573,4258,1588764325197353545,,0.870280840522,6.04703623613,11.5443060828
1588764325203466720,4259,1588764325203373718,,0.884579080496,6.65452126485,11.8603114612
1588764325209457820,4260,1588764325209365517,,0.892043716845,6.68034830496,11.8374700547
1588764325216068854,4261,1588764325215998929,,0.907541802355,7.28728468259,12.164307866
1588764325221484274,4262,1588764325221404759,,0.915904440677,7.87845375497,12.5258655866
1588764325227599828,4263,1588764325227442512,,0.928739072879,8.49327143219,12.8681510063
1588764325233303637,4264,1588764325233239022,,0.934994151859,9.0979621299,13.2408015103
1588764325239455841,4265,1588764325239298826,,0.948263297176,9.72948089389,13.6008710785
1588764325245533084,4266,1588764325245429255,,0.954662295567,10.3480931771,13.9843442235
1588764325251626251,4267,1588764325251548509,,0.96726105495,10.9951905991,14.3617607493
1588764325257444078,4268,1588764325257376803,,0.974026822341,11.6292123281,14.7589019724
1588764325263653980,4269,1588764325263572734,,0.987046260891,12.2870754094,15.1504745686
1588764325269479475,4270,1588764325269309193,,0.993785322791,12.2963461226,15.1400152626
1588764325275389210,4271,1588764325275295631,,1.00634696805,12.9535792485,15.5401310232
1588764325281872316,4272,1588764325281753224,,1.01180873903,13.6027985968,15.9614322566
1588764325287693476,4273,1588764325287610699,,1.02248442456,14.267417593,16.3823836487
1588764325293768651,4274,1588764325293678479,,1.02835121808,14.9327017501,16.8189840114
1588764325299811144,4275,1588764325299682144,,1.03421645506,15.604774539,17.2614558006
1588764325305462300,4276,1588764325305386500,,1.04823902657,16.2838488155,17.6995954263
1588764325311679879,4277,1588764325311551987,,1.05750665343,16.967251287,18.1554037784
1588764325317551634,4278,1588764325317446541,,1.07623620244,17.6525221844,18.6216822362
1588764325326690381,4279,1588764325326590403,,1.1080020416,18.3398134755,19.1053514528
1588764325332816203,4280,1588764325332708157,,1.13086843137,19.0336349235,19.5870463076
1588764325338651030,4281,1588764325338574185,,1.14340852265,19.7354792155,20.0667602236
1588764325344585872,4282,1588764325344482025,,1.154422382,20.4445078082,20.5454073917
1588764325350454500,4283,1588764325350348891,,1.17720911162,21.1551924584,21.0357542975
1588764325362712026,4284,1588764325362606756,,1.20843150073,21.8630740285,21.5266426577
1588764325368589756,4285,1588764325368504398,,1.2189014711,22.585772859,22.0133277772
1588764325374447187,4286,1588764325374278909,,1.23825352501,23.3072882746,22.5044824176
1588764325380735740,4287,1588764325380627388,,1.24823067686,24.0375742958,23.0004733485
1588764325386793658,4288,1588764325386667343,,1.27116632057,24.7679516303,23.5096719569
1588764325392820954,4289,1588764325392687993,,1.28216485286,25.5018127843,24.0109207448
1588764325398809469,4290,1588764325398700344,,1.30169665379,26.236547747,24.5214565873
1588764325404629273,4291,1588764325404552462,,1.31007283083,26.9831369663,25.0275409397
1588764325410579915,4292,1588764325410489320,,1.3277593718,27.7164366393,25.5456038402
1588764325422387608,4293,1588764325422287711,,1.35299919408,28.4368660782,26.0659670805
1588764325428677655,4294,1588764325428590332,,1.36092519537,29.1820851572,26.58187325
1588764325434746018,4295,1588764325434647494,,1.37848144048,29.9140374177,27.1070341706
1588764325440631620,4296,1588764325440535993,,1.38768933671,30.6666472808,27.626348394
1588764325446580338,4297,1588764325446502121,,1.40468096941,31.402086138,28.152033949
1588764325452852447,4298,1588764325452749034,,1.41352121041,32.1570130699,28.6727342175
1588764325458541541,4299,1588764325458467953,,1.42288193295,32.9164754166,29.1948427946
1588764325464561081,4300,1588764325464483683,,1.44042005237,33.6577548259,29.7300276491
1588764325470481376,4301,1588764325470419148,,1.45562677552,34.3992855163,30.260300844
1588764325477052184,4302,1588764325476981659,,1.46288641379,35.1586980419,30.7825874786
1588764325482894998,4303,1588764325482608927,,1.46978681818,35.1438846946,30.784642714
1588764325488683403,4304,1588764325488581204,,1.48748795817,35.8912892433,31.3132403652
1588764325494675786,4305,1588764325494593823,,1.4936672003,36.6547239443,31.8344476695
1588764325500883971,4306,1588764325500779492,,1.50070768417,37.4178290049,32.3546651778
1588764325506551568,4307,1588764325506490871,,1.51583723993,38.1636768048,32.8829978477
1588764325512760949,4308,1588764325512678372,,1.52349631789,38.9289801305,33.4061502029
1588764325519091637,4309,1588764325519001668,,1.54152420749,39.683672588,33.9353336578
1588764325524645724,4310,1588764325524572185,,1.54743991471,40.4452435525,34.4567527952
1588764325530351349,4311,1588764325530256406,,1.56181339944,41.1964575507,34.9791714272
1588764325536964080,4312,1588764325536869613,,1.56807377605,41.9619983983,35.4968527193
1588764325542721301,4313,1588764325542597123,,1.58102837946,41.931449032,35.4978891698
1588764325548533567,4314,1588764325548450903,,1.58746582223,42.6919154644,36.0120784764
1588764325551581085,4315,1588764325551476487,,1.59998758374,43.4319745297,36.5238791138
1588764325557470418,4316,1588764325557378798,,1.60537460541,44.1880636272,37.0376569393
1588764325566671917,4317,1588764325566587249,,1.62174946115,44.9097242273,37.5448756836
1588764325572775048,4318,1588764325572688156,,1.63365052517,45.6413707431,38.0478797067
1588764325578684732,4319,1588764325578582045,,1.63911587622,46.3908972103,38.5552110375
1588764325584771461,4320,1588764325584662218,,1.65097804756,47.1096678797,39.0479200884
1588764325590687701,4321,1588764325590623750,,1.65593120922,47.8484216066,39.5470633168
1588764325596629241,4322,1588764325596554074,,1.66357370877,48.5540318265,40.0409926213
1588764325602641680,4323,1588764325602430486,,1.66684435159,48.5263088022,40.0313870739
1588764325608817225,4324,1588764325608709716,,1.67250352533,49.2192573349,40.5086171717
1588764325614927225,4325,1588764325614806246,,1.67553242967,49.9385301461,40.9975142429
1588764325620821484,4326,1588764325620685741,,1.68471739623,50.6275038783,41.4739991008
1588764325626626758,4327,1588764325626557957,,1.68927170351,51.3399831281,41.9562272545
1588764325632727705,4328,1588764325632661996,,1.69806676317,52.0115052947,42.4296123359
1588764325638709332,4329,1588764325638619057,,1.70201216424,52.7180368757,42.9058739434
1588764325644642876,4330,1588764325644549009,,1.71179659293,53.3833044147,43.3619509011
1588764325650199432,4331,1588764325650125700,,1.71943099731,54.078836926,43.8349142019
1588764325653249958,4332,1588764325653169899,,1.72439387266,54.0441228647,43.8152858403
1588764325659505859,4333,1588764325659417547,,1.73983743192,54.6547206711,44.2428150634
1588764325665357371,4334,1588764325665262929,,1.75076087426,55.3026602097,44.688943695
1588764325671403481,4335,1588764325671283838,,1.75617180732,55.9786970918,45.1416832011
1588764325677910048,4336,1588764325677789529,,1.76584912673,56.6082409139,45.5677247192
1588764325683733239,4337,1588764325683655368,,1.77155763157,57.2722440298,46.0195863162
1588764325689293352,4338,1588764325689164692,,1.77969313454,57.177660059,45.9672694131
1588764325695377295,4339,1588764325695282439,,1.78317855111,57.8348947631,46.4036295272
1588764325701418526,4340,1588764325701275912,,1.7950780786,58.4344533083,46.8101691889
1588764325704293369,4341,1588764325704209317,,1.80008335909,59.0751787384,47.2389384444
1588764325707194961,4342,1588764325707124539,,1.81138279689,58.9643432197,47.1730886156
1588764325710869604,4343,1588764325710803437,,1.81636203888,59.5969983919,47.5965985079
1588764325716759007,4344,1588764325716675490,,1.82408356107,60.1616905728,47.9801855799
1588764325722641335,4345,1588764325722568567,,1.8281633561,60.1032549879,47.9434107739
1588764325728542793,4346,1588764325728460023,,1.83507197942,60.6556621493,48.3207556089
1588764325734321734,4347,1588764325734253728,,1.84006615335,61.2611008161,48.7291348931
1588764325740647080,4348,1588764325740551421,,1.84481771413,61.8605852329,49.1400616328
1588764325746582136,4349,1588764325746488087,,1.85413867182,62.3864595359,49.4924463884
1588764325753314693,4350,1588764325753228079,,1.85828751839,62.9724774016,49.8894069748
1588764325758651795,4351,1588764325758582971,,1.86914877071,63.4742316364,50.2255001078
1588764325764609267,4352,1588764325764493422,,1.87399805512,64.0454288465,50.6106447847
1588764325770927497,4353,1588764325770851835,,1.87698219918,64.6204899287,50.9861890346
1588764325776530909,4354,1588764325776194834,,1.8862488809,64.4699771627,50.8910435547
1588764325782758673,4355,1588764325782598992,,1.89663962804,64.9593951846,51.2217827241
1588764325788629323,4356,1588764325788548286,,1.90175064419,65.4941733822,51.5745961569
1588764325794705910,4357,1588764325794621627,,1.90591429407,66.0259469512,51.9415510274
1588764325800777239,4358,1588764325800683309,,1.91621421072,66.5043908356,52.2593317117
1588764325806676205,4359,1588764325806583878,,1.91943609581,67.0451416219,52.618941442
1588764325812683893,4360,1588764325812550840,,1.92540857745,67.4836724782,52.9266722928
1588764325819166013,4361,1588764325819038517,,1.92796045073,68.0058184128,53.2794872764
1588764325824748653,4362,1588764325824680215,,1.93904011778,68.4116162497,53.5616080431
1588764325830666291,4363,1588764325830568313,,1.94401846814,68.8978846223,53.888091132
1588764325839729238,4364,1588764325839627631,,1.95674223523,69.2452835705,54.1076039994
1588764325845691784,4365,1588764325845585543,,1.962677895,69.6243342751,54.3573057752
1588764325851869976,4366,1588764325851782155,,1.96992735115,70.0773442173,54.6636347455
1588764325857655977,4367,1588764325857571563,,1.98369144134,70.4506061958,54.8920303446
1588764325866306203,4368,1588764325866209118,,2.00371125982,70.7078324018,55.0472616254
1588764325869501945,4369,1588764325869444095,,2.00942234251,70.7684065543,55.0903829839
1588764325875771034,4370,1588764325875692390,,2.02718700362,70.9226852475,55.1990644978
1588764325881431557,4371,1588764325881376009,,2.03365794822,71.3261403677,55.4775480397
1588764325887254707,4372,1588764325887190727,,2.04492115725,71.6295352196,55.6863757534
1588764325890732201,4373,1588764325890651766,,2.05110406567,72.0205863812,55.9532905359
1588764325896989407,4374,1588764325896895557,,2.06425766841,72.2955872883,56.1442393388
1588764325902655395,4375,1588764325902513178,,2.06994916186,72.1865256774,56.0726144668
1588764325908555288,4376,1588764325908372554,,2.08874439775,72.434269684,56.2304913524
1588764325914469886,4377,1588764325914421446,,2.09901859826,72.7731232071,56.457393756
1588764325920338612,4378,1588764325920272984,,2.11715625567,72.9752693671,56.5846267851
1588764325923721548,4379,1588764325923625599,,2.12594031646,73.291952797,56.7876569801
1588764325930231636,4380,1588764325930012301,,2.14042540871,73.0363148747,56.6035784464
1588764325935424735,4381,1588764325935311861,,2.14749979461,73.3353043719,56.7993165818
1588764325941537049,4382,1588764325941487720,,2.16417118154,73.4840171832,56.8973099079
1588764325947440380,4383,1588764325947372112,,2.17010608479,73.7575194026,57.0831349987
1588764325950345587,4384,1588764325950298028,,2.18224714235,73.889899621,57.1683170659
1588764325959578284,4385,1588764325959474860,,2.19249095125,73.9981732423,57.24776251
1588764325965434081,4386,1588764325965375390,,2.19366963893,74.2416525763,57.4065922136
1588764325968394803,4387,1588764325968326396,,2.19857675472,74.1025753685,57.3187116123
1588764325971447861,4388,1588764325971387207,,2.20694013161,74.1970155691,57.3767966389
1588764325977387964,4389,1588764325977328718,,2.21254461813,74.4141075022,57.5214192516
1588764325980247083,4390,1588764325980201774,,2.21675266529,74.1424941999,57.3194757065
1588764325983453598,4391,1588764325983393092,,2.21572292063,74.3839732792,57.4697544175
1588764325986327664,4392,1588764325986255844,,2.22243370248,74.0920085008,57.2609719187
1588764325989289708,4393,1588764325989207941,,2.22307873035,73.9882025923,57.185708516
1588764325995615535,4394,1588764325995526724,,2.23018248872,74.0365811325,57.2037482938
1588764326001689760,4395,1588764326001629348,,2.23399052893,74.2334278429,57.3408631247
1588764326007813398,4396,1588764326007762222,,2.24352191573,74.2859241344,57.3606203355
1588764326013656073,4397,1588764326013571843,,2.24572209051,74.4579111661,57.4687921476
1588764326019869742,4398,1588764326019802633,,2.2510968763,74.4776752594,57.4778847046
1588764326025749871,4399,1588764326025661504,,2.25281693829,74.6250886224,57.5633838394
1588764326031463580,4400,1588764326031402445,,2.25526576991,74.748287784,57.6431803715
1588764326037301474,4401,1588764326037229142,,2.26368693829,74.7157597433,57.5839193352
1588764326040432000,4402,1588764326040341739,,2.26758036205,74.5572798503,57.4755012608
1588764326043753970,4403,1588764326043698621,,2.26907190433,74.664085481,57.5268534674
1588764326049687250,4404,1588764326049633953,,2.27218546933,74.7457297845,57.5738000783
1588764326052488015,4405,1588764326052348689,,2.2774594881,74.5839037712,57.4643077098
1588764326055429791,4406,1588764326055343816,,2.28158719612,74.4255388318,57.3548990434
1588764326058493396,4407,1588764326058441497,,2.28698928031,74.3426533521,57.2753629377
1588764326064300230,4408,1588764326064237241,,2.2932344476,74.4425181018,57.3270921985
1588764326067464382,4409,1588764326067369414,,2.29584364884,74.2750151407,57.2077737016
1588764326073317323,4410,1588764326073250397,,2.30298177646,74.1896436423,57.1286939516
1588764326076506989,4411,1588764326076457697,,2.30979279923,74.2261561994,57.1480227052
1588764326079414209,4412,1588764326079318721,,2.31466273671,74.0473985458,57.0332750969
1588764326082367697,4413,1588764326082292239,,2.31953104671,73.8963915292,56.9431082588
1588764326088685025,4414,1588764326088592724,,2.32571601422,73.9342319042,56.9560606206
1588764326094611509,4415,1588764326094499898,,2.3285728525,73.9518168305,56.9695581477
1588764326100382320,4416,1588764326100283761,,2.33800255902,73.8087132662,56.8634450998
1588764326103430832,4417,1588764326103376491,,2.34243108845,73.7995747715,56.8557423098
1588764326106519561,4418,1588764326106445837,,2.35435488201,73.4684681498,56.6272840183
1588764326112398190,4419,1588764326112336218,,2.35462949294,73.4345777574,56.6033623767
1588764326115696922,4420,1588764326115641893,,2.36368278471,73.0905966045,56.3632440938
1588764326121632363,4421,1588764326121548805,,2.36538085395,73.0523015669,56.3275101939
1588764326127765400,4422,1588764326127698699,,2.37099694329,73.0026902755,56.2936719726
1588764326133679691,4423,1588764326133613244,,2.37925850757,72.7591928431,56.1003938156
1588764326139676966,4424,1588764326139581505,,2.3846934763,72.5004583187,55.920785206
1588764326145347551,4425,1588764326145292482,,2.38762304352,72.4044963964,55.8482058429
1588764326148253662,4426,1588764326148199604,,2.37218568727,72.0169761149,55.5442901966
1588764326151223021,4427,1588764326151147403,,2.36198952961,71.8976845699,55.438837078
1588764326154201239,4428,1588764326154144598,,2.33365831864,71.4841312858,55.1057104787
1588764326157266968,4429,1588764326157211883,,2.32542598244,71.3574923239,55.0103246458
1588764326160511409,4430,1588764326160463502,,2.31174972622,70.98889183,54.7363554686
1588764326163688309,4431,1588764326163643759,,2.31058030301,70.8904485074,54.6553157625
1588764326169592104,4432,1588764326169518510,,2.32021472464,70.5929074592,54.4161273844
1588764326175528657,4433,1588764326175391751,,2.32714048789,70.5094898087,54.3357594282
1588764326178419775,4434,1588764326178355190,,2.33097556217,70.4178565613,54.2534527721
1588764326181421378,4435,1588764326181303229,,2.33534490422,70.1522156166,54.0581554593
1588764326184402843,4436,1588764326184334889,,2.33747210699,70.0322843286,53.9635042873
1588764326187283797,4437,1588764326187237212,,2.33849341143,69.8789790459,53.8539892045
1588764326190383738,4438,1588764326190329207,,2.33338331901,69.5253214868,53.5804998273
1588764326193379276,4439,1588764326193321919,,2.32724821877,69.3396714695,53.4270269048
1588764326196623566,4440,1588764326196570565,,2.31644154606,69.1795386164,53.2961497024
1588764326202406462,4441,1588764326202355862,,2.30409570356,68.9443293923,53.1310124583
1588764326205319100,4442,1588764326205265353,,2.29382856906,68.6933093924,52.9616080019
1588764326208372935,4443,1588764326208324707,,2.26373525693,68.2580287441,52.6400466306
1588764326211385864,4444,1588764326211307561,,2.25691563515,67.9950966616,52.4696181146
1588764326214434158,4445,1588764326214328484,,2.24867811629,67.6438005513,52.2587683983
1588764326218200254,4446,1588764326218139271,,2.24694495408,67.4318894371,52.1241801804
1588764326223575472,4447,1588764326223515686,,2.24753677723,67.2122774949,51.9853647799
1588764326229450944,4448,1588764326229382002,,2.25757549158,67.1138728757,51.920963469
1588764326232619237,4449,1588764326232566105,,2.29346889935,66.7726442104,51.683400302
1588764326238560140,4450,1588764326238468117,,2.3087474864,66.5934618295,51.5687532625
1588764326244639259,4451,1588764326244530107,,2.34314958804,66.2715332103,51.3078687401
1588764326250764140,4452,1588764326250676216,,2.35496589483,66.0563172919,51.1425246032
1588764326259647757,4453,1588764326259586013,,2.37184739933,65.4802779637,50.7006376442
1588764326265766967,4454,1588764326265696576,,2.37570576646,65.2015986411,50.5068843036
1588764326271918488,4455,1588764326271797150,,2.3803488508,64.6810070293,50.1169153376
1588764326277675191,4456,1588764326277608135,,2.38213080789,64.3500768545,49.8748926362
1588764326283663127,4457,1588764326283579829,,2.38337463381,64.0045107234,49.6282796722
1588764326289877289,4458,1588764326289721812,,2.37813196093,63.772375385,49.4631571011
1588764326295538980,4459,1588764326295430319,,2.3773299462,63.4134275079,49.226736954
1588764326298695242,4460,1588764326298625008,,2.36339355795,63.0228282001,48.9852472096
1588764326304550876,4461,1588764326304498404,,2.34579295746,62.636867031,48.7482304967
1588764326310539383,4462,1588764326310491573,,2.32182665748,62.2338308442,48.4949037044
1588764326313645726,4463,1588764326313590531,,2.29292328115,62.0607361768,48.3451667883
1588764326319591823,4464,1588764326319529427,,2.2589395677,61.6589695417,48.0792042171
1588764326322806836,4465,1588764326322695963,,2.23010590719,61.4259347812,47.9148079178
1588764326328633117,4466,1588764326328557607,,2.19107238215,61.1132444328,47.6758738064
1588764326334636825,4467,1588764326334586775,,2.16686818936,60.7356885487,47.4029472987
1588764326340560899,4468,1588764326340500963,,2.16510307351,60.3272967513,47.1224260913
1588764326344003817,4469,1588764326343933257,,2.18409447542,59.8085314064,46.7811855197
1588764326350061518,4470,1588764326349979930,,2.19872400877,59.1709982544,46.3296901052
1588764326355737809,4471,1588764326355663652,,2.20298125485,59.1823512126,46.2689043616
1588764326361516157,4472,1588764326361446603,,2.21241184024,58.8084104658,45.9907334897
1588764326364399103,4473,1588764326364336353,,2.21366083526,58.4292048375,45.7063984405
1588764326367417547,4474,1588764326367369013,,2.23872958424,58.0725223568,45.3921178248
1588764326370384608,4475,1588764326370314706,,2.24375954711,57.6457078823,45.067131369
1588764326373519812,4476,1588764326373467314,,2.25076835645,57.452342571,44.9031615096
1588764326379656498,4477,1588764326379595890,,2.24348346193,56.7775107167,44.4240234597
1588764326385584583,4478,1588764326385537919,,2.23936427649,56.2857799842,44.1196386756
1588764326391623449,4479,1588764326391565203,,2.23730141349,55.7890371528,43.7704743149
1588764326397515192,4480,1588764326397453171,,2.22756215552,55.2574623521,43.4006436652
1588764326400676264,4481,1588764326400612606,,2.22240542219,55.0133340043,43.2380030244
1588764326406540861,4482,1588764326406471717,,2.21668503449,54.4831858727,42.884885881
1588764326409738546,4483,1588764326409680886,,2.21111286963,53.7060896631,42.3939334983
1588764326416415588,4484,1588764326416349813,,2.20611334876,53.1773497402,42.0738133348
1588764326421632356,4485,1588764326421582928,,2.20239461051,53.1983657969,42.0818107997
1588764326427618881,4486,1588764326427530965,,2.1955217768,52.6763567135,41.7335088395
1588764326433828503,4487,1588764326433711945,,2.2054618785,52.1608281654,41.3926291547
1588764326439529111,4488,1588764326439441132,,2.21175751068,51.6509548349,41.0534477445
1588764326442559935,4489,1588764326442463786,,2.21754518878,51.4710720452,40.9273256229
1588764326448614575,4490,1588764326448556281,,2.22118007044,50.9610634532,40.5706219616
1588764326451590109,4491,1588764326451527240,,2.22515867358,50.4507022502,40.2050995997
1588764326457633468,4492,1588764326457561011,,2.23110430594,49.9279951707,39.8468195073
1588764326463570433,4493,1588764326463520483,,2.24829188311,49.5519873707,39.575569575
1588764326469693490,4494,1588764326469488479,,2.24995226108,49.0129566581,39.1859337032
1588764326475568908,4495,1588764326475431451,,2.24883232288,48.2587608669,38.6349512846
1588764326478377999,4496,1588764326478328402,,2.24771460042,47.6897124314,38.2365804602
1588764326481392908,4497,1588764326481325720,,2.24305237491,47.4788833574,38.0786882502
1588764326484509376,4498,1588764326484437870,,2.2359731476,46.8898836584,37.698581238
1588764326487524489,4499,1588764326487437803,,2.23625095767,46.6770788189,37.5325884489
1588764326490605962,4500,1588764326490498744,,2.22396027684,46.0810656604,37.1229962207
1588764326499635769,4501,1588764326499555446,,2.21701509441,45.2569177513,36.569513873
1588764326505545186,4502,1588764326505439738,,2.21183839291,44.6451020586,36.1822871476
1588764326508590187,4503,1588764326508518019,,2.21426606658,44.4238465276,36.0445860621
1588764326511524541,4504,1588764326511466992,,2.21081161311,43.8144473741,35.6367378011
1588764326514388034,4505,1588764326514317572,,2.20232955262,43.6002922139,35.4882033811
1588764326517622122,4506,1588764326517550976,,2.20285656282,43.0082668432,35.0715804122
1588764326520431166,4507,1588764326520377648,,2.20761311608,42.8151859839,34.9304916311
1588764326523483951,4508,1588764326523409291,,2.21384463074,42.2268960673,34.5229865493
1588764326526633401,4509,1588764326526546815,,2.22144488612,42.0468129329,34.391608474
1588764326530060881,4510,1588764326529962179,,2.22575556203,41.8793819583,34.2605689622
1588764326535644157,4511,1588764326535559933,,2.23002913092,41.3140786806,33.8597603759
1588764326541540667,4512,1588764326541461267,,2.23287428175,40.7415733006,33.4566748384
1588764326544449400,4513,1588764326544366793,,2.23567325875,40.1721690322,33.0596580663
1588764326547440193,4514,1588764326547365949,,2.24648479572,40.00610444,32.9237283102
1588764326550839687,4515,1588764326550769336,,2.25389780182,39.4167821559,32.5138118699
1588764326556567630,4516,1588764326556504525,,2.26376570531,38.82058345,32.1046881016
1588764326559450632,4517,1588764326559391945,,2.27051615658,38.6467131396,31.9791448396
1588764326562439299,4518,1588764326562376651,,2.26671143871,38.445982384,31.8531390751
1588764326568548373,4519,1588764326568489383,,2.26883658899,37.8427843723,31.4409055156
1588764326571424442,4520,1588764326571345225,,2.25853958903,37.2274088879,31.0057228996
1588764326574504876,4521,1588764326574447224,,2.25179170436,37.0236938689,30.8725054851
1588764326577549119,4522,1588764326577481314,,2.24321837036,36.3831822733,30.4407835588
1588764326580546529,4523,1588764326580481244,,2.23101606802,36.1741231254,30.3012083706
1588764326584424722,4524,1588764326584364560,,2.21737948411,35.5226351766,29.8695569857
1588764326590634359,4525,1588764326589368933,,2.20972820301,35.3022495658,29.7186407736
1588764326592468638,4526,1588764326592360383,,2.19949131964,34.6553204936,29.2792465566
1588764326595507485,4527,1588764326595417426,,2.18237887937,34.2362557458,28.9954842333
1588764326598464240,4528,1588764326598386675,,2.18748857904,33.6196425278,28.5828427736
1588764326601543002,4529,1588764326601393840,,2.18753412763,33.3047201694,28.3408928533
1588764326604414975,4530,1588764326604351575,,2.19498210364,32.6945654096,27.9146216968
1588764326607458269,4531,1588764326607407401,,2.20847048797,32.4565260462,27.702380843
1588764326610516094,4532,1588764326610412952,,2.22352475596,31.8631343726,27.2912816374
1588764326613443528,4533,1588764326613321321,,2.23789109044,31.7445232781,27.2110462157
1588764326616795080,4534,1588764326616676696,,2.26034073274,31.0610966369,26.7232119563
1588764326619772801,4535,1588764326619714206,,2.2676781816,30.9323809664,26.6208483032
1588764326625545975,4536,1588764326625452473,,2.27185303367,30.3529290482,26.2248540856
1588764326628491513,4537,1588764326628363573,,2.27862079551,30.2107971049,26.1214069736
1588764326631473219,4538,1588764326631407962,,2.28038825682,29.6181501051,25.709997939
1588764326634434895,4539,1588764326634343137,,2.28684739722,29.2868364474,25.4701087092
1588764326637434538,4540,1588764326637321337,,2.28397187211,28.6633411284,25.0384818233
1588764326640367910,4541,1588764326640310695,,2.27896633412,28.481601182,24.9016596018
1588764326643306900,4542,1588764326643244308,,2.27086880874,27.8444676835,24.4728109195
1588764326646332085,4543,1588764326646282334,,2.24849321514,27.4628571025,24.1961689583
1588764326649560342,4544,1588764326649344586,,2.23098122986,27.2551686625,24.0625457925
1588764326652401206,4545,1588764326652344619,,2.22576214244,26.6189399308,23.6435364226
1588764326655381592,4546,1588764326655278604,,2.21943086145,26.4305195201,23.5170971688
1588764326658376014,4547,1588764326658311460,,2.21771422274,25.8109501972,23.1076992004
1588764326661613802,4548,1588764326661512704,,2.21675021423,25.6300553377,22.995818375
1588764326664556686,4549,1588764326664493944,,2.21167403253,25.0423657315,22.5960613988
1588764326667599324,4550,1588764326667527656,,2.2050158734,24.9078908337,22.4868193431
1588764326670595924,4551,1588764326670456508,,2.19525532121,24.3383660397,22.0837575404
1588764326673565539,4552,1588764326673513586,,2.18881890383,24.22203803,21.9860387226
1588764326679415907,4553,1588764326679344247,,2.20010209654,23.5972968014,21.5337014743
1588764326682473464,4554,1588764326682341310,,2.21372315506,23.4700630122,21.4393517849
1588764326688338156,4555,1588764326688266704,,2.22756563865,22.8986917172,21.0527789294
1588764326691703846,4556,1588764326691614777,,2.24203385106,22.2478896391,20.5854890659
1588764326694565711,4557,1588764326694492938,,2.25029804449,22.1057816545,20.4699135263
1588764326697544099,4558,1588764326697476495,,2.25502122243,21.4120596683,19.9817875924
1588764326700510174,4559,1588764326700402842,,2.2590664543,21.2813034361,19.8786672186
1588764326703382886,4560,1588764326703303922,,2.25396236681,20.5926075221,19.3985262008
1588764326706413454,4561,1588764326706347801,,2.2510980356,20.4573517982,19.2977100923
1588764326710068326,4562,1588764326710006948,,2.24191240296,19.8888909525,18.9119621618
1588764326716152269,4563,1588764326715911602,,2.23943582474,19.75119604,18.8171443531
1588764326721426864,4564,1588764326721308541,,2.23578487059,19.1765279324,18.4297249421
1588764326724453942,4565,1588764326724379904,,2.2343088657,18.4700532671,17.9589059895
1588764326727418237,4566,1588764326727341081,,2.23848673963,18.3231875382,17.8718039557
1588764326730596439,4567,1588764326730519777,,2.24261844562,17.7733591809,17.5058617726
1588764326733371012,4568,1588764326733266804,,2.24746970498,17.6396498703,17.413749432
1588764326737158092,4569,1588764326737057172,,2.25323042887,17.1028522576,17.0475768163
1588764326743018762,4570,1588764326742830680,,2.26106903423,16.9853026653,16.9527878354
1588764326748823027,4571,1588764326748738393,,2.26854661293,16.4623402947,16.588450743
1588764326751786020,4572,1588764326751721975,,2.27601743441,15.9539120081,16.2275909722
1588764326757907979,4573,1588764326757834929,,2.28657934317,15.4549185269,15.8802258737
1588764326763580649,4574,1588764326763505404,,2.29525490479,14.9575029259,15.5384258233
1588764326767032181,4575,1588764326766946446,,2.30254820286,14.8526258076,15.4482599698
1588764326772977583,4576,1588764326772900475,,2.3094775635,14.361123547,15.1111457474
1588764326778714083,4577,1588764326778611137,,2.32047091247,13.8821536071,14.773322048
1588764326785032957,4578,1588764326784972135,,2.32803204567,13.4061249629,14.4414709889
1588764326790671349,4579,1588764326790580251,,2.33150300164,12.9560307892,14.1290874228
1588764326797723169,4580,1588764326797304240,,2.33833402199,12.8411993718,14.0449758124
1588764326803639118,4581,1588764326803308233,,2.34415007171,12.3660726693,13.726671877
1588764326808925108,4582,1588764326808804764,,2.34228357792,11.9318660175,13.4349367055
1588764326814965437,4583,1588764326814866116,,2.34415847625,11.4884238043,13.1262157873
1588764326820760536,4584,1588764326820670088,,2.35094233591,11.0483287425,12.8256145349
1588764326824622882,4585,1588764326824539449,,2.35407399057,10.6157150561,12.54312043
1588764326830033040,4586,1588764326829744536,,2.35704095861,10.5179664098,12.4592919245
1588764326835791313,4587,1588764326835691508,,2.3593336994,10.1091848816,12.175858746
1588764326841904915,4588,1588764326841765889,,2.35762623541,9.71218329104,11.9004177019
1588764326847504189,4589,1588764326847417186,,2.36062623851,9.32958414257,11.6499679298
1588764326850585148,4590,1588764326850517367,,2.35741145266,8.94758862268,11.4016069276
1588764326853776603,4591,1588764326853697321,,2.35855942587,8.86265882605,11.3320949789
1588764326859894992,4592,1588764326859827077,,2.36510018964,8.5079067165,11.0981640835
1588764326865736205,4593,1588764326865652362,,2.36742892891,8.16336356858,10.8629819862
1588764326871798206,4594,1588764326871726998,,2.37052918743,7.8330975892,10.6345707194
1588764326877912446,4595,1588764326877801406,,2.3752539965,7.52645637609,10.4225374847
1588764326884113050,4596,1588764326884052220,,2.37988604193,7.23444684154,10.21331945
1588764326889962580,4597,1588764326889726909,,2.38338619626,7.15049474872,10.1525420442
1588764326895578214,4598,1588764326895488475,,2.38765857397,6.876832082,9.96327279668
1588764326898501966,4599,1588764326898433022,,2.388317734,6.62090580462,9.77292088537
1588764326901482428,4600,1588764326901412175,,2.38357972077,6.54732182341,9.70360097052
1588764326904921426,4601,1588764326904815952,,2.3815693533,6.30330011925,9.52806523659
1588764326910856810,4602,1588764326910785726,,2.38031221101,6.07555535369,9.35977265627
1588764326917443566,4603,1588764326917353715,,2.37893198287,5.86226273073,9.20433022606
1588764326922864171,4604,1588764326922796472,,2.38334359694,5.79185892213,9.14179327373
1588764326928961513,4605,1588764326928840497,,2.38394688346,5.58895486177,8.99671979443
1588764326934925156,4606,1588764326934828304,,2.38631789316,5.40976504063,8.86933398557
1588764326940845265,4607,1588764326940773446,,2.38954118227,5.24830059429,8.75600226099
1588764326946949972,4608,1588764326946859037,,2.3896577845,5.10805888219,8.64722061838
1588764326950158941,4609,1588764326949894351,,2.39417342802,5.03705503724,8.58578122574
1588764326955902504,4610,1588764326955839648,,2.40017638689,4.91131202328,8.49953916295
1588764326961845893,4611,1588764326961776326,,2.40270249458,4.80560635271,8.42220258745
1588764326967876790,4612,1588764326967791229,,2.40615376667,4.72673203474,8.35548597506
