%time,field.header.seq,field.header.stamp,field.header.frame_id,field.vector.x,field.vector.y,field.vector.z
1588764323405795535,3962,1588764323405602134,,0.499970771744,-0.198509773293,0.230470638972
1588764323408676843,3963,1588764323408580424,,0.499971270911,-0.198464672982,0.230433323515
1588764323411685966,3964,1588764323411606939,,0.499971566135,-0.198420405383,0.230396597851
1588764323415106858,3965,1588764323414927565,,0.499970437699,-0.198377520455,0.230357516912
1588764323418029402,3966,1588764323417941851,,0.499970053858,-0.198327436991,0.230317502721
1588764323423653672,3967,1588764323423589563,,0.499969756448,-0.198278665629,0.230276707169
1588764323426775475,3968,1588764323426666162,,0.49996836975,-0.198228398693,0.230232739532
1588764323429717234,3969,1588764323429643835,,0.499969926314,-0.198175603663,0.23019368342
1588764323432715831,3970,1588764323432628586,,0.499967829925,-0.19812606665,0.230148812867
1588764323441720430,3971,1588764323441605411,,0.499968271513,-0.198066147115,0.23010447382
1588764323447633252,3972,1588764323447530146,,0.499969008344,-0.198015550687,0.230064915828
1588764323453680499,3973,1588764323453562819,,0.499968035281,-0.19796095128,0.23002214477
1588764323459638812,3974,1588764323459536461,,0.499969606806,-0.197905570871,0.229979631691
1588764323465702774,3975,1588764323465589853,,0.499969530458,-0.197847520834,0.229938140415
1588764323471665215,3976,1588764323471543970,,0.499969906783,-0.197791049401,0.229896065637
1588764323477723791,3977,1588764323477537415,,0.499971325744,-0.197735613541,0.22985350065
1588764323483791902,3978,1588764323483682616,,0.499972828638,-0.197677002726,0.229813025801
1588764323489790745,3979,1588764323489621376,,0.499971602017,-0.197618343464,0.229765114973
1588764323495691489,3980,1588764323495539086,,0.499973496116,-0.197559322117,0.229722061014
1588764323501775599,3981,1588764323501615373,,0.499973008715,-0.197500756679,0.229677463083
1588764323507724069,3982,1588764323507612058,,0.499973581099,-0.197444127426,0.229634276754
1588764323513830194,3983,1588764323513708526,,0.4999727437,-0.197380514574,0.229587626528
1588764323516801238,3984,1588764323516708380,,0.499972832878,-0.197318054583,0.229539122833
1588764323522709152,3985,1588764323522616105,,0.499972108881,-0.197257099603,0.229492369747
1588764323528825914,3986,1588764323528657015,,0.499972571745,-0.197193110754,0.229445351963
1588764323534805279,3987,1588764323534655227,,0.499971958026,-0.1971250065,0.229393174306
1588764323540736077,3988,1588764323540600644,,0.49997163736,-0.197063945394,0.229345073088
1588764323546693682,3989,1588764323546576916,,0.499971807367,-0.196995853559,0.229296787997
1588764323552778131,3990,1588764323552649554,,0.499970877906,-0.196926161106,0.229244743556
1588764323558766192,3991,1588764323558618662,,0.499972005011,-0.196860006402,0.2291970892
1588764323564766467,3992,1588764323564622931,,0.499972035644,-0.196787115291,0.229143884196
1588764323570707174,3993,1588764323570631212,,0.499971526701,-0.196719407111,0.229092856373
1588764323576803211,3994,1588764323576679609,,0.499972224443,-0.196648839888,0.229043971821
1588764323588818312,3995,1588764323588622749,,0.499972168825,-0.196504984867,0.228942875353
1588764323594852142,3996,1588764323594671583,,0.499971859173,-0.196434675571,0.228892221399
1588764323600802498,3997,1588764323600637860,,0.499972022755,-0.196360147782,0.228839567649
1588764323606767382,3998,1588764323606655025,,0.499971612587,-0.196284716131,0.22878484604
1588764323612923412,3999,1588764323612680721,,0.499973082427,-0.196212197682,0.228733344397
1588764323619075232,4000,1588764323618953086,,0.499973065784,-0.196057717974,0.228620560003
1588764323624784911,4001,1588764323624605764,,0.499973058563,-0.195982419741,0.228567559722
1588764323630762596,4002,1588764323630630105,,0.499970670238,-0.19590669692,0.228509914973
1588764323636774657,4003,1588764323636647994,,0.499971856448,-0.195828037299,0.228455209355
1588764323648945498,4004,1588764323648751053,,0.49996882562,-0.195678966461,0.228337438137
1588764323654784622,4005,1588764323654640543,,0.499967600724,-0.195606869158,0.228278073716
1588764323660817474,4006,1588764323660661048,,0.499967401738,-0.195529889787,0.228221019197
1588764323666759067,4007,1588764323666615575,,0.499967021401,-0.195451578314,0.228165463752
1588764323672695800,4008,1588764323672584716,,0.499966825491,-0.195375238183,0.228108794562
1588764323678725569,4009,1588764323678617122,,0.499966644213,-0.195298395712,0.228053891466
1588764323684824173,4010,1588764323684635881,,0.499964639808,-0.195225879587,0.227997932148
1588764323690789853,4011,1588764323690678835,,0.499965230469,-0.195170381108,0.227956940583
1588764323696788999,4012,1588764323696637059,,0.49996585381,-0.195111661515,0.22791649763
1588764323708829834,4013,1588764323708656350,,0.499969401302,-0.194955764118,0.227816095177
1588764323715095893,4014,1588764323714962227,,0.499969751934,-0.194899687879,0.227777039509
1588764323718046164,4015,1588764323717957634,,0.499970548637,-0.194811618602,0.227726188552
1588764323723739004,4016,1588764323723622632,,0.49996984988,-0.194729686371,0.227673776312
1588764323729714673,4017,1588764323729620335,,0.499968676842,-0.194660128844,0.227626106156
1588764323735825000,4018,1588764323735708060,,0.499966930374,-0.194593050259,0.227575864299
1588764323741726646,4019,1588764323741575002,,0.499966920264,-0.194541273968,0.227535402514
1588764323747819619,4020,1588764323747681691,,0.499966162854,-0.194468603259,0.227477471581
1588764323753773663,4021,1588764323753685708,,0.499964966791,-0.194381481931,0.227412340977
1588764323759749312,4022,1588764323759651791,,0.499965503153,-0.194323063051,0.227364022412
1588764323765749920,4023,1588764323765679315,,0.499962256892,-0.194246904469,0.227299703607
1588764323771797884,4024,1588764323771681125,,0.499963569845,-0.19415328129,0.227238151334
1588764323777797561,4025,1588764323777686175,,0.499964099666,-0.194102931736,0.227192742852
1588764323783839140,4026,1588764323783724086,,0.499963906968,-0.19404565416,0.227146232204
1588764323789776856,4027,1588764323789684452,,0.499964294775,-0.19395390595,0.227086586421
1588764323795759459,4028,1588764323795665107,,0.499965519424,-0.193886687309,0.227041996473
1588764323801782273,4029,1588764323801688451,,0.499965532409,-0.193829760205,0.22699961775
1588764323807773517,4030,1588764323807672737,,0.499964520724,-0.193738829284,0.226942690575
1588764323813869303,4031,1588764323813740174,,0.499966670162,-0.193651252319,0.226892202052
1588764323819852970,4032,1588764323819734165,,0.49996433362,-0.193577455901,0.226841189137
1588764323825881016,4033,1588764323825765073,,0.499965117475,-0.193505225652,0.226792646973
1588764323831869081,4034,1588764323831697929,,0.49996335432,-0.19342918283,0.226737261465
1588764323837832351,4035,1588764323837708670,,0.499963917855,-0.193353496844,0.2266822684
1588764323843827639,4036,1588764323843726805,,0.499964117414,-0.193269355986,0.226619861816
1588764323849837747,4037,1588764323849714364,,0.499963889884,-0.193183340188,0.226556011542
1588764323855759841,4038,1588764323855657760,,0.499963102159,-0.193096021467,0.226490049162
1588764323861824111,4039,1588764323861669316,,0.499964087489,-0.193004609073,0.226423729911
1588764323867967365,4040,1588764323867736891,,0.499964219253,-0.192942246149,0.226370476875
1588764323873972214,4041,1588764323873722427,,0.499963617382,-0.192873876472,0.226310997703
1588764323879765060,4042,1588764323879652577,,0.499963208661,-0.192757582601,0.22623367205
1588764323885869723,4043,1588764323885677599,,0.4999633234,-0.192678315075,0.226175376862
1588764323891825441,4044,1588764323891697802,,0.499962260639,-0.192609192583,0.226124076505
1588764323897922186,4045,1588764323897738099,,0.499959986134,-0.192495063909,0.226055057171
1588764323903875807,4046,1588764323903699889,,0.499958433167,-0.192394402306,0.225991009949
1588764323909730306,4047,1588764323909619038,,0.499956713799,-0.192309704469,0.225936633701
1588764323919073279,4048,1588764323918952159,,0.499953977111,-0.192133295871,0.22581897916
1588764323924909939,4049,1588764323924654820,,0.499955308882,-0.192046169564,0.225758409717
1588764323930835700,4050,1588764323930662616,,0.499955202982,-0.191956467503,0.225692163156
1588764323936824609,4051,1588764323936642114,,0.499956168261,-0.191859806941,0.225624377611
1588764323948922916,4052,1588764323948778459,,0.499956321607,-0.191669688836,0.225484067811
1588764323954876515,4053,1588764323954768901,,0.499955513728,-0.191566535559,0.225412650816
1588764323960867551,4054,1588764323960762193,,0.49995315022,-0.19146560324,0.225337686578
1588764323966787913,4055,1588764323966677066,,0.49995160704,-0.191361898434,0.225262879248
1588764323972895230,4056,1588764323972737447,,0.499948465578,-0.191260364371,0.225186587586
1588764323978907589,4057,1588764323978723863,,0.49994798969,-0.191155841262,0.225108622424
1588764323984769152,4058,1588764323984677519,,0.499946200693,-0.191049235902,0.225030884898
1588764323990795417,4059,1588764323990712109,,0.499946602748,-0.190946500835,0.224958125266
1588764323996872642,4060,1588764323996716314,,0.499945484002,-0.190839455833,0.22488174274
1588764324008961715,4061,1588764324008727144,,0.499945171926,-0.190622934061,0.224732285796
1588764324015196473,4062,1588764324015049586,,0.499944298568,-0.190505828925,0.224656969398
1588764324018084119,4063,1588764324017993449,,0.499944606249,-0.190395629858,0.224583854451
1588764324023759242,4064,1588764324023621254,,0.499944259931,-0.190281715943,0.224507325377
1588764324029786017,4065,1588764324029619690,,0.499944489432,-0.190169544651,0.224434337257
1588764324035790652,4066,1588764324035647717,,0.499945200934,-0.190057919468,0.224359495952
1588764324041864034,4067,1588764324041676976,,0.499945455166,-0.189947471433,0.22428444922
1588764324047859350,4068,1588764324047681431,,0.499945937451,-0.189833807957,0.224210204225
1588764324053849653,4069,1588764324053640540,,0.499947093776,-0.189723142414,0.224135259581
1588764324059811790,4070,1588764324059660805,,0.499947419776,-0.189611400949,0.224061139144
1588764324065898970,4071,1588764324065716379,,0.49994818594,-0.189501358163,0.223984594303
1588764324071900942,4072,1588764324071776832,,0.499946846338,-0.189392112382,0.22390942358
1588764324077905557,4073,1588764324077719703,,0.499946800264,-0.189282553835,0.223834187586
1588764324083862883,4074,1588764324083702566,,0.49994559409,-0.189172040169,0.22375781451
1588764324089832155,4075,1588764324089692264,,0.499945503391,-0.189059321588,0.223680961444
1588764324095807322,4076,1588764324095713933,,0.499943890702,-0.188952638265,0.223601325487
1588764324101936342,4077,1588764324101719138,,0.499944440197,-0.188841553248,0.223523767205
1588764324107937757,4078,1588764324107747102,,0.499943385253,-0.188729337585,0.223442037961
1588764324113853261,4079,1588764324113746691,,0.499943769273,-0.188618921811,0.223365103162
1588764324119900505,4080,1588764324119751059,,0.499943449606,-0.188507995975,0.22328555434
1588764324125920150,4081,1588764324125759830,,0.49994280027,-0.188398347507,0.223207211058
1588764324131886366,4082,1588764324131671494,,0.499942438389,-0.188286015398,0.223131173902
1588764324137845229,4083,1588764324137665621,,0.499941719867,-0.188172506186,0.223050774274
1588764324143835560,4084,1588764324143633746,,0.499942000091,-0.188060735241,0.222976925744
1588764324149909667,4085,1588764324149786065,,0.499941989882,-0.187942089002,0.222899720627
1588764324156035068,4086,1588764324155839549,,0.49994175908,-0.187825639987,0.222824287499
1588764324161913600,4087,1588764324161761465,,0.49994281026,-0.187706611368,0.22274820555
1588764324167785254,4088,1588764324167706561,,0.499943138959,-0.187590066493,0.222671759555
1588764324173878684,4089,1588764324173699711,,0.499942569922,-0.187477435532,0.222594161074
1588764324179916964,4090,1588764324179754885,,0.499944917849,-0.187387848463,0.222532631151
1588764324185890581,4091,1588764324185773736,,0.499945568191,-0.187270646576,0.222453651743
1588764324191944032,4092,1588764324191748435,,0.499946751077,-0.187136392591,0.222368457157
1588764324197989190,4093,1588764324197794182,,0.499948434769,-0.187055290222,0.22231112391
1588764324203828849,4094,1588764324203680917,,0.499947179139,-0.186939633249,0.222238577682
1588764324209924432,4095,1588764324209733758,,0.499946248759,-0.186814258,0.222158973933
1588764324221877216,4096,1588764324221726889,,0.499945145403,-0.186637965173,0.222042432845
1588764324227828222,4097,1588764324227705085,,0.499942945608,-0.186533957061,0.221970456215
1588764324233937672,4098,1588764324233735858,,0.499943012876,-0.186417233714,0.221896119915
1588764324239882405,4099,1588764324239707576,,0.499944846454,-0.186347152296,0.22184562326
1588764324245917366,4100,1588764324245690109,,0.499943849819,-0.186244206941,0.221773394911
1588764324252095532,4101,1588764324251798448,,0.499943975021,-0.186131097275,0.221701368685
1588764324257885229,4102,1588764324257698140,,0.499943989294,-0.186034583399,0.221634249852
1588764324263859310,4103,1588764324263714722,,0.499944133511,-0.185939077385,0.221568760139
1588764324269818912,4104,1588764324269707547,,0.499943868756,-0.185843993589,0.221502593607
1588764324275912680,4105,1588764324275725227,,0.499945309397,-0.185745694284,0.221435483894
1588764324281937504,4106,1588764324281752231,,0.49994553652,-0.185644872471,0.22136192892
1588764324287896528,4107,1588764324287699604,,0.499947775591,-0.185540760983,0.221290537828
1588764324294006227,4108,1588764324293792356,,0.499949693799,-0.185432183223,0.221216606769
1588764324299888896,4109,1588764324299779840,,0.499950118243,-0.185321249007,0.221138852042
1588764324305909374,4110,1588764324305748596,,0.499952030093,-0.185217405176,0.221067610375
1588764324311869965,4111,1588764324311753497,,0.499952370444,-0.18513536343,0.221007282767
1588764324315176673,4112,1588764324315049691,,0.499953060837,-0.185017729915,0.22092803834
1588764324318265506,4113,1588764324318077590,,0.499954770779,-0.184885767785,0.220849327717
1588764324323836749,4114,1588764324323719544,,0.499955467281,-0.184803798937,0.220787743526
1588764324329964573,4115,1588764324329803328,,0.499955257107,-0.184688413993,0.22071546308
1588764324335823630,4116,1588764324335703077,,0.499954925113,-0.184560949106,0.220636279356
1588764324341835756,4117,1588764324341694995,,0.499956598684,-0.184457854199,0.220568030647
1588764324347916952,4118,1588764324347811400,,0.499955513349,-0.184350717773,0.220501139593
1588764324353939056,4119,1588764324353791715,,0.499956395148,-0.184245612102,0.220432646041
1588764324359935733,4120,1588764324359790822,,0.499956869049,-0.184143101393,0.220364614603
1588764324365871611,4121,1588764324365741829,,0.499957201278,-0.184040807967,0.220291981912
1588764324371992642,4122,1588764324371785326,,0.499959506764,-0.183934497258,0.2202214031
1588764324377887814,4123,1588764324377747856,,0.499961674073,-0.183831044158,0.220149696538
1588764324383913842,4124,1588764324383783629,,0.499962314863,-0.183723531397,0.220077146317
1588764324389877282,4125,1588764324389747635,,0.499963579256,-0.183618852399,0.220007348759
1588764324395947734,4126,1588764324395760374,,0.499961077668,-0.183514865762,0.219932454631
1588764324401922890,4127,1588764324401742282,,0.499959745795,-0.183408444485,0.219855518936
1588764324407956477,4128,1588764324407757244,,0.499961262414,-0.183304701706,0.219783178143
1588764324414037144,4129,1588764324413772521,,0.499960922107,-0.183195086438,0.219704241351
1588764324419919072,4130,1588764324419782085,,0.499963410334,-0.183083916032,0.219631698519
1588764324425921453,4131,1588764324425784053,,0.499966640039,-0.182978576386,0.219553506589
1588764324431873003,4132,1588764324431771976,,0.49997061668,-0.182867015189,0.219473400848
1588764324437864765,4133,1588764324437729573,,0.499978389485,-0.182753421169,0.219404578155
1588764324443798783,4134,1588764324443682674,,0.499977436201,-0.182642612672,0.219322523786
1588764324449890928,4135,1588764324449777136,,0.499977165711,-0.182522706123,0.219244047314
1588764324455874555,4136,1588764324455751816,,0.499978460176,-0.182405110828,0.219170586915
1588764324462096198,4137,1588764324461819063,,0.499979027011,-0.182287824648,0.219096221279
1588764324467964694,4138,1588764324467813695,,0.499981366927,-0.182169677974,0.21902430263
1588764324473901159,4139,1588764324473752763,,0.499983160726,-0.182051258423,0.218950591464
1588764324479924817,4140,1588764324479757373,,0.499993425918,-0.18194670755,0.218885142625
1588764324485923625,4141,1588764324485766150,,0.499997380235,-0.181832895784,0.218816868818
1588764324492109469,4142,1588764324491813845,,0.499998451784,-0.181721164791,0.218747114281
1588764324497952823,4143,1588764324497757588,,0.500000389009,-0.181617441453,0.218678553696
1588764324503994062,4144,1588764324503842104,,0.500000627613,-0.181508713214,0.218607277552
1588764324509890273,4145,1588764324509759918,,0.500000673737,-0.181401816034,0.218538398011
1588764324516820062,4146,1588764324516671860,,0.500015471704,-0.18131116331,0.218472341613
1588764324521998508,4147,1588764324521796569,,0.500015916559,-0.181206329374,0.218400080661
1588764324527993515,4148,1588764324527814012,,0.500012759869,-0.181095177385,0.218323126331
1588764324534045819,4149,1588764324533824021,,0.500013841624,-0.180993719132,0.218255966035
1588764324539804545,4150,1588764324539670902,,0.500011563567,-0.18088737975,0.218178237402
1588764324545912246,4151,1588764324545750997,,0.500008706997,-0.180777849098,0.21810397249
1588764324551985452,4152,1588764324551853115,,0.500009989943,-0.180673152318,0.218033336282
1588764324557961564,4153,1588764324557805005,,0.500008140611,-0.18056603458,0.217961242411
1588764324563882795,4154,1588764324563747823,,0.500007537853,-0.18045731262,0.217890425316
1588764324569870554,4155,1588764324569758421,,0.500025706322,-0.180367017698,0.217823006101
1588764324575960486,4156,1588764324575824279,,0.500028844661,-0.180256408844,0.217752474915
1588764324581955294,4157,1588764324581817051,,0.50002649735,-0.180144572145,0.217681794885
1588764324587998565,4158,1588764324587800513,,0.500028882526,-0.180045457303,0.217610714276
1588764324593958580,4159,1588764324593797865,,0.500028903672,-0.179936208635,0.217546015511
1588764324599987141,4160,1588764324599786417,,0.500024650575,-0.17982838482,0.2174768866
1588764324605983330,4161,1588764324605793915,,0.500025185862,-0.179729316867,0.21741031242
1588764324611994056,4162,1588764324611834442,,0.500023473935,-0.179631918861,0.217345070306
1588764324618323607,4163,1588764324618147879,,0.500024416718,-0.179560361946,0.21729352515
1588764324623918563,4164,1588764324623765734,,0.500049564759,-0.179509858899,0.217242094507
1588764324629837053,4165,1588764324629716691,,0.500050849204,-0.179396869755,0.21717132339
1588764324635943122,4166,1588764324635828328,,0.500048843445,-0.179311328355,0.217110863991
1588764324641939919,4167,1588764324641781620,,0.50005118702,-0.179255512506,0.217063082617
1588764324647960798,4168,1588764324647813571,,0.500047788373,-0.179152634099,0.217001872231
1588764324653843312,4169,1588764324653707686,,0.500040256447,-0.179051902495,0.216939436254
1588764324659870058,4170,1588764324659742079,,0.500039701305,-0.178980525567,0.216893651941
1588764324665919394,4171,1588764324665739574,,0.500038397856,-0.178909228702,0.216843702554
1588764324671990494,4172,1588764324671787999,,0.500035229296,-0.178835370078,0.21679173403
1588764324677853541,4173,1588764324677703737,,0.500034786378,-0.178763072024,0.21674031764
1588764324683829661,4174,1588764324683700991,,0.500036151504,-0.178690597521,0.216688324847
1588764324690095458,4175,1588764324689978138,,0.50003773838,-0.178609719169,0.216638839285
1588764324695962209,4176,1588764324695786906,,0.500066707228,-0.178555920932,0.216589863113
1588764324702075444,4177,1588764324701827847,,0.500070147636,-0.178468657018,0.216535321423
1588764324707996147,4178,1588764324707856284,,0.500068685687,-0.178376437273,0.216477512993
1588764324713973019,4179,1588764324713847339,,0.500071300892,-0.17829746949,0.216422076552
1588764324720075048,4180,1588764324719818665,,0.500068483584,-0.178206311671,0.216358105246
1588764324726027658,4181,1588764324725791497,,0.500064745945,-0.178105545445,0.216294144716
1588764324732064902,4182,1588764324731785802,,0.500066641486,-0.178020993627,0.216238043217
1588764324738009586,4183,1588764324737825448,,0.500065764245,-0.177927192926,0.216173627443
1588764324744065272,4184,1588764324743858307,,0.500065444425,-0.177829077597,0.216112931482
1588764324750015548,4185,1588764324749889952,,0.500067179822,-0.177737199191,0.216053512973
1588764324756012360,4186,1588764324755816305,,0.500068569603,-0.177641756567,0.215993468374
1588764324762013820,4187,1588764324761809473,,0.500070782218,-0.177546268536,0.21593528207
1588764324768014284,4188,1588764324767840714,,0.500107930643,-0.177487164724,0.215887850059
1588764324774032287,4189,1588764324773830856,,0.500113631743,-0.177390072769,0.215828819381
1588764324779970238,4190,1588764324779829424,,0.500112564824,-0.177285614852,0.215762915636
1588764324785957622,4191,1588764324785843875,,0.500117648742,-0.177212070732,0.215709575387
1588764324791982125,4192,1588764324791782188,,0.500117585759,-0.177120093635,0.215649295016
1588764324797941119,4193,1588764324797786746,,0.500111515882,-0.177025201961,0.215585890244
1588764324803942412,4194,1588764324803767274,,0.500111523031,-0.176947662337,0.215531284902
1588764324809964973,4195,1588764324809826262,,0.500111196041,-0.176863752297,0.21547502106
1588764324822033710,4196,1588764324821813106,,0.500108352955,-0.176698246294,0.215366610694
1588764324827942615,4197,1588764324827759640,,0.500107666159,-0.176532553513,0.215258965447
1588764324834050998,4198,1588764324833866748,,0.500109574996,-0.176453230288,0.215210225367
1588764324840107319,4199,1588764324839914495,,0.500109280451,-0.176292722446,0.215109087318
1588764324846024790,4200,1588764324845861006,,0.500150875113,-0.176253320349,0.215068244303
1588764324852032006,4201,1588764324851838793,,0.500151240836,-0.176075921713,0.214949853915
1588764324858013464,4202,1588764324857848074,,0.500154168695,-0.176014534713,0.214898215291
1588764324863864806,4203,1588764324863757676,,0.500145046286,-0.175843889587,0.214774961002
1588764324869957464,4204,1588764324869828926,,0.50014644509,-0.175771761898,0.214724993342
1588764324876035218,4205,1588764324875861771,,0.500142865776,-0.175608033636,0.214622422381
1588764324882119002,4206,1588764324881870665,,0.500145270567,-0.175531387141,0.214576311187
1588764324888043384,4207,1588764324887849702,,0.500149754707,-0.17538307956,0.214491061889
1588764324894108365,4208,1588764324893865142,,0.500153314484,-0.175312252173,0.21445185406
1588764324900022925,4209,1588764324899865998,,0.500156757087,-0.175170788988,0.2143727018
1588764324905981488,4210,1588764324905861211,,0.500159897532,-0.175100993915,0.214334369981
1588764324911968493,4211,1588764324911837585,,0.500162060876,-0.174970327627,0.214251981091
1588764324918298768,4212,1588764324918181606,,0.500206381387,-0.174948451332,0.214215407388
1588764324923946970,4213,1588764324923813521,,0.500205544596,-0.174803193496,0.214107628768
1588764324930008958,4214,1588764324929800785,,0.500207838234,-0.174753617998,0.214055649945
1588764324936061223,4215,1588764324935921061,,0.500200001411,-0.174615980707,0.21395634202
1588764324941983093,4216,1588764324941820348,,0.500201157286,-0.174559949954,0.213910456408
1588764324948040504,4217,1588764324947858175,,0.500200939751,-0.174432707812,0.21383057634
1588764324954055340,4218,1588764324953895792,,0.500204784214,-0.174376394883,0.213798452669
1588764324960087364,4219,1588764324959862268,,0.500212568243,-0.174255655065,0.213735198097
1588764324965960320,4220,1588764324965837094,,0.500217968906,-0.174198617249,0.213708693352
1588764324972066023,4221,1588764324971903033,,0.500222931745,-0.174084027403,0.213646466499
1588764324977983054,4222,1588764324977845250,,0.500224165614,-0.174032313459,0.213612022089
1588764324984046357,4223,1588764324983938246,,0.500225007228,-0.173977457752,0.213573723596
1588764324989909570,4224,1588764324989785755,,0.500225655793,-0.173876312929,0.213492861131
1588764324996595616,4225,1588764324995895350,,0.500226545946,-0.173773410725,0.213410319064
1588764325001998726,4226,1588764325001841424,,0.500228448677,-0.173723381526,0.213372738857
1588764325007932146,4227,1588764325007793185,,0.500284400726,-0.173674577859,0.21331425393
1588764325014081145,4228,1588764325013867794,,0.500297361496,-0.17361907622,0.213284450946
1588764325019981108,4229,1588764325019783819,,0.50030142451,-0.173517341225,0.213210229564
1588764325025943880,4230,1588764325025799590,,0.500298982812,-0.173470225591,0.213179519533
1588764325032018280,4231,1588764325031894594,,0.50030124349,-0.173379740527,0.213122793442
1588764325037956653,4232,1588764325037827320,,0.500302487416,-0.173329534224,0.213095258566
1588764325043982359,4233,1588764325043842915,,0.500304799551,-0.17328318734,0.213069199578
1588764325049929567,4234,1588764325049792300,,0.500312492908,-0.173199996832,0.213016789553
1588764325058906339,4235,1588764325058792716,,0.500324840745,-0.173077950494,0.212946566448
1588764325065025567,4236,1588764325064908395,,0.500329063267,-0.173035412382,0.212925883995
1588764325071103015,4237,1588764325070920246,,0.500334931795,-0.172962671581,0.212874733403
1588764325076965117,4238,1588764325076833902,,0.500337578254,-0.172924541125,0.212849452107
1588764325083211973,4239,1588764325083062936,,0.500341917584,-0.172856816704,0.212799673107
1588764325089117183,4240,1588764325088983973,,0.500343459121,-0.172824941203,0.212776898223
1588764325094966313,4241,1588764325094834408,,0.500348452354,-0.172759343267,0.212730102151
1588764325101098193,4242,1588764325100873745,,0.500351768158,-0.172727903967,0.21270819049
1588764325106995374,4243,1588764325106815925,,0.50035838874,-0.172664268421,0.212668048282
1588764325112973163,4244,1588764325112872860,,0.500361211474,-0.172635716164,0.212648513437
1588764325119321062,4245,1588764325119199467,,0.500369124867,-0.17257655124,0.212611382883
1588764325124910843,4246,1588764325124785977,,0.500372030014,-0.172548715964,0.212593611321
1588764325131021539,4247,1588764325130876694,,0.500379063835,-0.172492494189,0.212559953658
1588764325136981566,4248,1588764325136843443,,0.500381805695,-0.172466710776,0.212541791452
1588764325143245302,4249,1588764325143164920,,0.500387969007,-0.17241365642,0.212504200023
1588764325149053555,4250,1588764325148915031,,0.500391741633,-0.172390320598,0.212485880825
1588764325155139131,4251,1588764325154887333,,0.50039822428,-0.172343313723,0.212450627504
1588764325161111755,4252,1588764325160876807,,0.50040134911,-0.172320857845,0.212437276029
1588764325167026074,4253,1588764325166867654,,0.500407738134,-0.172278898438,0.212408752719
1588764325172991189,4254,1588764325172879230,,0.500410820427,-0.172259918309,0.212393901054
1588764325179011376,4255,1588764325178894226,,0.500419344159,-0.172220469438,0.212367170326
1588764325185029717,4256,1588764325184859410,,0.50042369794,-0.172203996561,0.212355884865
1588764325191029219,4257,1588764325190932367,,0.500430855555,-0.172171597157,0.212333450022
1588764325196986424,4258,1588764325196848829,,0.50043514042,-0.172152594613,0.21232141122
1588764325202936014,4259,1588764325202855082,,0.50044228954,-0.172120418344,0.212298369747
1588764325209058338,4260,1588764325208927163,,0.500446021858,-0.172107504824,0.212286949043
1588764325215474260,4261,1588764325215317868,,0.500453770901,-0.172080872026,0.212265811022
1588764325221126208,4262,1588764325220898996,,0.50045795222,-0.172067264616,0.212258605131
1588764325227020731,4263,1588764325226897273,,0.500464369536,-0.172046847558,0.212238419987
1588764325232979740,4264,1588764325232834934,,0.500467497076,-0.172036381898,0.21223015878
1588764325239003276,4265,1588764325238865261,,0.500474131649,-0.172017263716,0.212212432764
1588764325245166616,4266,1588764325244928382,,0.500477331148,-0.172009234243,0.212203318224
1588764325251019208,4267,1588764325250877372,,0.500483630527,-0.171991471993,0.212188168847
1588764325256967842,4268,1588764325256853883,,0.500487013411,-0.171984632075,0.212179958827
1588764325263244039,4269,1588764325263080210,,0.50049352313,-0.171970131045,0.212166124784
1588764325268999261,4270,1588764325268870880,,0.500496892661,-0.171965495689,0.212160895131
1588764325274989780,4271,1588764325274868821,,0.500503173484,-0.17195544467,0.212148575982
1588764325281160720,4272,1588764325280984161,,0.50050590437,-0.171953411443,0.212144175634
1588764325287008391,4273,1588764325286872909,,0.500511242212,-0.171947565572,0.212137008912
1588764325293089175,4274,1588764325292922683,,0.500514175609,-0.171945150995,0.212135157426
1588764325299088566,4275,1588764325298910798,,0.500517108228,-0.171942983101,0.21213381432
1588764325305040855,4276,1588764325304890257,,0.500524119513,-0.171940833018,0.212127959429
1588764325311063758,4277,1588764325310901083,,0.500528753327,-0.171939915396,0.21212867453
1588764325317237344,4278,1588764325317010261,,0.500538118101,-0.171941338574,0.212132441341
1588764325325986170,4279,1588764325325859776,,0.500554001021,-0.171944905486,0.21214280091
1588764325332108403,4280,1588764325331941146,,0.500565434216,-0.17194824064,0.212150151086
1588764325338091826,4281,1588764325337927119,,0.500571704261,-0.171950477561,0.212154568666
1588764325344062141,4282,1588764325343888233,,0.500577211191,-0.171951915878,0.212156590508
1588764325350014566,4283,1588764325349902048,,0.500588604556,-0.171955200568,0.212162679284
1588764325362116472,4284,1588764325361952250,,0.50060421575,-0.171962442563,0.212167334944
1588764325368069513,4285,1588764325367871558,,0.500609450736,-0.17196471357,0.212168263889
1588764325374025668,4286,1588764325373855451,,0.500619126763,-0.171969896329,0.212169880898
1588764325380152223,4287,1588764325379947842,,0.500624115338,-0.171972896766,0.212172447399
1588764325386086580,4288,1588764325385918711,,0.50063558316,-0.171977938003,0.212180226766
1588764325392171753,4289,1588764325391970935,,0.500641082426,-0.171983207817,0.212182717566
1588764325398125022,4290,1588764325397923381,,0.500650848327,-0.171989895802,0.212188615176
1588764325404107494,4291,1588764325403921583,,0.500655036415,-0.171992396893,0.212191126886
1588764325409986316,4292,1588764325409868430,,0.500663879686,-0.172003168725,0.21219854389
1588764325422163761,4293,1588764325421940258,,0.500676499597,-0.172021887966,0.21220610287
1588764325428073148,4294,1588764325427903122,,0.500680462598,-0.172029611595,0.212210500509
1588764325434162993,4295,1588764325433945703,,0.50068924072,-0.172045255365,0.212218667703
1588764325440126863,4296,1588764325439906689,,0.500693844668,-0.1720517452,0.212223128303
1588764325446096052,4297,1588764325445963951,,0.500702340485,-0.172067884163,0.212230065486
1588764325452159910,4298,1588764325452007857,,0.500706760605,-0.172075232102,0.212233874684
1588764325458032532,4299,1588764325457924190,,0.500711440966,-0.172081155375,0.212237826008
1588764325464119784,4300,1588764325463954790,,0.500720210026,-0.172096903837,0.212247826325
1588764325470069960,4301,1588764325469943026,,0.500727813388,-0.172113151714,0.212254954107
1588764325476788818,4302,1588764325476669021,,0.500731443207,-0.172120975731,0.212257743904
1588764325482169957,4303,1588764325481965838,,0.500734893409,-0.172128382405,0.212258771522
1588764325488100311,4304,1588764325487931536,,0.500743743979,-0.172142620146,0.212264443671
1588764325494152047,4305,1588764325493954787,,0.5007468336,-0.172149145909,0.21226621858
1588764325500198428,4306,1588764325499999570,,0.500750353842,-0.172156033646,0.212267367157
1588764325505988369,4307,1588764325505885232,,0.50075791862,-0.172171641924,0.21227251204
1588764325512108527,4308,1588764325511955304,,0.500761748159,-0.172177509819,0.212275075179
1588764325518391667,4309,1588764325518272827,,0.500770762104,-0.172188566717,0.212280731488
1588764325524073965,4310,1588764325523917997,,0.500773719957,-0.172195964848,0.212282651982
1588764325530025532,4311,1588764325529929543,,0.5007809067,-0.172208219604,0.212285286794
1588764325536076488,4312,1588764325535936852,,0.500784036888,-0.172212887481,0.21228583524
1588764325542236251,4313,1588764325541946455,,0.50079051419,-0.172228162164,0.212286353465
1588764325548062878,4314,1588764325547923794,,0.500793732911,-0.17223484295,0.21228550545
1588764325551127240,4315,1588764325550949522,,0.500799993792,-0.172251103044,0.212283879351
1588764325557038336,4316,1588764325556925599,,0.500802687303,-0.172258624442,0.212283724299
1588764325566084332,4317,1588764325565932539,,0.500810874731,-0.172282537886,0.212280837842
1588764325572275156,4318,1588764325571999205,,0.500816825263,-0.17230053844,0.212276457313
1588764325578108284,4319,1588764325577926713,,0.500819557938,-0.172308582153,0.212274918347
1588764325584138095,4320,1588764325583977408,,0.500825489024,-0.172330890778,0.212266810232
1588764325590089014,4321,1588764325589978090,,0.500827965605,-0.172341999584,0.212262724734
1588764325596058596,4322,1588764325595948248,,0.500831786854,-0.172368377374,0.212256900786
1588764325602231059,4323,1588764325601932746,,0.500833422176,-0.172382238886,0.212252098012
1588764325608158691,4324,1588764325607973099,,0.500836251763,-0.172413551109,0.212238855402
1588764325614106501,4325,1588764325613966598,,0.500837766215,-0.172430211983,0.212232439084
1588764325620160231,4326,1588764325619979083,,0.500842358698,-0.172460441244,0.212220870762
1588764325626020884,4327,1588764325625915485,,0.500844635852,-0.17247724551,0.212213288911
1588764325632111899,4328,1588764325631964799,,0.500849033382,-0.172512765871,0.212202460489
1588764325638134636,4329,1588764325637996610,,0.500851006082,-0.172528929747,0.212194304848
1588764325643981195,4330,1588764325643904371,,0.500855898296,-0.172563785425,0.212177350363
1588764325649960136,4331,1588764325649864929,,0.500859715499,-0.172581480851,0.212170190891
1588764325652973381,4332,1588764325652867812,,0.500862196936,-0.172598837882,0.212160376711
1588764325659081731,4333,1588764325658941406,,0.500869918716,-0.172656886259,0.212131909802
1588764325665060239,4334,1588764325664905188,,0.500875380437,-0.172694063645,0.212114209348
1588764325671079726,4335,1588764325670947464,,0.500878085904,-0.172714907437,0.212101337612
1588764325677131738,4336,1588764325676981630,,0.500882924563,-0.172756628973,0.212076696073
1588764325683080340,4337,1588764325682961882,,0.500885778816,-0.172778669153,0.212066599046
1588764325688992851,4338,1588764325688848655,,0.500889846567,-0.172825961139,0.212040440595
1588764325695040930,4339,1588764325694892487,,0.500891589276,-0.172848851844,0.212024281946
1588764325701100040,4340,1588764325700940505,,0.500897539039,-0.172897965938,0.211994956199
1588764325704015882,4341,1588764325703878575,,0.50090004168,-0.172923801857,0.211978541738
1588764325707002175,4342,1588764325706859049,,0.500905691398,-0.172979219616,0.211945616824
1588764325710377992,4343,1588764325710234412,,0.500908181019,-0.173006316866,0.21192842188
1588764325716205884,4344,1588764325716116656,,0.500912041781,-0.173064543735,0.211893166775
1588764325722133681,4345,1588764325721977714,,0.500914081678,-0.173093761528,0.211874779373
1588764325728040206,4346,1588764325727903923,,0.50091753599,-0.173155201949,0.211838355788
1588764325734042609,4347,1588764325733900368,,0.500920033077,-0.173187121583,0.211819452786
1588764325740119142,4348,1588764325739927397,,0.500922408857,-0.173218938241,0.211803876911
1588764325746051548,4349,1588764325745946360,,0.500927069336,-0.173284405814,0.211761132806
1588764325752297557,4350,1588764325752169960,,0.500929143759,-0.173316574452,0.211742828052
1588764325758164145,4351,1588764325758014466,,0.500934574385,-0.173387575782,0.211696288987
1588764325764026767,4352,1588764325763934420,,0.500936999028,-0.173420485577,0.211676522392
1588764325770118499,4353,1588764325770019712,,0.5009384911,-0.173448023525,0.211654248858
1588764325776039365,4354,1588764325775899679,,0.50094312444,-0.173523279908,0.211606676118
1588764325782184529,4355,1588764325782046995,,0.500948319814,-0.173590130677,0.211564339183
1588764325788134856,4356,1588764325787966986,,0.500950875322,-0.173630724927,0.211535423666
1588764325794224149,4357,1588764325794052259,,0.500952957147,-0.173669178422,0.211516007582
1588764325800192431,4358,1588764325800029449,,0.500958107105,-0.173730588147,0.211474476813
1588764325806109230,4359,1588764325805977772,,0.500959718048,-0.173757071365,0.211456375937
1588764325812197627,4360,1588764325812020214,,0.500962704289,-0.173830828161,0.211414893213
1588764325818471055,4361,1588764325818352882,,0.500963980225,-0.173858878821,0.21139855162
1588764325824116561,4362,1588764325824021566,,0.500969520059,-0.173941143849,0.211349502706
1588764325830082176,4363,1588764325829959899,,0.500972009234,-0.173979153985,0.211325314702
1588764325839072282,4364,1588764325838954370,,0.500978371118,-0.174082520411,0.211250360535
1588764325845097201,4365,1588764325844975330,,0.500981338947,-0.174165924894,0.2111932582
1588764325851151408,4366,1588764325851042093,,0.500984963676,-0.174208157217,0.211167264489
1588764325857078819,4367,1588764325856974739,,0.500991845721,-0.174286015674,0.211105135991
1588764325866048132,4368,1588764325865888194,,0.50100185563,-0.174417590049,0.211009293313
1588764325869136484,4369,1588764325868887853,,0.501004711171,-0.174459124695,0.210982972844
1588764325875158338,4370,1588764325874981764,,0.501013593502,-0.174565996204,0.210914639697
1588764325881112215,4371,1588764325881032989,,0.501016828974,-0.174615694591,0.21088626417
1588764325887052118,4372,1588764325886915309,,0.501022460579,-0.174710965958,0.210826032165
1588764325890439171,4373,1588764325890326116,,0.501025552033,-0.174757902713,0.210797847999
1588764325896479067,4374,1588764325896419171,,0.501032128834,-0.17485831006,0.2107347172
1588764325902107081,4375,1588764325901945573,,0.501034974581,-0.174912840865,0.210698904764
1588764325908048246,4376,1588764325907943033,,0.501044372199,-0.175022275284,0.210622305592
1588764325914064625,4377,1588764325913955726,,0.501049509299,-0.175081507969,0.210583317163
1588764325920031452,4378,1588764325919965399,,0.501058578128,-0.175204403016,0.210497621593
1588764325923185386,4379,1588764325923078109,,0.501062970158,-0.175265295026,0.210452980874
1588764325929259082,4380,1588764325929136687,,0.501070212704,-0.175393113987,0.210360941607
1588764325935039847,4381,1588764325934893890,,0.501073749897,-0.175458076749,0.210315839001
1588764325941098062,4382,1588764325940981952,,0.501082085591,-0.17559336111,0.210225075153
1588764325947044548,4383,1588764325946935243,,0.501085053042,-0.175661394781,0.210181464511
1588764325950124359,4384,1588764325949983061,,0.501091123571,-0.17579509552,0.210090794979
1588764325959067825,4385,1588764325958987949,,0.501096245476,-0.17593591899,0.210000544181
1588764325965088578,4386,1588764325964968220,,0.501096834819,-0.176004173712,0.209953296107
1588764325968002576,4387,1588764325967912868,,0.501099288377,-0.176073712316,0.209909355806
1588764325971071717,4388,1588764325970931319,,0.501103470066,-0.176211486716,0.209815068653
1588764325977062224,4389,1588764325976959558,,0.501106272309,-0.176282902696,0.209767405328
1588764325980031355,4390,1588764325979959612,,0.501108376333,-0.176418709347,0.209666433555
1588764325983184230,4391,1588764325983109026,,0.50110786146,-0.176472867878,0.209624974197
1588764325986043278,4392,1588764325985928852,,0.501111216851,-0.176618850268,0.209520582947
1588764325989098929,4393,1588764325988942716,,0.501111539365,-0.176670753222,0.209482951246
1588764325995113736,4394,1588764325994973389,,0.501115091244,-0.176816368176,0.209378768319
1588764326001149238,4395,1588764326001000807,,0.501116995264,-0.176882626588,0.20933753789
1588764326007202106,4396,1588764326007105834,,0.501121760958,-0.177015910509,0.209241061784
1588764326013101131,4397,1588764326012972699,,0.501122861045,-0.177084273495,0.209192243355
1588764326019592606,4398,1588764326019319491,,0.501125548438,-0.177223547909,0.209097351993
1588764326025217222,4399,1588764326025025838,,0.501126408469,-0.177293774563,0.209044146004
1588764326031139731,4400,1588764326031014794,,0.501127632885,-0.177370863515,0.208991585247
1588764326037122799,4401,1588764326036940674,,0.501131843469,-0.177520551003,0.208873005752
1588764326040074612,4402,1588764326039957078,,0.501133790181,-0.177599790949,0.208818796714
1588764326043436406,4403,1588764326043318941,,0.501134535952,-0.177674527692,0.208759046446
1588764326049120139,4404,1588764326049011886,,0.501136092735,-0.177756543778,0.208700627593
1588764326052082190,4405,1588764326051955327,,0.501138729744,-0.177837456784,0.208645881408
1588764326055080194,4406,1588764326054958380,,0.501140793598,-0.177916639254,0.208591177075
1588764326058061392,4407,1588764326057960056,,0.50114349464,-0.178075602941,0.208473061724
1588764326064026072,4408,1588764326063908679,,0.501146617224,-0.178137859699,0.208424133599
1588764326067005453,4409,1588764326066922527,,0.501147921824,-0.17822161118,0.208364474351
1588764326073046638,4410,1588764326072940034,,0.501151490888,-0.178371141185,0.208253704972
1588764326076202308,4411,1588764326076113448,,0.5011548964,-0.178454372686,0.208195710829
1588764326079126305,4412,1588764326078971411,,0.501157331368,-0.178543751513,0.208138337025
1588764326082028077,4413,1588764326081950492,,0.501159765523,-0.178619255021,0.208093253606
1588764326088089290,4414,1588764326088000890,,0.501162858007,-0.178696456016,0.208035648998
1588764326094039737,4415,1588764326093963478,,0.501164286426,-0.178778409499,0.207981900464
1588764326100119464,4416,1588764326099967679,,0.50116900128,-0.178935324848,0.207871934896
1588764326103088593,4417,1588764326103003577,,0.501171215544,-0.17901986964,0.207814766471
1588764326106028402,4418,1588764326105951045,,0.501177177441,-0.179185422951,0.207700537325
1588764326112081635,4419,1588764326111985681,,0.501177314746,-0.179276951538,0.207638854244
1588764326115461339,4420,1588764326115360649,,0.501181841392,-0.179448942115,0.207518795102
1588764326121135619,4421,1588764326120942965,,0.501182690427,-0.17953727826,0.207454802401
1588764326127119396,4422,1588764326127023014,,0.501185498472,-0.179625876686,0.20739535477
1588764326133203017,4423,1588764326133056551,,0.501189629254,-0.179806022791,0.207259784099
1588764326139157125,4424,1588764326139027309,,0.501192346738,-0.179988394054,0.207134643794
1588764326145086993,4425,1588764326144998417,,0.501193811522,-0.180083989184,0.207066611333
1588764326148028715,4426,1588764326147918888,,0.501186092844,-0.180277749325,0.20691465351
1588764326151004280,4427,1588764326150893493,,0.501180994765,-0.180379624557,0.206833773978
1588764326153973217,4428,1588764326153902043,,0.501166829159,-0.180586401199,0.206667210678
1588764326157051494,4429,1588764326156968606,,0.501162712991,-0.180686572127,0.20659495013
1588764326160141370,4430,1588764326160044175,,0.501155874863,-0.180870872374,0.206457965542
1588764326163308932,4431,1588764326163235331,,0.501155290152,-0.180951575746,0.206396457881
1588764326169222466,4432,1588764326169112503,,0.501160107362,-0.18110034627,0.206276863692
1588764326175122819,4433,1588764326175010806,,0.501163570244,-0.18116817694,0.206219265151
1588764326178107904,4434,1588764326177970281,,0.501165487781,-0.181234767011,0.206164262859
1588764326181080502,4435,1588764326180986940,,0.501167672452,-0.181367587483,0.206066614202
1588764326184051146,4436,1588764326183987698,,0.501168736053,-0.181442991254,0.206008996532
1588764326187052721,4437,1588764326186970086,,0.501169246706,-0.181519643895,0.20595423899
1588764326190096879,4438,1588764326189990757,,0.50116669166,-0.181706590177,0.2058107493
1588764326193049624,4439,1588764326192939946,,0.501163624109,-0.181799415186,0.205734012839
1588764326196325786,4440,1588764326196259724,,0.501158220773,-0.181884294812,0.205665365438
1588764326202081056,4441,1588764326201996485,,0.501152047852,-0.182001899424,0.205582796816
1588764326205011379,4442,1588764326204930261,,0.501146914285,-0.18212693628,0.205498410017
1588764326208063736,4443,1588764326207986765,,0.501131867628,-0.182344576604,0.205337629331
1588764326211049677,4444,1588764326210975551,,0.501128457818,-0.182470302759,0.205256241664
1588764326214167899,4445,1588764326213991984,,0.501124339058,-0.182645950814,0.205150816806
1588764326217834107,4446,1588764326217605512,,0.501123472477,-0.182740920998,0.205090846279
1588764326223067304,4447,1588764326222967999,,0.501123768389,-0.182834519027,0.205032243874
1588764326229085734,4448,1588764326228992791,,0.501128787746,-0.182883721336,0.205000043218
1588764326232080320,4449,1588764326231991818,,0.50114673445,-0.183032929747,0.20489553225
1588764326238119538,4450,1588764326237997146,,0.501154373743,-0.183095943304,0.204855927152
1588764326244205873,4451,1588764326244056362,,0.501171574794,-0.183225186227,0.204746632482
1588764326250193594,4452,1588764326250079855,,0.501177482947,-0.183295958702,0.204688517403
1588764326259103604,4453,1588764326259019092,,0.5011859237,-0.183542060146,0.204495519404
1588764326265174873,4454,1588764326265061226,,0.501187852883,-0.183634431929,0.204429954652
1588764326271225346,4455,1588764326271098676,,0.501190174425,-0.183842745002,0.204269625324
1588764326277138672,4456,1588764326277036499,,0.501191065404,-0.183951249036,0.204186588009
1588764326283124847,4457,1588764326283016504,,0.501191687317,-0.184062131006,0.204104548924
1588764326289242331,4458,1588764326289083259,,0.50118906598,-0.184178198676,0.204021987639
1588764326295132979,4459,1588764326294998386,,0.501188664973,-0.184290871505,0.203948311638
1588764326298133527,4460,1588764326298004483,,0.501181696779,-0.184414511826,0.203875339654
1588764326304116547,4461,1588764326304032826,,0.501172896479,-0.184531018411,0.203807813964
1588764326310286986,4462,1588764326310099714,,0.501160913329,-0.184651293173,0.203735312789
1588764326313134686,4463,1588764326313030523,,0.501146461641,-0.184737840507,0.203660444331
1588764326319367196,4464,1588764326319256347,,0.501129469784,-0.184852758284,0.203584773405
1588764326322135616,4465,1588764326322061191,,0.501115052954,-0.184969275664,0.203502575256
1588764326328167712,4466,1588764326328060602,,0.501095536191,-0.185034982008,0.203443534087
1588764326334141506,4467,1588764326334051374,,0.501083434095,-0.18512849855,0.203370578433
1588764326340156598,4468,1588764326340025955,,0.501082551537,-0.185232863015,0.203296872118
1588764326343464746,4469,1588764326343371752,,0.501092047238,-0.185387898579,0.203195816572
1588764326349238011,4470,1588764326349132239,,0.501099362004,-0.185461414877,0.20313356905
1588764326355135162,4471,1588764326355026733,,0.501101490627,-0.18559218208,0.203012213723
1588764326361114456,4472,1588764326361000273,,0.50110620592,-0.1856659444,0.202948600323
1588764326364066321,4473,1588764326363958346,,0.501106830418,-0.185737997581,0.20288479922
1588764326367132455,4474,1588764326366996913,,0.501119364792,-0.185916338822,0.202727658912
1588764326370072455,4475,1588764326369975938,,0.501121879774,-0.186007916581,0.202646385336
1588764326373096721,4476,1588764326372988331,,0.501125384178,-0.186104599237,0.202564400407
1588764326379154533,4477,1588764326379038739,,0.501121741731,-0.186315969444,0.202408861862
1588764326385171035,4478,1588764326385093684,,0.501119682138,-0.186431638326,0.202343467126
1588764326391150101,4479,1588764326391064217,,0.501118650707,-0.186545729855,0.20225840487
1588764326397107515,4480,1588764326397033398,,0.501113781078,-0.186673223222,0.202165685567
1588764326400213368,4481,1588764326400061902,,0.501111202711,-0.186795287396,0.202084365247
1588764326406142297,4482,1588764326406018765,,0.501108342517,-0.18691812444,0.202002631356
1588764326409325598,4483,1588764326409065764,,0.501105556435,-0.187039527267,0.201935252017
1588764326415673319,4484,1588764326415549578,,0.501103056674,-0.187155783064,0.201873934711
1588764326421157180,4485,1588764326421076926,,0.501101197305,-0.187264525662,0.201798433026
1588764326427249648,4486,1588764326427057224,,0.501097760888,-0.187371910317,0.201726695304
1588764326433226963,4487,1588764326433037202,,0.501102730939,-0.187472415547,0.201661094824
1588764326439204538,4488,1588764326439049197,,0.501105878755,-0.187566534812,0.201598715719
1588764326442103952,4489,1588764326442001274,,0.501108772594,-0.187656476207,0.201535654658
1588764326448198948,4490,1588764326448036913,,0.501110590035,-0.187747187505,0.201466831493
1588764326451159820,4491,1588764326451072422,,0.501112579337,-0.187834684234,0.201395859561
1588764326457258465,4492,1588764326457104423,,0.501115552153,-0.18792504972,0.20133071155
1588764326463130350,4493,1588764326463010804,,0.501124145942,-0.18811305362,0.201195086584
1588764326469212699,4494,1588764326469055822,,0.501124976131,-0.188208365421,0.201116404352
1588764326475118833,4495,1588764326475030217,,0.501124416161,-0.188408134928,0.200959132068
1588764326478116655,4496,1588764326477996085,,0.5011238573,-0.188512298592,0.200880187025
1588764326481120735,4497,1588764326481011726,,0.501121526187,-0.188617713129,0.20080124092
1588764326484116786,4498,1588764326484032644,,0.501117986574,-0.188728914939,0.200733386107
1588764326487155349,4499,1588764326487040784,,0.501118125479,-0.188835317359,0.200650389712
1588764326490211796,4500,1588764326490073910,,0.501111980138,-0.188947185107,0.200569686152
1588764326499171892,4501,1588764326499056541,,0.501108507547,-0.189170378161,0.200418865578
1588764326505237782,4502,1588764326505101517,,0.501105919196,-0.189284763797,0.20035293369
1588764326508149445,4503,1588764326508060061,,0.501107133033,-0.189395391562,0.200284083147
1588764326511204931,4504,1588764326511101607,,0.501105405807,-0.189506030419,0.20020953283
1588764326514124708,4505,1588764326514008191,,0.501101164776,-0.189613107999,0.20013526562
1588764326517408035,4506,1588764326517198340,,0.501101428281,-0.189712626311,0.200057950384
1588764326520174875,4507,1588764326520046982,,0.501103806558,-0.189809166741,0.199987405994
1588764326523160476,4508,1588764326523075300,,0.501106922315,-0.18990449059,0.199916200859
1588764326526156150,4509,1588764326526075690,,0.501110722443,-0.189994532158,0.199850511821
1588764326529297410,4510,1588764326529176577,,0.501112877781,-0.190078247645,0.199784992065
1588764326535208872,4511,1588764326535045144,,0.501115014565,-0.190159860428,0.199718613676
1588764326541189866,4512,1588764326541061575,,0.501116437141,-0.190242967585,0.199652501262
1588764326544091358,4513,1588764326544023180,,0.501117836629,-0.190322530666,0.199590752245
1588764326547123053,4514,1588764326547043660,,0.501123242398,-0.190405562962,0.199522787367
1588764326550539550,4515,1588764326550443375,,0.501126948901,-0.190493206786,0.199455840692
1588764326556290062,4516,1588764326556215322,,0.501131882853,-0.190582527919,0.199390464288
1588764326559167437,4517,1588764326559090079,,0.501135258078,-0.190669463075,0.199327692657
1588764326562153280,4518,1588764326562080632,,0.501133355719,-0.190769828452,0.199264689775
1588764326568283397,4519,1588764326568071426,,0.501134418294,-0.190861007814,0.199198852758
1588764326571123280,4520,1588764326571008519,,0.501129269795,-0.190956756089,0.199122554428
1588764326574140965,4521,1588764326574024347,,0.501125895852,-0.191058613599,0.19905594572
1588764326577127974,4522,1588764326577039756,,0.501121609185,-0.191165533843,0.198982308459
1588764326580190323,4523,1588764326580086323,,0.501115508034,-0.191270063417,0.198912520865
1588764326584084603,4524,1588764326583972831,,0.501108689742,-0.19138120163,0.198839765681
1588764326590570979,4525,1588764326589038789,,0.501104864102,-0.191491394435,0.198764307575
1588764326592187300,4526,1588764326592054152,,0.50109974566,-0.191599111029,0.198688442428
1588764326595171263,4527,1588764326595052153,,0.50109118944,-0.191808643403,0.198546561266
1588764326598192568,4528,1588764326598058995,,0.50109374429,-0.191900190079,0.198484747158
1588764326601170207,4529,1588764326601056044,,0.501093767064,-0.192057651258,0.198363772198
1588764326604136041,4530,1588764326604024361,,0.501097491052,-0.192145089071,0.198295729664
1588764326607190303,4531,1588764326607070049,,0.501104235244,-0.192264108753,0.198189609238
1588764326610202019,4532,1588764326610066763,,0.501111762378,-0.192342419925,0.198129649411
1588764326613163887,4533,1588764326613036575,,0.501118945545,-0.192401725473,0.1980895317
1588764326616465592,4534,1588764326616359161,,0.501130170366,-0.192524445753,0.19799160993
1588764326619487686,4535,1588764326619388636,,0.501133839091,-0.192588803589,0.197940428104
1588764326625168309,4536,1588764326625072197,,0.501135926517,-0.19265906705,0.197888739327
1588764326628155379,4537,1588764326628049657,,0.501139310398,-0.192730133022,0.197837015771
1588764326631171506,4538,1588764326631080808,,0.501140194128,-0.192806665688,0.197777838476
1588764326634136605,4539,1588764326634058634,,0.501143423699,-0.192972322517,0.197657893861
1588764326637193878,4540,1588764326637074772,,0.501141985936,-0.193064094343,0.197588730973
1588764326640119820,4541,1588764326640033188,,0.501139483167,-0.193154964316,0.197520319863
1588764326643078384,4542,1588764326642997800,,0.501135434404,-0.19325351579,0.197452572372
1588764326646111120,4543,1588764326646015291,,0.501124246608,-0.193444321081,0.197314251391
1588764326649112867,4544,1588764326649042519,,0.501115490615,-0.193548165301,0.197247439808
1588764326652160802,4545,1588764326652035626,,0.501112881071,-0.193646372738,0.197184539742
1588764326655158074,4546,1588764326655021036,,0.501109715431,-0.193740582943,0.197121320116
1588764326658155143,4547,1588764326658039467,,0.501108857111,-0.193830719051,0.1970630535
1588764326661212668,4548,1588764326661066745,,0.501108375107,-0.193921166481,0.197007113088
1588764326664214658,4549,1588764326664072160,,0.501105837016,-0.193995773384,0.196953393199
1588764326667241915,4550,1588764326667096593,,0.501102507937,-0.194063010833,0.196898772172
1588764326670203033,4551,1588764326670058744,,0.501097627661,-0.194129100519,0.196843023078
1588764326673197200,4552,1588764326673094454,,0.501094409452,-0.194187264524,0.196794163669
1588764326679226559,4553,1588764326679095983,,0.501100051048,-0.194281684418,0.196713295524
1588764326682248956,4554,1588764326682098837,,0.501106861578,-0.194345301313,0.19666612068
1588764326688159028,4555,1588764326688025784,,0.501113782819,-0.194413917309,0.196617547353
1588764326691249698,4556,1588764326691124678,,0.501121016926,-0.194523291129,0.196527920568
1588764326694199189,4557,1588764326694073748,,0.501125149022,-0.194594345121,0.196470132798
1588764326697200897,4558,1588764326697068253,,0.501127510611,-0.194726384981,0.19636928392
1588764326700225404,4559,1588764326700094475,,0.501129533227,-0.194791763097,0.196317723733
1588764326703152176,4560,1588764326703055896,,0.501126981183,-0.194922661965,0.196219952616
1588764326706202692,4561,1588764326706069434,,0.501125549018,-0.194990289827,0.196169544562
1588764326709825243,4562,1588764326709744457,,0.501120956201,-0.195062611474,0.196117943114
1588764326715767491,4563,1588764326715543229,,0.501119717912,-0.195131458931,0.19607053421
1588764326721231541,4564,1588764326721055682,,0.501117892435,-0.195208595111,0.19601695642
1588764326724168505,4565,1588764326724047771,,0.501117154433,-0.19535351839,0.195920422979
1588764326727139787,4566,1588764326727043751,,0.50111924337,-0.195426951255,0.195876871962
1588764326730200412,4567,1588764326730119312,,0.501121309223,-0.195495610456,0.195831404189
1588764326733137971,4568,1588764326733011411,,0.501123734852,-0.195562465111,0.195785348018
1588764326736452806,4569,1588764326736363220,,0.501126615214,-0.195626845618,0.195738273911
1588764326742403987,4570,1588764326742185494,,0.501130534517,-0.195685620414,0.19569087942
1588764326748288678,4571,1588764326748136029,,0.501134273306,-0.195745499935,0.195643111984
1588764326751206740,4572,1588764326751119723,,0.501138008717,-0.195800711371,0.195595350569
1588764326757295970,4573,1588764326757167021,,0.501143289672,-0.195853989059,0.195552480722
1588764326763197167,4574,1588764326763088715,,0.501147627452,-0.195909448537,0.195510412912
1588764326766282386,4575,1588764326766196798,,0.501151274101,-0.195961887096,0.195465329985
1588764326772366810,4576,1588764326772226320,,0.501154738782,-0.196017550104,0.195423498288
1588764326778320563,4577,1588764326778100399,,0.501160235456,-0.196070299021,0.195379077141
1588764326784636390,4578,1588764326784539088,,0.501164016023,-0.196125123637,0.195335278082
1588764326790216514,4579,1588764326790122163,,0.501165751501,-0.196170724059,0.195298717409
1588764326796348657,4580,1588764326796190192,,0.501169167011,-0.196228139768,0.195256661604
1588764326802473268,4581,1588764326802235615,,0.501172075036,-0.196290198619,0.195214512636
1588764326808341083,4582,1588764326808163246,,0.501171141789,-0.196335941167,0.195182885569
1588764326814354256,4583,1588764326814185493,,0.501172079238,-0.196390649221,0.195139867145
1588764326820363016,4584,1588764326820143599,,0.501175471168,-0.196448237878,0.195097872434
1588764326824137695,4585,1588764326824031777,,0.501177036995,-0.196506848946,0.195061755899
1588764326829337041,4586,1588764326829161587,,0.501178520479,-0.196555723269,0.195019841646
1588764326835397316,4587,1588764326835191886,,0.50117966685,-0.196607392744,0.19497993925
1588764326841341035,4588,1588764326841141905,,0.501178813118,-0.196658360606,0.194940574016
1588764326847201942,4589,1588764326847069696,,0.501180313119,-0.196707531961,0.194910101277
1588764326850261992,4590,1588764326850127285,,0.501178705726,-0.19676202507,0.194876923877
1588764326853186555,4591,1588764326853098439,,0.501179279713,-0.196804489968,0.194842167902
1588764326859364693,4592,1588764326859164965,,0.501182550095,-0.196851206303,0.194812308934
1588764326865274879,4593,1588764326865149760,,0.501183714464,-0.196898886966,0.194777778493
1588764326871260210,4594,1588764326871151488,,0.501185264594,-0.196945724255,0.19474243666
1588764326877360971,4595,1588764326877210845,,0.501187626998,-0.196987273309,0.194710934411
1588764326883769801,4596,1588764326883661075,,0.501189943021,-0.197028262147,0.194676336013
1588764326889233562,4597,1588764326889098285,,0.501191693098,-0.197070238194,0.19464594731
1588764326895256798,4598,1588764326895116427,,0.501193829287,-0.197109043252,0.194616663537
1588764326898167620,4599,1588764326898087934,,0.501194158867,-0.197146206357,0.194582020937
1588764326901234946,4600,1588764326901093953,,0.50119178986,-0.197182998348,0.194547360979
1588764326904336522,4601,1588764326904176153,,0.501190784677,-0.197221674566,0.194515149534
1588764326910355702,4602,1588764326910175849,,0.501190156106,-0.197259919451,0.194481421576
1588764326916784390,4603,1588764326916655645,,0.501189465991,-0.197298889723,0.194448817721
1588764326922251637,4604,1588764326922147819,,0.501191671798,-0.197334091627,0.194417549245
1588764326928332044,4605,1588764326928221569,,0.501191973442,-0.197376065993,0.194384664281
1588764326934321182,4606,1588764326934199963,,0.501193158947,-0.197414631137,0.194354991221
1588764326940266985,4607,1588764326940158777,,0.501194770591,-0.197453033627,0.194326545181
1588764326946343817,4608,1588764326946191394,,0.501194828892,-0.197489779541,0.194294404321
1588764326949320093,4609,1588764326949213784,,0.501197086714,-0.197525281463,0.194263684625
1588764326955330136,4610,1588764326955168441,,0.501200088193,-0.197563990208,0.194236672102
1588764326961290516,4611,1588764326961200233,,0.501201351247,-0.19760215249,0.194207797516
1588764326967369419,4612,1588764326967234535,,0.501203076883,-0.197636633983,0.194177742988
