%time,field.header.seq,field.header.stamp,field.header.frame_id,field.vector.x,field.vector.y,field.vector.z
1588858883151024283,1961,1588858883150858779,,0.499228286441,-0.199324827124,0.2126900067
1588858883157131850,1962,1588858883157001351,,0.49922818266,-0.199324257674,0.212683666305
1588858883159975378,1963,1588858883159883106,,0.499228242996,-0.199324309967,0.212678123002
1588858883166018360,1964,1588858883165902800,,0.499228582655,-0.199322314239,0.212673108654
1588858883168990257,1965,1588858883168881000,,0.499228540286,-0.199321445385,0.212668509661
1588858883172139364,1966,1588858883171986483,,0.499228159221,-0.199321126371,0.21266160801
1588858883175045135,1967,1588858883174909148,,0.499228051998,-0.199320461124,0.212657269355
1588858883181121753,1968,1588858883180930505,,0.499228429962,-0.19931921501,0.212652639338
1588858883184099186,1969,1588858883183976609,,0.499228080574,-0.199317800736,0.212647264755
1588858883190368386,1970,1588858883190267156,,0.499227845689,-0.1993151688,0.21264406871
1588858883196078414,1971,1588858883195920171,,0.499227315626,-0.199312902831,0.212639498146
1588858883199098323,1972,1588858883198937095,,0.4992268347,-0.19930976984,0.212635642158
1588858883202076954,1973,1588858883201921208,,0.499227055385,-0.199306805746,0.212633598288
1588858883205087961,1974,1588858883204920176,,0.499226500377,-0.199304293156,0.212629333663
1588858883208082832,1975,1588858883207928795,,0.499226460309,-0.199300083399,0.2126266691
1588858883214062662,1976,1588858883213931439,,0.499225541417,-0.199296289229,0.212622344245
1588858883217022536,1977,1588858883216941647,,0.499225232448,-0.199291149199,0.212620407421
1588858883220116307,1978,1588858883219985318,,0.499225114692,-0.199286959627,0.212616989241
1588858883223089431,1979,1588858883222984944,,0.499224739825,-0.199282992177,0.212613556662
1588858883228995521,1980,1588858883228880005,,0.499224502971,-0.199278770955,0.212610537195
1588858883232056603,1981,1588858883231918603,,0.499224269416,-0.199273344291,0.212607242307
1588858883238063145,1982,1588858883237916952,,0.499224566167,-0.199268854951,0.212603844947
1588858883241150265,1983,1588858883240940787,,0.499223600692,-0.199264283429,0.212600563552
1588858883247027110,1984,1588858883246906456,,0.499223508155,-0.199253844142,0.212594188916
1588858883253244779,1985,1588858883253029718,,0.499223108093,-0.199248650253,0.212591337018
1588858883256075358,1986,1588858883255971531,,0.499223421224,-0.199241943144,0.212588036938
1588858883262030485,1987,1588858883261911806,,0.499223780607,-0.199237153346,0.212585534283
1588858883265033443,1988,1588858883264917630,,0.499223594165,-0.199230050655,0.212582502457
1588858883268036949,1989,1588858883267880801,,0.499224289748,-0.199226978481,0.212579737454
1588858883274026919,1990,1588858883273909229,,0.499224796528,-0.199220326292,0.212577673558
1588858883277114608,1991,1588858883276960907,,0.499225432216,-0.19921700936,0.212576153719
1588858883283124258,1992,1588858883282981248,,0.49922552192,-0.199214384441,0.212573053875
1588858883286505039,1993,1588858883286324930,,0.499226308321,-0.199211588263,0.212572001256
1588858883292205464,1994,1588858883291989023,,0.499226591811,-0.199210011533,0.21256919804
1588858883295055532,1995,1588858883294941309,,0.499227265138,-0.199209596025,0.212568523773
1588858883298044277,1996,1588858883297916249,,0.499228113403,-0.199208644869,0.212567167784
1588858883301209403,1997,1588858883300933874,,0.499228190236,-0.19920850107,0.212565696815
1588858883304146878,1998,1588858883303956347,,0.499229154168,-0.199209005499,0.212564848774
1588858883310219225,1999,1588858883309985437,,0.499229038808,-0.199208783436,0.212561805687
1588858883313145424,2000,1588858883312987918,,0.49922945592,-0.199212043755,0.212561449411
1588858883316107615,2001,1588858883315952040,,0.49922996623,-0.199211924978,0.21255873237
1588858883322172803,2002,1588858883322062569,,0.499230063446,-0.199212734466,0.212557617174
1588858883325215080,2003,1588858883324994680,,0.499230380261,-0.19921437734,0.212555983107
1588858883328145851,2004,1588858883328018876,,0.499230775819,-0.199215769161,0.212553762882
1588858883334078801,2005,1588858883333944948,,0.499230507326,-0.199217623538,0.21255144117
1588858883337059152,2006,1588858883336917385,,0.499230792642,-0.199218893516,0.212549497049
1588858883340011164,2007,1588858883339893457,,0.499230648138,-0.199220646377,0.212547449937
1588858883346115312,2008,1588858883345969278,,0.499230774164,-0.199223071208,0.212545779159
1588858883349159401,2009,1588858883349024442,,0.499230977865,-0.199223785521,0.212543232763
1588858883352031650,2010,1588858883351932132,,0.499231071067,-0.19922551224,0.212541543959
1588858883357977398,2011,1588858883357874339,,0.499230971484,-0.199227736571,0.212539811787
1588858883362281085,2012,1588858883362141319,,0.499231750395,-0.199229240277,0.212538230453
1588858883367137826,2013,1588858883366920734,,0.499231637976,-0.199231520027,0.212536170978
1588858883370009487,2014,1588858883369862908,,0.499231104185,-0.199234671271,0.212533009418
1588858883373063700,2015,1588858883372938652,,0.499231304855,-0.199236230775,0.212531548877
1588858883376092943,2016,1588858883376017978,,0.499231846981,-0.199239116093,0.212529939534
1588858883382102163,2017,1588858883381964700,,0.499231387863,-0.199241759681,0.212527346928
1588858883385136497,2018,1588858883384989464,,0.499231183049,-0.199245684622,0.212524810572
1588858883391142472,2019,1588858883390984259,,0.499230813436,-0.199248922502,0.212522548756
1588858883394216268,2020,1588858883394029721,,0.499230730957,-0.199252668449,0.212520117331
1588858883397208708,2021,1588858883397084122,,0.499230196732,-0.19925588216,0.212517457512
1588858883400094351,2022,1588858883399947733,,0.499230202031,-0.199259338288,0.212515864829
1588858883406085930,2023,1588858883405928093,,0.499229188289,-0.19926330648,0.21251343328
1588858883409050769,2024,1588858883408945042,,0.499229096225,-0.199265278017,0.212511221254
1588858883415077127,2025,1588858883414963164,,0.49922919579,-0.199270483493,0.212509260291
1588858883418133370,2026,1588858883417983214,,0.499228778263,-0.199273596438,0.21250716817
1588858883421132791,2027,1588858883420963564,,0.499228822058,-0.199277241292,0.212505310092
1588858883427044892,2028,1588858883426949911,,0.499229053612,-0.19928124819,0.212503666702
1588858883430083106,2029,1588858883429970025,,0.499228923875,-0.199284828002,0.212500828259
1588858883433184989,2030,1588858883432987065,,0.499228807266,-0.199289547845,0.212499983934
1588858883439075250,2031,1588858883438944771,,0.499229034022,-0.199293381912,0.212498920724
1588858883442099711,2032,1588858883441979344,,0.499229285005,-0.199298694612,0.212497972144
1588858883445180538,2033,1588858883444954106,,0.499229616625,-0.199302296764,0.212497620335
1588858883451094462,2034,1588858883450915979,,0.499230226011,-0.199306683493,0.212498458566
1588858883457183645,2035,1588858883456968199,,0.499230440987,-0.199311751637,0.212497536251
1588858883460055543,2036,1588858883459950096,,0.499231234038,-0.199316617787,0.212499609216
1588858883463119307,2037,1588858883462941581,,0.499231720034,-0.199320024968,0.212500246831
1588858883466074545,2038,1588858883465975169,,0.499231297322,-0.199323697724,0.212499707395
1588858883469107573,2039,1588858883468955956,,0.499232421356,-0.199326877475,0.212501390366
1588858883475179856,2040,1588858883474990218,,0.499232306462,-0.199327494145,0.212500901228
1588858883478157896,2041,1588858883477957927,,0.499232049754,-0.199329862795,0.212499811057
1588858883481185758,2042,1588858883481007466,,0.499232534479,-0.199330567817,0.212499925965
1588858883487291224,2043,1588858883487182888,,0.49923244368,-0.199332508727,0.212498601361
1588858883490409122,2044,1588858883490261801,,0.499232481786,-0.199333016325,0.212498369706
1588858883496276425,2045,1588858883496053652,,0.499232734742,-0.199334560421,0.212496981771
1588858883499138658,2046,1588858883498975545,,0.499232739884,-0.199334322309,0.212494733078
1588858883502132413,2047,1588858883501993292,,0.499233367581,-0.199335659116,0.212494912419
1588858883505038307,2048,1588858883504960697,,0.499233261852,-0.199335402709,0.212492308318
1588858883511112377,2049,1588858883511002659,,0.499233544731,-0.199337016133,0.212491217682
1588858883514135554,2050,1588858883514005490,,0.499234154538,-0.199336771113,0.212489207946
1588858883517068484,2051,1588858883516962421,,0.499234546241,-0.199336601088,0.212487827196
1588858883523083645,2052,1588858883522980069,,0.499234838314,-0.199337804461,0.212485909474
1588858883526091492,2053,1588858883525976559,,0.499234933979,-0.199336739421,0.212483299378
1588858883532171264,2054,1588858883532005871,,0.499235290583,-0.199335959843,0.212480764983
1588858883535082069,2055,1588858883534917287,,0.49923587145,-0.199335039184,0.212478718702
1588858883538021081,2056,1588858883537943270,,0.499235765849,-0.199334310802,0.212476538737
1588858883547113406,2057,1588858883546985707,,0.49923796518,-0.199330139443,0.212472888744
1588858883553201591,2058,1588858883553035949,,0.499238424701,-0.199328809061,0.212469484647
1588858883556094105,2059,1588858883555979851,,0.499238946258,-0.199326965721,0.212466404641
1588858883559061864,2060,1588858883558925851,,0.499240097598,-0.199322468701,0.212464171187
1588858883562057824,2061,1588858883561940690,,0.499241479655,-0.199320147667,0.212460500279
1588858883568174001,2062,1588858883568005066,,0.49924286167,-0.199315287015,0.212457364574
1588858883571131472,2063,1588858883571010784,,0.499244161479,-0.199309446971,0.212453309421
1588858883577149522,2064,1588858883577025256,,0.499245879935,-0.199304419911,0.212450266945
1588858883580135252,2065,1588858883579993104,,0.499248367332,-0.199293979269,0.212446837421
1588858883583115597,2066,1588858883582972490,,0.499249945758,-0.199281216778,0.212440856758
1588858883586459584,2067,1588858883586357544,,0.499251681878,-0.19926772259,0.21243462203
1588858883592089363,2068,1588858883591974027,,0.49925448889,-0.199255799679,0.212431006304
1588858883595085775,2069,1588858883594969028,,0.499256577398,-0.199242906175,0.212427103794
1588858883601117880,2070,1588858883601023116,,0.499258937043,-0.199230250688,0.212423077384
1588858883607173900,2071,1588858883607009651,,0.499263423921,-0.19920051038,0.212414402051
1588858883610145455,2072,1588858883610046932,,0.499265903989,-0.199184581283,0.212409702163
1588858883616125487,2073,1588858883615992204,,0.499267773221,-0.199167827562,0.212404455833
1588858883619257320,2074,1588858883619027229,,0.499269330159,-0.199152407769,0.212399043442
1588858883625118760,2075,1588858883624969863,,0.499269929298,-0.199138526107,0.212392590806
1588858883628146286,2076,1588858883628025556,,0.499269089752,-0.199124625918,0.212385222468
1588858883631089094,2077,1588858883630990269,,0.499268996295,-0.199110807876,0.212378806686
1588858883634094884,2078,1588858883633992173,,0.49926848896,-0.199099628384,0.212370933834
1588858883640130796,2079,1588858883640027898,,0.499267229742,-0.199086712397,0.212364352149
1588858883643161250,2080,1588858883643024274,,0.499266228529,-0.199074135531,0.212356776017
1588858883649182796,2081,1588858883649075120,,0.499264307643,-0.199064235208,0.212349168167
1588858883652108229,2082,1588858883652006593,,0.499262923988,-0.199052489101,0.212341213406
1588858883655145727,2083,1588858883655030352,,0.499261119085,-0.199041435002,0.212333613985
1588858883658163895,2084,1588858883658018327,,0.499259092741,-0.199031163063,0.212325310706
1588858883667123167,2085,1588858883666994801,,0.499255175633,-0.199010628839,0.212309678738
1588858883673113263,2086,1588858883673006625,,0.499253377449,-0.198998960162,0.212302178382
1588858883676125081,2087,1588858883676022686,,0.499252314926,-0.198989053261,0.212295174488
1588858883679125325,2088,1588858883679021088,,0.499251181716,-0.198978706168,0.212288213395
1588858883685181632,2089,1588858883685061366,,0.499249632671,-0.198965782741,0.212281264216
1588858883688363411,2090,1588858883688177493,,0.49924881405,-0.198954766587,0.212275917379
1588858883691090902,2091,1588858883690992457,,0.499247307042,-0.198943623504,0.212268487479
1588858883697257572,2092,1588858883697034638,,0.49924616673,-0.198932948348,0.212262555879
1588858883700203018,2093,1588858883700025296,,0.499244843673,-0.198920336225,0.212257524472
1588858883703083718,2094,1588858883702969326,,0.49924354655,-0.198904906802,0.212251138538
1588858883709097213,2095,1588858883708973395,,0.499242459602,-0.198892692903,0.212246928929
1588858883712078733,2096,1588858883711959210,,0.4992409727,-0.198876991168,0.212242018998
1588858883715262876,2097,1588858883715069951,,0.499239175907,-0.198863391974,0.212236761378
1588858883721140637,2098,1588858883721026338,,0.499237303384,-0.198846920609,0.21223466536
1588858883724220637,2099,1588858883724103104,,0.49923454764,-0.198829772232,0.212231703999
1588858883727213139,2100,1588858883727101892,,0.499233064374,-0.198814413927,0.212229437806
1588858883733164884,2101,1588858883733032287,,0.499231653708,-0.198800451573,0.212226257285
1588858883736121904,2102,1588858883735996715,,0.499229501297,-0.198784079133,0.212223491328
1588858883739172828,2103,1588858883739022539,,0.499228212408,-0.198770715002,0.212221474518
1588858883745147254,2104,1588858883745046454,,0.499227062284,-0.198754695805,0.212220678026
1588858883748164346,2105,1588858883748074984,,0.499226410329,-0.198738786373,0.212221346829
1588858883751183996,2106,1588858883751075812,,0.499224925145,-0.198722463143,0.212220400345
1588858883757221982,2107,1588858883757085112,,0.499223664716,-0.198706472549,0.212219739906
1588858883763153440,2108,1588858883763024275,,0.499222595952,-0.198690214539,0.212217791145
1588858883769172608,2109,1588858883769040991,,0.499222359903,-0.198673705132,0.212216607818
1588858883772157222,2110,1588858883772000237,,0.499223082047,-0.19865717332,0.212217886569
1588858883775214209,2111,1588858883775050986,,0.499222519241,-0.198639868544,0.212215428282
1588858883778237326,2112,1588858883778045531,,0.499223032103,-0.198622049295,0.212215350464
1588858883781183682,2113,1588858883781037606,,0.499223119174,-0.198606008905,0.212213858871
1588858883787346374,2114,1588858883787225707,,0.499223305943,-0.198588461827,0.212213825345
1588858883790378250,2115,1588858883790271575,,0.499223320036,-0.198572646326,0.21221283951
1588858883793224827,2116,1588858883793061668,,0.499223245633,-0.198555517937,0.212212709053
1588858883796204385,2117,1588858883796014068,,0.499222847341,-0.198537017659,0.212210965106
1588858883802133582,2118,1588858883801940402,,0.499222207189,-0.198517897362,0.212208368494
1588858883805071254,2119,1588858883804981612,,0.499221192841,-0.198502329119,0.212206306904
1588858883808184443,2120,1588858883808047981,,0.499221127837,-0.198485512554,0.2122063056
1588858883814165701,2121,1588858883814038218,,0.499220388968,-0.198469919461,0.212205902161
1588858883817161410,2122,1588858883816963796,,0.499219501886,-0.198454646649,0.212204882392
1588858883820163342,2123,1588858883820034539,,0.499218490506,-0.198436643928,0.2122024301
1588858883826206785,2124,1588858883826039106,,0.49921704418,-0.19841741971,0.212200316099
1588858883829197387,2125,1588858883829058020,,0.499216666303,-0.198402011757,0.212197797408
1588858883832206089,2126,1588858883832057280,,0.499216532232,-0.198385121128,0.212195710433
1588858883838150476,2127,1588858883838032232,,0.499216169986,-0.198369369739,0.212194121719
1588858883841109212,2128,1588858883841004228,,0.499215398605,-0.198352650376,0.212191767541
1588858883850242776,2129,1588858883850070178,,0.499213524421,-0.198321030168,0.212186042182
1588858883853135370,2130,1588858883853041870,,0.499213101755,-0.19830343797,0.212184762021
1588858883859234021,2131,1588858883859120037,,0.499212470027,-0.198282959271,0.212182927549
1588858883865265107,2132,1588858883865144927,,0.499212878241,-0.198262801364,0.212181910803
1588858883871225698,2133,1588858883871082495,,0.499212815387,-0.198244113213,0.212179543052
1588858883874225352,2134,1588858883874028541,,0.499212911399,-0.198225291993,0.212176977044
1588858883877185601,2135,1588858883877047824,,0.499211831606,-0.198207512809,0.212172852581
1588858883880140132,2136,1588858883880023894,,0.499212481424,-0.198192963057,0.212170071292
1588858883883151188,2137,1588858883883028085,,0.499213104055,-0.198174886657,0.212167890701
1588858883886562403,2138,1588858883886459345,,0.499212877795,-0.198153453194,0.212163132908
1588858883892265669,2139,1588858883892148219,,0.49921329066,-0.19813320991,0.212161413824
1588858883898211540,2140,1588858883898106308,,0.499213642096,-0.198114204023,0.212158913006
1588858883901227763,2141,1588858883901087284,,0.499214924541,-0.198092350333,0.212156176496
1588858883907192508,2142,1588858883907065413,,0.499216381042,-0.198052958586,0.212148247071
1588858883910178775,2143,1588858883910016014,,0.499216949818,-0.198034660907,0.212142481449
1588858883913204760,2144,1588858883913081813,,0.499217921569,-0.198015749881,0.212137378907
1588858883916158714,2145,1588858883916050022,,0.499218143697,-0.19799689097,0.212133932546
1588858883922234553,2146,1588858883922062418,,0.499219089564,-0.197978021841,0.212130060688
1588858883925252073,2147,1588858883925088497,,0.49921964518,-0.197957143516,0.212125857565
1588858883931205159,2148,1588858883931050204,,0.499220133987,-0.197937002408,0.212122380141
1588858883934165354,2149,1588858883934042345,,0.499220515402,-0.197921165798,0.212120814892
1588858883940220123,2150,1588858883940039055,,0.499220809928,-0.197897572577,0.212116661146
1588858883943144173,2151,1588858883943052058,,0.499221516645,-0.197872096556,0.212112944788
1588858883946178667,2152,1588858883946044363,,0.499221879213,-0.197851938068,0.212109431246
1588858883949263764,2153,1588858883949044659,,0.499223514794,-0.19782895879,0.212107582374
1588858883955222703,2154,1588858883955025745,,0.49922305605,-0.197808280154,0.212103767941
1588858883958143126,2155,1588858883958038246,,0.499223853459,-0.197783538384,0.212101434375
1588858883964386159,2156,1588858883964254449,,0.499224324741,-0.197758075134,0.212098564517
1588858883967187825,2157,1588858883967087346,,0.499225124261,-0.197733736833,0.212095871172
1588858883970186366,2158,1588858883970063160,,0.499225399228,-0.197708434838,0.212093924794
1588858883973163465,2159,1588858883973050992,,0.499224908527,-0.197684086063,0.2120912437
1588858883979248062,2160,1588858883979077220,,0.499224209707,-0.197657863689,0.212087505024
1588858883982239294,2161,1588858883982094906,,0.499223797877,-0.197631947876,0.212082794697
1588858883988294110,2162,1588858883988176450,,0.499224058727,-0.197607528887,0.212079037406
1588858883991139727,2163,1588858883991022192,,0.499224960268,-0.197580098045,0.212076147517
1588858883994244068,2164,1588858883994089119,,0.499224809732,-0.197553018615,0.212069688549
1588858883997287108,2165,1588858883997080485,,0.499224813303,-0.197526869436,0.212066221941
1588858884003141828,2166,1588858884003032829,,0.499224799485,-0.197499851384,0.212063119008
1588858884006229730,2167,1588858884006081204,,0.499225021095,-0.197473157825,0.212061096452
1588858884012238526,2168,1588858884012087053,,0.499223915673,-0.197448785838,0.212055667592
1588858884015143486,2169,1588858884015012941,,0.49922331845,-0.197422349316,0.212052125108
1588858884018140394,2170,1588858884018054356,,0.499223247444,-0.197394397706,0.212048594578
1588858884021210454,2171,1588858884021071375,,0.499223180771,-0.197366905742,0.212044635689
1588858884027199250,2172,1588858884027047946,,0.499223564219,-0.197340916972,0.212042761451
1588858884030333530,2173,1588858884030064926,,0.499223427986,-0.197312975387,0.212038105066
1588858884036231502,2174,1588858884036050261,,0.499223655982,-0.197288986653,0.212034547428
1588858884039239742,2175,1588858884039077061,,0.499224193759,-0.197264279977,0.212033179781
1588858884042208050,2176,1588858884042088793,,0.499224640286,-0.197235595559,0.212029668305
1588858884045118562,2177,1588858884045005604,,0.499223650956,-0.197209145184,0.212024736408
1588858884051378196,2178,1588858884051202337,,0.499223656353,-0.197182562922,0.212020107692
1588858884054282352,2179,1588858884054083260,,0.499223119772,-0.197152453907,0.212015238099
1588858884060235521,2180,1588858884060036737,,0.499222965119,-0.197124084985,0.212012016677
1588858884063133423,2181,1588858884063037225,,0.499223622153,-0.197095223829,0.21200831659
1588858884066141198,2182,1588858884066009463,,0.499223660454,-0.197068648419,0.21200386273
1588858884072161965,2183,1588858884072039359,,0.49922350432,-0.197042211072,0.211997570645
1588858884075258348,2184,1588858884075085644,,0.499223376415,-0.197012022952,0.211993584004
1588858884078210412,2185,1588858884078096571,,0.499223726358,-0.196982686066,0.21199134988
1588858884084356574,2186,1588858884084208565,,0.499224191774,-0.196950680482,0.211988127532
1588858884087372073,2187,1588858884087250304,,0.499223914418,-0.196922215767,0.211983916857
1588858884090471996,2188,1588858884090379682,,0.499224035722,-0.196892249784,0.211980299952
1588858884096184265,2189,1588858884096045402,,0.499223334392,-0.196861094072,0.211977907731
1588858884099183696,2190,1588858884099054627,,0.499223473225,-0.196831580562,0.21197525878
1588858884102145889,2191,1588858884102020694,,0.499224175252,-0.196803686094,0.211972396913
1588858884108253033,2192,1588858884108097872,,0.499224659001,-0.196772638523,0.211967376044
1588858884111150978,2193,1588858884111066671,,0.499225875549,-0.196741475336,0.211965688933
1588858884114165313,2194,1588858884114076115,,0.499225664153,-0.196711346099,0.211962943473
1588858884120165975,2195,1588858884120083541,,0.499226945015,-0.196682684243,0.211959450732
1588858884123124684,2196,1588858884123002184,,0.499228000855,-0.196654265722,0.211957393892
1588858884126097964,2197,1588858884125973900,,0.499229405165,-0.196622862946,0.21195569163
1588858884132177903,2198,1588858884131997110,,0.499229567171,-0.196592287445,0.21195187565
1588858884135133022,2199,1588858884134990930,,0.4992304712,-0.196564056827,0.211948634699
1588858884138203068,2200,1588858884138088926,,0.499231114502,-0.196535953384,0.21194601127
1588858884144262000,2201,1588858884144186623,,0.499232246082,-0.196505740724,0.21194480215
1588858884147192990,2202,1588858884147069492,,0.49923303554,-0.196475716714,0.211941742088
1588858884150256929,2203,1588858884150129989,,0.499233717419,-0.196444841351,0.211939342476
1588858884156196110,2204,1588858884156051000,,0.499235407739,-0.196413603882,0.211936873462
1588858884159170449,2205,1588858884159023628,,0.499237045661,-0.196384146689,0.211934613985
1588858884162220698,2206,1588858884162060691,,0.499238482966,-0.19635434989,0.211931273501
1588858884168192764,2207,1588858884168060914,,0.499239459927,-0.196322494184,0.211928112621
1588858884171136441,2208,1588858884171047005,,0.499240903158,-0.196291293138,0.211926546466
1588858884174145912,2209,1588858884173997300,,0.499243001536,-0.19625840729,0.211922269697
1588858884183322370,2210,1588858884183153742,,0.49924372032,-0.196225978114,0.211917503161
1588858884186603074,2211,1588858884186456496,,0.499245413404,-0.196190798392,0.211914295373
1588858884189549826,2212,1588858884189404743,,0.499247166807,-0.196158542699,0.211913255034
1588858884192152149,2213,1588858884192050246,,0.499249103038,-0.19612303781,0.211911329763
1588858884195257680,2214,1588858884195034774,,0.499250768503,-0.196088250032,0.211908414756
1588858884201217424,2215,1588858884201096811,,0.49925224997,-0.196056022299,0.211906181144
1588858884204305359,2216,1588858884204216135,,0.499253135727,-0.196019033193,0.211902770716
1588858884207207476,2217,1588858884207068800,,0.499254828924,-0.195985822195,0.211898115522
1588858884213208303,2218,1588858884213030268,,0.499258248133,-0.195948396186,0.211895714488
1588858884216128276,2219,1588858884216000441,,0.499259148766,-0.195912540726,0.211890764819
1588858884219100108,2220,1588858884219002065,,0.499261109674,-0.195877567232,0.211888358764
1588858884225176158,2221,1588858884225067049,,0.499262871087,-0.195842060336,0.211884903466
1588858884228208147,2222,1588858884228082074,,0.4992636346,-0.195802884367,0.211880103331
1588858884231138267,2223,1588858884231046093,,0.499265530029,-0.195766825064,0.211877802136
1588858884237118816,2224,1588858884237036050,,0.499265916089,-0.195732263732,0.211873394345
1588858884240089889,2225,1588858884239983832,,0.499267830555,-0.195693322715,0.211869298952
1588858884243134107,2226,1588858884243012437,,0.499269156921,-0.19565632772,0.211864743239
1588858884249277822,2227,1588858884249152798,,0.499270318315,-0.195617711861,0.211861645641
1588858884252182279,2228,1588858884252019846,,0.499272275469,-0.195580577481,0.211857510443
1588858884255092906,2229,1588858884254999992,,0.499273385912,-0.195544324081,0.211852396144
1588858884261123924,2230,1588858884261015449,,0.499274866006,-0.195503142711,0.211847953669
1588858884267201061,2231,1588858884267092127,,0.499278261102,-0.195426534756,0.2118426013
1588858884273191033,2232,1588858884273101699,,0.499280099609,-0.195385401382,0.211837205207
1588858884276325568,2233,1588858884276139403,,0.499282520843,-0.195344047005,0.211834867704
1588858884279299172,2234,1588858884279182741,,0.499283867498,-0.1953038913,0.211830618133
1588858884285228112,2235,1588858884285123091,,0.499285940463,-0.195267072756,0.211827359311
1588858884288378519,2236,1588858884288282618,,0.499288178231,-0.195226406122,0.211824773161
1588858884291122073,2237,1588858884291020050,,0.499290208737,-0.195183761881,0.211819602194
1588858884303300405,2238,1588858884303150901,,0.49929488792,-0.195110987854,0.211814219919
1588858884306226738,2239,1588858884306102671,,0.499297973277,-0.195065606664,0.211809061237
1588858884309339482,2240,1588858884309152850,,0.499299410723,-0.195037243923,0.211805438595
1588858884312256298,2241,1588858884312110159,,0.499301660142,-0.194995757817,0.211801388366
1588858884315260637,2242,1588858884315134412,,0.499304539652,-0.19495127688,0.211797263678
1588858884321258006,2243,1588858884321097576,,0.499307754489,-0.194913268706,0.211794608665
1588858884324311013,2244,1588858884324235714,,0.49931008238,-0.19487266984,0.211789059401
1588858884330251220,2245,1588858884330134471,,0.499313378516,-0.194845389478,0.211787144744
1588858884333168690,2246,1588858884333078000,,0.499315412659,-0.194814779474,0.211785812225
1588858884336212247,2247,1588858884336111405,,0.49931770306,-0.194777258089,0.211782215954
1588858884342184996,2248,1588858884342072269,,0.49932041553,-0.194741092631,0.211778657114
1588858884345249202,2249,1588858884345088077,,0.499321999409,-0.194710937475,0.211775609391
1588858884351279248,2250,1588858884351143889,,0.499324861722,-0.194672873302,0.211773084549
1588858884354165530,2251,1588858884354036431,,0.49932853799,-0.194630046745,0.211769886185
1588858884357308069,2252,1588858884357109771,,0.499331404943,-0.194594420503,0.211766594965
1588858884360172484,2253,1588858884360104505,,0.49933473276,-0.194558945864,0.211763040265
1588858884366184296,2254,1588858884366095095,,0.499337545059,-0.19452438933,0.211758786372
1588858884369286818,2255,1588858884369057160,,0.499340314093,-0.194492714959,0.21175586584
1588858884375344328,2256,1588858884375165320,,0.499341999175,-0.194454392597,0.211751451845
1588858884378234411,2257,1588858884378146372,,0.499346694974,-0.194413392751,0.211749886689
1588858884381242174,2258,1588858884381150023,,0.499349284805,-0.194373901081,0.211745452597
1588858884390673896,2259,1588858884390433991,,0.499355861486,-0.194292319664,0.211735167704
1588858884393224069,2260,1588858884393108441,,0.499359886733,-0.194247547058,0.211733104848
1588858884399189130,2261,1588858884399065325,,0.499365026098,-0.194202865442,0.211734689776
1588858884402308999,2262,1588858884402198387,,0.499367049855,-0.194158647633,0.211729113293
1588858884405280339,2263,1588858884405127050,,0.499370836169,-0.194116930734,0.211726820292
1588858884408244790,2264,1588858884408103135,,0.499376174109,-0.194066587018,0.211722756778
1588858884414287111,2265,1588858884414144820,,0.499379416403,-0.19402241663,0.211719593067
1588858884417265909,2266,1588858884417077694,,0.499382071497,-0.19398518581,0.211716807631
1588858884423169807,2267,1588858884423052526,,0.499386572079,-0.193939561666,0.211715403838
1588858884426130925,2268,1588858884426049458,,0.499391706391,-0.193886572253,0.211712974299
1588858884429223084,2269,1588858884429087215,,0.499393414553,-0.19384803362,0.211709346881
1588858884432237152,2270,1588858884432042403,,0.499396653036,-0.193803939682,0.211705033536
1588858884438138223,2271,1588858884438063004,,0.499400751751,-0.193754986622,0.211701148464
1588858884441214116,2272,1588858884441110662,,0.499405655487,-0.193710640896,0.211697005222
1588858884447202522,2273,1588858884447089337,,0.499408407018,-0.193665906018,0.211692057323
1588858884450118932,2274,1588858884450032371,,0.499412388155,-0.193623628698,0.21168685232
1588858884453071325,2275,1588858884453002378,,0.499415924295,-0.193584024252,0.211683187592
1588858884459214346,2276,1588858884459057370,,0.499419755679,-0.193539957573,0.211678991156
1588858884462133103,2277,1588858884462043945,,0.499422883608,-0.193494846266,0.211675734656
1588858884465168488,2278,1588858884465017443,,0.499425976766,-0.19344924722,0.211670093658
1588858884471250071,2279,1588858884471059114,,0.499429602724,-0.193405751933,0.211667159964
1588858884474193050,2280,1588858884474073860,,0.499433212251,-0.193359261108,0.211663541538
1588858884483257460,2281,1588858884483082352,,0.499441224293,-0.19326352238,0.211654765286
1588858884486646739,2282,1588858884486526810,,0.499446163894,-0.19321372668,0.211651895965
1588858884489529721,2283,1588858884489423190,,0.499449946443,-0.193164418335,0.211645960423
1588858884495208769,2284,1588858884495096170,,0.499454347465,-0.193114907844,0.211642372276
1588858884498282999,2285,1588858884498090350,,0.499457792953,-0.193060179384,0.211636963425
1588858884501344961,2286,1588858884501115134,,0.499462079856,-0.19300696862,0.211632172133
1588858884507231948,2287,1588858884507039425,,0.499466306767,-0.192955244418,0.21162901098
1588858884510196432,2288,1588858884510080557,,0.499468558606,-0.192910347211,0.211622759403
1588858884513161939,2289,1588858884513069725,,0.499472638082,-0.192854017417,0.2116197819
1588858884519242521,2290,1588858884519080517,,0.499477069999,-0.192794584428,0.211616205139
1588858884522167619,2291,1588858884522036343,,0.499479522889,-0.19274759726,0.211614163173
1588858884525170545,2292,1588858884525042292,,0.499483719576,-0.192693848692,0.211609426403
1588858884531379266,2293,1588858884531240550,,0.499487476699,-0.192637534063,0.211602463207
1588858884534267766,2294,1588858884534148463,,0.499491811085,-0.192587179832,0.211600219594
1588858884537380284,2295,1588858884537212489,,0.499495947126,-0.192532833661,0.211599465551
1588858884543201757,2296,1588858884543090131,,0.499500514635,-0.192489493431,0.21159494468
1588858884546279083,2297,1588858884546134438,,0.499503799355,-0.192442712528,0.211589144749
1588858884549279426,2298,1588858884549135546,,0.499507404519,-0.1923944401,0.211584723992
1588858884555270987,2299,1588858884555118757,,0.499511758651,-0.192347159866,0.211581841604
1588858884558200304,2300,1588858884558066044,,0.499515409867,-0.192301502606,0.211576617346
1588858884561177084,2301,1588858884561062593,,0.499519576565,-0.192254375062,0.211572149201
1588858884567372697,2302,1588858884567238891,,0.499523789223,-0.192207708228,0.211566482635
1588858884570227755,2303,1588858884570108153,,0.499527973435,-0.19216064943,0.21156058334
1588858884576260152,2304,1588858884576126791,,0.499531878929,-0.192110991179,0.21155442734
1588858884579256409,2305,1588858884579139351,,0.499536180343,-0.192062441106,0.211548786698
1588858884582285885,2306,1588858884582160540,,0.49954015561,-0.19201247381,0.211544064798
1588858884585264603,2307,1588858884585148994,,0.499544136186,-0.191963488129,0.211538640014
1588858884591325743,2308,1588858884591209371,,0.499547542037,-0.191912080748,0.211532722991
1588858884594312363,2309,1588858884594150802,,0.499551747284,-0.19185490397,0.211527925786
1588858884600311373,2310,1588858884600213684,,0.499554888673,-0.191799913561,0.21152220991
1588858884603223342,2311,1588858884603152394,,0.499559116649,-0.191746103146,0.211514617096
1588858884606270155,2312,1588858884606145003,,0.49956351633,-0.191691742261,0.211511086703
1588858884612281629,2313,1588858884612173434,,0.499567915386,-0.191629829015,0.211506108958
1588858884615372074,2314,1588858884615209598,,0.499570834397,-0.191573769356,0.211500400724
1588858884618258045,2315,1588858884618168720,,0.499575570956,-0.191515457328,0.211494105846
1588858884624206555,2316,1588858884624099940,,0.499579280666,-0.191456389001,0.211487549229
1588858884627265505,2317,1588858884627124636,,0.499583133033,-0.191403015766,0.211482668696
1588858884630314632,2318,1588858884630133576,,0.49958804441,-0.191342960686,0.2114783612
1588858884636337088,2319,1588858884636153275,,0.499592267751,-0.191287740851,0.211471411017
1588858884639268270,2320,1588858884639146356,,0.499594077292,-0.191238626049,0.211465334227
1588858884642294656,2321,1588858884642192830,,0.499598347642,-0.191178276772,0.211459742576
1588858884648237008,2322,1588858884648130287,,0.499601925103,-0.191128453333,0.211453191235
1588858884651376104,2323,1588858884651171107,,0.499603656859,-0.191080819262,0.211446967721
1588858884654307295,2324,1588858884654216659,,0.499606466669,-0.191025167146,0.211441674535
1588858884660230530,2325,1588858884660086194,,0.499611020694,-0.190973221896,0.211435275494
1588858884666229073,2326,1588858884666136580,,0.499614376673,-0.190925130692,0.211431428799
1588858884669189692,2327,1588858884669095494,,0.499619177827,-0.190871330742,0.211425590436
1588858884672228792,2328,1588858884672094732,,0.499622281239,-0.190819249617,0.211421508926
1588858884675215195,2329,1588858884675132277,,0.49962613481,-0.190765984894,0.211417841728
1588858884678303571,2330,1588858884678112870,,0.499631036625,-0.19071127257,0.211415347542
1588858884684291330,2331,1588858884684225755,,0.499633914673,-0.190654329458,0.211411031916
1588858884687476522,2332,1588858884687369745,,0.499636911076,-0.190603114073,0.211404557291
1588858884690604161,2333,1588858884690423600,,0.499640354348,-0.190547159762,0.211400838626
1588858884696222387,2334,1588858884696083638,,0.499643714423,-0.19049036077,0.211397111899
1588858884699295979,2335,1588858884699167731,,0.499647637116,-0.190433794521,0.211392112171
1588858884705266301,2336,1588858884705138501,,0.499650938771,-0.190376105063,0.211386067979
1588858884708300040,2337,1588858884708117714,,0.499653873283,-0.190321474563,0.211380630099
1588858884714300102,2338,1588858884714182380,,0.499657578342,-0.19026185661,0.211375595406
1588858884717282293,2339,1588858884717186506,,0.499661990025,-0.190206101673,0.211370328494
1588858884720330951,2340,1588858884720124731,,0.499666184612,-0.19014679904,0.211362900671
1588858884723306376,2341,1588858884723187239,,0.499669158432,-0.190088572147,0.211355386009
1588858884729412513,2342,1588858884729248084,,0.499673789565,-0.190030855858,0.211351813912
1588858884732340639,2343,1588858884732173448,,0.499679432721,-0.189971537049,0.211346581818
1588858884738273758,2344,1588858884738150293,,0.499681083262,-0.189913810765,0.211340033644
1588858884741271809,2345,1588858884741117360,,0.499686592134,-0.189854907807,0.211335473252
1588858884744462881,2346,1588858884744335894,,0.499690420996,-0.189795621021,0.211328795796
1588858884747334496,2347,1588858884747191002,,0.499693237902,-0.189740975184,0.211321907672
1588858884753271860,2348,1588858884753155559,,0.499698402393,-0.189682581647,0.211316177733
1588858884756391207,2349,1588858884756197346,,0.49970276337,-0.189622929594,0.211310201155
1588858884762397180,2350,1588858884762230433,,0.499707710158,-0.189566898552,0.211306022861
1588858884765410574,2351,1588858884765205857,,0.499710432919,-0.189507700215,0.211297340041
1588858884768355187,2352,1588858884768231022,,0.499714982366,-0.189453057496,0.211291656506
1588858884771290205,2353,1588858884771165536,,0.499720321713,-0.189390213417,0.211287233775
1588858884777269787,2354,1588858884777167352,,0.499723712088,-0.189332848533,0.211281625768
1588858884780329063,2355,1588858884780183681,,0.499727259612,-0.189276759111,0.211274208436
1588858884786797405,2356,1588858884786677697,,0.499732384605,-0.189221663637,0.211270648942
1588858884792350622,2357,1588858884792187802,,0.499735675783,-0.189164235584,0.211262800855
1588858884795298233,2358,1588858884795181576,,0.499738946088,-0.189107147195,0.211255963403
1588858884798245692,2359,1588858884798156324,,0.499743324969,-0.189051521638,0.211252157689
1588858884801353324,2360,1588858884801188999,,0.49974672721,-0.188997921105,0.2112472856
1588858884804469352,2361,1588858884804318990,,0.499751624913,-0.188942814608,0.211241873744
1588858884810415773,2362,1588858884810208094,,0.499756533118,-0.188885908571,0.211239343005
1588858884813466533,2363,1588858884813280366,,0.499759220697,-0.188830126571,0.211231518916
1588858884816238756,2364,1588858884816147570,,0.499764294542,-0.188776376925,0.211225815927
1588858884819361025,2365,1588858884819163520,,0.499768490129,-0.188717814361,0.211220466727
1588858884825336261,2366,1588858884825185642,,0.49977319724,-0.188666560739,0.211217764482
1588858884828302810,2367,1588858884828162137,,0.49977919965,-0.188612357957,0.211212491377
1588858884834326547,2368,1588858884834188195,,0.499782299104,-0.188558309527,0.211204543399
1588858884837298834,2369,1588858884837184289,,0.499786278522,-0.188504761355,0.211198937408
1588858884840342601,2370,1588858884840224752,,0.49979106663,-0.188445446732,0.211192956549
1588858884846440106,2371,1588858884846274586,,0.499794825469,-0.188390964,0.211185280368
1588858884849244765,2372,1588858884849141169,,0.499797781823,-0.188334941314,0.211179745258
1588858884852231998,2373,1588858884852130861,,0.499801985536,-0.188274571089,0.211175225993
1588858884858388667,2374,1588858884858218844,,0.499805834747,-0.188214985864,0.211170385254
1588858884861304587,2375,1588858884861191793,,0.499809412406,-0.188157175284,0.211165891141
1588858884864387487,2376,1588858884864247593,,0.499813143447,-0.188100622768,0.211155738159
1588858884870385465,2377,1588858884870204876,,0.499818266887,-0.188039268971,0.211149890659
1588858884873430018,2378,1588858884873233867,,0.49982305866,-0.187979377832,0.211145400273
1588858884876360301,2379,1588858884876199619,,0.499828157147,-0.187919255534,0.211141561021
1588858884882428305,2380,1588858884882240024,,0.499833755264,-0.187861374097,0.211137218541
1588858884885396978,2381,1588858884885232139,,0.49983810972,-0.187805926793,0.211131501593
1588858884888463536,2382,1588858884888309208,,0.499842746509,-0.187742717565,0.211128626681
1588858884894460817,2383,1588858884894271087,,0.499845559115,-0.187685188068,0.211123302285
1588858884900480448,2384,1588858884900279034,,0.499850603891,-0.187625440271,0.211121680228
1588858884906369837,2385,1588858884906224710,,0.49985451953,-0.187571402835,0.211114590884
1588858884912354973,2386,1588858884912194494,,0.499859003503,-0.187511648259,0.211110653394
1588858884915387755,2387,1588858884915206305,,0.499863620032,-0.187455046976,0.211107984922
1588858884918302898,2388,1588858884918168823,,0.499868097376,-0.187403346594,0.211102953843
1588858884921344559,2389,1588858884921194216,,0.499873299835,-0.18734401616,0.211097777104
1588858884924553746,2390,1588858884924453542,,0.499876824811,-0.187286434402,0.21109029997
1588858884930328043,2391,1588858884930224171,,0.499881889112,-0.187234445203,0.211085826982
1588858884936413948,2392,1588858884936244917,,0.499886311429,-0.187176915244,0.211079013569
1588858884942314837,2393,1588858884942209928,,0.499890371778,-0.187120786955,0.211075283572
1588858884945277969,2394,1588858884945143655,,0.499895157316,-0.187060518426,0.211070035573
1588858884948298269,2395,1588858884948151964,,0.499900004406,-0.187004629991,0.211063578608
1588858884951254770,2396,1588858884951142771,,0.499903436045,-0.186947128107,0.211057569938
1588858884954279261,2397,1588858884954166039,,0.499908167462,-0.186888551393,0.211054270726
1588858884960305964,2398,1588858884960204455,,0.499917301416,-0.186770087362,0.211044644441
1588858884963264123,2399,1588858884963180720,,0.499920712317,-0.18671200454,0.211039242774
1588858884966264827,2400,1588858884966172968,,0.499925417094,-0.18664988356,0.211036343954
1588858884969392322,2401,1588858884969221804,,0.49992910959,-0.186591305138,0.211030847635
1588858884972275271,2402,1588858884972179067,,0.4999335508,-0.186532694351,0.211024278944
1588858884978343281,2403,1588858884978145726,,0.499938677229,-0.186475450617,0.21102104211
1588858884981335896,2404,1588858884981172008,,0.499942016592,-0.186412140465,0.21101544777
1588858884987617157,2405,1588858884987433491,,0.499947183211,-0.186354991672,0.21101144157
1588858884993292506,2406,1588858884993185959,,0.499955751861,-0.186255938121,0.210999222581
1588858884999281314,2407,1588858884999184127,,0.499961684654,-0.186193959645,0.210993207504
1588858885002286207,2408,1588858885002195808,,0.499965262666,-0.186149842133,0.210986144085
1588858885008342619,2409,1588858885008181321,,0.499969466039,-0.186096001249,0.210982707057
1588858885011240596,2410,1588858885011134046,,0.499975577271,-0.186038122907,0.210980148882
1588858885014292163,2411,1588858885014169028,,0.499979904409,-0.185987427174,0.210974469533
1588858885017244017,2412,1588858885017160052,,0.49998350726,-0.185938579892,0.21096980146
1588858885023508829,2413,1588858885023226743,,0.499988513433,-0.18590005708,0.210967074716
1588858885026344202,2414,1588858885026193798,,0.499992775346,-0.185854122724,0.21096186016
1588858885029306809,2415,1588858885029183502,,0.49999769446,-0.185794707343,0.210956322642
1588858885035324074,2416,1588858885035159884,,0.500002141299,-0.185753671932,0.210952951886
1588858885038280554,2417,1588858885038154333,,0.500008200975,-0.185705008668,0.210950575857
1588858885041294232,2418,1588858885041128826,,0.500012777075,-0.185647755898,0.210943674083
1588858885047336841,2419,1588858885047226982,,0.500018710644,-0.185593484787,0.210938544681
1588858885050283630,2420,1588858885050169189,,0.500023107804,-0.185542447984,0.210934258749
1588858885053281319,2421,1588858885053178523,,0.500028511178,-0.185488265947,0.210929700472
1588858885059339454,2422,1588858885059207568,,0.500034019764,-0.185436304521,0.210924780961
1588858885062308463,2423,1588858885062210621,,0.500038892922,-0.185383043536,0.210918926891
1588858885065311649,2424,1588858885065187748,,0.500043593909,-0.18532462507,0.210912320865
1588858885071248717,2425,1588858885071172003,,0.500048991648,-0.185268362989,0.210907833415
1588858885074298870,2426,1588858885074178823,,0.500053276335,-0.185209197133,0.210901580304
1588858885083325183,2427,1588858885083174950,,0.500063894233,-0.185088371775,0.210891390052
1588858885086634031,2428,1588858885086562480,,0.500068741263,-0.185027841258,0.210886881874
1588858885089593827,2429,1588858885089517748,,0.500073233594,-0.184967837214,0.210879017299
1588858885095275299,2430,1588858885095198091,,0.50007799867,-0.184910248676,0.210873143724
1588858885098272853,2431,1588858885098206012,,0.50008333319,-0.184852597769,0.210867946432
1588858885104410806,2432,1588858885104270350,,0.500088039647,-0.184791285283,0.210861805874
1588858885107319067,2433,1588858885107176599,,0.500091376268,-0.184736588271,0.210855545554
1588858885110374667,2434,1588858885110264879,,0.500096867215,-0.184693999197,0.210852220733
1588858885113297623,2435,1588858885113195223,,0.500101076498,-0.184635548225,0.210845417101
1588858885119384221,2436,1588858885119237371,,0.500104368891,-0.1845805223,0.210839725559
1588858885125292293,2437,1588858885125210060,,0.500108618506,-0.184537212708,0.210835653514
1588858885128359033,2438,1588858885128186409,,0.500113971534,-0.184480534355,0.210830764086
1588858885131298185,2439,1588858885131222853,,0.500116904322,-0.184431321563,0.210823324424
1588858885134297909,2440,1588858885134213741,,0.500122307267,-0.184378666715,0.210819914444
1588858885140240024,2441,1588858885140156462,,0.500128218403,-0.184329433691,0.210817793748
1588858885143371209,2442,1588858885143248029,,0.500132484908,-0.184283267196,0.210812306845
1588858885149360587,2443,1588858885149231350,,0.500136651884,-0.184236337,0.210807031351
1588858885152392077,2444,1588858885152267971,,0.500141806146,-0.184181523406,0.210804399378
1588858885155467923,2445,1588858885155272735,,0.500145747168,-0.184130909336,0.210799841277
1588858885158363357,2446,1588858885158229748,,0.500150110185,-0.184079162084,0.210795798146
1588858885167399767,2447,1588858885167219118,,0.500158387436,-0.18396702429,0.210787537413
1588858885173318331,2448,1588858885173210767,,0.500163145302,-0.183911599915,0.21078243718
1588858885176426946,2449,1588858885176262244,,0.500167946759,-0.183852583748,0.210778087003
1588858885179290016,2450,1588858885179172928,,0.500171387516,-0.183796332711,0.210774147268
1588858885182291975,2451,1588858885182159216,,0.500176289641,-0.183734383286,0.21076841121
1588858885188439744,2452,1588858885188324550,,0.500180590735,-0.183676464214,0.210762046993
1588858885191301296,2453,1588858885191208327,,0.500184121616,-0.183619924002,0.210758021408
1588858885198025592,2454,1588858885197901466,,0.500188393687,-0.183570303888,0.210753602135
1588858885200399090,2455,1588858885200223660,,0.500191767358,-0.183513478255,0.210747754895
1588858885203482755,2456,1588858885203308034,,0.50019550766,-0.183447570096,0.210743598586
1588858885206300088,2457,1588858885206194528,,0.500198019511,-0.183404853817,0.210739064008
1588858885212404258,2458,1588858885212281643,,0.50020171103,-0.183352972443,0.210733996217
1588858885215373293,2459,1588858885215255629,,0.500207304655,-0.183296763986,0.210729931477
1588858885221353761,2460,1588858885221240556,,0.500211792557,-0.183243057186,0.210724985942
1588858885224553899,2461,1588858885224436453,,0.500216014305,-0.183198764218,0.21072227927
1588858885227342966,2462,1588858885227252189,,0.500219964235,-0.183155053063,0.210715629082
1588858885230292780,2463,1588858885230210951,,0.500224778174,-0.183108193313,0.210711413495
1588858885236430663,2464,1588858885236264958,,0.500229829401,-0.183061326179,0.210709507518
1588858885239405258,2465,1588858885239281393,,0.500232620773,-0.183011917689,0.21070388104
1588858885245379381,2466,1588858885245263688,,0.500236719453,-0.182969671523,0.210698866377
1588858885248326248,2467,1588858885248227731,,0.500241366975,-0.182922036167,0.210693259877
1588858885251330977,2468,1588858885251234236,,0.500245940744,-0.182875205219,0.210689142742
1588858885257309699,2469,1588858885257206759,,0.500249925858,-0.182823589677,0.210682204702
1588858885260322770,2470,1588858885260205785,,0.500255106417,-0.182775658662,0.210677890838
1588858885263305373,2471,1588858885263225254,,0.500259264583,-0.18272542538,0.210672274634
1588858885269413114,2472,1588858885269254746,,0.500264049339,-0.18267726927,0.210666302055
1588858885272349105,2473,1588858885272256708,,0.500269676808,-0.182625736172,0.210663110309
1588858885275298710,2474,1588858885275212416,,0.500273894221,-0.182573436247,0.21065665634
1588858885281378348,2475,1588858885281220832,,0.500278300009,-0.1825223453,0.210651915204
1588858885284408609,2476,1588858885284334451,,0.500283166728,-0.182470796754,0.21064801809
1588858885287526386,2477,1588858885287433544,,0.50028800051,-0.182418816551,0.210644591574
1588858885293379629,2478,1588858885293254132,,0.500293440619,-0.18236434869,0.210641961162
1588858885296427732,2479,1588858885296229424,,0.500298606396,-0.182314988194,0.210638450813
1588858885299306744,2480,1588858885299215565,,0.500301155486,-0.182265505801,0.21063276671
1588858885305365155,2481,1588858885305255431,,0.500306953705,-0.182210640403,0.210631051973
1588858885308296130,2482,1588858885308199115,,0.500312369469,-0.182159176965,0.210627206021
1588858885311311051,2483,1588858885311194133,,0.500316264317,-0.182112009542,0.210623795745
1588858885320376810,2484,1588858885320242236,,0.500326378173,-0.182011975401,0.210615638617
1588858885323383423,2485,1588858885323246725,,0.500330269363,-0.181966137254,0.21061142868
1588858885329291327,2486,1588858885329210432,,0.500335751836,-0.181916756962,0.210607104335
1588858885332283474,2487,1588858885332188079,,0.50034077697,-0.181868117765,0.210602591791
1588858885335400099,2488,1588858885335259623,,0.500344679499,-0.181823676792,0.210598673868
1588858885341363072,2489,1588858885341220815,,0.500348728655,-0.18177934249,0.210594310595
1588858885344435622,2490,1588858885344354882,,0.500353667393,-0.181729354467,0.210588807928
1588858885347324635,2491,1588858885347214771,,0.5003576917,-0.181692212887,0.210585893998
1588858885353320848,2492,1588858885353220124,,0.500361622336,-0.181643398704,0.210579214202
1588858885356282281,2493,1588858885356224280,,0.500367703597,-0.181592607737,0.210576518227
1588858885359255996,2494,1588858885359197802,,0.500371410268,-0.181554917834,0.21057411932
1588858885365325157,2495,1588858885365221576,,0.500376212965,-0.18150489891,0.21056993724
1588858885368269407,2496,1588858885368179052,,0.500381956077,-0.181453148766,0.210567812414
1588858885374335105,2497,1588858885374231341,,0.500387804652,-0.181405557747,0.210565438258
1588858885377289560,2498,1588858885377195512,,0.500391772507,-0.181359657785,0.210561464512
1588858885380365843,2499,1588858885380272835,,0.500397377963,-0.181314887882,0.210556018249
1588858885386760568,2500,1588858885386594869,,0.500402970535,-0.181268624893,0.210551717602
1588858885389715457,2501,1588858885389595639,,0.500407143116,-0.18122355818,0.210546479325
1588858885395427516,2502,1588858885395310510,,0.500412988864,-0.181175702309,0.210544061648
1588858885398365559,2503,1588858885398257740,,0.500417381193,-0.181128875803,0.210539924547
1588858885401372484,2504,1588858885401274190,,0.500423160906,-0.181080792739,0.210539852547
1588858885404838825,2505,1588858885404731415,,0.500427780474,-0.181033051711,0.210535578605
1588858885410434617,2506,1588858885410346215,,0.500432676805,-0.180984428874,0.210531477952
1588858885413354511,2507,1588858885413255946,,0.50043707119,-0.180941264908,0.210527555841
1588858885416354200,2508,1588858885416225967,,0.500442031847,-0.180892723851,0.210522759222
1588858885422368465,2509,1588858885422228048,,0.500446980267,-0.18084514943,0.210517805397
1588858885425408896,2510,1588858885425310245,,0.500451300558,-0.180801794395,0.210514650061
1588858885428446104,2511,1588858885428300228,,0.500456432831,-0.180753491338,0.210511695124
1588858885434486891,2512,1588858885434282746,,0.500459809315,-0.180709446445,0.21050654342
1588858885438018470,2513,1588858885437925860,,0.500464813772,-0.180656796907,0.210503977925
1588858885440447154,2514,1588858885440315972,,0.500469014417,-0.180612803338,0.210500315319
1588858885446380215,2515,1588858885446302544,,0.500473663866,-0.180565773894,0.210495850702
1588858885449524144,2516,1588858885449334778,,0.500477561672,-0.180518846745,0.210490152317
1588858885452430445,2517,1588858885452309638,,0.500481600784,-0.180469674179,0.210486253271
1588858885458353699,2518,1588858885458258805,,0.500486995247,-0.180422771916,0.210484353318
1588858885461471451,2519,1588858885461291624,,0.500491172339,-0.180379419058,0.210481982749
1588858885464508146,2520,1588858885464299103,,0.500494771673,-0.180329528034,0.210478592108
1588858885470365930,2521,1588858885470282976,,0.500498760607,-0.180284247051,0.2104747796
1588858885473386783,2522,1588858885473255227,,0.500503101505,-0.180237917008,0.210472649786
1588858885476400470,2523,1588858885476277487,,0.500507698262,-0.180190219793,0.210470408478
1588858885482428181,2524,1588858885482238659,,0.500510756986,-0.180142070251,0.210465761527
1588858885485347070,2525,1588858885485259173,,0.50051394348,-0.180098890693,0.210461905343
1588858885491398937,2526,1588858885491283736,,0.500518327908,-0.180053338007,0.210459358624
1588858885494531821,2527,1588858885494347969,,0.500522393741,-0.180008202629,0.210455912903
1588858885503522527,2528,1588858885503262857,,0.500529536473,-0.179919766202,0.210445946534
1588858885506378115,2529,1588858885506247777,,0.500533219366,-0.179874195332,0.210442260959
1588858885512404907,2530,1588858885512293778,,0.500536770855,-0.179831677471,0.210438500022
1588858885515397405,2531,1588858885515278603,,0.500540634667,-0.179786527622,0.210434339454
1588858885518338044,2532,1588858885518246602,,0.500544579608,-0.179742985389,0.210430949251
1588858885521489225,2533,1588858885521358023,,0.50054777796,-0.17970142655,0.210426502189
1588858885527367937,2534,1588858885527271375,,0.500551952404,-0.179658151453,0.210423628784
1588858885530432219,2535,1588858885530319885,,0.500555083668,-0.179621652837,0.210418080807
1588858885536449747,2536,1588858885536323611,,0.50055955254,-0.179581506686,0.210413693373
1588858885542436921,2537,1588858885542333812,,0.500563263466,-0.17953730999,0.210410102938
1588858885545509961,2538,1588858885545275945,,0.500567004497,-0.179503108861,0.210409256698
1588858885548441790,2539,1588858885548271115,,0.500569954405,-0.179462862634,0.210405136586
1588858885551613806,2540,1588858885551462118,,0.500574241412,-0.179416256052,0.210403888254
1588858885554421431,2541,1588858885554247147,,0.500577668148,-0.179374985046,0.210399932629
1588858885560413957,2542,1588858885560276961,,0.50058175984,-0.179337527917,0.210398957049
1588858885563585661,2543,1588858885563382412,,0.500585087875,-0.179298990532,0.210394678707
1588858885569477693,2544,1588858885569318419,,0.500588637954,-0.179263862878,0.210391060728
1588858885575579034,2545,1588858885575390913,,0.500591895609,-0.179227306381,0.210387044141
1588858885578456561,2546,1588858885578338478,,0.500596022088,-0.179189008456,0.210384092084
1588858885581471369,2547,1588858885581322150,,0.500599340323,-0.179153301614,0.210381891549
1588858885584783637,2548,1588858885584676904,,0.500602545706,-0.179115575313,0.210376951331
1588858885591239224,2549,1588858885591146904,,0.500606783854,-0.179079376082,0.210374791073
1588858885596433917,2550,1588858885596307429,,0.500610751869,-0.179038414564,0.210371692138
1588858885602529079,2551,1588858885602355357,,0.500614112478,-0.179004870079,0.210368340892
1588858885605476109,2552,1588858885605324946,,0.500617594361,-0.178969868036,0.21036390319
1588858885608479225,2553,1588858885608332327,,0.500622410887,-0.178931860507,0.210362150319
1588858885611510890,2554,1588858885611408081,,0.50062602753,-0.178893685503,0.210359157902
1588858885614407905,2555,1588858885614295105,,0.500629823098,-0.178856270894,0.210357307279
1588858885618142226,2556,1588858885618053976,,0.500633152794,-0.17881796037,0.210354028817
1588858885623401169,2557,1588858885623251578,,0.500636917737,-0.178781112049,0.210350567914
1588858885626479730,2558,1588858885626291049,,0.500641149639,-0.178740696008,0.210348583889
1588858885629430843,2559,1588858885629227713,,0.500645037895,-0.178702465501,0.210345367664
1588858885632389946,2560,1588858885632239785,,0.500648032171,-0.178666006275,0.2103429235
1588858885635444744,2561,1588858885635292999,,0.500652206048,-0.17862662623,0.210339722079
1588858885638402937,2562,1588858885638273922,,0.500656229758,-0.178586427241,0.210336277824
1588858885647466065,2563,1588858885647313717,,0.500663900419,-0.178512702916,0.210332089235
1588858885650437552,2564,1588858885650315830,,0.500667673793,-0.178471619867,0.210327883149
1588858885656474419,2565,1588858885656299708,,0.500671680499,-0.178431057775,0.210325277983
1588858885662460105,2566,1588858885662314059,,0.500675852044,-0.178394815823,0.2103226943
1588858885665447686,2567,1588858885665289475,,0.500678390922,-0.178359702922,0.210319803034
1588858885668490447,2568,1588858885668322209,,0.500682125805,-0.178321671364,0.210317099988
1588858885671414028,2569,1588858885671301584,,0.500686105904,-0.17828330717,0.210315306592
1588858885674485563,2570,1588858885674309685,,0.500689078514,-0.178253735034,0.21031253701
1588858885680387389,2571,1588858885680277603,,0.500692067138,-0.178223655513,0.210311290214
1588858885683388509,2572,1588858885683262800,,0.500695664675,-0.178188348841,0.210309531141
1588858885686779409,2573,1588858885686662246,,0.500698405952,-0.178157925199,0.210306547844
1588858885692448643,2574,1588858885692342102,,0.500701750883,-0.178127072031,0.210304430282
1588858885695485768,2575,1588858885695330029,,0.500704801804,-0.178092709472,0.210300774081
1588858885698420054,2576,1588858885698298120,,0.500707572833,-0.178062559244,0.210297254624
1588858885704752186,2577,1588858885704650267,,0.500710798894,-0.178031229346,0.210295343993
1588858885707417593,2578,1588858885707266266,,0.500712822772,-0.178001084808,0.210293233751
1588858885710386097,2579,1588858885710229918,,0.500715571017,-0.177970820981,0.210290471961
1588858885716371603,2580,1588858885716246830,,0.500717621305,-0.17794215472,0.210287925421
1588858885719474859,2581,1588858885719268711,,0.500720002125,-0.177911312179,0.210284547958
1588858885722402877,2582,1588858885722292763,,0.500722564461,-0.177879546455,0.210282282769
1588858885728482856,2583,1588858885728297699,,0.500724844874,-0.177850323681,0.210279684902
1588858885731646376,2584,1588858885731503260,,0.500727913423,-0.177819841828,0.210278094372
1588858885734385514,2585,1588858885734275266,,0.500731642054,-0.177783672178,0.210275190582
1588858885740407758,2586,1588858885740309193,,0.500734810034,-0.177751883023,0.210273418652
1588858885743387100,2587,1588858885743276711,,0.500737961588,-0.177721135576,0.210271983518
1588858885746424361,2588,1588858885746298102,,0.500740886658,-0.17768766236,0.210270017837
1588858885752517571,2589,1588858885752355055,,0.500743473476,-0.177652563032,0.210268256173
1588858885755450784,2590,1588858885755304751,,0.500746426822,-0.177618691867,0.21026591583
1588858885761398480,2591,1588858885761306488,,0.50074958677,-0.177587858732,0.210264975972
1588858885767416990,2592,1588858885767300236,,0.500755738029,-0.177521556665,0.21026046848
1588858885773472283,2593,1588858885773377294,,0.500758433233,-0.177489228259,0.21025610278
1588858885776421741,2594,1588858885776334653,,0.500761616379,-0.177454429849,0.210254561737
1588858885782483664,2595,1588858885782374810,,0.500764599634,-0.177422574277,0.21025182818
1588858885785413300,2596,1588858885785301263,,0.500767225739,-0.177391449574,0.210249442547
1588858885788556270,2597,1588858885788448202,,0.50077106063,-0.17735748524,0.210247568027
1588858885791551151,2598,1588858885791431533,,0.500774172537,-0.177328471787,0.210245966641
1588858885800448386,2599,1588858885800323758,,0.500778753017,-0.177274507661,0.21024027057
1588858885803548036,2600,1588858885803369229,,0.500781241328,-0.17724269946,0.210235776076
1588858885809385852,2601,1588858885809240217,,0.500783042476,-0.177215953685,0.210233370842
1588858885812464166,2602,1588858885812351970,,0.500785176488,-0.177184763253,0.210230166694
1588858885815465036,2603,1588858885815368057,,0.500787274643,-0.177153921664,0.210227010341
1588858885821478756,2604,1588858885821359280,,0.500789513565,-0.177126456589,0.210224907599
1588858885824849902,2605,1588858885824767287,,0.500791237431,-0.177100213038,0.210220964026
1588858885827472177,2606,1588858885827331928,,0.500793174232,-0.177075131214,0.21021908505
1588858885833466318,2607,1588858885833353002,,0.500794921257,-0.177049419207,0.210218137559
1588858885836432205,2608,1588858885836329888,,0.500796974469,-0.177021037072,0.210215887352
1588858885839462282,2609,1588858885839327755,,0.500798259215,-0.176996790884,0.210212913812
1588858885845400392,2610,1588858885845331908,,0.500800545758,-0.176966502923,0.210211032847
1588858885848521849,2611,1588858885848375031,,0.500802742657,-0.176934288541,0.210209488463
1588858885851478484,2612,1588858885851346256,,0.500804450667,-0.176906173401,0.21020911077
1588858885860410697,2613,1588858885860313032,,0.500807969821,-0.176850526244,0.210205090435
