%time,field.header.seq,field.header.stamp,field.header.frame_id,field.wrench.force.x,field.wrench.force.y,field.wrench.force.z,field.wrench.torque.x,field.wrench.torque.y,field.wrench.torque.z
1588856866362362046,10233,1588856866362248585,,0.162133209127,-0.506640531455,0.847075786425,0.178838951102,-0.000397768924807,-0.0446603490369
1588856866368644184,10234,1588856866368399654,,0.1400928516,-0.505990926101,0.82344410503,0.17897934358,-0.00103312589649,-0.044800447202
1588856866374619320,10235,1588856866374502173,,0.162647680007,-0.634667418703,0.826785020224,0.180853893878,-0.00103700277357,-0.0464028478525
1588856866380590206,10236,1588856866380367562,,0.162646070629,-0.634664158717,0.826787839286,0.182705965092,-0.00103963009436,-0.0472780044163
1588856866386516895,10237,1588856866386389254,,0.207052971341,-0.765750025967,0.899258411778,0.187850952908,-0.000413980812549,-0.050485328761
1588856866392560645,10238,1588856866392446585,,0.207049441206,-0.765743318019,0.899264936584,0.187851458736,-0.000412943465719,-0.0504834550827
1588856866398476865,10239,1588856866398355959,,0.184696179812,-0.895543245613,0.901182434589,0.190594074001,-0.00105627851411,-0.0506089727428
1588856866404518484,10240,1588856866404291895,,0.184704836697,-0.895543454284,0.901180452962,0.19059350561,-0.00105658859113,-0.0506111067909
1588856866410439127,10241,1588856866410281206,,0.207033162983,-0.896126157765,0.924550464647,0.19144055944,-0.000418784937993,-0.053113365022
1588856866416454360,10242,1588856866416345582,,0.206710503041,-0.896555760233,0.947521371771,0.192208918714,-0.00105899594066,-0.0531079828284
1588856866422344087,10243,1588856866422248291,,0.229541761858,-1.02714300124,0.950240220444,0.194110906254,-0.00106219708023,-0.0556079923122
1588856866428456577,10244,1588856866428353338,,0.206592192712,-1.02739096276,0.972604270331,0.195814536827,-0.00171357028326,-0.0566210172071
1588856866434454094,10245,1588856866434304941,,0.206603991694,-1.02739509037,0.972597403872,0.198609319877,-0.00171914390464,-0.0583804219984
1588856866440462928,10246,1588856866440352919,,0.229440371849,-1.15836585636,0.975127629288,0.200510974289,-0.00172225988086,-0.0608760218237
1588856866446401070,10247,1588856866446284492,,0.206766271499,-1.15822732882,0.974644798174,0.203281247951,-0.00237809211134,-0.06189597467
1588856866452413660,10248,1588856866452320714,,0.229098865107,-1.15873603324,0.997981723584,0.20594992072,-0.00173489368207,-0.0643897460743
1588856866458484454,10249,1588856866458329060,,0.228769796386,-1.15910234102,1.02084756277,0.208565956968,-0.00173921319813,-0.0652702236
1588856866464486765,10250,1588856866464378575,,0.228769231752,-1.15910064422,1.0208496159,0.208621333652,-0.00238794899647,-0.0670362881284
1588856866470451568,10251,1588856866470336962,,0.229103185609,-1.15875200811,0.997962183342,0.211538340506,-0.00239346399723,-0.0679044863196
1588856866476763297,10252,1588856866476661988,,0.229113636438,-1.15875391929,0.997957564959,0.211538408322,-0.00239115620393,-0.0679043563615
1588856866482426333,10253,1588856866482332839,,0.228776530291,-1.15911475812,1.02083195473,0.214183252403,-0.00174671893479,-0.0696705063757
1588856866488451488,10254,1588856866488344969,,0.251740628534,-1.29036165716,1.0231693511,0.216055278679,-0.0024023427479,-0.0712933084984
1588856866494476239,10255,1588856866494374597,,0.251740565059,-1.29036684635,1.02316282238,0.216111717711,-0.00240190663035,-0.073073953032
1588856866500492224,10256,1588856866500389989,,0.251397315153,-1.29070250773,1.04613387953,0.218729971931,-0.00240739450334,-0.0739471962907
1588856866506526752,10257,1588856866506415157,,0.251051365112,-1.29103132801,1.06902349922,0.22225944641,-0.00370825703522,-0.0748135957397
1588856866512432302,10258,1588856866512312672,,0.273948162595,-1.42249540052,1.07118880351,0.225067818431,-0.00306243688461,-0.0773256353498
1588856866518531952,10259,1588856866518416728,,0.273946915213,-1.42249926052,1.07118399657,0.225094908535,-0.00371414528472,-0.0782122657861
1588856866524529047,10260,1588856866524310323,,0.296483395706,-1.42294529205,1.0945441826,0.227704829224,-0.0037204646822,-0.0789480287931
1588856866530439344,10261,1588856866530340939,,0.273587121911,-1.42280929649,1.09407107602,0.229595962236,-0.00437943555515,-0.0808620254438
1588856866536386080,10262,1588856866536272768,,0.273231713994,-1.42311625186,1.11696954514,0.232266736586,-0.00438579490369,-0.0835219708104
1588856866542407261,10263,1588856866542299669,,0.318558231549,-1.42369675765,1.14092836828,0.235895603819,-0.00308700143022,-0.0876735199681
1588856866548483804,10264,1588856866548328730,,0.318567064308,-1.42368902603,1.14093554984,0.235895542535,-0.00308616633795,-0.0876737142594
1588856866554542849,10265,1588856866554405093,,0.318726836262,-1.55517517114,1.14245239577,0.236809243016,-0.00374194223371,-0.0876708890357
1588856866560488071,10266,1588856866560359520,,0.318584560962,-1.42369660705,1.14092120445,0.239627864625,-0.00440188969373,-0.0903266877713
1588856866566464876,10267,1588856866566325588,,0.341675204031,-1.55531281839,1.14292011422,0.24246273902,-0.00375225309236,-0.0937426785942
1588856866572539592,10268,1588856866572438607,,0.341113748294,-1.68749150754,1.19016850359,0.24675540784,-0.00441729970012,-0.0946216528824
1588856866578468679,10269,1588856866578298167,,0.340751184517,-1.68775359831,1.21309537021,0.249397304331,-0.00442249160399,-0.0963879301536
1588856866584471591,10270,1588856866584391580,,0.363362977949,-1.8198892678,1.23790552865,0.253008450627,-0.00443207086738,-0.0998003897698
1588856866590464676,10271,1588856866590335353,,0.38612756105,-1.68827495644,1.2370733933,0.25672736153,-0.00508749793604,-0.102323004066
1588856866596526596,10272,1588856866596384026,,0.363255136522,-1.68814044337,1.23660368978,0.258635269216,-0.0050916725869,-0.105143891406
1588856866602417292,10273,1588856866602269846,,0.385780935466,-1.68852963814,1.260016995,0.262158021646,-0.00510193331004,-0.105875744169
1588856866608533769,10274,1588856866608392880,,0.385902796793,-1.82025833605,1.26130996945,0.264032435255,-0.00576370170802,-0.107651787363
1588856866614448444,10275,1588856866614343429,,0.408897986322,-1.82038918298,1.26177984473,0.267805956227,-0.0057746919488,-0.111969155307
1588856866620438639,10276,1588856866620343880,,0.408892325142,-1.82039462576,1.2617738269,0.267805808223,-0.00577539099517,-0.111969473245
1588856866626379625,10277,1588856866626293056,,0.384794274765,-1.82098338689,1.3302792695,0.27474490782,-0.00645271309239,-0.114762395177
1588856866632551462,10278,1588856866632327658,,0.384783739705,-1.82098564147,1.33027923058,0.274745591003,-0.00645294349078,-0.114760746644
1588856866638407525,10279,1588856866638281348,,0.408143444575,-1.82088272074,1.30777560885,0.277708544954,-0.00646248266754,-0.117297701491
1588856866644434368,10280,1588856866644349186,,0.430803288916,-1.95306731834,1.33240111063,0.280371078819,-0.0064702550854,-0.119833070209
1588856866650539126,10281,1588856866650379541,,0.430803069932,-1.95307140116,1.33239519671,0.283149924834,-0.0064786560272,-0.121608964243
1588856866656462997,10282,1588856866656366216,,0.430418818023,-1.95330366541,1.35535825038,0.285800073876,-0.0064865665852,-0.123392197855
1588856866662410856,10283,1588856866662310073,,0.430392055102,-1.95331689318,1.35534768558,0.287700529742,-0.00715254321018,-0.126068369921
1588856866668555317,10284,1588856866668405568,,0.452687098485,-1.9538944328,1.40186927384,0.292064533331,-0.00650509763798,-0.12949346869
1588856866674815796,10285,1588856866674717458,,0.452689645875,-1.95389739495,1.40186432266,0.292977823939,-0.00716755533035,-0.12948953248
1588856866680563402,10286,1588856866680411002,,0.498418635896,-2.08625979567,1.42687894768,0.294775745063,-0.00585412852101,-0.133688040258
1588856866686496492,10287,1588856866686396585,,0.498392869237,-2.08626087257,1.42688637336,0.294777909435,-0.0058544512064,-0.133683253687
1588856866692494065,10288,1588856866692371883,,0.47568751217,-2.08592446119,1.40343703451,0.294042372142,-0.0071726406859,-0.134736986811
1588856866698452345,10289,1588856866698304648,,0.475673362657,-2.08590239401,1.40347462805,0.293218228617,-0.00717473262644,-0.137435478811
1588856866704431001,10290,1588856866704228641,,0.475668257839,-2.08585775214,1.40354270445,0.293218444766,-0.0071795600573,-0.137434765557
1588856866710400337,10291,1588856866710297979,,0.476008666188,-2.08556681136,1.38059645361,0.293300675158,-0.00719376589301,-0.13563972094
1588856866716449974,10292,1588856866716332008,,0.475698888264,-2.21773647036,1.40478019679,0.295010860821,-0.0078507568909,-0.136523266313
1588856866722469466,10293,1588856866722353942,,0.4526963892,-2.21756096022,1.40441742791,0.295905786868,-0.00720975839347,-0.135759956306
1588856866728452382,10294,1588856866728312813,,0.47522624672,-2.08587518099,1.42683271496,0.299445225592,-0.00722233658705,-0.137387034845
1588856866734426460,10295,1588856866734325013,,0.452331058092,-2.21769549471,1.42749546996,0.303072691317,-0.0078827158993,-0.136607726728
1588856866740391607,10296,1588856866740259911,,0.452365327251,-2.21766663245,1.42752944914,0.304920269028,-0.00788502619825,-0.137502223978
1588856866746378540,10297,1588856866746285410,,0.451982940522,-2.21786784762,1.45051238432,0.304772261999,-0.00853972182674,-0.137496397254
1588856866752533821,10298,1588856866752364118,,0.45117124035,-2.21826355463,1.49661680367,0.311805910289,-0.00790544317357,-0.138341327321
1588856866758411826,10299,1588856866758286794,,0.451150845489,-2.21827381696,1.49660774104,0.311807299882,-0.00790531731096,-0.138338202484
1588856866764506176,10300,1588856866764355013,,0.450780693368,-2.3505240294,1.52059517416,0.315273979251,-0.0079117823328,-0.137411384121
1588856866770470672,10301,1588856866770335519,,0.496506135731,-2.35094887831,1.54449824996,0.317904414303,-0.00791754553546,-0.138902778289
1588856866776604691,10302,1588856866776499190,,0.473375125407,-2.35084113775,1.54403769102,0.319713002204,-0.00858637640216,-0.138130656356
1588856866782473330,10303,1588856866782328241,,0.496505271286,-2.35097373584,1.54446069044,0.323428894423,-0.00793274391869,-0.14066079273
1588856866788445479,10304,1588856866788319348,,0.47265456277,-2.21929325476,1.58902974395,0.329497042743,-0.00860499194062,-0.139860247498
1588856866794464686,10305,1588856866794364062,,0.472650088979,-2.21933090173,1.58897849435,0.329497710422,-0.00860117994752,-0.139858908988
1588856866800405829,10306,1588856866800259324,,0.472308664613,-2.35156000183,1.61293020721,0.335750957526,-0.00861782509322,-0.140725967703
1588856866806525950,10307,1588856866806409307,,0.4727044399,-2.48346773663,1.59082367994,0.337719439294,-0.00862593276508,-0.14071926551
1588856866812568722,10308,1588856866812443591,,0.495429610934,-2.3516955992,1.61335054729,0.340376164826,-0.00863872759446,-0.143260735978
1588856866818632867,10309,1588856866818459619,,0.494630681808,-2.48412534626,1.66035024042,0.344645985125,-0.0086559095302,-0.143224048168
1588856866824627189,10310,1588856866824443062,,0.494616491277,-2.48417875597,1.66027455655,0.344645511046,-0.00865425241316,-0.1432252891
1588856866830634206,10311,1588856866830517190,,0.494230388194,-2.48436092102,1.68340401237,0.351799781189,-0.0080122962593,-0.143162775174
1588856866836484944,10312,1588856866836334062,,0.494230072783,-2.48434443596,1.6834284333,0.351800924456,-0.00801169309291,-0.143159999501
1588856866842519074,10313,1588856866842402363,,0.516497627745,-2.48481935869,1.72994658846,0.353351014687,-0.00868033688015,-0.143904979302
1588856866848480658,10314,1588856866848331106,,0.493446879187,-2.48473468597,1.72946439628,0.357001920687,-0.00868923885929,-0.144014062209
1588856866854528035,10315,1588856866854394377,,0.493411977179,-2.61682281033,1.73037014713,0.365260018059,-0.00871265961806,-0.145749294756
1588856866860544454,10316,1588856866860365179,,0.493409509397,-2.61681799564,1.73037813199,0.365259346405,-0.00871462674325,-0.145750860361
1588856866866525492,10317,1588856866866429057,,0.493478118838,-2.48471756143,1.72948008557,0.368022280985,-0.00938058147168,-0.146626659966
1588856866872933945,10318,1588856866872776142,,0.493070014136,-2.61697777529,1.75352547938,0.371546045888,-0.00872827129065,-0.14750722384
1588856866878903084,10319,1588856866878826382,,0.515007792794,-2.61759347157,1.82311479127,0.376628533376,-0.00873659665024,-0.149117903462
1588856866884570468,10320,1588856866884458003,,0.515005894255,-2.6176054515,1.8230981269,0.376628479402,-0.00873601001202,-0.149118074155
1588856866890592217,10321,1588856866890433662,,0.468421167993,-2.61758376833,1.84533879202,0.38007354358,-0.00940780699855,-0.146666124736
1588856866896495502,10322,1588856866896392185,,0.491595951893,-2.61767406409,1.84579727706,0.383741608307,-0.0094138336682,-0.147389354587
1588856866902779093,10323,1588856866902467655,,0.4916124433,-2.61767445865,1.84579232522,0.383743132096,-0.00940830126293,-0.147385740464
1588856866908522242,10324,1588856866908420492,,0.467268567051,-2.75019490652,1.91537182144,0.393224554593,-0.00876698753083,-0.142907573398
1588856866914535818,10325,1588856866914378274,,0.467262519693,-2.75019115818,1.91537867879,0.393225902463,-0.00876547311542,-0.142903957444
1588856866920520800,10326,1588856866920418433,,0.466894623642,-2.75034484232,1.93855654314,0.399434310616,-0.00877736313407,-0.141033087629
1588856866926568367,10327,1588856866926425701,,0.443803526491,-2.75026571926,1.93809721509,0.403936941708,-0.0081287843431,-0.138415038653
1588856866932682986,10328,1588856866932470743,,0.443493531502,-2.7504337358,1.96114547019,0.409244929307,-0.00813895994955,-0.137467439919
1588856866938466094,10329,1588856866938350223,,0.419822861563,-2.88266621283,1.98457935636,0.414458857012,-0.00881951112157,-0.133034554199
1588856866944494116,10330,1588856866944399168,,0.419036800856,-2.88298192704,2.03083586949,0.419637860373,-0.00751333802853,-0.13207349896
1588856866950524327,10331,1588856866950372535,,0.395279814381,-3.14748415652,2.05500145455,0.424946386463,-0.00752767721794,-0.131254562243
1588856866956508575,10332,1588856866956383167,,0.395110639782,-3.27979518782,2.055675069,0.429450306093,-0.00754020769259,-0.128485069359
1588856866962591410,10333,1588856866962487770,,0.393830939979,-3.01588480526,2.14666358946,0.438896148632,-0.00756774282012,-0.127477606947
1588856866968680389,10334,1588856866968423632,,0.393826880315,-3.01586720928,2.14668905493,0.438898122434,-0.00756449630782,-0.127471003791
1588856866974956688,10335,1588856866974775538,,0.393708506111,-3.14807267582,2.14744390468,0.444364440601,-0.00757792218334,-0.12649713434
1588856866980559700,10336,1588856866980401522,,0.392910614559,-3.14837443421,2.19371989764,0.449533536767,-0.00824599161683,-0.125530494585
1588856866986555190,10337,1588856866986450846,,0.368708588578,-3.2808606914,2.24015362497,0.461981487588,-0.00827572720944,-0.122789800722
1588856866992725943,10338,1588856866992479972,,0.368777484527,-3.28084823587,2.24016052621,0.46198026752,-0.00826985697141,-0.122794786471
1588856866998504315,10339,1588856866998397461,,0.367784254311,-3.41343040806,2.28711537852,0.474453666709,-0.0082928193073,-0.1208142525
1588856867004496647,10340,1588856867004396609,,0.367757347195,-3.4134334259,2.2871152012,0.474455032597,-0.00829280501711,-0.120808889327
1588856867010512184,10341,1588856867010381976,,0.367433046555,-3.4135720261,2.31020587975,0.479785019485,-0.00829822545966,-0.120744231938
1588856867016490212,10342,1588856867016390403,,0.366567022739,-3.41387780411,2.3563861976,0.484946321053,-0.00831093375679,-0.118848677402
1588856867022377536,10343,1588856867022245108,,0.366027289764,-3.54627465763,2.38029478548,0.489350821169,-0.00832041048637,-0.117890711121
1588856867028697326,10344,1588856867028579883,,0.365437292447,-3.67874463285,2.40401875166,0.49832849468,-0.00768629196961,-0.116867133912
1588856867034539025,10345,1588856867034430199,,0.365106765349,-3.6788475531,2.42716058897,0.504579528443,-0.00769319304071,-0.116783355716
1588856867040536925,10346,1588856867040432718,,0.365032859767,-3.67886156043,2.42715047415,0.504580550928,-0.00769968099692,-0.116778510237
1588856867046496854,10347,1588856867046383658,,0.364597063959,-3.67891623762,2.450381709,0.507204133415,-0.00837459576168,-0.117651753887
1588856867052722914,10348,1588856867052535339,,0.363776800944,-3.67917207648,2.49671919337,0.513308287148,-0.00838979193569,-0.117566523864
1588856867058477996,10349,1588856867058386205,,0.363824319385,-3.67909956435,2.49681912041,0.513305089989,-0.008396008507,-0.1175800384
1588856867064519595,10350,1588856867064431606,,0.363816741747,-3.67910519516,2.49681192747,0.516971048528,-0.00775151947918,-0.117533708732
1588856867070730953,10351,1588856867070597717,,0.363782089816,-3.6790862803,2.49684484762,0.516969505314,-0.0077617797184,-0.117539819252
1588856867076741751,10352,1588856867076563589,,0.363736818246,-3.67907751203,2.49686436303,0.517859386526,-0.00776743144952,-0.116617956976
1588856867082662569,10353,1588856867082556985,,0.363215773606,-3.8115306378,2.52060604098,0.522279744338,-0.00777806328051,-0.116572641007
1588856867088782596,10354,1588856867088525741,,0.363245815134,-3.81154352373,2.52058222627,0.522279140644,-0.00777516612774,-0.116575538964
1588856867094554247,10355,1588856867094452584,,0.362297874783,-3.94413717193,2.56753202783,0.529272848244,-0.00711905921957,-0.114663130437
1588856867100559562,10356,1588856867100459958,,0.362304880823,-3.94414451218,2.56751976338,0.529274094872,-0.00711408957295,-0.114657684441
1588856867106448892,10357,1588856867106363737,,0.362228197081,-3.81186520576,2.59009525415,0.532767719942,-0.00711230192305,-0.113712463714
1588856867112755487,10358,1588856867112586722,,0.361680869326,-3.94430768002,2.61385959459,0.537150450785,-0.00712240671266,-0.111840044544
1588856867118581862,10359,1588856867118462974,,0.361536980383,-4.07671133142,2.61439321048,0.538060114342,-0.00711429175914,-0.111825168425
1588856867124563034,10360,1588856867124470637,,0.338011635436,-4.07677213809,2.63716760518,0.540611915037,-0.00778421533319,-0.109223103789
1588856867130526672,10361,1588856867130443196,,0.315361494603,-4.07658830538,2.61350180724,0.543480171466,-0.00711559286486,-0.108431348421
1588856867136550485,10362,1588856867136454370,,0.314973518216,-4.07670609173,2.6367246541,0.547018785297,-0.00778490941484,-0.109279803106
1588856867142480953,10363,1588856867142395666,,0.314972961633,-4.07668578767,2.63675611294,0.548830572675,-0.00711663246982,-0.108340133436
1588856867148577750,10364,1588856867148477384,,0.337731011469,-4.07686679316,2.66031360317,0.550543837056,-0.00712027799619,-0.109981055117
1588856867154694616,10365,1588856867154472536,,0.33768587371,-4.07689957616,2.66026909336,0.550543083593,-0.00712734040026,-0.109984369303
1588856867160735837,10366,1588856867160595810,,0.33745303527,-4.20933271886,2.66077658957,0.553311253606,-0.00646857961849,-0.110850585804
1588856867166671197,10367,1588856867166437709,,0.337413531373,-4.20935730164,2.66074270923,0.553311577636,-0.00647167961385,-0.110848787449
1588856867172691740,10368,1588856867172550567,,0.337380350668,-4.20934642878,2.66076411774,0.554241069458,-0.00714098665388,-0.111741680842
1588856867179189042,10369,1588856867178889060,,0.337324670327,-4.20936344887,2.66074425129,0.554243116543,-0.00714117183485,-0.111731514943
1588856867184621756,10370,1588856867184496167,,0.336449003031,-4.20961076257,2.70698233903,0.556701796393,-0.00647992203292,-0.111686920723
1588856867190466472,10371,1588856867190353939,,0.313224616783,-4.20955205543,2.70654990164,0.563071677766,-0.00716091433577,-0.109904240357
1588856867196319469,10372,1588856867196243016,,0.313231275493,-4.20951407616,2.70660820007,0.563073440834,-0.00715588187955,-0.10989553506
1588856867202438345,10373,1588856867202357109,,0.31316628427,-4.34192273443,2.70714242138,0.566709148743,-0.0071510169223,-0.108946379964
1588856867208372190,10374,1588856867208274788,,0.289661311406,-4.20959333494,2.72935270826,0.569292885065,-0.00716043411858,-0.108144454971
1588856867214457511,10375,1588856867214292811,,0.312480661965,-4.34220431747,2.75339885853,0.572805874064,-0.00648054618079,-0.107958381633
1588856867220457880,10376,1588856867220321808,,0.311892917705,-4.47474240754,2.77705396107,0.578110767633,-0.00649154336299,-0.106063718733
1588856867226301642,10377,1588856867226220026,,0.287879157106,-4.47489409824,2.8229955122,0.582384243935,-0.00581964672453,-0.10523407279
1588856867232454464,10378,1588856867232278896,,0.287469957912,-4.47499890575,2.84614035936,0.584960496001,-0.00649477518667,-0.104291199972
1588856867238408306,10379,1588856867238297544,,0.287331121109,-4.60744319864,2.84663289311,0.586787579828,-0.00583014478673,-0.104279768915
1588856867244439896,10380,1588856867244263891,,0.310606653353,-4.60745906619,2.84713483373,0.587732658876,-0.00583313847491,-0.105932833311
1588856867250622400,10381,1588856867250529410,,0.310531930952,-4.60741616264,2.84721241309,0.58773457667,-0.00583764979346,-0.105921943993
1588856867256439522,10382,1588856867256370041,,0.310096596159,-4.60747505761,2.87042930007,0.588505259255,-0.0058360144221,-0.105897594587
1588856867262535115,10383,1588856867262419541,,0.310052818614,-4.60738191274,2.8705835351,0.588526010491,-0.00518592421475,-0.106812279448
1588856867268339633,10384,1588856867268234912,,0.310032926461,-4.6073458537,2.8706435587,0.588525985663,-0.00518986493837,-0.106812224851
1588856867274693374,10385,1588856867274617537,,0.310372805391,-4.60717107823,2.84762632357,0.587774861099,-0.00586142394954,-0.107732913355
1588856867280392564,10386,1588856867280281431,,0.310297598206,-4.60714369496,2.84767882242,0.58777692777,-0.00521048853848,-0.107728203689
1588856867286379465,10387,1588856867286286090,,0.287491152898,-4.6069133601,2.82421130996,0.587029218363,-0.00520895491139,-0.108796741649
1588856867292399163,10388,1588856867292304923,,0.310334560155,-4.60707839341,2.84778044078,0.586885214761,-0.00521187449485,-0.108656348407
1588856867298319129,10389,1588856867298244066,,0.310806117789,-4.60697785071,2.82463221633,0.586095956564,-0.00520805637936,-0.107771338723
1588856867304616020,10390,1588856867304528350,,0.310396267485,-4.60708890577,2.84775670881,0.588694648429,-0.00520744251008,-0.107723396981
1588856867310567146,10391,1588856867310472640,,0.310423361462,-4.60709916737,2.84773715428,0.588694619519,-0.00520372234502,-0.107723734741
1588856867316386325,10392,1588856867316306029,,0.333052480943,-4.73981092907,2.87165651016,0.591312288493,-0.00451789150453,-0.108428333134
1588856867322442422,10393,1588856867322357654,,0.332647815846,-4.73993262217,2.89476234205,0.592080634886,-0.00451768758156,-0.108416792185
1588856867328407465,10394,1588856867328320316,,0.309525926451,-4.73992728809,2.894236836,0.592927624809,-0.00450377207412,-0.104907031858
1588856867334576309,10395,1588856867334494058,,0.286278764757,-4.73985628635,2.89382194086,0.594737441805,-0.00517694251325,-0.104124297767
1588856867340553689,10396,1588856867340427379,,0.286331409986,-4.7398291076,2.89386124861,0.594739017162,-0.00516597347322,-0.104115844076
1588856867346430428,10397,1588856867346339652,,0.309221822384,-4.740005637,2.9175049918,0.597375395446,-0.00516627920965,-0.105742247052
1588856867352740701,10398,1588856867352527448,,0.309201632104,-4.7400657433,2.91740947612,0.597373972054,-0.00517151188833,-0.105750032219
1588856867358571478,10399,1588856867358483728,,0.309427453154,-4.6076146984,2.91690714427,0.597392931143,-0.00517075740688,-0.106668136281
1588856867364661723,10400,1588856867364522085,,0.308773113203,-4.74016990289,2.94055085135,0.59907975144,-0.00518137150638,-0.106647256974
1588856867370516214,10401,1588856867370410731,,0.309482073501,-4.60766459535,2.91682252956,0.599260367213,-0.00516442778179,-0.108450781475
1588856867376534079,10402,1588856867376406944,,0.332354403065,-4.74019329644,2.91773137122,0.600197300156,-0.00450983059277,-0.109195489397
1588856867382473179,10403,1588856867382395308,,0.355600396572,-4.74025477836,2.91815148033,0.600212341246,-0.00450623207861,-0.109962008984
1588856867388359671,10404,1588856867388268257,,0.3554478841,-4.6079015036,2.94080389561,0.602828879623,-0.00450317717581,-0.110827484974
1588856867394493923,10405,1588856867394398373,,0.355509995159,-4.60784067948,2.9408916902,0.602828766236,-0.00449776510363,-0.110828321492
1588856867400519946,10406,1588856867400438429,,0.331953606516,-4.60784362686,2.96366756544,0.605410280855,-0.00516182162012,-0.110018977482
1588856867406452607,10407,1588856867406361457,,0.33179358059,-4.74024932045,2.96422755552,0.606348741349,-0.00516110308436,-0.110922692988
1588856867415640023,10408,1588856867415521526,,0.331400314855,-4.74021418181,2.98758779906,0.609853810014,-0.00517536370099,-0.11087652532
1588856867421390846,10409,1588856867421282648,,0.331406969917,-4.74014105287,2.98770308673,0.609855003751,-0.00517312771805,-0.110870063563
1588856867427719211,10410,1588856867427518880,,0.331128664056,-4.60776514113,3.01049990579,0.613355296969,-0.00519013632576,-0.109900511623
1588856867433467736,10411,1588856867433375540,,0.331139562958,-4.60768897527,3.0106152806,0.613357661986,-0.00518295009327,-0.109887650818
1588856867439636445,10412,1588856867439559113,,0.330939344458,-4.74010042572,3.01117693945,0.613357697194,-0.0045191972222,-0.109894099683
1588856867445630749,10413,1588856867445519484,,0.331260745536,-4.60766133169,3.01064425691,0.616106280107,-0.0051716428359,-0.109843651437
1588856867451770265,10414,1588856867451466206,,0.331307470396,-4.60764776758,3.01065987463,0.616105925882,-0.00516724161244,-0.109845845367
1588856867457521514,10415,1588856867457398153,,0.331241549236,-4.60766041906,3.01064776575,0.615187535643,-0.00517011642062,-0.109854178095
1588856867463576755,10416,1588856867463482662,,0.331317141259,-4.60764286639,3.01066631137,0.615189017744,-0.00515540740622,-0.109846569271
1588856867469510517,10417,1588856867469386808,,0.331351033837,-4.60765964769,3.01063689843,0.615188419289,-0.00515248481448,-0.109850057954
1588856867475816652,10418,1588856867475734046,,0.331389026274,-4.60764442689,3.01065601147,0.615168228372,-0.00515176476093,-0.108949769717
1588856867481588310,10419,1588856867481457463,,0.331416051455,-4.60764317506,3.01065495248,0.615168902872,-0.0051457807398,-0.108946243994
1588856867487554223,10420,1588856867487471604,,0.330605844189,-4.60780976356,3.05700544644,0.616706068492,-0.00514645621428,-0.108920533425
1588856867493521338,10421,1588856867493436110,,0.33064201421,-4.60782309713,3.05698143679,0.616706872187,-0.00513821429289,-0.108916371953
1588856867499727617,10422,1588856867499554727,,0.331081122987,-4.60768699473,3.03388212864,0.615958951413,-0.0044649494014,-0.109833707759
1588856867505669650,10423,1588856867505459701,,0.354279972212,-4.60767807758,3.03441075386,0.617764607565,-0.0051373431384,-0.10875226567
1588856867511493087,10424,1588856867511409272,,0.331035714229,-4.6076021651,3.03401591393,0.618649380478,-0.00514518777184,-0.107067894128
1588856867517616926,10425,1588856867517415896,,0.307836184495,-4.60763288433,3.03345530601,0.618635258601,-0.00513653470743,-0.106296617135
1588856867523485811,10426,1588856867523398219,,0.330590729178,-4.6077608528,3.05708080268,0.62034952163,-0.00513841613213,-0.10793015429
1588856867529468294,10427,1588856867529340562,,0.330184189297,-4.60793568863,3.08021960216,0.621122480713,-0.00513124897997,-0.107911374721
1588856867535445995,10428,1588856867535367996,,0.307354745564,-4.60776770921,3.05656062468,0.620317057781,-0.00513226928628,-0.106247822174
1588856867541477349,10429,1588856867541398404,,0.307087281468,-4.4754820935,3.07924670296,0.621989817858,-0.00513623803131,-0.105299838632
1588856867547492328,10430,1588856867547382586,,0.307072714227,-4.47547872866,3.07925304626,0.621988996501,-0.00514162897874,-0.105304427065
1588856867553528320,10431,1588856867553390360,,0.306999568715,-4.47546437303,3.07928120443,0.62016098266,-0.00514530504357,-0.105327594573
1588856867559587815,10432,1588856867559503068,,0.306942569849,-4.47546585041,3.07928473935,0.620162132969,-0.00514844032316,-0.105320668198
1588856867565439409,10433,1588856867565335612,,0.307130516811,-4.60776322186,3.05658992848,0.6193910363,-0.00514990101734,-0.105328911845
1588856867571456116,10434,1588856867571320116,,0.30710249512,-4.60775033688,3.05661216782,0.618453493152,-0.0051483499508,-0.104431063985
1588856867574902786,10435,1588856867574842874,,0.306840406061,-4.4754134268,3.07937111272,0.619206283199,-0.005154997417,-0.103511443572
1588856867580472421,10436,1588856867580408676,,0.306900823212,-4.47539276485,3.07939512086,0.619205272746,-0.00515156319043,-0.103517658893
1588856867586437168,10437,1588856867586358567,,0.283599315484,-4.47525513296,3.07908165216,0.61919117789,-0.00448422286557,-0.102748812847
1588856867592962882,10438,1588856867592874657,,0.283869741491,-4.60749725096,3.05647108347,0.617452483041,-0.00447687010207,-0.100047547014
1588856867598511437,10439,1588856867598396012,,0.283856828912,-4.6074731444,3.05650862196,0.61745295183,-0.00447747298643,-0.100044626814
1588856867604756896,10440,1588856867604556281,,0.28363523471,-4.47516078601,3.07921546672,0.616376716673,-0.00447529580606,-0.0991551912745
1588856867610521666,10441,1588856867610445803,,0.284112062716,-4.47505755631,3.05596063013,0.614666464872,-0.00446321157019,-0.0982649668256
1588856867616371407,10442,1588856867616288739,,0.284136531576,-4.47504437302,3.05597766031,0.614666239362,-0.00446127542,-0.0982664653459
1588856867622438097,10443,1588856867622346089,,0.284138503644,-4.47506345266,3.05594953735,0.614667157635,-0.0044565340775,-0.0982609364378
1588856867628498392,10444,1588856867628349297,,0.283873209865,-4.34281027505,3.07859779105,0.614520890358,-0.0044542328955,-0.0982543039325
1588856867634379561,10445,1588856867634307332,,0.2840253798,-4.47509617108,3.05591214085,0.614669134733,-0.00446246294537,-0.0982482988736
1588856867640488678,10446,1588856867640362809,,0.260987807989,-4.34262677234,3.05495816526,0.612882287203,-0.00446452681399,-0.100240502198
1588856867646416949,10447,1588856867646338541,,0.260699548227,-4.47500112653,3.05555130329,0.613772184107,-0.00514501345732,-0.0993151943283
1588856867652627686,10448,1588856867652538051,,0.284111556621,-4.60742214185,3.03330060593,0.611192113873,-0.00513266595305,-0.100109365001
1588856867658380731,10449,1588856867658310408,,0.284339576614,-4.47497156737,3.03280459914,0.610282518199,-0.00512820611211,-0.100124678294
1588856867664480656,10450,1588856867664317678,,0.285166339258,-4.47476348685,2.98641455049,0.606972949115,-0.0051172402892,-0.102895605744
1588856867670438347,10451,1588856867670289057,,0.308060377195,-4.47489162224,3.01013868187,0.605923198904,-0.00444320199311,-0.103676253436
1588856867673388905,10452,1588856867673301795,,0.308166252397,-4.47480161031,3.01026165309,0.604113753375,-0.00442863960175,-0.104610669499
1588856867676703659,10453,1588856867676616728,,0.332062164384,-4.34232106702,2.98692269486,0.602448041194,-0.00441408787026,-0.105402418514
1588856867682547185,10454,1588856867682409659,,0.331672995996,-4.34241055573,3.01018816156,0.602319823002,-0.00441002821174,-0.106309889198
1588856867688437201,10455,1588856867688356794,,0.33273948991,-4.20978982112,2.96325398568,0.594452144159,-0.00505384093172,-0.11005993132
1588856867694703847,10456,1588856867694599015,,0.332888177097,-4.20977241009,2.96326202126,0.594449484541,-0.00504372397262,-0.110074759431
1588856867700390145,10457,1588856867700308744,,0.356281547477,-4.0774764744,2.96308909643,0.59452533422,-0.00503286771281,-0.113558741498
1588856867706475648,10458,1588856867706409501,,0.356282101094,-4.07745808302,2.96311433789,0.592718312313,-0.00502379083742,-0.114493169034
1588856867715523000,10459,1588856867715434808,,0.379380209697,-3.94531510438,2.98605624756,0.589004073177,-0.00566484586271,-0.118950472664
1588856867721680898,10460,1588856867721569728,,0.379439901964,-3.8130446296,2.9854083503,0.589046083977,-0.00566800239784,-0.120749431438
1588856867727770064,10461,1588856867727551740,,0.403421998943,-3.81290079372,2.93951261613,0.585756302901,-0.0063309265238,-0.124288133105
1588856867733601984,10462,1588856867733531215,,0.426732026705,-3.68070003248,2.93931244677,0.579431671006,-0.00565882654688,-0.127866482421
1588856867739647895,10463,1588856867739551095,,0.426735981785,-3.68071025624,2.93929907001,0.579431843445,-0.00565713912246,-0.127865775673
1588856867745685166,10464,1588856867745494195,,0.427218220373,-3.54834969168,2.9155038783,0.575956280572,-0.00632668998476,-0.129724810833
1588856867751660106,10465,1588856867751572361,,0.427202582607,-3.54834560473,2.91551114377,0.573239580232,-0.00565934480534,-0.130684007882
1588856867757473410,10466,1588856867757396145,,0.427752798999,-3.41598995947,2.89161557009,0.569720147833,-0.0063206935853,-0.130734523852
1588856867763609285,10467,1588856867763484785,,0.451025759157,-3.28390339933,2.89134079286,0.56608194447,-0.005644235827,-0.131548182744
1588856867769721162,10468,1588856867769598367,,0.450964697389,-3.28396734419,2.89127768918,0.566082933672,-0.00564809434238,-0.131543760292
1588856867775846077,10469,1588856867775702800,,0.451359535547,-3.28384493775,2.86812295181,0.56254680153,-0.00630928427639,-0.130677191641
1588856867781559960,10470,1588856867781476358,,0.451909457132,-3.15157758693,2.84426381391,0.559972344415,-0.00563224790546,-0.131629924042
1588856867787773332,10471,1588856867787672861,,0.451424796336,-3.28383845722,2.86812010076,0.55799203869,-0.00562715879367,-0.131664422175
1588856867793535390,10472,1588856867793460230,,0.452382695785,-3.15145934816,2.82108861775,0.554585382425,-0.00562109848176,-0.129899864331
1588856867799521680,10473,1588856867799431848,,0.429368859441,-3.0193059354,2.81990599588,0.550892394549,-0.00561402810997,-0.128286115894
1588856867805918491,10474,1588856867805735769,,0.42981905885,-3.01917430378,2.79664488462,0.548249942637,-0.0062730906861,-0.126508968912
1588856867811682497,10475,1588856867811521697,,0.429410626413,-3.01930450721,2.81990116516,0.546275593462,-0.00560181696106,-0.126536322555
1588856867817640509,10476,1588856867817535850,,0.406549900794,-3.01909961848,2.79621513512,0.544528516919,-0.00626606366927,-0.123979020776
1588856867823626884,10477,1588856867823532839,,0.383550230101,-2.88699488206,2.79500663095,0.542664278375,-0.00559459041154,-0.122329969268
1588856867829712714,10478,1588856867829589941,,0.383323238566,-3.01902764819,2.79579382984,0.540755347134,-0.00627016392009,-0.118720485547
1588856867835593661,10479,1588856867835515119,,0.360492435511,-3.0188103181,2.77222079525,0.53356689576,-0.0062603572192,-0.118061089215
1588856867841615245,10480,1588856867841451953,,0.360477073972,-3.0188054791,2.7722280622,0.533566848932,-0.0062634174531,-0.118061138534
1588856867847527507,10481,1588856867847436844,,0.360469370027,-3.01882246716,2.77221056477,0.531659056746,-0.00558980590369,-0.114457640055
1588856867853631002,10482,1588856867853457569,,0.36046512562,-3.01877896598,2.77225848689,0.527960064455,-0.00559441376657,-0.112711764961
1588856867859872866,10483,1588856867859766513,,0.360605510585,-2.88677885139,2.77143960587,0.524263313931,-0.00558376879389,-0.110945504434
1588856867865487463,10484,1588856867865402389,,0.361010705797,-2.8866086483,2.74832171726,0.520706720611,-0.00558102030074,-0.10919165302
1588856867871634192,10485,1588856867871481423,,0.337850666953,-2.8865067361,2.74792391906,0.517922752839,-0.00558252771444,-0.107555152264
1588856867878030586,10486,1588856867877914217,,0.31577930769,-2.75418531331,2.70024866893,0.51175128875,-0.00489796386286,-0.105078462546
1588856867883688452,10487,1588856867883576724,,0.315763510191,-2.75415494651,2.70028148931,0.508993292573,-0.00489774677569,-0.104205471447
1588856867889771554,10488,1588856867889616069,,0.315856630055,-2.75417578333,2.70024934572,0.50899227222,-0.00488487962783,-0.104211059192
1588856867895582186,10489,1588856867895516037,,0.316295442842,-2.75406620632,2.67706147037,0.50543517651,-0.00552813918169,-0.102455868506
1588856867901567480,10490,1588856867901460334,,0.293954267858,-2.75372803155,2.63030491657,0.500204582101,-0.00551196099303,-0.100869117517
1588856867907831650,10491,1588856867907651551,,0.294047008105,-2.62178900381,2.6294637256,0.491972043893,-0.00616945343929,-0.100985074124
1588856867913559583,10492,1588856867913483797,,0.294024143542,-2.62180202011,2.62945330402,0.49197213809,-0.00617264542126,-0.100984420164
1588856867919582107,10493,1588856867919498489,,0.294984274211,-2.48959666641,2.58220994042,0.487645005127,-0.00549729389793,-0.0992324328513
1588856867925592827,10494,1588856867925525920,,0.295152534203,-2.62136342449,2.55991592746,0.485049874292,-0.00550396440906,-0.0992631814928
1588856867931520511,10495,1588856867931389912,,0.272602932338,-2.48924220519,2.53536806514,0.479664259774,-0.00616403687721,-0.097680141959
1588856867937564588,10496,1588856867937446780,,0.272990441721,-2.48908452755,2.51222850637,0.476169227138,-0.00616129433758,-0.0986332258489
1588856867943625001,10497,1588856867943533053,,0.250210745871,-2.48886211543,2.48864575851,0.472595556074,-0.00615722450738,-0.0961185476688
1588856867949584534,10498,1588856867949496036,,0.250603131993,-2.48868381186,2.46552901263,0.469068718076,-0.00615701722213,-0.0952599277243
1588856867955859450,10499,1588856867955751512,,0.274160352566,-2.48859956445,2.44272987297,0.46648901348,-0.00548186389617,-0.096050240049
1588856867961535843,10500,1588856867961419819,,0.274495705938,-2.48842737904,2.41961699626,0.462055462701,-0.00548305419037,-0.0961089806036
1588856867967764375,10501,1588856867967661774,,0.274887463285,-2.48826874814,2.39648547687,0.457630841572,-0.00547868901333,-0.0961731889564
1588856867973929435,10502,1588856867973817182,,0.275559293216,-2.35623065235,2.37243663165,0.45411469997,-0.00545334032428,-0.0962285713265
1588856867979852368,10503,1588856867979790376,,0.275990775654,-2.35605267229,2.34921459536,0.446921092133,-0.00477814332942,-0.0954257453839
1588856867985973797,10504,1588856867985752488,,0.275999744294,-2.3560607921,2.34920539821,0.446920598091,-0.00477840496408,-0.0954280460721
1588856867991760054,10505,1588856867991682036,,0.276281137759,-2.48776911973,2.32699977608,0.443414551086,-0.00542588996269,-0.0954770630193
1588856867997624131,10506,1588856867997523849,,0.253243806769,-2.35587652869,2.32558146832,0.436973100796,-0.00541669705068,-0.0939059945424
1588856868003757125,10507,1588856868003648599,,0.254035880703,-2.3555375429,2.2793348138,0.434497092888,-0.00541327906875,-0.093028514667
1588856868009735757,10508,1588856868009616401,,0.254042485672,-2.35553852892,2.27933305867,0.434496516926,-0.00541458096066,-0.0930311289372
1588856868015825794,10509,1588856868015698427,,0.253635436156,-2.35571852058,2.30244604277,0.431651815402,-0.00475655903023,-0.0948829768461
1588856868021709862,10510,1588856868021580083,,0.253638461914,-2.35569831566,2.30246638168,0.43165086866,-0.00476096038829,-0.0948870630265
1588856868027643250,10511,1588856868027563661,,0.277187966832,-2.35560255302,2.2797834097,0.428153707454,-0.00475553092232,-0.0956953824356
1588856868033725080,10512,1588856868033630719,,0.27675887138,-2.35580862798,2.30287215982,0.42894045516,-0.00542129663757,-0.0965908097819
1588856868042681990,10513,1588856868042493709,,0.300193484744,-2.35569690426,2.28020924027,0.429129645733,-0.00477758102923,-0.0982632267514
1588856868048568795,10514,1588856868048485374,,0.277157385708,-2.35564603624,2.27974219757,0.429108672954,-0.00609839497621,-0.0975117712099
1588856868054666838,10515,1588856868054592983,,0.277155451998,-2.35566800934,2.27971972775,0.42910698372,-0.00610476680139,-0.0975188058575
1588856868060652064,10516,1588856868060554102,,0.29982556421,-2.35591572681,2.30327724641,0.430821536264,-0.00610938436385,-0.0991577918599
1588856868066702495,10517,1588856868066608658,,0.277443618443,-2.48736776722,2.25744817249,0.428354745179,-0.00610774587905,-0.0984390309985
1588856868075859388,10518,1588856868075785054,,0.300109936399,-2.48760647627,2.28110259365,0.427317635901,-0.00543809764671,-0.0992073410846
1588856868081628245,10519,1588856868081538514,,0.300130118691,-2.48760352467,2.2811031571,0.427318814189,-0.00477957986434,-0.0992071569405
1588856868087622475,10520,1588856868087523302,,0.277024836067,-2.48754802081,2.28065059886,0.426362182534,-0.00543111164726,-0.0975531534052
1588856868093588761,10521,1588856868093453127,,0.276988186719,-2.48754853896,2.28065448511,0.426364134891,-0.00542958169888,-0.0975447052869
1588856868102596341,10522,1588856868102513601,,0.300378131383,-2.48742576046,2.25792084765,0.425615098671,-0.00542397287303,-0.0982923234691
1588856868108570233,10523,1588856868108474785,,0.277318531326,-2.48735423868,2.25747844858,0.42561908751,-0.00542230510716,-0.0984346365018
1588856868114604317,10524,1588856868114497727,,0.300341214149,-2.48742945468,2.25792168884,0.425637753624,-0.00542491470603,-0.099187063008
1588856868120734101,10525,1588856868120619764,,0.277286960828,-2.48735238332,2.25748437089,0.425620405451,-0.00542261129051,-0.0984289208502
1588856868126645351,10526,1588856868126561393,,0.277239507719,-2.48736959689,2.25747123262,0.424690478967,-0.00608777572832,-0.0975349553392
1588856868135697932,10527,1588856868135597818,,0.277190293502,-2.4873983746,2.25744556734,0.423732235479,-0.00541935895967,-0.0957265550859
1588856868141505770,10528,1588856868141429492,,0.277177618382,-2.48741169733,2.25743244376,0.423732656271,-0.0054192522528,-0.0957246984763
1588856868147616084,10529,1588856868147524331,,0.277856466292,-2.6190410962,2.2121226469,0.421278245124,-0.00541213804066,-0.0957568582056
1588856868153706712,10530,1588856868153605044,,0.277854400674,-2.61905196528,2.21211003784,0.421300311102,-0.00540941216093,-0.0966542116547
1588856868159771723,10531,1588856868159676208,,0.277854801027,-2.61906745611,2.21209164689,0.421300316757,-0.00540865159705,-0.0966542295706
1588856868165552750,10532,1588856868165463047,,0.300928474407,-2.6191365373,2.2125352876,0.421317167593,-0.00607168920533,-0.0974102187809
1588856868171515510,10533,1588856868171405432,,0.300596872396,-2.61931226405,2.23561776552,0.421174934194,-0.0054039307294,-0.0974225383406
1588856868175073339,10534,1588856868174968117,,0.300687546523,-2.61931177014,2.23560615046,0.422101591347,-0.00540477966301,-0.0983367390318
1588856868180732323,10535,1588856868180646850,,0.3007553935,-2.61933191221,2.23557342459,0.422098395744,-0.00540465513121,-0.0983504617081
1588856868186630738,10536,1588856868186551556,,0.323958497766,-2.61942054358,2.23599261137,0.422137190509,-0.00474877809447,-0.100016901556
1588856868195621045,10537,1588856868195476664,,0.300890460167,-2.61940572304,2.23546876491,0.419397873592,-0.00539985172636,-0.100216935916
1588856868201634757,10538,1588856868201451427,,0.300898369682,-2.61943234971,2.23543650015,0.42032646636,-0.0054044059359,-0.101111693893
1588856868207721415,10539,1588856868207613415,,0.300908912852,-2.61944774715,2.23541703848,0.419396121349,-0.00540122734252,-0.10022419447
1588856868213642161,10540,1588856868213535294,,0.30124357609,-2.61929264816,2.21230759114,0.42047495676,-0.00608088496076,-0.101114614219
1588856868219758004,10541,1588856868219660280,,0.323998386886,-2.61955014321,2.23583499905,0.420341232899,-0.0060845592799,-0.101878981973
1588856868225767947,10542,1588856868225579921,,0.301194369049,-2.61932905083,2.21227119092,0.420472810777,-0.00609439111265,-0.101122724583
1588856868231705365,10543,1588856868231619667,,0.301190583526,-2.61932062,2.21228168836,0.420472062384,-0.0060979564381,-0.101125621457
1588856868237608978,10544,1588856868237508860,,0.301174224426,-2.61932654809,2.21227689669,0.419508374659,-0.00610659873301,-0.0993458550059
1588856868243729614,10545,1588856868243602593,,0.301556245846,-2.61916412838,2.18917126084,0.418740453448,-0.00610745237747,-0.0993560545204
1588856868249673509,10546,1588856868249576209,,0.27847916247,-2.61910307279,2.1887205566,0.419662983733,-0.00544929905861,-0.099491606193
1588856868255769771,10547,1588856868255651790,,0.301540844013,-2.61918643339,2.189146696,0.420566903505,-0.00611611846114,-0.099336297843
1588856868261751095,10548,1588856868261584842,,0.278463484674,-2.61909872111,2.18872775865,0.420529178234,-0.0054542025825,-0.097679222026
1588856868267778935,10549,1588856868267672385,,0.278208360484,-2.48730225817,2.21092637616,0.423132721367,-0.00612783047804,-0.0976480963786
1588856868273785910,10550,1588856868273683498,,0.278186863795,-2.48729890697,2.21093285116,0.423132811096,-0.00613120590383,-0.0976474956795
1588856868279994742,10551,1588856868279909936,,0.324267169076,-2.61940615635,2.21272269714,0.424977116739,-0.00481414151952,-0.0982271345969
1588856868285757346,10552,1588856868285629717,,0.3242610142,-2.61939761712,2.21273370775,0.424977568027,-0.00481387450404,-0.0982251951788
1588856868291649494,10553,1588856868291555537,,0.301089322367,-2.61932945256,2.21228501453,0.426787492574,-0.00481832754167,-0.0974415044739
1588856868297701789,10554,1588856868297582309,,0.301055618353,-2.61931968441,2.2123011667,0.42950304213,-0.0054801335979,-0.0964991007022
1588856868303793785,10555,1588856868303644476,,0.300664029826,-2.61948894961,2.23540170748,0.433955208296,-0.00615672343857,-0.0973450845544
1588856868309664847,10556,1588856868309559297,,0.323566476618,-2.48777418849,2.25805954002,0.441205859429,-0.00617187934745,-0.100721538453
1588856868315762547,10557,1588856868315630167,,0.323556609946,-2.48777924773,2.25805537989,0.441206843364,-0.00616953826132,-0.100717371708
1588856868321617544,10558,1588856868321527349,,0.347027650618,-2.48769349044,2.23537666924,0.445094207845,-0.00617188118748,-0.104135541061
1588856868327732682,10559,1588856868327635719,,0.347040304374,-2.48768428848,2.23538494538,0.445094097016,-0.00617050107558,-0.104136096552
1588856868333659134,10560,1588856868333548454,,0.36981520975,-2.35605324352,2.25802424524,0.446832384563,-0.00616691491047,-0.106665993644
1588856868339875299,10561,1588856868339763925,,0.34689306256,-2.22417483181,2.25662761163,0.454217276859,-0.00684918643421,-0.109443109028
1588856868345919929,10562,1588856868345632601,,0.369925119467,-2.22423927924,2.25709386062,0.457011990934,-0.00752356256431,-0.111968505433
1588856868351738298,10563,1588856868351614930,,0.369852088867,-2.22422285539,2.2571220133,0.457014560262,-0.00752862569253,-0.111957677555
1588856868357624262,10564,1588856868357540020,,0.392775206524,-1.9612060351,2.27881562256,0.462420871825,-0.00687460202059,-0.11446035803
1588856868363735812,10565,1588856868363624846,,0.392758369139,-1.96120729021,2.2788174444,0.462421415757,-0.00687591964259,-0.114458081369
1588856868369865439,10566,1588856868369689097,,0.415800278767,-1.82978611313,2.27828951378,0.467098759162,-0.00755415031776,-0.118764145163
1588856868375915075,10567,1588856868375801125,,0.415494583156,-1.69860662682,2.30041145312,0.471522235675,-0.00690021483864,-0.118706252035
1588856868381649446,10568,1588856868381552572,,0.415455609502,-1.69860613775,2.30041885323,0.471522857787,-0.00690748158267,-0.11870335823
1588856868387622338,10569,1588856868387512810,,0.461186022848,-1.69895457122,2.32452947917,0.476054139483,-0.00758431135501,-0.122878152064
1588856868393598091,10570,1588856868393516700,,0.438204149689,-1.56758662196,2.32307535836,0.479734997353,-0.00759682804415,-0.123870959236
1588856868400053555,10571,1588856868399951007,,0.461281258346,-1.43653243462,2.32255937232,0.4871456382,-0.00761629379198,-0.128158347886
1588856868405752114,10572,1588856868405528706,,0.461243708677,-1.43652273434,2.32257282941,0.487147794254,-0.00761633258368,-0.128150149873
1588856868411685586,10573,1588856868411565693,,0.460831966761,-1.43670124801,2.34575988158,0.490705514432,-0.00828175122232,-0.129909858619
1588856868417689568,10574,1588856868417566282,,0.483599996132,-1.30597014349,2.36856836705,0.496069008362,-0.00829622936711,-0.130594659084
1588856868423900311,10575,1588856868423768351,,0.460859721601,-1.30569207936,2.34480040267,0.498026412153,-0.00830328940532,-0.129805393082
1588856868429779676,10576,1588856868429647655,,0.460575221884,-1.17498070498,2.36716500142,0.500540526028,-0.0083147242821,-0.126146744883
1588856868435639316,10577,1588856868435502643,,0.460588388784,-1.17500190533,2.36715191625,0.500539583169,-0.00831537986823,-0.126150442803
1588856868441676255,10578,1588856868441566792,,0.437253348076,-1.17510776175,2.38985465592,0.502136232297,-0.00766662654812,-0.122651968659
1588856868447738116,10579,1588856868447636882,,0.437406279276,-1.04440601545,2.38894646928,0.504837216739,-0.00768258977214,-0.120812535772
1588856868453612364,10580,1588856868453522026,,0.413996412248,-1.04451400216,2.41165729887,0.507373429348,-0.00768641161307,-0.118211766342
1588856868460071505,10581,1588856868459986140,,0.390514092911,-0.914134218217,2.45690322715,0.516071219155,-0.00704739745416,-0.111002775759
1588856868466029718,10582,1588856868465664253,,0.390535642954,-0.914166849362,2.45688766051,0.516069765457,-0.00705122183497,-0.111009291183
1588856868471821402,10583,1588856868471724343,,0.34416885042,-0.914186340348,2.47914766458,0.518529025496,-0.0070620378784,-0.104924727444
1588856868478089584,10584,1588856868477984723,,0.344194616381,-0.914210084524,2.47913533166,0.522165667542,-0.00640402698558,-0.103974621924
1588856868483759902,10585,1588856868483657934,,0.320889307795,-0.914316678311,2.50188325061,0.52558209932,-0.00708273820765,-0.0995500208225
1588856868489789953,10586,1588856868489592823,,0.320337064941,-0.783974005278,2.54780851146,0.53435834793,-0.00644124855671,-0.0957953338014
1588856868495841607,10587,1588856868495731167,,0.319801862169,-0.653677527905,2.59375773528,0.539542913092,-0.00645330831,-0.0948128578083
1588856868502018878,10588,1588856868501750659,,0.31980324038,-0.65368458033,2.59375578799,0.539542690051,-0.00645618650343,-0.0948139310956
1588856868507869587,10589,1588856868507756551,,0.296240269301,-0.523328463148,2.63946230114,0.546473643428,-0.00647353868678,-0.0903267790611
1588856868513803511,10590,1588856868513607104,,0.296244957614,-0.523326677006,2.63946212908,0.546473444528,-0.00647447769679,-0.0903279150895
1588856868520090222,10591,1588856868519989594,,0.296142798069,-0.392951626787,2.6623935042,0.552727076242,-0.00649203586235,-0.0902398607654
1588856868525743579,10592,1588856868525648824,,0.295801625092,-0.3930448969,2.685668314,0.557142642058,-0.00650263236606,-0.0892650207738
1588856868531716490,10593,1588856868531618808,,0.295344936217,-0.262720365447,2.7321100311,0.5641300398,-0.00652230409832,-0.0873561537909
1588856868537718815,10594,1588856868537601537,,0.272374198521,-0.262675880476,2.73164150952,0.566860577078,-0.00719726599479,-0.0865584245039
1588856868543788807,10595,1588856868543637450,,0.294993476066,-0.262787810593,2.75539307691,0.571302585108,-0.00720694133325,-0.0872511910056
1588856868549760332,10596,1588856868549639940,,0.271541074079,-0.132329602118,2.80150122453,0.575574645972,-0.00722267839092,-0.0864297070503
1588856868555815412,10597,1588856868555628577,,0.271159167894,-0.132360499154,2.82479256685,0.580020093415,-0.00723117229829,-0.087265268602
1588856868561664676,10598,1588856868561568777,,0.293682228111,-0.0019357069331,2.87184500918,0.589809771288,-0.00658344079504,-0.0878724147789
1588856868567783785,10599,1588856868567688210,,0.293675408844,-0.00193901299228,2.8718457043,0.589809997759,-0.00658173326235,-0.0878710225772
1588856868573778070,10600,1588856868573676412,,0.292922621584,-0.00195591341376,2.91852867072,0.596835781825,-0.0072681080104,-0.0877626651568
1588856868580176640,10601,1588856868580078247,,0.293131428077,0.259226992173,2.94213216224,0.608588588974,-0.00729883808359,-0.0875778421688
1588856868586094169,10602,1588856868585763260,,0.293132197363,0.259224232032,2.94213232879,0.608588566689,-0.00729966526309,-0.0875779280865
1588856868591721795,10603,1588856868591633015,,0.292756747847,0.259225542247,2.96542294119,0.612105542112,-0.0073119191711,-0.0875231844577
1588856868597682671,10604,1588856868597555220,,0.292017152025,0.25927216,3.01209919771,0.618241563584,-0.00733025927999,-0.0883368102693
1588856868603771376,10605,1588856868603653467,,0.291961854889,0.389973664237,3.03567349403,0.622685313984,-0.00801172626685,-0.0891856219494
1588856868609747477,10606,1588856868609655161,,0.291587375673,0.390010101404,3.0590590487,0.627133653575,-0.0080246531964,-0.0900233768972
1588856868615786404,10607,1588856868615673649,,0.291530286952,0.520799937804,3.08270640247,0.633400586964,-0.00736777003081,-0.0899259753232
1588856868621819772,10608,1588856868621647864,,0.314280705671,0.520800969908,3.1064487966,0.639670673716,-0.00805385817996,-0.0905910934787
1588856868627750161,10609,1588856868627645992,,0.291106136882,0.651729331057,3.12969738497,0.645017980064,-0.00872759255317,-0.0906527853175
1588856868633727035,10610,1588856868633630985,,0.290733240441,0.651780660725,3.15307620101,0.65215930036,-0.00874548798886,-0.088729405226
1588856868642675720,10611,1588856868642552777,,0.313464971448,0.782751174771,3.20057216433,0.663795076049,-0.00877359592666,-0.0902200309852
1588856868648691381,10612,1588856868648596667,,0.313791940919,0.913709440817,3.20111897518,0.66654409616,-0.00877765490295,-0.0901743757897
1588856868654737529,10613,1588856868654516194,,0.290274608888,0.913831987498,3.22393001032,0.671873025262,-0.00946154596864,-0.0893298978831
1588856868660597696,10614,1588856868660506639,,0.290619896931,1.04484707985,3.22452974561,0.676470562857,-0.00880149559354,-0.0901645067669
1588856868666717527,10615,1588856868666605948,,0.313368209537,1.1760841973,3.27223692561,0.686260894379,-0.00949492401163,-0.0907766396486
1588856868676012855,10616,1588856868675893905,,0.313380506077,1.30734179416,3.2961619295,0.690666958434,-0.0101803085282,-0.0898078681089
1588856868681736202,10617,1588856868681628101,,0.289496738201,1.17629604069,3.31829831007,0.692329084943,-0.0101862468958,-0.0890212747686
1588856868687805252,10618,1588856868687668138,,0.312691125425,1.17625740893,3.31874469694,0.701464732932,-0.00953864112626,-0.0878192492531
1588856868693860574,10619,1588856868693624666,,0.312723532274,1.17624312852,3.31874670477,0.70146393794,-0.0095403205408,-0.0878254166834
1588856868700058046,10620,1588856868699870329,,0.289557616142,1.3075554416,3.34231224994,0.704968267129,-0.00955456207713,-0.0870125111559
1588856868705998735,10621,1588856868705665995,,0.266571410321,1.30756463938,3.3418738807,0.707698284336,-0.0102342649057,-0.0862253686516
1588856868711704070,10622,1588856868711579493,,0.266994267918,1.43881609048,3.3425650255,0.711300828478,-0.0102507084028,-0.0834479509086
1588856868717708736,10623,1588856868717599665,,0.266255637388,1.30762074526,3.36513589113,0.714826828066,-0.0102659104694,-0.0843056665435
1588856868723643931,10624,1588856868723517371,,0.266568341512,1.43884467532,3.36584495141,0.715729146504,-0.0102672915439,-0.0833662588368
1588856868729708470,10625,1588856868729617130,,0.243343880441,1.5702750673,3.3893863575,0.718293716228,-0.0102718819897,-0.0816540958561
1588856868735726431,10626,1588856868735593386,,0.26646996234,1.70171083209,3.41381855139,0.720906716462,-0.0102648702941,-0.0823792243661
1588856868741766937,10627,1588856868741667978,,0.289109653669,1.701764282,3.43760438359,0.724442894278,-0.0102426295025,-0.0830858078625
1588856868747686216,10628,1588856868747597877,,0.289090944838,1.70170350308,3.43763604452,0.724442908263,-0.0102307857616,-0.083087145136
1588856868753737586,10629,1588856868753659730,,0.265912223759,1.70157552556,3.43728646323,0.727142138563,-0.0102153153083,-0.0804583552132
1588856868760193689,10630,1588856868760073673,,0.243122937304,1.70145628086,3.41353771505,0.732743173067,-0.0108860227491,-0.0786877472002
1588856868765994747,10631,1588856868765760357,,0.24231500217,1.70164669164,3.46012004544,0.736131260096,-0.0108881168283,-0.0795500750377
1588856868771914659,10632,1588856868771807290,,0.219209713355,1.70168314715,3.4596868576,0.73700800475,-0.0108887237068,-0.0778553830439
1588856868777988842,10633,1588856868777835275,,0.219186869043,1.70168109205,3.45968931579,0.737008456221,-0.0108869828353,-0.0778513526005
1588856868783753697,10634,1588856868783565558,,0.241826398752,1.70176935576,3.48335426004,0.741445419038,-0.0102294331923,-0.0776228048552
1588856868789566427,10635,1588856868789485312,,0.264946046746,1.70177318977,3.48377835553,0.743291593179,-0.0102334860281,-0.0783413122857
1588856868795661159,10636,1588856868795586073,,0.21785852985,1.7020738498,3.52947111293,0.752101842894,-0.0102596310708,-0.0757610859286
1588856868801721004,10637,1588856868801613070,,0.217785260246,1.70211076714,3.52945783131,0.752103222925,-0.0102548765916,-0.0757480285315
1588856868807587311,10638,1588856868807490958,,0.240539582519,1.70218366911,3.55312488647,0.758364770346,-0.0109277870171,-0.0755112048704
1588856868813508864,10639,1588856868813447159,,0.263709634222,1.70214900367,3.55356414567,0.762038147781,-0.011612587328,-0.0762067965891
1588856868819846281,10640,1588856868819757727,,0.240171082509,1.57077787406,3.55241008719,0.770191097937,-0.0109694238721,-0.0716466695502
1588856868825803860,10641,1588856868825696093,,0.240240964037,1.57078249083,3.55240332054,0.770189627477,-0.010967238644,-0.0716628094824
1588856868831852272,10642,1588856868831746010,,0.239736011269,1.70239230334,3.59970309547,0.775388533992,-0.0116531912854,-0.0715688523115
1588856868837835800,10643,1588856868837684574,,0.239856262828,1.57086081034,3.57565697329,0.778303897578,-0.010992560045,-0.0724460567537
1588856868843964554,10644,1588856868843839606,,0.216300386794,1.57098419751,3.59857707086,0.78270313181,-0.0110011659377,-0.0706812721214
1588856868849777259,10645,1588856868849653471,,0.239035103494,1.57104732549,3.62225529074,0.788064951769,-0.0110236669375,-0.0713565193617
1588856868855835117,10646,1588856868855723273,,0.238601070582,1.57115594923,3.64549988209,0.791591475407,-0.011036801742,-0.072206492284
1588856868861745417,10647,1588856868861639162,,0.238185595623,1.57130721568,3.66872535526,0.796029116785,-0.0110367047557,-0.0721336498208
1588856868867867213,10648,1588856868867756779,,0.214687193764,1.5714650246,3.69162865859,0.80315765108,-0.0117319817537,-0.0694244684565
1588856868873971266,10649,1588856868873864058,,0.236936449653,1.57163427304,3.73855861956,0.814830891898,-0.0117506328144,-0.0727185206974
1588856868879729444,10650,1588856868879635918,,0.236930070165,1.57166128165,3.73854766973,0.814830979636,-0.0117495754957,-0.0727177084082
1588856868885886407,10651,1588856868885735656,,0.260065956106,1.70315432276,3.76289920765,0.817461599488,-0.0117544811841,-0.0743490260484
1588856868891768912,10652,1588856868891673180,,0.236505272652,1.70327410644,3.78581115588,0.820984784824,-0.0117698588539,-0.0744521312898
1588856868897927364,10653,1588856868897750093,,0.259705657991,1.70323918719,3.78624738242,0.822846934602,-0.01176871854,-0.0760948209837
1588856868903682705,10654,1588856868903598863,,0.259677347254,1.70324027305,3.78624883573,0.821945524176,-0.0117707027578,-0.0770109900238
1588856868909792279,10655,1588856868909646404,,0.2596137574,1.70323067814,3.7862575127,0.821946866573,-0.0117722846562,-0.0769964193001
1588856868915675786,10656,1588856868915593387,,0.260051761453,1.70313012951,3.76291113885,0.822147113592,-0.0117726333204,-0.0797378700934
1588856868921799993,10657,1588856868921678020,,0.25999435346,1.7031128666,3.76292291913,0.822148545076,-0.0117795909015,-0.0797220814922
1588856868927829060,10658,1588856868927729597,,0.307071786487,1.83440444011,3.74125826877,0.823274630542,-0.0117860567736,-0.083050011605
1588856868933761825,10659,1588856868933617261,,0.306684628567,1.83449976883,3.76449898055,0.825890567852,-0.0117963905724,-0.0839257688666
1588856868940033400,10660,1588856868939926510,,0.306966483244,1.96601106129,3.76522674564,0.825908251704,-0.0124672372444,-0.0848225217308
