%time,field.header.seq,field.header.stamp,field.header.frame_id,field.vector.x,field.vector.y,field.vector.z
1589285559325948689,799,1589285559325888596,,-0.000145205404103,-5.27086507083,1.25773240938
1589285559332302589,800,1589285559332218669,,2.62567160375e-05,-5.26629887154,1.25706347652
1589285559338231284,801,1589285559338139688,,4.70342408354e-05,-5.2679109089,1.25591908173
1589285559344275269,802,1589285559344168757,,2.92638852595e-05,-5.28815199752,1.2598987161
1589285559350260300,803,1589285559350177862,,0.000216164657799,-5.29589746952,1.26063708422
1589285559356309271,804,1589285559356174532,,9.95057612835e-05,-5.3159689098,1.26388622475
1589285559362301282,805,1589285559362229403,,6.14612618022e-05,-5.32341909356,1.26495508297
1589285559368274574,806,1589285559368190926,,-7.80577152915e-05,-5.34329788903,1.26803353036
1589285559374403961,807,1589285559374264637,,-0.000205476762313,-5.35100590069,1.26863088667
1589285559380233395,808,1589285559380094319,,-0.000345698681188,-5.37056187089,1.27196072508
1589285559386115211,809,1589285559386019566,,-0.000698371268489,-5.37904800125,1.27228645081
1589285559392260721,810,1589285559392111584,,-0.000880199750988,-5.36840042229,1.2693100686
1589285559398834409,811,1589285559398750213,,-0.00133960666992,-5.38068051003,1.27103188432
1589285559401750517,812,1589285559401613921,,-0.00162508870977,-5.39525251899,1.27365530657
1589285559407431837,813,1589285559407278828,,-0.00214292250246,-5.40248188253,1.27403676796
1589285559413266420,814,1589285559413160599,,-0.00234961844392,-5.42025909377,1.27720331494
1589285559419893750,815,1589285559419803060,,-0.00282196562974,-5.42519391179,1.27692314286
1589285559425081303,816,1589285559424793343,,-0.00286445026431,-5.41226839366,1.27419506839
1589285559431423706,817,1589285559431254350,,-0.00304951845113,-5.41478721546,1.2742095089
1589285559437313297,818,1589285559437150467,,-0.00306091100909,-5.42963157679,1.27687327506
1589285559443259257,819,1589285559443161769,,-0.00332065435805,-5.44426682908,1.27992624645
1589285559449350414,820,1589285559449270559,,-0.00326645550335,-5.45855861707,1.28210777024
1589285559455349861,821,1589285559455250554,,-0.00323899127186,-5.45904629647,1.28227071908
1589285559461324393,822,1589285559461247146,,-0.0032482045296,-5.47646342761,1.28554918983
1589285559467462178,823,1589285559467327896,,-0.00314598350036,-5.47473749316,1.283889634
1589285559473352015,824,1589285559473258353,,-0.00280809121516,-5.49213223081,1.2875858353
1589285559479518743,825,1589285559479413126,,-0.00313970856113,-5.49144534773,1.28711085228
1589285559485346795,826,1589285559485237406,,-0.0032516261489,-5.47974934761,1.28470831948
1589285559491442873,827,1589285559491246498,,-0.00377847820979,-5.48376148152,1.28535489251
1589285559497378200,828,1589285559497303569,,-0.00416683756385,-5.49881444226,1.28859295119
1589285559503277386,829,1589285559503176252,,-0.00456043478615,-5.5016528805,1.28852078481
1589285559509285925,830,1589285559509189407,,-0.00435938994755,-5.51462740356,1.29184531221
1589285559515339473,831,1589285559515212663,,-0.00477609696777,-5.51446160066,1.29110549416
1589285559521402942,832,1589285559521297262,,-0.00471691370693,-5.5258780547,1.29340689856
1589285559527412269,833,1589285559527305094,,-0.00527535308647,-5.52300770549,1.2922128579
1589285559533372835,834,1589285559533269347,,-0.00528684006327,-5.53263375363,1.29410911822
1589285559539761866,835,1589285559539623819,,-0.00557384245303,-5.54201771204,1.29565424795
1589285559545378973,836,1589285559545260096,,-0.00579652125649,-5.51115641244,1.28920066394
1589285559551325755,837,1589285559551200409,,-0.00578096557621,-5.51924949522,1.29058781845
1589285559557360669,838,1589285559557248520,,-0.00597637306211,-5.5115912118,1.28802078551
1589285559563324849,839,1589285559563222970,,-0.00590200338813,-5.51910916985,1.28916630067
1589285559569808319,840,1589285559569596042,,-0.00582233123339,-5.52670633663,1.29029237937
1589285559575378994,841,1589285559575257176,,-0.00587172022213,-5.5194861014,1.28834198759
1589285559581379187,842,1589285559581245495,,-0.00575246742713,-5.52744396246,1.29013168957
1589285559587755159,843,1589285559587655748,,-0.00627905398069,-5.52116314933,1.28875865776
1589285559593232761,844,1589285559593146302,,-0.00629499974396,-5.52900885521,1.29085714507
1589285559602552115,845,1589285559602472296,,-0.0072759108423,-5.51066859425,1.28705457411
1589285559608246226,846,1589285559608128453,,-0.00779707967608,-5.50401854674,1.28502013471
1589285559614373058,847,1589285559614267925,,-0.00810804811106,-5.51007426502,1.28605880683
1589285559620204252,848,1589285559620129318,,-0.00852198875398,-5.50035959854,1.2833128564
1589285559626182060,849,1589285559626105966,,-0.00857157821926,-5.50433629369,1.28404015672
1589285559632772504,850,1589285559632603446,,-0.00910716996631,-5.47352286243,1.27719301379
1589285559638294575,851,1589285559638196323,,-0.00916802819593,-5.4763412005,1.2775891031
1589285559644377036,852,1589285559644260675,,-0.00934956312323,-5.46290665251,1.2747076994
1589285559650399286,853,1589285559650282120,,-0.00911390644556,-5.46491788723,1.27546804937
1589285559656356228,854,1589285559656262168,,-0.00925459630984,-5.45065370617,1.27300303031
1589285559662542642,855,1589285559662398324,,-0.00914597188389,-5.45258570795,1.27355397173
1589285559668466416,856,1589285559668309964,,-0.00931384138565,-5.43857787835,1.271758105
1589285559674487773,857,1589285559674378087,,-0.0095324242111,-5.44099843668,1.27226747269
1589285559680193282,858,1589285559680082819,,-0.0101308687206,-5.42845507421,1.27014363219
1589285559692349088,859,1589285559692221501,,-0.0112356017468,-5.40241068962,1.26398255678
1589285559698662114,860,1589285559698530640,,-0.0116981596489,-5.40429286249,1.26332160226
1589285559701598371,861,1589285559701503451,,-0.0119117745047,-5.40540964494,1.26346915887
1589285559707332762,862,1589285559707219386,,-0.0126579236425,-5.39131444352,1.25922403492
1589285559713457427,863,1589285559713368100,,-0.0134803972592,-5.37551135033,1.25448877083
1589285559719563900,864,1589285559719451352,,-0.013701774753,-5.37442728745,1.25379751153
1589285559725258627,865,1589285559725142809,,-0.0139379471579,-5.35797085075,1.25000783666
1589285559731258431,866,1589285559731177097,,-0.0140792843557,-5.33861019852,1.24551148147
1589285559737239740,867,1589285559737128049,,-0.0141844020764,-5.33563553193,1.244756802
1589285559743233205,868,1589285559743104493,,-0.0141210610661,-5.33146536555,1.24406479539
1589285559749348006,869,1589285559749263455,,-0.0137681194237,-5.31018451273,1.24107709543
1589285559755117033,870,1589285559755037266,,-0.0138216175656,-5.30634228781,1.24097650177
1589285559761383416,871,1589285559761292281,,-0.0141888413999,-5.28625575838,1.23871934522
1589285559767404967,872,1589285559767293709,,-0.0144808819166,-5.28241986987,1.23911366494
1589285559773475626,873,1589285559773316467,,-0.0149477031986,-5.26310490352,1.2368108785
1589285559785347029,874,1589285559785190468,,-0.0157671146362,-5.2312069704,1.23092766294
1589285559791247199,875,1589285559791144951,,-0.0158727497303,-5.22759944219,1.22984011562
1589285559797290914,876,1589285559797218290,,-0.0167355386331,-5.20951548344,1.22513758947
1589285559803221505,877,1589285559803150217,,-0.0173170233007,-5.20543994935,1.22376651163
1589285559809546724,878,1589285559809441760,,-0.0183037143526,-5.18519427061,1.21815420953
1589285559815430151,879,1589285559815325158,,-0.0186876392306,-5.17978502001,1.21647027134
1589285559821518684,880,1589285559821411740,,-0.0193495923103,-5.15686470349,1.21088508714
1589285559827342790,881,1589285559827221876,,-0.0193947405302,-5.14927232861,1.20906361804
1589285559833230593,882,1589285559833169227,,-0.0194108852505,-5.12332442585,1.20374216341
1589285559839948847,883,1589285559839853317,,-0.0192385418665,-5.11414201096,1.20216290972
1589285559845498224,884,1589285559845349695,,-0.0193795767745,-5.0968102667,1.19944739577
1589285559851429097,885,1589285559851337737,,-0.019045770323,-5.08685884287,1.19800026192
1589285559857420763,886,1589285559857343471,,-0.0192010606683,-5.05976715658,1.19423237597
1589285559863426226,887,1589285559863297095,,-0.0192415906243,-5.04977367086,1.19289785
1589285559869397838,888,1589285559869311133,,-0.0195931875514,-5.02430829625,1.18835843663
1589285559875511202,889,1589285559875345448,,-0.0196037851962,-5.01431607494,1.1866099465
1589285559881472382,890,1589285559881336998,,-0.0200609648363,-4.9892862706,1.18099058191
1589285559887491984,891,1589285559887337976,,-0.02038172783,-4.97973335688,1.17877985894
1589285559893099441,892,1589285559893013702,,-0.021350014662,-4.95549439596,1.17261966954
1589285559899763931,893,1589285559899663121,,-0.0218075248033,-4.94470644697,1.16988742328
1589285559902599749,894,1589285559902499858,,-0.0227783284431,-4.91475494863,1.16329313875
1589285559908389521,895,1589285559908310691,,-0.0233674198495,-4.90333736823,1.1606349293
1589285559914522746,896,1589285559914407743,,-0.0239440378496,-4.87599929767,1.15502492341
1589285559920264705,897,1589285559920201646,,-0.0240739990188,-4.86289527342,1.15266461226
1589285559926335509,898,1589285559926251972,,-0.0242656426283,-4.83317501916,1.14763826524
1589285559932405232,899,1589285559932331782,,-0.0244235389827,-4.797377394,1.14166684268
1589285559938422553,900,1589285559938349620,,-0.0247837120142,-4.78395399367,1.14085287061
1589285559944507750,901,1589285559944389753,,-0.0249685443121,-4.76871866375,1.13875436595
1589285559951903382,902,1589285559951806243,,-0.0255123155165,-4.73642289651,1.13321460465
1589285559964955361,903,1589285559964883614,,-0.0262843544085,-4.690114628,1.12436524038
1589285559971419798,904,1589285559971293479,,-0.0265556744881,-4.67557455646,1.1210739421
1589285559976930202,905,1589285559976847009,,-0.0269308680214,-4.64552165251,1.11458161078
1589285559983194500,906,1589285559983090114,,-0.0275788162052,-4.63107424863,1.11067147174
1589285559989282619,907,1589285559989216466,,-0.0286324817104,-4.60165215713,1.10310422008
1589285559995237093,908,1589285559995067024,,-0.0291793980342,-4.58612445148,1.09926002821
1589285559998758694,909,1589285559998646983,,-0.0302989719417,-4.55636686859,1.09207197184
1589285560001813549,910,1589285560001735099,,-0.0309887322131,-4.54054834037,1.08832312301
1589285560007416627,911,1589285560007330673,,-0.0317290426931,-4.50906601381,1.08142659364
1589285560013404725,912,1589285560013297147,,-0.0317146656794,-4.49185803499,1.07811233675
1589285560019616179,913,1589285560019487902,,-0.0318834256673,-4.45913613392,1.07245648748
1589285560025487647,914,1589285560025334343,,-0.0317365192672,-4.44044499568,1.06998871003
1589285560031398857,915,1589285560031317131,,-0.0316434899202,-4.42107217775,1.06710593098
1589285560037384602,916,1589285560037260748,,-0.0314194663808,-4.40147184087,1.0641858214
1589285560043364527,917,1589285560043302892,,-0.0312823738629,-4.36400143307,1.05874281731
1589285560049385688,918,1589285560049285651,,-0.0311253271818,-4.3439393719,1.05602117601
1589285560055533526,919,1589285560055418213,,-0.0312229780332,-4.30784510935,1.04972870036
1589285560061285453,920,1589285560061210395,,-0.0309750051601,-4.29302433393,1.04768192683
1589285560067286292,921,1589285560067170795,,-0.0315008858541,-4.25469330212,1.03893171914
1589285560073340966,922,1589285560073253772,,-0.0315326394038,-4.24074343066,1.03598535483
1589285560085751116,923,1589285560085453669,,-0.0332632582978,-4.19253587795,1.02341832115
1589285560091324807,924,1589285560091164702,,-0.0338110056602,-4.17463151599,1.01927597245
1589285560097223287,925,1589285560097146447,,-0.0346628441393,-4.14459984449,1.01112880853
1589285560103284819,926,1589285560103130606,,-0.0353694746497,-4.11230354525,1.00286706871
1589285560109235288,927,1589285560109134731,,-0.0354123911356,-4.0924595273,0.998959811212
1589285560115402637,928,1589285560115301011,,-0.0358489450811,-4.07162911866,0.994627795763
1589285560121082742,929,1589285560121008035,,-0.0361738170036,-4.03423107036,0.987964204967
1589285560127186083,930,1589285560127099976,,-0.0363236101575,-3.99432583257,0.98187945052
1589285560133233843,931,1589285560133123664,,-0.0365909086632,-3.97044627544,0.97784532028
1589285560145423533,932,1589285560145249098,,-0.0366134538058,-3.92877199039,0.971790710958
1589285560151480114,933,1589285560151395694,,-0.0361256318094,-3.89625645376,0.967042135507
1589285560157386679,934,1589285560157299809,,-0.03600671436,-3.8691053302,0.961419125532
1589285560163437282,935,1589285560163350484,,-0.0360614699999,-3.83638792041,0.956037852826
1589285560169392549,936,1589285560169301411,,-0.0363876567207,-3.81055796493,0.95130889527
1589285560175361727,937,1589285560175235205,,-0.0369749967263,-3.77502766725,0.943876514788
1589285560181393210,938,1589285560181277606,,-0.0374056988393,-3.75498980075,0.939887434002
1589285560187220442,939,1589285560187153052,,-0.0380943413234,-3.72506123698,0.932599638648
1589285560193219814,940,1589285560193137655,,-0.0382326162425,-3.70527462461,0.927535966773
1589285560202518750,941,1589285560202432545,,-0.0389670410572,-3.66007322976,0.917183664542
1589285560208278173,942,1589285560208201412,,-0.039565297547,-3.62349889377,0.911265992514
1589285560214307721,943,1589285560214214560,,-0.0397564343262,-3.59854726271,0.906612675631
1589285560220222112,944,1589285560220143905,,-0.0399382257846,-3.55680397251,0.899760719189
1589285560226619453,945,1589285560226508058,,-0.0397475104147,-3.52893621457,0.894825931383
1589285560232460471,946,1589285560232359723,,-0.0395142035776,-3.49575362504,0.889248400669
1589285560238326986,947,1589285560238209628,,-0.0392607339618,-3.4723940142,0.885243520832
1589285560244530730,948,1589285560244391333,,-0.0390847302026,-3.42848211761,0.876931286183
1589285560250265529,949,1589285560250175522,,-0.0387009825251,-3.40226716791,0.872017461766
1589285560256183803,950,1589285560256098849,,-0.0389765854661,-3.36254215453,0.865549789957
1589285560262128089,951,1589285560262037203,,-0.0392611135105,-3.33584494938,0.860762074617
1589285560268172095,952,1589285560268088330,,-0.0402559515374,-3.30193596967,0.85565808188
1589285560274536524,953,1589285560274419670,,-0.040659796593,-3.28002107108,0.851827113447
1589285560280422605,954,1589285560280349981,,-0.0413511804356,-3.24944667124,0.844719028263
1589285560286869721,955,1589285560286784977,,-0.0418163382402,-3.22785205102,0.83959568008
1589285560292653879,956,1589285560292550578,,-0.0430273809632,-3.20897714415,0.834968846523
1589285560298790474,957,1589285560298690056,,-0.0435036008171,-3.18546165405,0.830676604109
1589285560301649340,958,1589285560301557555,,-0.0447563793606,-3.1489346139,0.822724200186
1589285560307372764,959,1589285560307280090,,-0.0449571400354,-3.12189306697,0.817721137161
1589285560313500405,960,1589285560313396538,,-0.0451373701623,-3.08064941932,0.809965239115
1589285560319649906,961,1589285560319512862,,-0.0450418481881,-3.05165782791,0.804625752485
1589285560325578748,962,1589285560325326882,,-0.0450316231599,-3.0368828986,0.802516557004
1589285560331517351,963,1589285560331419295,,-0.0452104318958,-2.99169894718,0.795811837019
1589285560337450599,964,1589285560337337977,,-0.0450741199819,-2.96104944921,0.791696477718
1589285560343451689,965,1589285560343341827,,-0.0449396218187,-2.93128401413,0.787670695212
1589285560349451582,966,1589285560349303940,,-0.0450447942985,-2.88744661777,0.782250873824
1589285560355447795,967,1589285560355345481,,-0.0453498247263,-2.85981693528,0.778203137327
1589285560361336249,968,1589285560361246740,,-0.0460621588768,-2.82107766784,0.774389427376
1589285560367484082,969,1589285560367376656,,-0.0469065287802,-2.79560338119,0.770675983372
1589285560373367042,970,1589285560373241894,,-0.0483936826234,-2.76136269651,0.766700365759
1589285560385399613,971,1589285560385243786,,-0.0511103396033,-2.72063323553,0.761473567113
1589285560391369020,972,1589285560391269855,,-0.0530163017034,-2.68776035244,0.756928379582
1589285560397454685,973,1589285560397374228,,-0.0537321094987,-2.66289516804,0.752377514387
1589285560403315510,974,1589285560403229364,,-0.0544941431126,-2.63688925231,0.748522068859
1589285560409401657,975,1589285560409288982,,-0.0552762246811,-2.59882969887,0.743681437067
1589285560415376659,976,1589285560415290644,,-0.055204265481,-2.56118241843,0.739865029915
1589285560421560139,977,1589285560421478985,,-0.0548862969467,-2.5346281892,0.736406289429
1589285560427699509,978,1589285560427549001,,-0.0546174060907,-2.50212608541,0.732294970053
1589285560433476654,979,1589285560433376038,,-0.0540319904253,-2.46483795709,0.728828152463
1589285560445417488,980,1589285560445247049,,-0.0545590906193,-2.42146259311,0.724469699861
1589285560451579790,981,1589285560451128668,,-0.0545581320969,-2.39449047984,0.721511746444
1589285560457261117,982,1589285560457177965,,-0.0555190288613,-2.36168832331,0.717910462851
1589285560463414651,983,1589285560463244671,,-0.0558703993226,-2.33796151328,0.713943401283
1589285560469615319,984,1589285560469452191,,-0.0567276967751,-2.30828780929,0.710750735134
1589285560475608168,985,1589285560475498061,,-0.0574671074943,-2.28535252007,0.706976634769
1589285560481513974,986,1589285560481409169,,-0.0581717056336,-2.26220862031,0.704619173893
1589285560487529864,987,1589285560487428867,,-0.0595586084847,-2.2325310399,0.70261116771
1589285560493682881,988,1589285560493562060,,-0.0604560855572,-2.20061461806,0.700211093736
1589285560502724366,989,1589285560502586289,,-0.0608773502426,-2.16581132201,0.697159100443
1589285560508365161,990,1589285560508284062,,-0.0605754341875,-2.12744556956,0.69393444695
1589285560514526928,991,1589285560514438233,,-0.060483200847,-2.09839946927,0.69041558113
1589285560520554526,992,1589285560520421758,,-0.0598467452501,-2.05706487002,0.686714416905
1589285560532728365,993,1589285560532639573,,-0.0591225167671,-1.97849194829,0.678159844828
1589285560538523395,994,1589285560538434278,,-0.0587079099327,-1.96686638742,0.68111007695
1589285560544537279,995,1589285560544428472,,-0.0584597136121,-1.94171209802,0.678627695626
1589285560550621733,996,1589285560550501917,,-0.0585787882179,-1.91354121758,0.675572077061
1589285560556608413,997,1589285560556428969,,-0.0585166015293,-1.88445128132,0.674297714846
1589285560562550620,998,1589285560562434684,,-0.059127153669,-1.85989209355,0.671144021434
1589285560568612639,999,1589285560568464647,,-0.0599538446257,-1.83087851244,0.669240511003
1589285560574562593,1000,1589285560574432508,,-0.0606329449268,-1.80973453747,0.665902038487
1589285560580533738,1001,1589285560580425100,,-0.0614951839743,-1.78440637858,0.662126353803
1589285560586873575,1002,1589285560586708401,,-0.0616012108429,-1.76199912778,0.657925589409
1589285560592759029,1003,1589285560592616854,,-0.0618680919779,-1.75114551697,0.658189070097
1589285560599130100,1004,1589285560598863767,,-0.0618466673732,-1.7264759266,0.654628470709
1589285560602024215,1005,1589285560601872648,,-0.0614303568019,-1.69484628645,0.652895589192
1589285560607604674,1006,1589285560607510506,,-0.0609154145758,-1.66684367132,0.649097053957
1589285560613654723,1007,1589285560613495242,,-0.0598819664531,-1.63287605597,0.648006835846
1589285560625881141,1008,1589285560625582810,,-0.0585174025736,-1.58624613629,0.645340981893
1589285560631467381,1009,1589285560631365143,,-0.0582312579698,-1.5596312952,0.641848406879
1589285560637385868,1010,1589285560637303607,,-0.0579839999085,-1.53393051604,0.638755035008
1589285560643522351,1011,1589285560643367138,,-0.0578769885223,-1.50099131463,0.634609538541
1589285560649665358,1012,1589285560649517864,,-0.0577784416896,-1.47667612082,0.631380028496
1589285560655619425,1013,1589285560655536741,,-0.0584643433974,-1.44763615521,0.628376046294
1589285560661417306,1014,1589285560661334210,,-0.0586105478688,-1.4271454789,0.625478180194
1589285560667459310,1015,1589285560667344887,,-0.0594820454543,-1.3994744508,0.622831499548
1589285560673436462,1016,1589285560673365141,,-0.0598071404554,-1.37983414436,0.620132235311
1589285560685532470,1017,1589285560685424783,,-0.0609801243833,-1.34765950656,0.618004520287
1589285560691491356,1018,1589285560691393848,,-0.0614318230169,-1.3259369975,0.614414872237
1589285560697566782,1019,1589285560697438603,,-0.0616254090681,-1.29758268396,0.611709124056
1589285560703608331,1020,1589285560703489265,,-0.0615734770668,-1.27429110629,0.607848451719
1589285560709611251,1021,1589285560709490675,,-0.0613795515498,-1.24260031119,0.604992225666
1589285560715717937,1022,1589285560715524977,,-0.0613088072492,-1.21885340223,0.601368385241
1589285560721465201,1023,1589285560721376109,,-0.0608328571087,-1.18595062459,0.599204106846
1589285560727601951,1024,1589285560727501165,,-0.0606557126207,-1.16251023819,0.596342583939
1589285560733697877,1025,1589285560733611103,,-0.0605704637618,-1.13231064156,0.594396444046
1589285560745579491,1026,1589285560745469128,,-0.0606790339125,-1.10354681885,0.592272851691
1589285560751722265,1027,1589285560751584202,,-0.0609731509972,-1.0781083349,0.590528064818
1589285560757608050,1028,1589285560757505859,,-0.0613456462449,-1.05834537029,0.587440315769
1589285560763664003,1029,1589285560763540621,,-0.0620841950955,-1.03428296008,0.584378563696
1589285560769599707,1030,1589285560769475735,,-0.0624780728645,-1.01590260131,0.582068947515
1589285560775513674,1031,1589285560775405797,,-0.063024237625,-0.992734524919,0.579291674504
1589285560781506384,1032,1589285560781417259,,-0.0631939280764,-0.974350969453,0.576384682421
1589285560787522533,1033,1589285560787429861,,-0.0632855765225,-0.950283640662,0.574274552132
1589285560793528224,1034,1589285560793441848,,-0.0632251103494,-0.930620847716,0.57167209419
1589285560805686857,1035,1589285560805578187,,-0.062972900226,-0.899501530534,0.569896155816
1589285560811570934,1036,1589285560811368212,,-0.0626742276968,-0.873760961914,0.568185381679
1589285560817577406,1037,1589285560817466276,,-0.0624781284584,-0.854808273724,0.565957472993
1589285560823497441,1038,1589285560823408008,,-0.062528778892,-0.836828788026,0.563717697406
1589285560829467113,1039,1589285560829384632,,-0.0625231432235,-0.813347280723,0.562318659936
1589285560835587938,1040,1589285560835499916,,-0.0623681374701,-0.791395779798,0.561220048072
1589285560841559358,1041,1589285560841495132,,-0.0625533834339,-0.777008098203,0.559657518243
1589285560847646012,1042,1589285560847536702,,-0.0627664988648,-0.763714712266,0.558363944374
1589285560853532979,1043,1589285560853443240,,-0.063230341718,-0.747130136145,0.557086331675
1589285560865544933,1044,1589285560865363986,,-0.0642440978595,-0.730541569717,0.55741493117
1589285560871688711,1045,1589285560871545609,,-0.0645806725849,-0.719102690615,0.555784309091
1589285560877390966,1046,1589285560877189037,,-0.0651492632343,-0.706722148521,0.554749983892
1589285560883405688,1047,1589285560883287815,,-0.0653118670329,-0.69621896946,0.55335782051
1589285560889411833,1048,1589285560889312300,,-0.0655104709855,-0.683753098027,0.552042051738
1589285560895169691,1049,1589285560895102552,,-0.0655821080092,-0.673387102331,0.551141256801
1589285560898780539,1050,1589285560898679178,,-0.065689401755,-0.668665538878,0.552419975192
1589285560904732969,1051,1589285560904534494,,-0.0656574467392,-0.65923325998,0.551546388718
1589285560910408111,1052,1589285560910318080,,-0.0656054928311,-0.64624993875,0.550951306046
1589285560916445221,1053,1589285560916309402,,-0.0654610097883,-0.637304977523,0.550156246979
1589285560922329584,1054,1589285560922243413,,-0.0656399544096,-0.625493970546,0.549576875148
1589285560928550621,1055,1589285560928478332,,-0.0657720372766,-0.617966267598,0.548691839802
1589285560934592318,1056,1589285560934500708,,-0.06599160535,-0.608914707708,0.548076704886
1589285560940358067,1057,1589285560940276880,,-0.0660822237124,-0.60277308522,0.547293293972
1589285560946604870,1058,1589285560946510750,,-0.066118806468,-0.597418156766,0.546858442729
1589285560958439445,1059,1589285560958336159,,-0.0663991643904,-0.589895773489,0.547230441818
1589285560964669973,1060,1589285560964533334,,-0.066509039931,-0.586350842407,0.546920828468
1589285560970671817,1061,1589285560970568865,,-0.0666832249645,-0.581880143114,0.547720152163
1589285560976654020,1062,1589285560976546039,,-0.0670216267754,-0.578467297055,0.548193353057
1589285560982557598,1063,1589285560982474607,,-0.0672584027097,-0.576252672976,0.548282310902
1589285560988197063,1064,1589285560988111833,,-0.0673944052166,-0.574693483047,0.548562506516
1589285560994783458,1065,1589285560994614503,,-0.0677262669627,-0.572684209949,0.548816114515
1589285561000623963,1066,1589285561000545954,,-0.0677679571098,-0.570697813468,0.548889111548
1589285561006674702,1067,1589285561006557314,,-0.0680737146098,-0.567753131132,0.549238601668
1589285561012534256,1068,1589285561012310112,,-0.0681509327322,-0.56695155988,0.549439489383
1589285561018589478,1069,1589285561018479525,,-0.0683500125858,-0.563353661225,0.550186875553
1589285561024419679,1070,1589285561024309675,,-0.0686539742012,-0.559736129381,0.551043876701
1589285561030576923,1071,1589285561030488871,,-0.0687200980295,-0.55590761289,0.551817474916
1589285561036515273,1072,1589285561036381062,,-0.0688856193557,-0.55166326969,0.552649451148
1589285561042460348,1073,1589285561042345969,,-0.0689534608804,-0.54679829004,0.553717670716
1589285561048509556,1074,1589285561048393317,,-0.0692954877633,-0.541072640812,0.554814351927
1589285561054475847,1075,1589285561054387452,,-0.0694110857182,-0.535069374252,0.556025773923
1589285561060622532,1076,1589285561060527458,,-0.0695984906183,-0.528670794376,0.557173748907
1589285561067032467,1077,1589285561066886077,,-0.0698802271533,-0.521055889541,0.558637197279
1589285561073961720,1078,1589285561072429841,,-0.0701153089214,-0.520756386825,0.558792945397
1589285561078508031,1079,1589285561078406510,,-0.0701800121988,-0.513247575412,0.560529934276
1589285561084597133,1080,1589285561084502484,,-0.0703919937055,-0.505118226082,0.56216489407
1589285561090878458,1081,1589285561090751496,,-0.0704038662679,-0.496676266276,0.564148285236
1589285561096441144,1082,1589285561096364820,,-0.0704543671782,-0.487596411772,0.565880786203
1589285561102928345,1083,1589285561102826718,,-0.0705125671814,-0.477952598708,0.567873687302
1589285561108509439,1084,1589285561108350167,,-0.0704944186147,-0.467903877345,0.569992969186
1589285561114507570,1085,1589285561114380334,,-0.0705789128044,-0.457274283387,0.57211392861
1589285561120554388,1086,1589285561120434701,,-0.0705599623464,-0.445946002867,0.574318106848
1589285561129684304,1087,1589285561129532244,,-0.0705955083848,-0.434552930111,0.576611017617
1589285561135526595,1088,1589285561135428922,,-0.0706799638643,-0.422556089314,0.578981621145
1589285561141635021,1089,1589285561141491995,,-0.070722386555,-0.410093277706,0.581605906575
1589285561147515096,1090,1589285561147404870,,-0.0708189735088,-0.397063558975,0.584150969712
1589285561153839053,1091,1589285561153665816,,-0.0708815125041,-0.383671627293,0.586976771728
1589285561165734156,1092,1589285561165505230,,-0.0709567066422,-0.370052079187,0.589822969663
1589285561171648078,1093,1589285561171525771,,-0.0710874304765,-0.356146257738,0.592811919211
1589285561177672884,1094,1589285561177562963,,-0.0712047954094,-0.341319415588,0.595858043072
1589285561183708954,1095,1589285561183591727,,-0.0713974136602,-0.326708425478,0.599188282991
1589285561189198670,1096,1589285561189130457,,-0.0715487860383,-0.311277353857,0.602409953539
1589285561195435334,1097,1589285561195344145,,-0.0719883587088,-0.296671523809,0.606132799251
1589285561198693676,1098,1589285561198612489,,-0.0722965315681,-0.297771171681,0.60623216846
1589285561201746518,1099,1589285561201634867,,-0.0727648067827,-0.282356861188,0.609896019536
1589285561207375752,1100,1589285561207253788,,-0.0729789343352,-0.266060665531,0.613553547343
1589285561213500926,1101,1589285561213376295,,-0.0732806854432,-0.250346842009,0.617460373344
1589285561225854151,1102,1589285561225552070,,-0.0734565995425,-0.235934157269,0.621753583303
1589285561231472899,1103,1589285561231386707,,-0.0733629317193,-0.218040597394,0.625806231151
1589285561237458885,1104,1589285561237380567,,-0.0730123138887,-0.201132776716,0.630364764293
1589285561243656977,1105,1589285561243558190,,-0.072795395872,-0.182218840092,0.634706320888
1589285561249630688,1106,1589285561249486046,,-0.0725426680423,-0.162785792207,0.639197951343
1589285561255554065,1107,1589285561255470086,,-0.0720074364315,-0.143462974387,0.644047069816
1589285561261488132,1108,1589285561261390645,,-0.0713622841616,-0.123540846653,0.648733871081
1589285561267456339,1109,1589285561267328737,,-0.0710125466338,-0.102303492188,0.653433453372
1589285561273385327,1110,1589285561273314500,,-0.0706879061056,-0.0805715880208,0.658216079687
1589285561285518546,1111,1589285561285423038,,-0.0692583952527,-0.0600812724744,0.662866479383
1589285561291765435,1112,1589285561291555358,,-0.0688866598265,-0.0371623563319,0.667432031811
1589285561297718842,1113,1589285561297569051,,-0.0685003322762,-0.0140290116552,0.672130087533
1589285561303559681,1114,1589285561303481085,,-0.0677050338634,0.0091202338856,0.676651821206
1589285561309567158,1115,1589285561309483133,,-0.0669541827917,0.0330324957659,0.681367515404
1589285561315657990,1116,1589285561315564241,,-0.0666290413862,0.0574768057364,0.685993839813
1589285561321699584,1117,1589285561321603872,,-0.0662838122308,0.0823266272432,0.690941768424
1589285561327682022,1118,1589285561327603532,,-0.0656105320913,0.107553819245,0.695761101098
1589285561333719545,1119,1589285561333616159,,-0.0652833242044,0.13349594471,0.700761869591
1589285561345450533,1120,1589285561345357759,,-0.0643923415554,0.159576114265,0.705789511004
1589285561351613907,1121,1589285561351512944,,-0.0640477951712,0.186258092343,0.711282919314
1589285561357471933,1122,1589285561357379342,,-0.0635854919153,0.213260336743,0.716605367732
1589285561363554063,1123,1589285561363349809,,-0.0633507819627,0.240771389411,0.722146918624
1589285561369617089,1124,1589285561369457532,,-0.0628597252781,0.268698364741,0.727508868934
1589285561375801737,1125,1589285561375685338,,-0.0626107126578,0.29709013011,0.73311472369
1589285561381221012,1126,1589285561381149916,,-0.0621407180038,0.325854832101,0.738523398299
1589285561387380403,1127,1589285561387245941,,-0.0618912909292,0.354871287007,0.744214842589
1589285561393414057,1128,1589285561393323127,,-0.0613364536716,0.384625383986,0.749760075657
1589285561399841680,1129,1589285561399763117,,-0.0611145097004,0.4144077395,0.755430411894
1589285561402857301,1130,1589285561402769709,,-0.0605276663434,0.415128274963,0.755245079652
1589285561408195360,1131,1589285561408107798,,-0.0603090908986,0.445320206125,0.761063569277
1589285561414503388,1132,1589285561414418929,,-0.0595386025996,0.47668185449,0.766841872922
1589285561420440983,1133,1589285561420322306,,-0.0591249411422,0.508272392037,0.772983797285
1589285561426775520,1134,1589285561426684576,,-0.0582854996558,0.540890389002,0.779148665429
1589285561432894203,1135,1589285561432783579,,-0.0577557432356,0.541832572669,0.779338070799
1589285561438473314,1136,1589285561438372576,,-0.0570975082336,0.574579408811,0.785616226965
1589285561444567226,1137,1589285561444460962,,-0.0567570207734,0.606938224973,0.792026609479
1589285561450620365,1138,1589285561450525297,,-0.0564160987741,0.639485041222,0.798448736273
1589285561456662511,1139,1589285561456581312,,-0.0558613021391,0.672832157585,0.804787474495
1589285561462679600,1140,1589285561462547649,,-0.0553828690764,0.706324284474,0.811304225374
1589285561468830796,1141,1589285561468709942,,-0.0551829147225,0.739709072526,0.817847890629
1589285561474831265,1142,1589285561474738473,,-0.0549647017781,0.773256722116,0.824464511048
1589285561480660515,1143,1589285561480562833,,-0.0546514785533,0.807486143231,0.831063873302
1589285561486760493,1144,1589285561486662726,,-0.0545426777258,0.841532790994,0.837790744373
1589285561492800654,1145,1589285561492637199,,-0.0542973899088,0.842436612327,0.837853931148
1589285561499190582,1146,1589285561499108105,,-0.0540994484982,0.903190724486,0.849979457726
1589285561504897728,1147,1589285561504714038,,-0.0540271615429,0.911860413315,0.851646927078
1589285561510719826,1148,1589285561510554171,,-0.0539382740538,0.947266705444,0.85861773762
1589285561516616402,1149,1589285561516468118,,-0.0538960331593,0.982321822282,0.865629262312
1589285561522748860,1150,1589285561522631909,,-0.0539895736028,1.01783309981,0.872783939157
1589285561528695451,1151,1589285561528600261,,-0.0540063203738,1.05333714747,0.879712803881
1589285561534653244,1152,1589285561534546351,,-0.0540389079806,1.08944556694,0.886972198386
1589285561540589650,1153,1589285561540503310,,-0.0541666390235,1.12544104511,0.894143581991
1589285561552921914,1154,1589285561552835918,,-0.0543643863873,1.1885641594,0.906807988136
1589285561558766748,1155,1589285561558614348,,-0.0544234905149,1.19844767929,0.908841511808
1589285561564623513,1156,1589285561564522727,,-0.0545802460248,1.23500297418,0.916126356269
1589285561570678319,1157,1589285561570559205,,-0.0547806755461,1.27177002257,0.923809014229
1589285561576677032,1158,1589285561576556243,,-0.0549233655003,1.30867097177,0.931402649442
1589285561582755137,1159,1589285561582610129,,-0.055261316015,1.34562116541,0.939701887156
1589285561588587505,1160,1589285561588490942,,-0.0554387255206,1.38287404784,0.947946115618
1589285561594638215,1161,1589285561594544248,,-0.0556217582328,1.42026489988,0.956448373171
1589285561600890443,1162,1589285561600806084,,-0.0560129767059,1.45759723096,0.964781752835
1589285561606969428,1163,1589285561606832897,,-0.0562541369462,1.49493846671,0.972483812201
1589285561613052408,1164,1589285561612909743,,-0.0563911081853,1.49475150324,0.972474623363
1589285561618616568,1165,1589285561618527568,,-0.0565982396971,1.53255382572,0.980117614154
1589285561624697299,1166,1589285561624588913,,-0.05703643243,1.57012013124,0.987422990244
1589285561630706032,1167,1589285561630544919,,-0.0572460386351,1.60804611765,0.994990708743
1589285561636626352,1168,1589285561636498024,,-0.0575276959634,1.64622414425,1.00257176781
1589285561642754264,1169,1589285561642596141,,-0.0578869177728,1.68415880591,1.01016567914
1589285561648765305,1170,1589285561648619643,,-0.0582496175168,1.72206439613,1.01802563509
1589285561654669066,1171,1589285561654550179,,-0.0592389205049,1.75865471816,1.02565928494
1589285561660949337,1172,1589285561660863245,,-0.0597530603279,1.79656221782,1.03339721944
1589285561673241611,1173,1589285561673000298,,-0.0613142203959,1.83184972239,1.0403832306
1589285561678764846,1174,1589285561678684099,,-0.0622769272627,1.86806046335,1.0480115949
1589285561684829159,1175,1589285561684665817,,-0.0626434464466,1.90640845016,1.05594807154
1589285561690740042,1176,1589285561690645413,,-0.0633230983721,1.94402665588,1.06352804126
1589285561696793258,1177,1589285561696681567,,-0.063676149137,1.98279590762,1.07141037373
1589285561703195974,1178,1589285561703068051,,-0.0643222020662,2.02077364325,1.07917316505
1589285561708733361,1179,1589285561708609064,,-0.0646532206731,2.05980535154,1.08701757647
1589285561714643439,1180,1589285561714538052,,-0.0652000400659,2.09748674414,1.09483973077
1589285561720733598,1181,1589285561720544804,,-0.0655440720654,2.13667251891,1.10242498148
1589285561727223647,1182,1589285561727055365,,-0.0657860919474,2.17502438607,1.10941578471
1589285561733118740,1183,1589285561733022323,,-0.0657757621752,2.19982174677,1.1127804049
1589285561739160334,1184,1589285561738788022,,-0.0658422170952,2.21229539737,1.11296767323
1589285561744968485,1185,1589285561744839225,,-0.0657956347268,2.25199322526,1.12018702485
1589285561751039303,1186,1589285561750873643,,-0.0657749811003,2.29119893496,1.126720863
1589285561756906825,1187,1589285561756777860,,-0.0657066929382,2.33139176089,1.13398611675
1589285561762525071,1188,1589285561762443282,,-0.0654085227357,2.37103386669,1.14035444304
1589285561768611388,1189,1589285561768496327,,-0.0651638094421,2.41146263721,1.14774665454
1589285561774757125,1190,1589285561774601664,,-0.0647534450298,2.45139267183,1.15464523501
1589285561780794483,1191,1589285561780684584,,-0.0644290768892,2.49193006031,1.16229904835
1589285561786923782,1192,1589285561786799705,,-0.0636010631291,2.53193226453,1.16901992585
1589285561792882767,1193,1589285561792795141,,-0.0629713596768,2.57247731494,1.17690142858
1589285561799100610,1194,1589285561798982651,,-0.0617938159951,2.57109088458,1.17607544872
1589285561801983437,1195,1589285561801893756,,-0.0612849449759,2.61196944742,1.18431029241
1589285561807593204,1196,1589285561807508458,,-0.060200933129,2.65226508116,1.19237003966
1589285561813752478,1197,1589285561813627396,,-0.0596342617506,2.69323099214,1.20074079334
1589285561825816638,1198,1589285561825728558,,-0.0578360654121,2.7328685936,1.208641597
1589285561831761882,1199,1589285561831633228,,-0.0569153166881,2.77319079595,1.21670981996
1589285561837763255,1200,1589285561837596030,,-0.0564767514994,2.8142063995,1.22502807385
1589285561843734378,1201,1589285561843628015,,-0.0560033698799,2.85543545047,1.233383739
1589285561849570921,1202,1589285561849472689,,-0.0556662723147,2.89631243754,1.24169865
1589285561855645314,1203,1589285561855562988,,-0.0549496377027,2.93655847151,1.24976234511
1589285561861615181,1204,1589285561861513978,,-0.0545741580055,2.97777944121,1.2579042008
1589285561867565420,1205,1589285561867492284,,-0.0539951040053,3.01779949051,1.26556520108
1589285561873439156,1206,1589285561873359288,,-0.0536834283251,3.05857911027,1.27390351657
1589285561880135475,1207,1589285561880068432,,-0.053212709782,3.09808840154,1.28213346887
1589285561885425858,1208,1589285561885329127,,-0.0530829136937,3.09654483025,1.28206128683
1589285561891314941,1209,1589285561891240332,,-0.0527318989355,3.13506785173,1.28998724502
1589285561897283578,1210,1589285561897218145,,-0.0525500467224,3.17518336326,1.2979578017
1589285561903519035,1211,1589285561903439611,,-0.0522345194089,3.21346217402,1.30575599089
1589285561909416072,1212,1589285561909354669,,-0.0520415550791,3.2533368204,1.31388894765
1589285561915279753,1213,1589285561915200338,,-0.0518577789159,3.29126916577,1.32197890252
1589285561921338766,1214,1589285561921241719,,-0.0517580260305,3.33108891131,1.3301979373
1589285561927486967,1215,1589285561927413168,,-0.0514987394785,3.36894294858,1.3380584331
1589285561933521467,1216,1589285561933438592,,-0.0511677132259,3.40885177582,1.34646676703
1589285561945283954,1217,1589285561945208452,,-0.0509556783165,3.44393483856,1.3539401565
1589285561951269422,1218,1589285561951182213,,-0.0509647710889,3.48106070973,1.36152700208
1589285561957573017,1219,1589285561957487327,,-0.0509054145542,3.52036330888,1.36948842845
1589285561963444646,1220,1589285561963333410,,-0.0507543557399,3.55747781705,1.37732129137
1589285561969646767,1221,1589285561969568869,,-0.0507046265207,3.59660645803,1.38547955505
1589285561975670807,1222,1589285561975567358,,-0.0506969887056,3.6328684275,1.39326683369
1589285561981576871,1223,1589285561981501233,,-0.0507231969236,3.67168078305,1.40109200507
1589285561987548643,1224,1589285561987473358,,-0.0506852384361,3.71059188847,1.4090678257
1589285561993452180,1225,1589285561993395661,,-0.0505348635529,3.74724228392,1.41637692358
1589285561999804840,1226,1589285561999718478,,-0.0505058898243,3.78343375841,1.4239587502
1589285562005733425,1227,1589285562005421267,,-0.0504550389305,3.78071286361,1.42368495921
1589285562011551290,1228,1589285562011479218,,-0.0504796286484,3.81943859431,1.43147292466
1589285562017679242,1229,1589285562017552222,,-0.0503948173624,3.85626644481,1.4385499613
1589285562023544114,1230,1589285562023464450,,-0.0503628454268,3.89450507906,1.44586889174
1589285562029439521,1231,1589285562029381325,,-0.0502708082803,3.93106787434,1.45263589284
1589285562035413922,1232,1589285562035336027,,-0.0500897248684,3.96955375915,1.46040823831
1589285562041426218,1233,1589285562041362323,,-0.0498412247203,4.00623407652,1.46767832017
1589285562047456826,1234,1589285562047396328,,-0.0496819527919,4.04496738641,1.47536068019
1589285562053483831,1235,1589285562053410899,,-0.0492428534995,4.08150145011,1.48212608471
1589285562065741455,1236,1589285562065651505,,-0.0483777684398,4.11592862968,1.48863016798
1589285562071709875,1237,1589285562071587142,,-0.0482127007892,4.15416309364,1.49616001209
1589285562077715958,1238,1589285562077583603,,-0.0476519600501,4.1900167807,1.5031343762
1589285562083654805,1239,1589285562083555502,,-0.0474886017384,4.22751933864,1.5103324641
1589285562089441452,1240,1589285562089328297,,-0.0469514423987,4.2630373069,1.51725171193
1589285562095656472,1241,1589285562095588115,,-0.0467013249469,4.30065140012,1.524743967
1589285562101838425,1242,1589285562101763575,,-0.0461951495183,4.33562295937,1.53150764163
1589285562107491530,1243,1589285562107422456,,-0.0459930172323,4.37220157732,1.53866181586
1589285562113702273,1244,1589285562113635901,,-0.045557549036,4.40599993111,1.54566118793
1589285562125649375,1245,1589285562125532294,,-0.0447831874823,4.4370313905,1.55241493821
1589285562131620020,1246,1589285562131492723,,-0.044578137409,4.4736327182,1.56005755173
1589285562137643931,1247,1589285562137551213,,-0.0443310947951,4.50733526068,1.56720635449
1589285562143522810,1248,1589285562143343720,,-0.0443366980453,4.54323660465,1.57418445715
1589285562149450269,1249,1589285562149381006,,-0.0440491643322,4.57600483919,1.58101444836
1589285562155422888,1250,1589285562155333621,,-0.0438252651559,4.61114873432,1.588252241
1589285562161478509,1251,1589285562161408754,,-0.0437662715385,4.64365446216,1.59483352268
1589285562167423203,1252,1589285562167325845,,-0.0437043247247,4.67901428487,1.60187403327
1589285562173533718,1253,1589285562173431588,,-0.0436082910982,4.71157213436,1.60896395957
1589285562179774469,1254,1589285562179695327,,-0.043437104579,4.7464690102,1.61625212092
1589285562185406862,1255,1589285562185338805,,-0.0432031142967,4.74020926954,1.61503947164
1589285562191523797,1256,1589285562191369800,,-0.0429817753331,4.77465590875,1.62181997682
1589285562197559892,1257,1589285562197431553,,-0.0425460821617,4.80509736123,1.6281702468
1589285562203563394,1258,1589285562203470661,,-0.0422895955917,4.83871702696,1.63523253438
1589285562209596632,1259,1589285562209523694,,-0.0420584483722,4.86828276276,1.64134812442
1589285562215436048,1260,1589285562215361415,,-0.0418683959625,4.90142369719,1.64777412413
1589285562221403173,1261,1589285562221341806,,-0.0414667303384,4.92990301701,1.65405077518
1589285562227457553,1262,1589285562227399027,,-0.0414837659351,4.96178656642,1.66061263728
1589285562233541447,1263,1589285562233486242,,-0.0411536417701,4.98936051579,1.6662763727
1589285562245462655,1264,1589285562245393941,,-0.0408079763061,5.01638352333,1.67278075714
1589285562248477542,1265,1589285562248362809,,-0.0406281565841,5.04748904352,1.67891454161
1589285562254431541,1266,1589285562254359672,,-0.0402924054267,5.07369836308,1.68489338389
1589285562260572406,1267,1589285562260441318,,-0.04004394224,5.10445538579,1.69107317937
1589285562267035478,1268,1589285562266932228,,-0.039834419714,5.12946830548,1.69704649604
1589285562278458807,1269,1589285562278370925,,-0.0393032749918,5.14955546003,1.70166301358
1589285562284465654,1270,1589285562284370508,,-0.0392039333606,5.18013585258,1.70828671332
1589285562290479894,1271,1589285562290345444,,-0.0389560688243,5.20552718676,1.71380326563
1589285562296563280,1272,1589285562296464170,,-0.0389619850746,5.23519509684,1.72016781556
1589285562302817086,1273,1589285562302706516,,-0.038685731146,5.25959159964,1.72587348207
1589285562308548464,1274,1589285562308445080,,-0.0384865464756,5.28803092398,1.73201316493
1589285562314400735,1275,1589285562314319059,,-0.0382200391907,5.31163836388,1.73749383584
1589285562320548993,1276,1589285562320469868,,-0.0381636101888,5.34030861308,1.74378087201
1589285562326752922,1277,1589285562326637178,,-0.0381188710262,5.36318590132,1.74974634485
1589285562338510013,1278,1589285562338450654,,-0.0379514931466,5.38547879402,1.75526410988
1589285562344525336,1279,1589285562344461701,,-0.0376262165378,5.40635886044,1.7595280008
1589285562350680120,1280,1589285562350598198,,-0.0376250925753,5.43225830269,1.76506138086
1589285562356919128,1281,1589285562356808141,,-0.03739458433,5.4517535907,1.76943850925
1589285562362696492,1282,1589285562362637781,,-0.0374420330833,5.47702011398,1.77513482375
1589285562368490400,1283,1589285562368425955,,-0.0375224460774,5.49495411091,1.77957908198
1589285562374557902,1284,1589285562374492922,,-0.037464861616,5.51932780202,1.78495770491
1589285562380898189,1285,1589285562380749330,,-0.0373353538798,5.53580885893,1.78950216386
1589285562387434667,1286,1589285562387303924,,-0.0372188967678,5.55233364554,1.79354994781
1589285562399227044,1287,1589285562398902502,,-0.0369659382562,5.56838455088,1.79803882965
1589285562404759179,1288,1589285562404670716,,-0.0372156333033,5.58556097823,1.80192374213
1589285562410885119,1289,1589285562410793063,,-0.0371283518033,5.61042903369,1.80702231198
1589285562416814014,1290,1589285562416723367,,-0.0372891582662,5.6257126411,1.81112927366
1589285562422320443,1291,1589285562422244616,,-0.0372773218515,5.64920242068,1.81543547936
1589285562428455149,1292,1589285562428387887,,-0.0371462595702,5.66360423822,1.81928339464
1589285562434614997,1293,1589285562434535216,,-0.0372142239387,5.68590836797,1.82361966011
1589285562440870193,1294,1589285562440788498,,-0.0369908308208,5.70270983734,1.82797463321
1589285562449479472,1295,1589285562449399358,,-0.0372980851252,5.712065724,1.83070767521
1589285562455900635,1296,1589285562455782621,,-0.0372550373123,5.73288190068,1.83576455731
1589285562461705305,1297,1589285562461643901,,-0.0373579878516,5.74537819263,1.83876279913
1589285562467788965,1298,1589285562467723633,,-0.0374223800493,5.76426239861,1.84339232701
1589285562473681677,1299,1589285562473615547,,-0.0376423128593,5.77398261175,1.8459960841
1589285562479877606,1300,1589285562479793164,,-0.0379198413961,5.79189320472,1.85027670022
1589285562485441688,1301,1589285562485364760,,-0.0382085875355,5.77347174304,1.84749651815
1589285562491577199,1302,1589285562491507255,,-0.0385341076001,5.79012723309,1.85154767387
1589285562497384738,1303,1589285562497326735,,-0.0386391023533,5.79734569163,1.85345314408
1589285562503505496,1304,1589285562503435806,,-0.0388378335756,5.81311884847,1.85756211805
1589285562509264871,1305,1589285562509215293,,-0.0390123177641,5.81948863247,1.85988253118
1589285562515313547,1306,1589285562515253587,,-0.0390584471869,5.83507254736,1.86337630798
1589285562521334335,1307,1589285562521236280,,-0.039262157863,5.84463041179,1.86545054916
1589285562527518297,1308,1589285562527474691,,-0.0392668784615,5.86253148121,1.8690996613
1589285562533290857,1309,1589285562533205532,,-0.0395183424889,5.86953855794,1.87131013039
1589285562545583174,1310,1589285562545500390,,-0.039670605409,5.86931212693,1.87183006509
1589285562551530308,1311,1589285562551454076,,-0.0396780540958,5.88568122031,1.87508056322
1589285562557721414,1312,1589285562557627948,,-0.0396916559406,5.90191639394,1.87809252057
1589285562563610557,1313,1589285562563537878,,-0.0398160687487,5.90987659913,1.8804881441
1589285562569477643,1314,1589285562569395710,,-0.0406391561592,5.91572933525,1.882372053
1589285562575763885,1315,1589285562575655093,,-0.0409423882192,5.92845837012,1.88603106634
1589285562581377438,1316,1589285562581318112,,-0.0416247068202,5.93408686565,1.88708861876
1589285562587416753,1317,1589285562587343925,,-0.0419830832046,5.94774296175,1.89012870782
1589285562593564550,1318,1589285562593491712,,-0.0425228816524,5.95751777581,1.89296289751
1589285562600031029,1319,1589285562599928447,,-0.0435628184113,5.96157872381,1.8943949579
1589285562605764762,1320,1589285562605430055,,-0.0439674204909,5.95056600918,1.89247064066
1589285562611481541,1321,1589285562611332257,,-0.0445325333479,5.95101769733,1.89367247279
1589285562617419923,1322,1589285562617349013,,-0.0446607814218,5.95465737429,1.89517735005
1589285562623532304,1323,1589285562623453717,,-0.0447393110391,5.96566029328,1.89826117646
1589285562629655810,1324,1589285562629532033,,-0.045006544746,5.97690815297,1.9009679296
1589285562635473932,1325,1589285562635400412,,-0.0453426579829,5.9782097444,1.90266700389
1589285562641505124,1326,1589285562641336479,,-0.045454354793,5.98767133092,1.90429055445
1589285562647478974,1327,1589285562647401894,,-0.0456031581895,5.98582713081,1.90468904667
1589285562653491658,1328,1589285562653432819,,-0.0456505023886,5.9938540392,1.90610911576
1589285562659810928,1329,1589285562659717857,,-0.0463677577609,5.98933070126,1.90578514931
1589285562665661891,1330,1589285562665479848,,-0.0466583192093,5.97795873883,1.90472973356
1589285562671634060,1331,1589285562671561878,,-0.0476288398306,5.9709410127,1.90466672543
1589285562677646220,1332,1589285562677507237,,-0.047865403309,5.97515245851,1.90678986929
1589285562683405973,1333,1589285562683313625,,-0.0486052924288,5.96607244873,1.90679083444
1589285562689524564,1334,1589285562689437546,,-0.0487327988584,5.96923115951,1.90898338503
1589285562695449073,1335,1589285562695372758,,-0.0491752926724,5.97181254324,1.91056887269
1589285562701923872,1336,1589285562701860371,,-0.0499680931616,5.96189757892,1.91102002476
1589285562707630903,1337,1589285562707558689,,-0.0504810878354,5.96799381087,1.9127969064
1589285562713901975,1338,1589285562713842459,,-0.0507878175604,5.97031878006,1.91425151587
1589285562725394987,1339,1589285562725308596,,-0.051476907799,5.95274748269,1.91157861401
1589285562731395049,1340,1589285562731316574,,-0.0517715358844,5.94607360399,1.91111276059
1589285562737472302,1341,1589285562737322320,,-0.0517814833791,5.9457711275,1.91130859944
1589285562743423554,1342,1589285562743326227,,-0.0518599754876,5.95008866746,1.91254247624
1589285562749408103,1343,1589285562749336528,,-0.0520320081044,5.95245504825,1.91428398528
1589285562755460297,1344,1589285562755325102,,-0.0524252239839,5.94928109326,1.91425735691
1589285562761479323,1345,1589285562761393983,,-0.0525197048677,5.949526003,1.91560628188
1589285562767452652,1346,1589285562767326870,,-0.0529319620078,5.94027185223,1.91496710556
1589285562773802388,1347,1589285562773714439,,-0.0534493392687,5.94000950981,1.91529467854
1589285562785439302,1348,1589285562785360146,,-0.0555868749159,5.91342887433,1.91197579454
1589285562791431473,1349,1589285562791346526,,-0.0570701561409,5.89691685801,1.90964017879
1589285562797424624,1350,1589285562797315876,,-0.057876499138,5.89399073574,1.90929876088
1589285562803451233,1351,1589285562803370157,,-0.0589481113098,5.88376288874,1.90755722762
1589285562809531085,1352,1589285562809416774,,-0.0597134701061,5.87804808002,1.90715671015
1589285562815404663,1353,1589285562815313570,,-0.0604979984537,5.86830753069,1.90651021173
1589285562821462724,1354,1589285562821388136,,-0.0605472935381,5.86452045874,1.906724524
1589285562827451147,1355,1589285562827370310,,-0.0603614389212,5.85280731473,1.9058302728
1589285562833490542,1356,1589285562833406987,,-0.0599156170177,5.85252820743,1.90671387554
1589285562839754631,1357,1589285562839554602,,-0.0598456150296,5.8440039893,1.90598922857
1589285562845540980,1358,1589285562845451668,,-0.059841058399,5.83517717621,1.90523904414
1589285562851470573,1359,1589285562851357242,,-0.0599833137563,5.82334605455,1.90315169326
1589285562857434358,1360,1589285562857349954,,-0.0602913736936,5.81998328242,1.90253252255
1589285562863949183,1361,1589285562863796390,,-0.0605039705502,5.80625580278,1.89988472908
1589285562869852266,1362,1589285562869775645,,-0.0612942803816,5.79786501237,1.89937331111
1589285562875945472,1363,1589285562875813925,,-0.0622323564432,5.77887870152,1.89711516973
1589285562881975792,1364,1589285562881875073,,-0.062991093808,5.76872836049,1.89665102288
1589285562887806642,1365,1589285562887728854,,-0.0636196512383,5.75981728711,1.89624176725
1589285562893840461,1366,1589285562893725261,,-0.0642350448035,5.75035386381,1.89550271665
1589285562899761003,1367,1589285562899681481,,-0.0653646863989,5.72628410009,1.89470147429
1589285562905541234,1368,1589285562905387335,,-0.0659817895112,5.71217283431,1.89343680405
1589285562911583378,1369,1589285562911443308,,-0.0669041655623,5.68943357744,1.89187126797
1589285562917654431,1370,1589285562917592198,,-0.0671953675861,5.683724115,1.89136241531
1589285562923380438,1371,1589285562923288088,,-0.0676910688102,5.66065172326,1.8883037523
1589285562929726511,1372,1589285562929574379,,-0.0679103814857,5.65600563201,1.88707650057
1589285562935741367,1373,1589285562935657231,,-0.06799490561,5.63549513421,1.8837994111
1589285562941922798,1374,1589285562941804778,,-0.0677433369197,5.62839094217,1.88273416095
1589285562947883091,1375,1589285562947812565,,-0.0675817116774,5.61070699536,1.87982266859
1589285562953918158,1376,1589285562953847445,,-0.0672849707544,5.60245480196,1.87862308648
1589285562956829270,1377,1589285562956521559,,-0.0673454383454,5.57874384069,1.87571680045
1589285562962827748,1378,1589285562962732000,,-0.0677816524612,5.56696988415,1.87441657644
1589285562968909011,1379,1589285562968797434,,-0.0683534528266,5.53907240419,1.87138329655
1589285562974510947,1380,1589285562974415162,,-0.0690864504094,5.52410341933,1.86927482827
1589285562980834845,1381,1589285562980752067,,-0.0707218830586,5.49169175861,1.86542265039
1589285562987512246,1382,1589285562987434483,,-0.0715541772758,5.47500635379,1.86351808607
1589285562998849514,1383,1589285562998755015,,-0.0742999252509,5.4241803992,1.8565616819
1589285563004407666,1384,1589285563004320696,,-0.0754929229472,5.39703406778,1.8523198764
1589285563010556759,1385,1589285563010474791,,-0.0760043233701,5.38555133449,1.85108856838
1589285563016460742,1386,1589285563016383236,,-0.0770337728936,5.35747517626,1.84815895368
1589285563022470272,1387,1589285563022350793,,-0.0767038479266,5.34806070402,1.84706721175
1589285563028891372,1388,1589285563028793453,,-0.076021585329,5.32104757711,1.84445774472
1589285563034906805,1389,1589285563034783115,,-0.0752463110142,5.31037388666,1.84230677156
1589285563040970790,1390,1589285563040832676,,-0.0742753438153,5.29149740325,1.83972469658
1589285563047022311,1391,1589285563046928668,,-0.0743205085031,5.28028701167,1.83800748602
1589285563055823077,1392,1589285563055735015,,-0.0747591164692,5.24550309526,1.83272777844
1589285563061390191,1393,1589285563061317749,,-0.0754429015888,5.21400859642,1.82763706213
1589285563067481912,1394,1589285563067410427,,-0.0761675504701,5.19489817674,1.82430227936
1589285563073563323,1395,1589285563073506638,,-0.0781860514777,5.15614335705,1.81980548997
1589285563085500719,1396,1589285563085432155,,-0.0818559128583,5.0961139174,1.81298331009
1589285563091553622,1397,1589285563091469357,,-0.0829706501831,5.07269617932,1.80999479715
1589285563097717816,1398,1589285563097648887,,-0.0842608026153,5.03166110615,1.80517304641
1589285563103776657,1399,1589285563103680042,,-0.0850234679299,5.009353619,1.80193512791
1589285563109913381,1400,1589285563109786007,,-0.0858821495209,4.9738496846,1.79621874774
1589285563115414379,1401,1589285563115342176,,-0.0861448598532,4.95414795608,1.79220627186
1589285563121396815,1402,1589285563121335366,,-0.0860526648922,4.9352551943,1.78870846723
1589285563128004349,1403,1589285563127912860,,-0.0858630139691,4.90553776955,1.78203847707
1589285563133650236,1404,1589285563133578214,,-0.085734796944,4.88752737586,1.77804329907
1589285563142730284,1405,1589285563142637805,,-0.0846992033463,4.84788955095,1.7705859624
1589285563148757359,1406,1589285563148662635,,-0.0844576945905,4.8156843916,1.76589531634
1589285563154820775,1407,1589285563154711246,,-0.0848103039217,4.79386814352,1.76279825801
1589285563160732825,1408,1589285563160644195,,-0.0853522972117,4.75504799769,1.75878937459
1589285563166742856,1409,1589285563166665810,,-0.0859723253926,4.73005610348,1.75521519195
1589285563173881476,1410,1589285563173773394,,-0.0876692774943,4.68568136,1.75027712211
1589285563179106701,1411,1589285563178822092,,-0.0890890188338,4.66786702839,1.74768565401
1589285563184783099,1412,1589285563184702384,,-0.0912560456274,4.62606362068,1.74189284867
1589285563190430073,1413,1589285563190322779,,-0.0928131669315,4.59733626787,1.73740761157
1589285563196582221,1414,1589285563196518621,,-0.0941915020553,4.55877341124,1.73115929808
1589285563202762872,1415,1589285563202704168,,-0.0948722505118,4.53257738183,1.72684492926
1589285563208743665,1416,1589285563208605182,,-0.0944335676832,4.49885083105,1.72117604094
1589285563214536792,1417,1589285563214456990,,-0.0941530200069,4.47891756944,1.71750372859
1589285563220788045,1418,1589285563220704029,,-0.0932311540032,4.45036607023,1.71263140075
1589285563226684858,1419,1589285563226620104,,-0.0927530476692,4.43140370161,1.70899562977
1589285563233946666,1420,1589285563233880274,,-0.0915130499651,4.40276209024,1.70377069255
1589285563238837124,1421,1589285563238749186,,-0.0910316026412,4.39334014396,1.70131972558
1589285563244765135,1422,1589285563244649487,,-0.0906858941665,4.36449527625,1.69483883842
1589285563250729553,1423,1589285563250654348,,-0.0913780011028,4.33856799145,1.6902893439
1589285563256432529,1424,1589285563256372922,,-0.0923861880145,4.30267333328,1.68286734006
1589285563262539512,1425,1589285563262454054,,-0.0934089809833,4.27293322629,1.6782690444
1589285563268993350,1426,1589285563268883514,,-0.095238348743,4.22836513835,1.67135419936
1589285563274646339,1427,1589285563274570375,,-0.0962244910466,4.19896299674,1.66751439033
1589285563280812064,1428,1589285563280733135,,-0.098466475391,4.15259802633,1.66207293752
1589285563287530017,1429,1589285563287462379,,-0.0993161552078,4.1225704551,1.6586001503
1589285563298842963,1430,1589285563298754557,,-0.100364213744,4.06475908194,1.65132864114
1589285563304943789,1431,1589285563304837590,,-0.100369010843,4.02604405373,1.64531436669
1589285563310903512,1432,1589285563310801698,,-0.10027740157,4.00130743178,1.64051957155
1589285563316933521,1433,1589285563316848564,,-0.0992773764808,3.96781412918,1.63382818527
1589285563323022133,1434,1589285563322866042,,-0.0986526474852,3.94462621534,1.62847096245
1589285563328797755,1435,1589285563328702234,,-0.0974525255405,3.91166657022,1.62188788587
1589285563334661021,1436,1589285563334609777,,-0.0969508614423,3.88743622866,1.61747052184
1589285563340537981,1437,1589285563340423900,,-0.0962825252565,3.85091981757,1.61149475116
1589285563347233701,1438,1589285563347162171,,-0.0963096737708,3.8242321705,1.60699803074
1589285563358687376,1439,1589285563358452511,,-0.097499380063,3.76456070882,1.5989925974
1589285563364768163,1440,1589285563364690448,,-0.0992048768627,3.71551318863,1.5922452128
1589285563370734505,1441,1589285563370621329,,-0.100364879636,3.68281828074,1.58648723959
1589285563377013042,1442,1589285563376906626,,-0.102699212137,3.63213434745,1.57854821963
1589285563382942937,1443,1589285563382831652,,-0.103546942983,3.60009500262,1.57300468263
1589285563389124065,1444,1589285563388978983,,-0.10504138849,3.55407711942,1.56467884997
1589285563394704679,1445,1589285563394626325,,-0.105471597057,3.52473643524,1.55888647052
1589285563400908365,1446,1589285563400807938,,-0.105423087015,3.49648408482,1.55364153276
1589285563407284380,1447,1589285563407133832,,-0.105436347511,3.46864876785,1.54814120418
1589285563419179286,1448,1589285563418855545,,-0.103329936869,3.42565197153,1.54004002866
1589285563424935172,1449,1589285563424839206,,-0.101599324898,3.39371713055,1.53294578716
1589285563430985548,1450,1589285563430867997,,-0.100960336678,3.36878766459,1.52766339135
1589285563436916088,1451,1589285563436796257,,-0.100383784681,3.33430256186,1.52046882727
1589285563442908559,1452,1589285563442805014,,-0.100247360634,3.30727489934,1.51539816957
