%time,field.header.seq,field.header.stamp,field.header.frame_id,field.vector.x,field.vector.y,field.vector.z
1589285559325715050,799,1589285559325554953,,0.499998838357,-0.191586189774,0.209945713116
1589285559331729216,800,1589285559331596143,,0.500000210054,-0.191492268745,0.209928883367
1589285559337678566,801,1589285559337594335,,0.500000376274,-0.19130135285,0.20987896577
1589285559343760914,802,1589285559343608898,,0.500000234111,-0.191204094999,0.209858965533
1589285559349729727,803,1589285559349616887,,0.500001729317,-0.191008911833,0.209813443089
1589285559355745165,804,1589285559355620102,,0.500000796046,-0.190914398334,0.209788419209
1589285559361727910,805,1589285559361617794,,0.50000049169,-0.190720998753,0.209746369865
1589285559367840829,806,1589285559367680497,,0.499999375538,-0.190629133832,0.209720818387
1589285559373811715,807,1589285559373634013,,0.499998356186,-0.190442029948,0.209675843642
1589285559379681638,808,1589285559379589456,,0.499997234411,-0.190351858322,0.209653158472
1589285559385667647,809,1589285559385588390,,0.49999441303,-0.19017529759,0.209606874323
1589285559391667791,810,1589285559391555730,,0.499992958402,-0.190090116959,0.209583063265
1589285559398182852,811,1589285559398026599,,0.499989283147,-0.189912885093,0.209541743277
1589285559401018833,812,1589285559400901040,,0.49998699929,-0.18982262581,0.209521363584
1589285559406753863,813,1589285559406611973,,0.49998285662,-0.189642643303,0.209476851792
1589285559412692439,814,1589285559412586948,,0.499981203052,-0.189549294652,0.2094550709
1589285559419177309,815,1589285559419092366,,0.499977424275,-0.189355477627,0.209406170409
1589285559424696965,816,1589285559424543638,,0.499977084398,-0.189252073482,0.209384345814
1589285559430846091,817,1589285559430644668,,0.499975603852,-0.189041218684,0.209338260263
1589285559436793453,818,1589285559436628743,,0.499975512712,-0.188931277552,0.209313831188
1589285559442792234,819,1589285559442608822,,0.499973434765,-0.188821991775,0.2092929814
1589285559448931255,820,1589285559448657086,,0.499973868356,-0.188712305112,0.209265629397
1589285559454727266,821,1589285559454622548,,0.49997408807,-0.18849455073,0.209222601824
1589285559460764786,822,1589285559460650716,,0.499974014364,-0.188414615153,0.209204975065
1589285559466828882,823,1589285559466636722,,0.499974832132,-0.188183935999,0.209148324283
1589285559472751420,824,1589285559472642967,,0.49997753527,-0.188108640642,0.209135003242
1589285559478682895,825,1589285559478576687,,0.499974882332,-0.187891127927,0.209088799847
1589285559484809094,826,1589285559484611963,,0.499973986991,-0.187797559926,0.209069579585
1589285559490746951,827,1589285559490621982,,0.499969772174,-0.187620091852,0.20903283914
1589285559496860023,828,1589285559496736117,,0.499966665299,-0.187533419504,0.209017324403
1589285559502780819,829,1589285559502598148,,0.499963516522,-0.187351516401,0.20897582495
1589285559508785405,830,1589285559508631529,,0.49996512488,-0.187253203422,0.208961999336
1589285559514768180,831,1589285559514595107,,0.499961791224,-0.187052285003,0.208916162393
1589285559520788382,832,1589285559520634189,,0.49996226469,-0.186946557232,0.208895161747
1589285559526890517,833,1589285559526694366,,0.499957797175,-0.186729082752,0.208846707085
1589285559532771308,834,1589285559532678851,,0.499957705279,-0.186614141989,0.208823487338
1589285559539004121,835,1589285559538661033,,0.49995540926,-0.186499841563,0.208797973957
1589285559544745239,836,1589285559544598451,,0.49995362783,-0.186252951166,0.208746345285
1589285559550737009,837,1589285559550629182,,0.499953752275,-0.186130915002,0.208720086356
1589285559556822306,838,1589285559556670481,,0.499952189016,-0.185885473077,0.208662714961
1589285559562758438,839,1589285559562638206,,0.499952783973,-0.185764059846,0.208635567703
1589285559568896257,840,1589285559568693947,,0.49995342135,-0.185645912327,0.208608791362
1589285559574740324,841,1589285559574640223,,0.499953026238,-0.1854118706,0.208557932258
1589285559580837300,842,1589285559580658034,,0.499953980261,-0.185301911302,0.208537525437
1589285559586802867,843,1589285559586677020,,0.499949767568,-0.185080712602,0.208492350744
1589285559592739509,844,1589285559592623551,,0.499949640002,-0.184975208057,0.208475484604
1589285559602040997,845,1589285559601950005,,0.499941792713,-0.184662909472,0.208411948736
1589285559607739291,846,1589285559607641354,,0.499937623363,-0.184446837654,0.208363098934
1589285559613743495,847,1589285559613623305,,0.499935135615,-0.184335128064,0.208339377243
1589285559619813087,848,1589285559619630488,,0.49993182409,-0.184099982209,0.208285923935
1589285559625692402,849,1589285559625598662,,0.499931427374,-0.183977104445,0.208260804073
1589285559631831072,850,1589285559631674467,,0.49992714264,-0.183730596995,0.208206026929
1589285559637737506,851,1589285559637608271,,0.499926655774,-0.183601199624,0.208178806829
1589285559643796239,852,1589285559643685921,,0.499925203495,-0.183344536131,0.208125918177
1589285559649768010,853,1589285559649645393,,0.499927088748,-0.183214205249,0.208102716825
1589285559655767641,854,1589285559655645018,,0.49992596323,-0.182956446435,0.2080542676
1589285559661851881,855,1589285559661672569,,0.499926832225,-0.182831041185,0.208030502878
1589285559667774324,856,1589285559667624538,,0.499925489269,-0.182580909747,0.207988522184
1589285559673838745,857,1589285559673670369,,0.499923740606,-0.182465005897,0.207965543462
1589285559679663877,858,1589285559679565064,,0.49991895305,-0.182232198841,0.207922060707
1589285559691825583,859,1589285559691647491,,0.499910115186,-0.181894199097,0.20784684317
1589285559698156432,860,1589285559697971727,,0.499906414723,-0.18178243428,0.207816191094
1589285559701067163,861,1589285559700950631,,0.499904705804,-0.181667375434,0.207792572926
1589285559706812750,862,1589285559706677666,,0.499898736611,-0.181433456087,0.207734380387
1589285559712827565,863,1589285559712711761,,0.499892156822,-0.181188714896,0.207672834985
1589285559718776321,864,1589285559718668453,,0.499890385802,-0.181064572798,0.207644210992
1589285559724778472,865,1589285559724636165,,0.499888496423,-0.180932921305,0.207613893593
1589285559730793849,866,1589285559730692780,,0.499887365725,-0.180665418548,0.207555399244
1589285559736805502,867,1589285559736653437,,0.499886524783,-0.180531860575,0.20752740968
1589285559742775831,868,1589285559742659785,,0.499887031511,-0.180391599981,0.207500493774
1589285559748891822,869,1589285559748738183,,0.499889855045,-0.180117319389,0.207455785421
1589285559754736685,870,1589285559754596019,,0.499889427059,-0.179985417061,0.207434747766
1589285559760812129,871,1589285559760665413,,0.499886489269,-0.179726432917,0.207397032132
1589285559766817123,872,1589285559766657668,,0.499884152945,-0.179600329531,0.207381103434
1589285559772732167,873,1589285559772633800,,0.499880418374,-0.179353271787,0.20734417354
1589285559784828279,874,1589285559784670915,,0.499873863083,-0.179008430837,0.207279176318
1589285559790712803,875,1589285559790624696,,0.499873018002,-0.178892795538,0.207253120925
1589285559796928574,876,1589285559796732661,,0.499866115691,-0.178664232713,0.207198722485
1589285559802797929,877,1589285559802656273,,0.499861463814,-0.178550622331,0.20717155264
1589285559808941764,878,1589285559808819890,,0.499853570285,-0.178310536581,0.207111030159
1589285559814882378,879,1589285559814743842,,0.499850498886,-0.178192028404,0.207082511819
1589285559820840963,880,1589285559820728087,,0.499845203262,-0.177936317821,0.207023360736
1589285559826801278,881,1589285559826679035,,0.499844842076,-0.177806116478,0.206994896514
1589285559832742459,882,1589285559832644828,,0.499844712918,-0.177531955813,0.206939009388
1589285559839311290,883,1589285559839248110,,0.499846091665,-0.177394802754,0.206913636611
1589285559844795851,884,1589285559844686863,,0.499844963386,-0.1772561488,0.2068919125
1589285559850778822,885,1589285559850696861,,0.499847633837,-0.177115725783,0.206868173103
1589285559856827756,886,1589285559856690833,,0.499846391515,-0.176841060791,0.206826443715
1589285559862790922,887,1589285559862672109,,0.499846067275,-0.176706059142,0.206804756755
1589285559868818098,888,1589285559868703346,,0.4998432545,-0.176450157337,0.206758005686
1589285559874812855,889,1589285559874673804,,0.499843169718,-0.176320912524,0.206734156357
1589285559880870007,890,1589285559880670297,,0.499839512281,-0.176074235223,0.206679913667
1589285559886950638,891,1589285559886733822,,0.499836946177,-0.175954237225,0.206653512946
1589285559892721401,892,1589285559892622354,,0.499829199883,-0.175719610624,0.206596088448
1589285559899154916,893,1589285559899046726,,0.499825539802,-0.175595447077,0.206566658486
1589285559902044258,894,1589285559901955059,,0.499817773372,-0.17535583509,0.20651390421
1589285559907758691,895,1589285559907665426,,0.499813060641,-0.175229484226,0.20648563649
1589285559913920241,896,1589285559913770936,,0.499808447697,-0.174978613534,0.206434323218
1589285559919791459,897,1589285559919645832,,0.499807408008,-0.174844453251,0.206409575111
1589285559925753667,898,1589285559925676899,,0.499805874859,-0.174580194694,0.20636406503
1589285559931831327,899,1589285559931699933,,0.499804611688,-0.174443667251,0.206346264361
1589285559937860304,900,1589285559937727414,,0.499801730304,-0.17416275464,0.206305047503
1589285559943866272,901,1589285559943753098,,0.499800251646,-0.174020017512,0.206284088568
1589285559951178373,902,1589285559951075844,,0.499795901476,-0.173743606508,0.206236161504
1589285559964763883,903,1589285559964607302,,0.499789725165,-0.173345446423,0.206159827803
1589285559970955624,904,1589285559970757263,,0.499787554604,-0.173219459172,0.206131564081
1589285559976776879,905,1589285559976601790,,0.499784553056,-0.172972143664,0.206078246975
1589285559982845239,906,1589285559982700604,,0.49977936947,-0.172852436678,0.206046140312
1589285559988845094,907,1589285559988738346,,0.499770940146,-0.172615686393,0.205985327588
1589285559994764395,908,1589285559994680665,,0.499766564816,-0.172492834642,0.205954848032
1589285559998168111,909,1589285559998058284,,0.499757608224,-0.172254773979,0.205897343581
1589285560001199431,910,1589285560001026435,,0.499752090142,-0.172132327902,0.20586817322
1589285560006825456,911,1589285560006709102,,0.499746167658,-0.171887292057,0.205814365538
1589285560012809868,912,1589285560012711978,,0.499746282675,-0.171759159535,0.205789757745
1589285560018798496,913,1589285560018678721,,0.499744932595,-0.171497384327,0.205744510951
1589285560024860995,914,1589285560024721534,,0.499746107846,-0.171360082548,0.205727214197
1589285560030966204,915,1589285560030757444,,0.499746852081,-0.171220010382,0.20570713404
1589285560036845058,916,1589285560036718880,,0.499748644269,-0.171080787696,0.205687289165
1589285560042903088,917,1589285560042742488,,0.499749741009,-0.170801260205,0.205647792286
1589285560048825893,918,1589285560048727493,,0.499750997383,-0.170663640929,0.205630594599
1589285560054914536,919,1589285560054767359,,0.499750216176,-0.170400390708,0.205585355569
1589285560060789268,920,1589285560060693847,,0.499752199959,-0.170309939817,0.205574604444
1589285560066769571,921,1589285560066672979,,0.499747992913,-0.170034002618,0.205510744993
1589285560072802811,922,1589285560072709175,,0.499747738885,-0.169955694294,0.205493832208
1589285560084874627,923,1589285560084759186,,0.499733893934,-0.169605887498,0.205400466664
1589285560090842651,924,1589285560090723309,,0.499729511955,-0.169501052128,0.20537500778
1589285560096936576,925,1589285560096789312,,0.499722697247,-0.169301726638,0.205318016045
1589285560102810425,926,1589285560102670163,,0.499717044203,-0.169086794469,0.205260609771
1589285560108853118,927,1589285560108672886,,0.499716700871,-0.168973972412,0.205238537728
1589285560114813353,928,1589285560114719214,,0.499713208439,-0.168855732136,0.205213562203
1589285560120857786,929,1589285560120685247,,0.499710609464,-0.16860740422,0.205170424771
1589285560126783815,930,1589285560126698020,,0.499709411119,-0.168341452361,0.205132404744
1589285560132768968,931,1589285560132683488,,0.499707272731,-0.168206119138,0.205111272349
1589285560144821916,932,1589285560144728615,,0.49970709237,-0.167930820419,0.205074454587
1589285560150875676,933,1589285560150771792,,0.499710994946,-0.16773116267,0.205048559292
1589285560156885641,934,1589285560156747114,,0.499711946285,-0.16757676938,0.205016138352
1589285560162870249,935,1589285560162714033,,0.49971150824,-0.167380172641,0.204986116678
1589285560168869171,936,1589285560168714332,,0.499708898746,-0.167240979575,0.204961774333
1589285560174867456,937,1589285560174733129,,0.499704200026,-0.167026464518,0.204916260754
1589285560180902165,938,1589285560180763038,,0.499700754409,-0.166938145875,0.204898744966
1589285560186821203,939,1589285560186660551,,0.499695245269,-0.16677293434,0.204855285998
1589285560192744200,940,1589285560192661134,,0.49969413907,-0.166691066331,0.204830061601
1589285560202123416,941,1589285560201978341,,0.499688263672,-0.166408062708,0.20476296469
1589285560207822050,942,1589285560207718346,,0.49968347762,-0.16619623243,0.204731776196
1589285560213913892,943,1589285560213761972,,0.499681948525,-0.166079514397,0.204711128664
1589285560219800709,944,1589285560219704375,,0.499680494194,-0.165830566922,0.204673312782
1589285560226083550,945,1589285560225991440,,0.499682019917,-0.165694700257,0.204651249559
1589285560231894973,946,1589285560231745448,,0.499683886371,-0.165429239541,0.204606629313
1589285560237837003,947,1589285560237678021,,0.499685914128,-0.165331486817,0.204592415107
1589285560243899883,948,1589285560243711388,,0.499687322158,-0.165071336278,0.204544146157
1589285560249939247,949,1589285560249703471,,0.49969039214,-0.164954752976,0.204523462821
1589285560255855995,950,1589285560255736648,,0.499688187316,-0.164732051507,0.204490741174
1589285560261829047,951,1589285560261721027,,0.499685911092,-0.164615505013,0.20447184568
1589285560267872267,952,1589285560267727488,,0.499677952388,-0.164443166477,0.204450800399
1589285560273860690,953,1589285560273750735,,0.499674721627,-0.164368651876,0.204440313569
1589285560279847935,954,1589285560279725348,,0.499669190557,-0.164226701158,0.204403977784
1589285560286209446,955,1589285560286093096,,0.499665469294,-0.164158396655,0.20438388149
1589285560291830961,956,1589285560291741427,,0.499655780952,-0.1640073974,0.204346866822
1589285560298275992,957,1589285560298157281,,0.499651971193,-0.163925501477,0.204333774482
1589285560301202916,958,1589285560301057566,,0.499641948965,-0.163741255727,0.204291749365
1589285560306967715,959,1589285560306811298,,0.49964034288,-0.163634603001,0.20427366079
1589285560312880935,960,1589285560312762635,,0.499638901039,-0.163416008521,0.204233884546
1589285560319012197,961,1589285560318803830,,0.499639665214,-0.163297070986,0.204213767692
1589285560324841743,962,1589285560324735644,,0.499639747015,-0.163178871551,0.204196894129
1589285560331015832,963,1589285560330815579,,0.499638316545,-0.162932000537,0.204166176488
1589285560336885525,964,1589285560336796317,,0.49963940704,-0.162802974924,0.204156487688
1589285560342955722,965,1589285560342780749,,0.499640483025,-0.162682555418,0.204147822223
1589285560348858546,966,1589285560348735466,,0.499639641646,-0.162451057118,0.204128303826
1589285560354920066,967,1589285560354766763,,0.499637201402,-0.162350680176,0.204120054037
1589285560360869022,968,1589285560360725263,,0.499631502729,-0.162162848405,0.204113960832
1589285560366979174,969,1589285560366782913,,0.49962474777,-0.162082519992,0.204108946455
1589285560372814033,970,1589285560372732606,,0.499612850539,-0.161933405015,0.204102103615
1589285560384860574,971,1589285560384735505,,0.499591117283,-0.161733685011,0.204085512362
1589285560390878968,972,1589285560390748493,,0.499575869586,-0.16159808282,0.204074627037
1589285560396929504,973,1589285560396781404,,0.499570143124,-0.161527766863,0.204063941219
1589285560402882934,974,1589285560402708709,,0.499564046855,-0.161449508599,0.204059055467
1589285560408899376,975,1589285560408752295,,0.499557790203,-0.161275963118,0.204046516602
1589285560414960870,976,1589285560414774259,,0.499558365876,-0.161106815485,0.204042391467
1589285560421009216,977,1589285560420832424,,0.499560909624,-0.161027469145,0.204041339042
1589285560426907164,978,1589285560426803535,,0.499563060751,-0.160901553347,0.204035268693
1589285560432927513,979,1589285560432802642,,0.499567744077,-0.16073831898,0.204034548284
1589285560445010260,980,1589285560444802006,,0.499563527275,-0.160527311876,0.204026879825
1589285560450872962,981,1589285560450728294,,0.499563534943,-0.160448410879,0.20403059138
1589285560456976325,982,1589285560456804062,,0.499555847769,-0.160323704016,0.204029323189
1589285560462950181,983,1589285560462712466,,0.499553036805,-0.160272388212,0.204025286431
1589285560468928197,984,1589285560468773393,,0.499546178426,-0.160174238775,0.204027593141
1589285560474958852,985,1589285560474793077,,0.49954026314,-0.160130690827,0.204025387211
1589285560480869489,986,1589285560480751545,,0.499534626355,-0.160086120241,0.204034643647
1589285560486880464,987,1589285560486772240,,0.499523531132,-0.159989877949,0.204046815268
1589285560493009292,988,1589285560492887900,,0.499516351316,-0.159876273573,0.204055960076
1589285560502188532,989,1589285560502081645,,0.499512981198,-0.159740073176,0.204059989323
1589285560507916919,990,1589285560507753964,,0.499515396526,-0.159575821836,0.204062727032
1589285560513915094,991,1589285560513793423,,0.499516134393,-0.159486525571,0.204063190612
1589285560519939432,992,1589285560519765801,,0.499521226038,-0.159299267728,0.204062265089
1589285560531953318,993,1589285560531810968,,0.499527019866,-0.159013866605,0.204062464962
1589285560537951148,994,1589285560537815463,,0.499530336721,-0.158865348269,0.204074964049
1589285560543962561,995,1589285560543771761,,0.499532322291,-0.158808257544,0.204083933717
1589285560550042108,996,1589285560549839986,,0.499531369694,-0.158727168781,0.204088344424
1589285560555929234,997,1589285560555753629,,0.499531867188,-0.158638807832,0.204107021235
1589285560562009084,998,1589285560561807673,,0.499526982771,-0.158586718102,0.204110668442
1589285560567880907,999,1589285560567750313,,0.499520369243,-0.158498962819,0.204124311032
1589285560573967545,1000,1589285560573785074,,0.499514936441,-0.158474077738,0.204126456596
1589285560579930351,1001,1589285560579814815,,0.499508038528,-0.158415575685,0.204125075762
1589285560586181074,1002,1589285560586062004,,0.499507190313,-0.158380239936,0.204120254098
1589285560592024998,1003,1589285560591816511,,0.499505055264,-0.158293411049,0.204122361943
1589285560598328955,1004,1589285560598184883,,0.499505226661,-0.158239717547,0.204122609793
1589285560601318178,1005,1589285560601125732,,0.499508557146,-0.158130025922,0.20413741584
1589285560607008607,1006,1589285560606807049,,0.499512676683,-0.158048973465,0.204135621251
1589285560613117013,1007,1589285560612928931,,0.499520944268,-0.157919764052,0.204155405808
1589285560625014723,1008,1589285560624797684,,0.499531860779,-0.157688758706,0.204162485778
1589285560630934585,1009,1589285560630774892,,0.499534149936,-0.157617315322,0.204162840247
1589285560636945133,1010,1589285560636765003,,0.499536128001,-0.157552563976,0.20416626425
1589285560642964551,1011,1589285560642822141,,0.499536984092,-0.157429222378,0.20416113468
1589285560649053996,1012,1589285560648861632,,0.499537772466,-0.15737412692,0.204163183819
1589285560654975006,1013,1589285560654834012,,0.499532285253,-0.157280423693,0.204166875261
1589285560660955335,1014,1589285560660779688,,0.499531115617,-0.157254240876,0.204171240851
1589285560666898199,1015,1589285560666811602,,0.499524143636,-0.1571696764,0.204177428155
1589285560672925559,1016,1589285560672826872,,0.499521542876,-0.157148353275,0.204182993906
1589285560684979598,1017,1589285560684829694,,0.499512159005,-0.15702568486,0.204192917924
1589285560690967867,1018,1589285560690831841,,0.499508545416,-0.15698549598,0.204190918978
1589285560697056843,1019,1589285560696859181,,0.499506996727,-0.156891047673,0.204195750233
1589285560703032471,1020,1589285560702828169,,0.499507412183,-0.156835828119,0.204191087467
1589285560709199069,1021,1589285560708873727,,0.499508963588,-0.156712072905,0.204194191888
1589285560714975168,1022,1589285560714829920,,0.499509529542,-0.156650457426,0.204190873124
1589285560720948629,1023,1589285560720785417,,0.499513337143,-0.156514113557,0.204198934567
1589285560727025793,1024,1589285560726832736,,0.499514754299,-0.156451916643,0.204201107619
1589285560733134221,1025,1589285560733001553,,0.49951543629,-0.156334022482,0.204210279022
1589285560745079114,1026,1589285560744818608,,0.499514567729,-0.156225918902,0.204217691684
1589285560751027084,1027,1589285560750832056,,0.499512214792,-0.156142649719,0.204227781127
1589285560756967376,1028,1589285560756821550,,0.49950923483,-0.156102943016,0.204226758537
1589285560762977832,1029,1589285560762849766,,0.499503326439,-0.15602692505,0.204225560783
1589285560769090024,1030,1589285560768884949,,0.499500175417,-0.155994373111,0.20422998204
1589285560774954222,1031,1589285560774795861,,0.499495806099,-0.155921453694,0.204230248895
1589285560780986155,1032,1589285560780813875,,0.499494448575,-0.155884668688,0.204229049646
1589285560787025677,1033,1589285560786791156,,0.499493715388,-0.155800195051,0.204233781602
1589285560792954144,1034,1589285560792849612,,0.499494199117,-0.155748661898,0.204234115777
1589285560805159345,1035,1589285560804914712,,0.499496216798,-0.155603102714,0.20424058734
1589285560811029041,1036,1589285560810829478,,0.499498606178,-0.155498120975,0.204247089709
1589285560817092193,1037,1589285560816824071,,0.499500174972,-0.155444910352,0.204248948616
1589285560823009247,1038,1589285560822830745,,0.499499769769,-0.155396873357,0.20425019019
1589285560828917065,1039,1589285560828795964,,0.499499814854,-0.155302127453,0.204257619121
1589285560834962907,1040,1589285560834836711,,0.4995010549,-0.155216847437,0.204266896624
1589285560841018467,1041,1589285560840871309,,0.499499572933,-0.155189221701,0.204271891529
1589285560846988371,1042,1589285560846871370,,0.499497868009,-0.155167411257,0.204278450267
1589285560853021405,1043,1589285560852878464,,0.499494157266,-0.15511624873,0.204284532182
1589285560864920928,1044,1589285560864804159,,0.499486047217,-0.155061947543,0.204302842446
1589285560870964366,1045,1589285560870823459,,0.499483354619,-0.155045652245,0.204304840617
1589285560876925841,1046,1589285560876755876,,0.499478805894,-0.155018546469,0.204310953727
1589285560883015496,1047,1589285560882796314,,0.499477505064,-0.155003096162,0.204313531445
1589285560888882181,1048,1589285560888766149,,0.499475916232,-0.15496849392,0.204316030241
1589285560894894928,1049,1589285560894783384,,0.499475343136,-0.154947152628,0.204321141216
1589285560898292899,1050,1589285560898157171,,0.499474484786,-0.154909380121,0.204331370963
1589285560903990173,1051,1589285560903832994,,0.499474740426,-0.154891882145,0.204335974323
1589285560909940156,1052,1589285560909775796,,0.499475156057,-0.154842260346,0.204342062615
1589285560915940661,1053,1589285560915825048,,0.499476311922,-0.154821140168,0.204345790045
1589285560921886463,1054,1589285560921801345,,0.499474880365,-0.154773195884,0.204350463825
1589285560927958819,1055,1589285560927817247,,0.499473823702,-0.154755531101,0.20435189491
1589285560934064928,1056,1589285560933875494,,0.499472067157,-0.154721596628,0.204354669432
1589285560939907819,1057,1589285560939803401,,0.49947134221,-0.154706770201,0.204355263456
1589285560946176858,1058,1589285560946071296,,0.499471049548,-0.154693972541,0.204357792999
1589285560957978343,1059,1589285560957799369,,0.499468806685,-0.154659476405,0.204365905578
1589285560963981069,1060,1589285560963814969,,0.499467927681,-0.154652346277,0.204367674535
1589285560970090959,1061,1589285560969860504,,0.4994665342,-0.154633260902,0.204377405169
1589285560976075894,1062,1589285560975855165,,0.499463826986,-0.154617993033,0.204383597756
1589285560982002429,1063,1589285560981856003,,0.499461932778,-0.154607568678,0.204385767946
1589285560987946042,1064,1589285560987801464,,0.499460844758,-0.154597547864,0.204388500052
1589285560994018045,1065,1589285560993854597,,0.499458189864,-0.154583937322,0.204390036188
1589285561000124144,1066,1589285561000002587,,0.499457856343,-0.154575415058,0.204389146382
1589285561006052602,1067,1589285561005916911,,0.499455410283,-0.154564098633,0.204389494097
1589285561011994021,1068,1589285561011794982,,0.499454792538,-0.154557686063,0.204391101198
1589285561018010289,1069,1589285561017869242,,0.499453199899,-0.154545982753,0.204393664312
1589285561023919908,1070,1589285561023807281,,0.499450768206,-0.154538927799,0.204396143261
1589285561030072414,1071,1589285561029924518,,0.499450239216,-0.154534956832,0.204397000614
1589285561035982080,1072,1589285561035832653,,0.499448915045,-0.154532397417,0.204397377357
1589285561042046930,1073,1589285561041844127,,0.499448372313,-0.154529577245,0.204398703181
1589285561047976161,1074,1589285561047815703,,0.499445636098,-0.154524542086,0.204399322623
1589285561054007702,1075,1589285561053831475,,0.499444711314,-0.154521922265,0.204399932737
1589285561059929270,1076,1589285561059821025,,0.499443212075,-0.15452074199,0.204399114864
1589285561066361010,1077,1589285561066203130,,0.499440958183,-0.154514398816,0.204399907238
1589285561072076285,1078,1589285561071877117,,0.499439077529,-0.154512002794,0.204401153223
1589285561078049790,1079,1589285561077860303,,0.499438559902,-0.154511041595,0.204403227276
1589285561084090207,1080,1589285561083897569,,0.49943686405,-0.15450961472,0.20440358537
1589285561090152748,1081,1589285561089919054,,0.49943676907,-0.154510150871,0.204405838134
1589285561096075584,1082,1589285561095867787,,0.499436365063,-0.154510012935,0.204405197961
1589285561102353951,1083,1589285561102177766,,0.499435899463,-0.154509757447,0.204405762167
1589285561108018126,1084,1589285561107837047,,0.499436044651,-0.154510621739,0.204406465609
1589285561113973850,1085,1589285561113883969,,0.499435368698,-0.154511162912,0.2044063177
1589285561119988183,1086,1589285561119837128,,0.499435520301,-0.15451040316,0.204405977827
1589285561129113609,1087,1589285561128943630,,0.499435235933,-0.154513378234,0.204405497182
1589285561134943525,1088,1589285561134855143,,0.499434560289,-0.154515740816,0.204404794549
1589285561141099106,1089,1589285561140874790,,0.499434220908,-0.154518557669,0.204405284963
1589285561147001024,1090,1589285561146846688,,0.499433448212,-0.15452098558,0.204404312336
1589285561153206945,1091,1589285561153022554,,0.4994329479,-0.154524626283,0.204404763521
1589285561165104058,1092,1589285561164860875,,0.499432346347,-0.154530520628,0.204404562958
1589285561171025345,1093,1589285561170861216,,0.499431300556,-0.154538163342,0.204404696698
1589285561177058136,1094,1589285561176900967,,0.499430361637,-0.154542440332,0.204404487343
1589285561182987122,1095,1589285561182864316,,0.499428820691,-0.154552410372,0.20440575767
1589285561188918693,1096,1589285561188785724,,0.499427609712,-0.154559749695,0.204405373455
1589285561194968517,1097,1589285561194828512,,0.49942409313,-0.154577584496,0.204408219933
1589285561198350118,1098,1589285561198211367,,0.499421627747,-0.154586381679,0.204409014887
1589285561201345141,1099,1589285561201199858,,0.499417881546,-0.154601605705,0.204410617993
1589285561206912653,1100,1589285561206798775,,0.499416168525,-0.154613595155,0.204411406413
1589285561213299782,1101,1589285561213088276,,0.499413754516,-0.154634027442,0.204413432446
1589285561225067665,1102,1589285561224891453,,0.499412347204,-0.15466861597,0.204417800124
1589285561230933747,1103,1589285561230825573,,0.499413096546,-0.154679067819,0.204419501241
1589285561236973435,1104,1589285561236866138,,0.499415901489,-0.154701079017,0.204424514754
1589285561243127560,1105,1589285561242958093,,0.499417636833,-0.154710677761,0.204427065159
1589285561249073978,1106,1589285561248921291,,0.499419658656,-0.154719723051,0.204430096268
1589285561255054034,1107,1589285561254902488,,0.499423940509,-0.154733212508,0.204435274816
1589285561261122160,1108,1589285561260954751,,0.499429101727,-0.154745432634,0.204438449796
1589285561266981102,1109,1589285561266871366,,0.499431899627,-0.154750618847,0.204441029445
1589285561272998466,1110,1589285561272899490,,0.499434496751,-0.154755299249,0.204443583329
1589285561285002645,1111,1589285561284894124,,0.499445932838,-0.154773325568,0.204444396757
1589285561291044809,1112,1589285561290905891,,0.499448906721,-0.154775298851,0.204443856254
1589285561297099136,1113,1589285561296943688,,0.499451997342,-0.154778894971,0.204443708125
1589285561303049665,1114,1589285561302917751,,0.499458359729,-0.154785664592,0.204441489277
1589285561309076721,1115,1589285561308885410,,0.499464366538,-0.154789593174,0.204440169495
1589285561315073770,1116,1589285561314929893,,0.499466967669,-0.15479249079,0.204437489671
1589285561321110918,1117,1589285561320996689,,0.499469729502,-0.154795332011,0.204436745142
1589285561327067541,1118,1589285561326935276,,0.499475115743,-0.15479830419,0.20443434186
1589285561333106537,1119,1589285561332980779,,0.499477733406,-0.154798669,0.204432767645
1589285561345096719,1120,1589285561344885603,,0.499484861268,-0.154801003688,0.204430793568
1589285561351164723,1121,1589285561350972918,,0.499487617639,-0.154801560221,0.204431938363
1589285561357082905,1122,1589285561356912941,,0.499491316065,-0.154802552982,0.204431115807
1589285561363045946,1123,1589285561362932021,,0.499493193744,-0.154802435634,0.204431453999
1589285561369056385,1124,1589285561368933375,,0.499497122198,-0.154801913226,0.204429770923
1589285561375110381,1125,1589285561374955448,,0.499499114299,-0.154800556744,0.204429462232
1589285561381003714,1126,1589285561380857831,,0.499502874256,-0.154799062906,0.204427006874
1589285561387028019,1127,1589285561386853061,,0.499504869673,-0.154798363037,0.204426252074
1589285561392984680,1128,1589285561392856020,,0.499509308371,-0.154794531851,0.204423773621
1589285561399571253,1129,1589285561399450096,,0.499511083922,-0.154793206213,0.204421749669
1589285561402277370,1130,1589285561402163136,,0.499515778669,-0.154787441929,0.204420267011
1589285561407963168,1131,1589285561407823467,,0.499517527273,-0.154785533071,0.20441888961
1589285561414127201,1132,1589285561413926473,,0.499523691179,-0.154776921604,0.204416659695
1589285561420002396,1133,1589285561419845695,,0.499527000471,-0.154769095873,0.204416815376
1589285561426200340,1134,1589285561426113464,,0.499533716003,-0.154755629014,0.204416638898
1589285561432040977,1135,1589285561431948416,,0.499537954054,-0.154748091545,0.204418154141
1589285561438006653,1136,1589285561437873007,,0.499543219934,-0.154736134201,0.204418375921
1589285561444080468,1137,1589285561443934610,,0.499545943834,-0.154729782907,0.204419155134
1589285561450152910,1138,1589285561449942321,,0.49954867121,-0.154724391149,0.204419535594
1589285561456105959,1139,1589285561455944874,,0.499553109583,-0.154715022158,0.204418763912
1589285561462116285,1140,1589285561461930089,,0.499556937047,-0.154706879873,0.204418938973
1589285561468104865,1141,1589285561467961770,,0.499558536682,-0.1547019447,0.204418859669
1589285561474152444,1142,1589285561473977897,,0.499560282386,-0.154698016639,0.204418902005
1589285561480079416,1143,1589285561479958205,,0.499562788172,-0.154690906007,0.204418351956
1589285561486092922,1144,1589285561485992169,,0.499563658578,-0.154687490758,0.204418375338
1589285561492097808,1145,1589285561491882834,,0.499565620881,-0.154680260188,0.204418880832
1589285561498571760,1146,1589285561498356794,,0.499567204412,-0.154672324867,0.204420265529
1589285561504073032,1147,1589285561503941795,,0.499567782708,-0.1546693316,0.204420332435
1589285561510069020,1148,1589285561509949308,,0.499568493808,-0.154661508336,0.204421013505
1589285561516079196,1149,1589285561515922304,,0.499568831735,-0.154658574044,0.204421604374
1589285561522157415,1150,1589285561521985453,,0.499568083411,-0.15465403164,0.204422932226
1589285561528104218,1151,1589285561527983351,,0.499567949437,-0.15465154986,0.204422053023
1589285561534094261,1152,1589285561533987517,,0.499567688736,-0.154646197512,0.204423425178
1589285561540073282,1153,1589285561539941535,,0.499566666888,-0.154643674732,0.204423708037
1589285561552040631,1154,1589285561551925475,,0.499565084909,-0.154637658104,0.204425229629
1589285561558194654,1155,1589285561557967549,,0.499564612076,-0.154636128468,0.204425990114
1589285561564064245,1156,1589285561563897211,,0.499563358032,-0.154634675213,0.204426071049
1589285561570090182,1157,1589285561569985926,,0.499561754596,-0.154633300655,0.204428979947
1589285561576175572,1158,1589285561575977742,,0.499560613076,-0.154632589337,0.204430829773
1589285561582128008,1159,1589285561581944005,,0.499557909472,-0.154633180253,0.204437985182
1589285561588136433,1160,1589285561587914958,,0.499556490196,-0.154633007617,0.204444368925
1589285561594157717,1161,1589285561593965199,,0.499555025934,-0.15463335098,0.204452492949
1589285561600340644,1162,1589285561600132706,,0.499551896186,-0.154635744093,0.204458949635
1589285561606302314,1163,1589285561606191813,,0.499549966904,-0.154639609406,0.20446004707
1589285561612110943,1164,1589285561611943169,,0.499548871135,-0.154641105114,0.204459973559
1589285561618139724,1165,1589285561617942497,,0.499547214082,-0.154642787062,0.20446029738
1589285561624146159,1166,1589285561623943548,,0.499543708541,-0.154647824399,0.204457626832
1589285561630130764,1167,1589285561629947067,,0.499542031691,-0.154651413506,0.20445676918
1589285561636050655,1168,1589285561635930817,,0.499539778432,-0.154654377509,0.20445574001
1589285561642112673,1169,1589285561641950269,,0.499536904658,-0.154660641692,0.204454543005
1589285561648133985,1170,1589285561647965247,,0.49953400306,-0.154668453791,0.204455211289
1589285561654153497,1171,1589285561653973155,,0.499526088636,-0.154688065511,0.204453813628
1589285561660713236,1172,1589285561660566272,,0.499521975517,-0.154698379463,0.204453002314
1589285561672261503,1173,1589285561672086794,,0.499509486237,-0.154730855254,0.204445935238
1589285561678094758,1174,1589285561677946899,,0.499501784582,-0.154757109308,0.204443774156
1589285561684143141,1175,1589285561683991309,,0.499498852428,-0.15476739188,0.204443852676
1589285561690124646,1176,1589285561689978571,,0.499493415213,-0.154784601568,0.204440861367
1589285561696072318,1177,1589285561695953630,,0.499490590807,-0.154793654196,0.204440078699
1589285561702525144,1178,1589285561702343637,,0.499485422383,-0.154810052759,0.204438136939
1589285561708125822,1179,1589285561707941103,,0.499482774235,-0.154818995908,0.204436652868
1589285561714047507,1180,1589285561713936703,,0.499478399679,-0.15483968057,0.204434802942
1589285561720092347,1181,1589285561719963192,,0.499475647423,-0.154849231849,0.204430877452
1589285561726546313,1182,1589285561726390466,,0.499473711264,-0.154866318816,0.204422023497
1589285561732136342,1183,1589285561731945843,,0.499473793903,-0.154876872654,0.204407153914
1589285561738025033,1184,1589285561737930393,,0.499473262263,-0.154892879877,0.204385492775
1589285561744170253,1185,1589285561743971499,,0.499473634922,-0.154900816544,0.20437814373
1589285561750134588,1186,1589285561750030959,,0.499473800151,-0.154913443258,0.204365159956
1589285561756147167,1187,1589285561756003469,,0.499474346456,-0.154918889182,0.20435788428
1589285561762109438,1188,1589285561761960810,,0.499476731818,-0.154929420119,0.204343297334
1589285561768200555,1189,1589285561767952000,,0.499478689524,-0.154934300182,0.20433677298
1589285561774096165,1190,1589285561773924304,,0.49948197244,-0.154943775848,0.204326178435
1589285561780188222,1191,1589285561779931299,,0.499484567385,-0.154948961753,0.20432151194
1589285561786414862,1192,1589285561786323641,,0.499491191495,-0.154958961637,0.204309275456
1589285561792271610,1193,1589285561791997026,,0.499496229123,-0.154965114781,0.204306224769
1589285561798449548,1194,1589285561798299153,,0.499505649472,-0.154976206224,0.20429961693
1589285561801467158,1195,1589285561801317121,,0.49950972044,-0.154980150909,0.204299301042
1589285561807065692,1196,1589285561806937225,,0.499518392535,-0.154989182367,0.204297499714
1589285561813239413,1197,1589285561813036791,,0.499522925906,-0.154993238741,0.204298109011
1589285561825133233,1198,1589285561824991550,,0.499537311477,-0.15500827261,0.204294888504
1589285561831144882,1199,1589285561831020422,,0.499544677466,-0.155018144672,0.204292944352
1589285561837184895,1200,1589285561836997344,,0.499548185988,-0.155022748605,0.204292944631
1589285561843166000,1201,1589285561843006352,,0.499551973041,-0.155025888218,0.204293195548
1589285561849063028,1202,1589285561848910235,,0.499554669821,-0.155032051879,0.204293078924
1589285561855078608,1203,1589285561854991470,,0.499560402898,-0.155043435088,0.204290918189
1589285561861141686,1204,1589285561860983408,,0.499563406736,-0.155047155222,0.204289355456
1589285561867078657,1205,1589285561866960058,,0.499568039168,-0.155060583726,0.204283925679
1589285561873121019,1206,1589285561873023585,,0.499570532573,-0.155068001379,0.20428390128
1589285561879849625,1207,1589285561879769541,,0.499574298322,-0.155085612189,0.204283003871
1589285561885062514,1208,1589285561884966125,,0.49957533669,-0.155097960759,0.204282426414
1589285561891144198,1209,1589285561890961568,,0.499578144809,-0.155123457186,0.20427909796
1589285561897104512,1210,1589285561896945938,,0.499579599626,-0.155136174196,0.204276134193
1589285561903106067,1211,1589285561902962356,,0.499582123845,-0.155163510478,0.204271806353
1589285561909097258,1212,1589285561908941399,,0.499583667559,-0.155177971021,0.204270178464
1589285561915115083,1213,1589285561914936937,,0.499585137769,-0.15520782632,0.204268235291
1589285561921078778,1214,1589285561920947696,,0.499585935792,-0.155222404292,0.204267360382
1589285561927143906,1215,1589285561927021223,,0.499588010084,-0.155252495451,0.204263659657
1589285561933132836,1216,1589285561933052352,,0.499590658294,-0.155265901591,0.204264390977
1589285561945057364,1217,1589285561944931494,,0.499592354573,-0.15531763305,0.2042576989
1589285561950991213,1218,1589285561950876150,,0.499592281831,-0.155352707282,0.204251977425
1589285561957133297,1219,1589285561956966436,,0.499592756684,-0.155370019099,0.204249322314
1589285561963073967,1220,1589285561962926376,,0.499593965154,-0.155404453356,0.204245715152
1589285561969117604,1221,1589285561968971801,,0.499594362988,-0.155422358702,0.204244794367
1589285561975062902,1222,1589285561974962003,,0.49959442409,-0.15546274815,0.204240995555
1589285561981125997,1223,1589285561980993467,,0.499594214425,-0.155482251958,0.204237596396
1589285561987046782,1224,1589285561986937011,,0.499594518093,-0.155500450077,0.204235505569
1589285561993081208,1225,1589285561992925228,,0.499595721092,-0.155536185192,0.204228190696
1589285561999529495,1226,1589285561999432074,,0.499595952881,-0.155575010141,0.20422317396
1589285562005091918,1227,1589285562004962521,,0.499596359689,-0.155596777299,0.204220983632
1589285562011109802,1228,1589285562010986215,,0.499596162971,-0.155614713966,0.204217738853
1589285562017196822,1229,1589285562017023688,,0.499596841461,-0.155647186891,0.204208936
1589285562023182770,1230,1589285562022971573,,0.499597097237,-0.155667694367,0.204202204134
1589285562029084366,1231,1589285562028994237,,0.499597833534,-0.155700897132,0.204191199117
1589285562035117272,1232,1589285562034967757,,0.499599282201,-0.155717971669,0.204188385558
1589285562041116439,1233,1589285562040976229,,0.499601270202,-0.155748715307,0.204181708978
1589285562047063043,1234,1589285562046980300,,0.499602544378,-0.155762227795,0.204178492064
1589285562053018872,1235,1589285562052944943,,0.499606057172,-0.155792495436,0.20416810727
1589285562065137117,1236,1589285562065022776,,0.499612977852,-0.15583874789,0.204155805958
1589285562071125014,1237,1589285562070974422,,0.499614298394,-0.155853640531,0.204151891041
1589285562077135170,1238,1589285562077045732,,0.49961878432,-0.15588664674,0.204143718813
1589285562083232395,1239,1589285562083054478,,0.499620091186,-0.155905498394,0.204137529092
1589285562089148027,1240,1589285562088938567,,0.499624388461,-0.155939232409,0.204129307523
1589285562095136003,1241,1589285562094993011,,0.4996263894,-0.155955172474,0.204125875001
1589285562101473713,1242,1589285562101341228,,0.499630438804,-0.155991197439,0.20411682491
1589285562107086061,1243,1589285562106991644,,0.499632055862,-0.156013280324,0.204111115938
1589285562113242256,1244,1589285562113098350,,0.499635539608,-0.156056489647,0.204104391684
1589285562125118179,1245,1589285562125042392,,0.4996417345,-0.15612068857,0.204095931567
1589285562131141133,1246,1589285562131026186,,0.499643374901,-0.156139153294,0.204094817406
1589285562137167688,1247,1589285562137038716,,0.499645351242,-0.156179603536,0.204089993712
1589285562143158129,1248,1589285562142979355,,0.499645306416,-0.156201229276,0.204084051235
1589285562149121823,1249,1589285562149000867,,0.499647606685,-0.156246656666,0.204077176511
1589285562155094524,1250,1589285562154950706,,0.499649397879,-0.156271786603,0.204073822633
1589285562161146172,1251,1589285562160997198,,0.499649869828,-0.156316700957,0.204065480851
1589285562167068131,1252,1589285562166930358,,0.499650365402,-0.156337433075,0.204061082795
1589285562173079189,1253,1589285562172964629,,0.499651133671,-0.156379203143,0.204057355633
1589285562179454549,1254,1589285562179326027,,0.499652503163,-0.156400855005,0.20405549555
1589285562185123573,1255,1589285562184977462,,0.499654375086,-0.15645093293,0.204045794356
1589285562191099044,1256,1589285562190956290,,0.499656145797,-0.15647475273,0.204040159815
1589285562197141227,1257,1589285562197019877,,0.499659631343,-0.156529152312,0.204031375734
1589285562203111308,1258,1589285562203003900,,0.499661683235,-0.156556636926,0.204028585647
1589285562209164593,1259,1589285562209025737,,0.499663532413,-0.156615036371,0.204018525301
1589285562215061404,1260,1589285562214975494,,0.499665052832,-0.156643290484,0.204011256981
1589285562221041198,1261,1589285562220967625,,0.499668266157,-0.156707266846,0.204003108005
1589285562227127666,1262,1589285562227027628,,0.499668129873,-0.15674241199,0.203997560194
1589285562233237157,1263,1589285562233132305,,0.499670770866,-0.156810410056,0.203985152145
1589285562245170901,1264,1589285562245034336,,0.49967353619,-0.156881165496,0.203979799321
1589285562248137660,1265,1589285562248005447,,0.499674974747,-0.156917584612,0.203971816941
1589285562254069885,1266,1589285562253977232,,0.499677660757,-0.156991471267,0.203962935437
1589285562260107733,1267,1589285562259999891,,0.499679648462,-0.157027248612,0.203956007095
1589285562266687534,1268,1589285562266590294,,0.499681324642,-0.1571072257,0.203947777539
1589285562278133077,1269,1589285562278005145,,0.4996855738,-0.157224830659,0.203929049241
1589285562284193199,1270,1589285562284020230,,0.499686368533,-0.157256686522,0.203926739038
1589285562290101980,1271,1589285562289973930,,0.499688351449,-0.15732822695,0.203915937236
1589285562296068691,1272,1589285562295966205,,0.499688304119,-0.15736370239,0.203912289892
1589285562302529998,1273,1589285562302334707,,0.499690514151,-0.157439472462,0.203903746805
1589285562308194688,1274,1589285562308077992,,0.499692107628,-0.157480999328,0.203899055975
1589285562314106343,1275,1589285562313958589,,0.499694239686,-0.157559256865,0.203889477932
1589285562320128346,1276,1589285562320046773,,0.499694691118,-0.157595063992,0.203886740397
1589285562326299341,1277,1589285562326216148,,0.499695049032,-0.157675243583,0.2038818246
1589285562338095624,1278,1589285562337992009,,0.499696388055,-0.157758104069,0.203873725995
1589285562344269862,1279,1589285562344091235,,0.499698990268,-0.157850250098,0.20385599981
1589285562350232839,1280,1589285562350116529,,0.499698999259,-0.157900201501,0.203848837462
1589285562356274782,1281,1589285562356087958,,0.499700843325,-0.157999324219,0.203832837485
1589285562362168633,1282,1589285562362094776,,0.499700463735,-0.158050193083,0.203827807791
1589285562368079299,1283,1589285562367984418,,0.499699820431,-0.158157616393,0.2038131828
1589285562374074073,1284,1589285562374001152,,0.499700281107,-0.158211394842,0.203806458188
1589285562380232723,1285,1589285562380057970,,0.499701317169,-0.158326165774,0.203793489982
1589285562386750308,1286,1589285562386645870,,0.499702248826,-0.158438417255,0.203776982299
1589285562398552695,1287,1589285562398436242,,0.499704272494,-0.158552269411,0.203764441474
1589285562404232771,1288,1589285562404055985,,0.499702274934,-0.158654906516,0.203747511069
1589285562410312499,1289,1589285562410105258,,0.499702973186,-0.158693779488,0.203740736144
1589285562416263527,1290,1589285562416114259,,0.499701686734,-0.158807076969,0.20372647857
1589285562422134896,1291,1589285562421974247,,0.499701781425,-0.158852454302,0.203714269101
1589285562428116609,1292,1589285562428010726,,0.499702829923,-0.158968245134,0.203698851349
1589285562434172832,1293,1589285562434054354,,0.499702286208,-0.159018508119,0.203687802268
1589285562440189117,1294,1589285562440092820,,0.499704073353,-0.159110464159,0.203677368494
1589285562449238182,1295,1589285562449038609,,0.499701615319,-0.159259638032,0.203654428637
1589285562455172899,1296,1589285562455076331,,0.499701959702,-0.159314764436,0.20365055253
1589285562461192397,1297,1589285562461104751,,0.499701136097,-0.159434066727,0.203630683939
1589285562467244535,1298,1589285562467110245,,0.49970062096,-0.159499864758,0.203624345827
1589285562473133766,1299,1589285562473044418,,0.499698861497,-0.15963655631,0.203602285232
1589285562479294011,1300,1589285562479218106,,0.499696641269,-0.159705289217,0.203594126631
1589285562485122064,1301,1589285562485012995,,0.4996943313,-0.15985266091,0.203571885174
1589285562491203863,1302,1589285562491079901,,0.499691727139,-0.159928982135,0.203562381391
1589285562497067138,1303,1589285562496970711,,0.499690887181,-0.160078330501,0.203536205946
1589285562503294746,1304,1589285562503105483,,0.499689297331,-0.160156755855,0.203528155616
1589285562509069639,1305,1589285562508957614,,0.499687901458,-0.160307906747,0.203506297088
1589285562515113899,1306,1589285562515004489,,0.499687532423,-0.160382827423,0.203494328903
1589285562521105740,1307,1589285562520972873,,0.499685902737,-0.160503423911,0.203471510952
1589285562527264885,1308,1589285562527107169,,0.499685864972,-0.160554727042,0.203461801512
1589285562533051451,1309,1589285562532962043,,0.49968385326,-0.160690619577,0.203441095435
1589285562545208404,1310,1589285562545051206,,0.499682635157,-0.160881803118,0.203407380494
1589285562551182507,1311,1589285562551057918,,0.499682575567,-0.160937631198,0.203396028314
1589285562557163017,1312,1589285562557055629,,0.499682466752,-0.160991925466,0.203383288841
1589285562563310328,1313,1589285562563098635,,0.49968147145,-0.16110980072,0.20336614245
1589285562569204113,1314,1589285562569024376,,0.499674886751,-0.161241903684,0.203345428751
1589285562575212819,1315,1589285562575082996,,0.499672460894,-0.16131635125,0.203339444888
1589285562581085951,1316,1589285562580990586,,0.499667002345,-0.161444945472,0.203313180871
1589285562587116890,1317,1589285562586997758,,0.499664135334,-0.161506648899,0.203303311144
1589285562593117719,1318,1589285562593016865,,0.499659816947,-0.161596720578,0.203292330623
1589285562599641738,1319,1589285562599562551,,0.499651497453,-0.161729809492,0.203270671807
1589285562605160136,1320,1589285562605037029,,0.499648260636,-0.161817911209,0.203255277269
1589285562611212050,1321,1589285562611023722,,0.499643739733,-0.161977169141,0.203232317638
1589285562617139226,1322,1589285562617039795,,0.499642713749,-0.162108207062,0.203212325589
1589285562623124911,1323,1589285562623033201,,0.499642085512,-0.162177612233,0.203205510496
1589285562629299636,1324,1589285562629119909,,0.499639947642,-0.16224232068,0.203196226256
1589285562635174243,1325,1589285562635008520,,0.499637258736,-0.162383852025,0.203179430035
1589285562641142331,1326,1589285562641022887,,0.499636365162,-0.162457346442,0.203162581018
1589285562647143489,1327,1589285562647046537,,0.499635174734,-0.162618520802,0.203136484804
1589285562653140755,1328,1589285562653053213,,0.499634795981,-0.1626979509,0.203119116283
1589285562659447455,1329,1589285562659349597,,0.499629057938,-0.162874998869,0.203088352299
1589285562665207006,1330,1589285562665073017,,0.499626733446,-0.162965974568,0.203079908973
1589285562671203024,1331,1589285562671063462,,0.499618969281,-0.163160185178,0.203051791147
1589285562677201806,1332,1589285562677044759,,0.499617076774,-0.163261761928,0.203041722635
1589285562683123215,1333,1589285562683003339,,0.499611157661,-0.163466862162,0.203015238325
1589285562689230278,1334,1589285562689120692,,0.499610137609,-0.163571237144,0.203006849796
1589285562695170755,1335,1589285562695048651,,0.499606597659,-0.163677408274,0.202994169258
1589285562701508859,1336,1589285562701389479,,0.499600255255,-0.163880721094,0.202972979853
1589285562707193748,1337,1589285562707073344,,0.499596151297,-0.163953108974,0.202962963359
1589285562713656413,1338,1589285562713569121,,0.49959369746,-0.164052825666,0.202950936946
1589285562725202338,1339,1589285562725041631,,0.499588184738,-0.16430886564,0.202906459812
1589285562731159058,1340,1589285562731008852,,0.499585827713,-0.164474874208,0.202880209477
1589285562737141691,1341,1589285562737023793,,0.499585748133,-0.164587054661,0.202859824059
1589285562743125206,1342,1589285562743018901,,0.499585120196,-0.164659413604,0.202848315221
1589285562749141231,1343,1589285562749021728,,0.499583743935,-0.164744516327,0.20284144054
1589285562755160951,1344,1589285562755032596,,0.499580598208,-0.164871072496,0.202820994607
1589285562761264486,1345,1589285562761059704,,0.499579842361,-0.164967405126,0.202812127625
1589285562767191641,1346,1589285562767040602,,0.499576544304,-0.16513685461,0.202787930959
1589285562773589531,1347,1589285562773423619,,0.499572405286,-0.165231491363,0.20277204394
1589285562785121590,1348,1589285562785012284,,0.499555305001,-0.165533793932,0.202727561371
1589285562791180685,1349,1589285562791078477,,0.499543438751,-0.165752665136,0.20269152143
1589285562797195960,1350,1589285562797043109,,0.499536988007,-0.165859965269,0.202672011856
1589285562803231734,1351,1589285562803088415,,0.49952841511,-0.166022794154,0.202641878368
1589285562809213184,1352,1589285562809091894,,0.499522292239,-0.166146632944,0.202623050164
1589285562815177817,1353,1589285562815055050,,0.499516016012,-0.166299791511,0.202602831343
1589285562821233583,1354,1589285562821096246,,0.499515621652,-0.166402436137,0.202590076231
1589285562827217219,1355,1589285562827066587,,0.499517108489,-0.166565603633,0.202569029752
1589285562833188639,1356,1589285562833091598,,0.499520675064,-0.166634413935,0.202562783086
1589285562839320839,1357,1589285562839233736,,0.49952123508,-0.166766301419,0.202544247162
1589285562845377571,1358,1589285562845077449,,0.499521271533,-0.166836915924,0.202538245686
1589285562851287070,1359,1589285562851095390,,0.49952013349,-0.166992376524,0.202509384554
1589285562857267302,1360,1589285562857105230,,0.49951766901,-0.167077210203,0.202492844888
1589285562863255416,1361,1589285562863117548,,0.499515968236,-0.167242083802,0.202460651788
1589285562869255534,1362,1589285562869143402,,0.499509645757,-0.167361388934,0.202446124682
1589285562875297078,1363,1589285562875142316,,0.499502141148,-0.167562586463,0.202418198143
1589285562881386173,1364,1589285562881226750,,0.49949607125,-0.167690228058,0.202405197195
1589285562887363598,1365,1589285562887188463,,0.49949104279,-0.167805091333,0.202393208212
1589285562893456871,1366,1589285562893347776,,0.499486119642,-0.167921513633,0.202379152824
1589285562899447198,1367,1589285562899309759,,0.499477082509,-0.168151931698,0.202365170895
1589285562905236449,1368,1589285562905054483,,0.499472145684,-0.168264821824,0.202355053533
1589285562911196445,1369,1589285562911058030,,0.499464766676,-0.1684817461,0.2023355272
1589285562917357673,1370,1589285562917170184,,0.499462437059,-0.168559587928,0.202325023153
1589285562923245113,1371,1589285562923043418,,0.49945847145,-0.168773495151,0.202294688231
1589285562929324830,1372,1589285562929115282,,0.499456716948,-0.168837160404,0.202279570913
1589285562935286540,1373,1589285562935117349,,0.499456040755,-0.169024916235,0.202248619827
1589285562941297733,1374,1589285562941189147,,0.499458053305,-0.169102604261,0.202235926928
1589285562947304623,1375,1589285562947181943,,0.499459346307,-0.169262120701,0.202209026016
1589285562953266151,1376,1589285562953158581,,0.499461720234,-0.169343381652,0.202196380678
1589285562956198447,1377,1589285562956134038,,0.499461236493,-0.169533069343,0.20217313039
1589285562962231964,1378,1589285562962128242,,0.49945774678,-0.169639711527,0.202160238491
1589285562968255872,1379,1589285562968119006,,0.499453172377,-0.169872558046,0.202134038916
1589285562974220571,1380,1589285562974108056,,0.499447308397,-0.169999202201,0.202115792715
1589285562980288900,1381,1589285562980145896,,0.499434224936,-0.170262623242,0.202084149741
1589285562987201102,1382,1589285562987109094,,0.499427566582,-0.170397480034,0.202068638516
1589285562998643300,1383,1589285562998456696,,0.499405600598,-0.170802717776,0.202013261261
1589285563004256806,1384,1589285563004047156,,0.499396056616,-0.171015786279,0.201980147247
1589285563010277180,1385,1589285563010099446,,0.499391965413,-0.171100825377,0.201971661336
1589285563016308102,1386,1589285563016113076,,0.499383729817,-0.171315903334,0.201950130681
1589285563022232333,1387,1589285563022100306,,0.499386369217,-0.171378991785,0.201943842211
1589285563028307176,1388,1589285563028163025,,0.499391827317,-0.171580186423,0.20192594855
1589285563034354220,1389,1589285563034161726,,0.499398029512,-0.171647995938,0.201912256766
1589285563040310006,1390,1589285563040167142,,0.499405797249,-0.171778772034,0.201895647321
1589285563046361494,1391,1589285563046204876,,0.499405435932,-0.171845577953,0.201886485079
1589285563055262133,1392,1589285563055096093,,0.499401927068,-0.172098345405,0.201849348194
1589285563061164902,1393,1589285563061066285,,0.499396456787,-0.172322186083,0.201814245526
1589285563067181355,1394,1589285563067091456,,0.499390659596,-0.172444358385,0.201793709475
1589285563073189982,1395,1589285563073089921,,0.499374511588,-0.172721106295,0.20176439329
1589285563085242584,1396,1589285563085156345,,0.499345152697,-0.173165488186,0.201716986576
1589285563091350624,1397,1589285563091163482,,0.499336234799,-0.173314430565,0.201700758377
1589285563097311007,1398,1589285563097169205,,0.499325913579,-0.173601783269,0.201670369948
1589285563103316366,1399,1589285563103130062,,0.499319812257,-0.173736804941,0.201653154245
1589285563109323237,1400,1589285563109175446,,0.499312942804,-0.17397490633,0.201616609221
1589285563115206236,1401,1589285563115076758,,0.499310841121,-0.174084117165,0.201594190012
1589285563121214054,1402,1589285563121085944,,0.499311578681,-0.174184402788,0.201576378869
1589285563127327867,1403,1589285563127201356,,0.499313095888,-0.174368852143,0.201533676957
1589285563133220374,1404,1589285563133099883,,0.499314121624,-0.174457232059,0.201512856179
1589285563142241408,1405,1589285563142118701,,0.499322406373,-0.174716239097,0.201464816598
1589285563148346514,1406,1589285563148131154,,0.499324338443,-0.174913413827,0.201439384739
1589285563154357719,1407,1589285563154155248,,0.499321517569,-0.175025128113,0.201427171412
1589285563160264513,1408,1589285563160130647,,0.499317181622,-0.17527054674,0.201408128852
1589285563166329696,1409,1589285563166182755,,0.499312221397,-0.175403035316,0.201393024707
1589285563173216646,1410,1589285563173140915,,0.49929864578,-0.17568830594,0.201367465613
1589285563178342255,1411,1589285563178179880,,0.499287287849,-0.175830820592,0.201346733868
1589285563184317698,1412,1589285563184171073,,0.499269951635,-0.176093263566,0.201314788283
1589285563190192683,1413,1589285563190057265,,0.499257494665,-0.176248865413,0.201293749781
1589285563196308766,1414,1589285563196163145,,0.499246467984,-0.176480943376,0.201259048252
1589285563202578782,1415,1589285563202455711,,0.499241021996,-0.176611904076,0.201240254808
1589285563208433603,1416,1589285563208229286,,0.499244531459,-0.176800952072,0.201211056584
1589285563214243664,1417,1589285563214127031,,0.49924677584,-0.176877523149,0.201198257088
1589285563220340116,1418,1589285563220247827,,0.499254150768,-0.177020936296,0.201176278234
1589285563226361036,1419,1589285563226290037,,0.499257975619,-0.177085559847,0.201164607146
1589285563233718372,1420,1589285563233629129,,0.4992678956,-0.177225568574,0.201140632481
1589285563238367614,1421,1589285563238194389,,0.499271747179,-0.177300944145,0.201121024745
1589285563244282408,1422,1589285563244148934,,0.499274512847,-0.177440558453,0.201087406575
1589285563250274459,1423,1589285563250147018,,0.499268975991,-0.177554840436,0.201069637878
1589285563256224620,1424,1589285563256113941,,0.499260910496,-0.177746899063,0.201029281575
1589285563262222857,1425,1589285563262110274,,0.499252728152,-0.177887788772,0.201011901439
1589285563268349252,1426,1589285563268219039,,0.49923809321,-0.178145400173,0.200976369339
1589285563274234280,1427,1589285563274137723,,0.499230204072,-0.178279812719,0.200965811784
1589285563280401718,1428,1589285563280272310,,0.499212268197,-0.178548088001,0.200942809058
1589285563286947064,1429,1589285563286842027,,0.499205470758,-0.178683856112,0.200935917252
1589285563298593792,1430,1589285563298468443,,0.49919708629,-0.179040119099,0.200898990778
1589285563304357069,1431,1589285563304193346,,0.499197047913,-0.179241868754,0.200872470697
1589285563310329237,1432,1589285563310184071,,0.499197780787,-0.179330082081,0.200856048265
1589285563316343769,1433,1589285563316244353,,0.499205780988,-0.1794866738,0.200824788116
1589285563322459827,1434,1589285563322232276,,0.49921077882,-0.179559181915,0.200804529372
1589285563328355065,1435,1589285563328220414,,0.499220379796,-0.179708258478,0.200774784879
1589285563334262530,1436,1589285563334193483,,0.499224393108,-0.179785930841,0.200762680041
1589285563340209885,1437,1589285563340111913,,0.499229739798,-0.179960358155,0.20073841467
1589285563346951681,1438,1589285563346851502,,0.49922952261,-0.18005465846,0.200726281081
1589285563358359253,1439,1589285563358146936,,0.499220004959,-0.180411369636,0.200686369718
1589285563364354475,1440,1589285563364216082,,0.499206360985,-0.180681667428,0.200656807115
1589285563370380182,1441,1589285563370224818,,0.499197080963,-0.180819760812,0.200635436505
1589285563376328450,1442,1589285563376206851,,0.499178406303,-0.181100421777,0.200596886446
1589285563382297977,1443,1589285563382192187,,0.499171624456,-0.181230620853,0.200577761286
1589285563388366857,1444,1589285563388195425,,0.499159668892,-0.181471383045,0.2005366308
1589285563394268295,1445,1589285563394153279,,0.499156227224,-0.181577502999,0.200516012868
1589285563400453198,1446,1589285563400324129,,0.499156615304,-0.181673732741,0.200500011178
1589285563406610052,1447,1589285563406508633,,0.49915650922,-0.18176548433,0.200482194739
1589285563418379315,1448,1589285563418195663,,0.499173360505,-0.18197742809,0.200443791457
1589285563424414886,1449,1589285563424222432,,0.499187205401,-0.182099819324,0.200413655024
1589285563430399166,1450,1589285563430217799,,0.499192317307,-0.18216515402,0.200398216064
1589285563436326967,1451,1589285563436223587,,0.499196929723,-0.182305964182,0.200367673683
1589285563442299466,1452,1589285563442187002,,0.499198021115,-0.182386189674,0.200354307583
1589285563448394975,1453,1589285563448223001,,0.499191832314,-0.182573519502,0.200324022809
