%time,field.header.seq,field.header.stamp,field.header.frame_id,field.wrench.force.x,field.wrench.force.y,field.wrench.force.z,field.wrench.torque.x,field.wrench.torque.y,field.wrench.torque.z
1589285620552767153,6325,1589285620552687800,,-0.102931218671,-0.630420779233,0.684402068335,0.108163229853,0.00595939859786,0.0031369839424
1589285620555848982,6326,1589285620555704296,,-0.103181387309,-0.75947151199,0.664719811152,0.105547814881,0.0059549808589,0.00392733902765
1589285620558879377,6327,1589285620558797788,,-0.126388992858,-0.889896925458,0.66718993717,0.103699412826,0.0065603267164,0.00543513946615
1589285620562679867,6328,1589285620562591937,,-0.126366721785,-0.889897371258,0.667193561097,0.102780086267,0.00655812434872,0.00541351385691
1589285620567862071,6329,1589285620567755577,,-0.126345130935,-0.889896382512,0.667198968822,0.102780435187,0.00655682247849,0.00540846391848
1589285620570900993,6330,1589285620570816967,,-0.1267907776,-0.890380943479,0.689969231225,0.103517334412,0.00656048246026,0.00793987916927
1589285620576755344,6331,1589285620576646745,,-0.126793485107,-0.890379501439,0.689970594579,0.104447686444,0.0065626994056,0.007120187813
1589285620579754445,6332,1589285620579603198,,-0.104938500878,-1.02127916729,0.692798223436,0.104451423555,0.00718286731829,0.00725099799248
1589285620582719203,6333,1589285620582636651,,-0.149199038412,-0.890418139895,0.689626559732,0.105327271929,0.00656461642535,0.00953362920927
1589285620585817002,6334,1589285620585743337,,-0.127071530021,-1.02085190174,0.6696818471,0.10547867233,0.00718569483195,0.00967327933626
1589285620591830707,6335,1589285620591739291,,-0.127061881065,-1.02085467651,0.669679448091,0.105478789031,0.00718576566004,0.0096719541041
1589285620595476868,6336,1589285620595171313,,-0.1275241493,-1.02127105962,0.692459093749,0.104427928326,0.00780282850175,0.00964636533
1589285620601084284,6337,1589285620600923210,,-0.127529910784,-1.02126811974,0.692462368536,0.104428077559,0.00780176303366,0.00964561154709
1589285620607009024,6338,1589285620606925091,,-0.172153452813,-1.02091312642,0.668981900604,0.0999702107076,0.0077815705077,0.0117822548699
1589285620609887814,6339,1589285620609798514,,-0.172153064074,-1.02090429452,0.668995478548,0.0999704166524,0.00778092996118,0.0117809304217
1589285620612856757,6340,1589285620612766454,,-0.172145363391,-1.02090559992,0.668995468051,0.0990618040002,0.00838659212551,0.0125938145517
1589285620616398780,6341,1589285620616234765,,-0.149561456562,-1.02085856612,0.669354424524,0.0981427879708,0.00838063554118,0.0127084939256
1589285620619273365,6342,1589285620619122069,,-0.172143945757,-1.02089706932,0.669008850577,0.0981318030896,0.00777172893438,0.0134111826301
1589285620624955158,6343,1589285620624852236,,-0.195563947871,-1.15230590608,0.670765890901,0.0981337686127,0.00838132358996,0.0141154662602
1589285620628027544,6344,1589285620627808079,,-0.149880958113,-1.15186521677,0.648829936929,0.0964648760165,0.00898829956395,0.0143318926641
1589285620630989076,6345,1589285620630889758,,-0.149891185648,-1.15185744513,0.648841371089,0.0973683079176,0.00899385541006,0.0152047723051
1589285620634017553,6346,1589285620633906727,,-0.150615690162,-1.28359030666,0.650680277804,0.0955405053101,0.00836432858483,0.0143023560182
1589285620640049984,6347,1589285620639956252,,-0.195589340309,-1.15229391957,0.670779078507,0.0972153944123,0.00837504143523,0.0166071681129
1589285620642988623,6348,1589285620642865263,,-0.19558090509,-1.15229202018,0.670784800865,0.0972154449158,0.00837552633321,0.0166066279231
1589285620649206912,6349,1589285620649120065,,-0.195570862837,-1.15228932594,0.670792357002,0.0981204136031,0.00838097812129,0.0174715218295
1589285620652025878,6350,1589285620651895119,,-0.195581908099,-1.15228655075,0.670793903871,0.0981205248646,0.00837997788889,0.0174713767582
1589285620655134699,6351,1589285620654855411,,-0.195560265499,-1.15229988623,0.67077730585,0.0981206391051,0.00838083886471,0.0174703221627
1589285620657947176,6352,1589285620657852299,,-0.173761733811,-1.2839420488,0.672973112604,0.0990432076392,0.00838488009188,0.0159568251604
1589285620664053651,6353,1589285620663958287,,-0.173766256573,-1.28393478518,0.672985802657,0.0972154236507,0.00837583398129,0.0167387327777
1589285620667032599,6354,1589285620666907158,,-0.173751226537,-1.28394557637,0.672969095344,0.0972153288269,0.00837674605098,0.0167388270841
1589285620672957476,6355,1589285620672877538,,-0.173741689239,-1.28395584253,0.672951970761,0.0972155671905,0.00837648781608,0.0167375719015
1589285620675998190,6356,1589285620675893815,,-0.172969548001,-1.15227197476,0.671117789048,0.0953985181958,0.00898313226866,0.0166808885253
1589285620678964179,6357,1589285620678886423,,-0.173733293034,-1.28394324592,0.67297817144,0.0954010347167,0.00898320867017,0.0158440765115
1589285620684961596,6358,1589285620684878086,,-0.17373065426,-1.2839494328,0.672967048887,0.0954011445582,0.00898294193953,0.0158435663483
1589285620687939995,6359,1589285620687850036,,-0.150270857449,-1.15225788084,0.671464966363,0.0944765750984,0.0083613586042,0.0159438997867
1589285620690942904,6360,1589285620690849921,,-0.150286264147,-1.15225420425,0.67146782738,0.094476497936,0.00836065358122,0.0159447267107
1589285620696974639,6361,1589285620696894653,,-0.17373858418,-1.28396427902,0.672936675826,0.0962989237575,0.00837027304234,0.0167065487352
1589285620699948100,6362,1589285620699855596,,-0.173736345569,-1.28396411201,0.672937572441,0.096299008782,0.00837020356843,0.016706093443
1589285620703006510,6363,1589285620702923925,,-0.173730055719,-1.28396132847,0.672944507237,0.0962991737651,0.00837025057108,0.016705118851
1589285620708991911,6364,1589285620708912241,,-0.173735233687,-1.28396896915,0.672928592012,0.0962992498639,0.00836954928468,0.0167050315388
1589285620712064502,6365,1589285620711973822,,-0.173747526316,-1.28396247653,0.672937806241,0.0962993817539,0.00836861777944,0.0167047379076
1589285620714927743,6366,1589285620714834519,,-0.196384120371,-1.28399496024,0.672561229593,0.0972267933811,0.00899071122628,0.0157541768534
1589285620720921214,6367,1589285620720814545,,-0.197178621553,-1.41589540887,0.67415086258,0.0972237863097,0.00899029122195,0.0166012049455
1589285620723872193,6368,1589285620723809135,,-0.128595959573,-1.41557154508,0.652612999786,0.0982958533255,0.00899469158786,0.0136746324394
1589285620726928658,6369,1589285620726846523,,-0.151279652035,-1.41556921338,0.652232681263,0.0973740233412,0.00898945959191,0.0143510878771
1589285620732889003,6370,1589285620732814858,,-0.12886077472,-1.28425738044,0.696496550539,0.097088090534,0.00836922752256,0.0128032420849
1589285620735927858,6371,1589285620735825015,,-0.151065396946,-1.28392757657,0.673334387123,0.0972364913558,0.00836899332201,0.0126737062011
1589285620738942047,6372,1589285620738868095,,-0.174701336037,-1.28460161956,0.71845963941,0.097857279455,0.00837192799676,0.0125508132613
1589285620744976206,6373,1589285620744885528,,-0.174714790983,-1.28459986062,0.718459512532,0.0978574422978,0.00837065563921,0.0125503922381
1589285620748102492,6374,1589285620747996732,,-0.174245317746,-1.28426823497,0.695759932813,0.0980080581136,0.00776346884325,0.0117166828204
1589285620750949445,6375,1589285620750879623,,-0.174253329637,-1.28426653921,0.6957610564,0.0980080216578,0.00776315921424,0.0117171929115
1589285620757115561,6376,1589285620757018711,,-0.151524370893,-1.28424969276,0.696136787824,0.0989385096613,0.00776727217908,0.00936346835908
1589285620759901022,6377,1589285620759817003,,-0.151517713928,-1.28424463402,0.696147569163,0.0989384335948,0.00776800800809,0.00936366168811
1589285620762905142,6378,1589285620762820451,,-0.151742990367,-1.41583507231,0.674972869498,0.098167340247,0.00776391502253,0.00934425918601
1589285620769080479,6379,1589285620768993082,,-0.129477031871,-1.41613660728,0.698155313749,0.0962190688701,0.00775481955726,0.00775143254604
1589285620771961668,6380,1589285620771863612,,-0.129468827584,-1.41613977109,0.698150417746,0.0962189625543,0.00775560552272,0.00775196588286
1589285620774976386,6381,1589285620774883450,,-0.129046141008,-1.41584553745,0.675340564317,0.0954578787236,0.00775039856081,0.00689985788811
1589285620781077834,6382,1589285620780961591,,-0.12903206288,-1.41584393784,0.675346607789,0.0936419147694,0.00774136838914,0.00519434004356
1589285620786993435,6383,1589285620786880584,,-0.12902188256,-1.41584907895,0.675337774516,0.0936417867775,0.00774237663058,0.00519514465058
1589285620790009638,6384,1589285620789913055,,-0.105098941522,-1.15222719896,0.67221873677,0.09278578493,0.00650928823547,0.00114216983989
1589285620792988989,6385,1589285620792873083,,-0.105093619204,-1.15222984041,0.672215041249,0.0927857218574,0.00651007548479,0.00114280660481
1589285620795993518,6386,1589285620795888457,,-0.104657783559,-1.15185653436,0.649554646956,0.0929427301209,0.00651051824522,0.000313991025024
1589285620804838711,6387,1589285620804779120,,-0.0827113694744,-1.41530125923,0.630737886406,0.0922121760608,0.00712149768563,-0.00122648922843
1589285620807933903,6388,1589285620807819204,,-0.059910134699,-1.28363350897,0.652211577339,0.0921188429542,0.0065092664748,-0.00359845466433
1589285620813933258,6389,1589285620813826654,,-0.0821839433375,-1.28329075542,0.6291413159,0.0913279190946,0.00590120894854,-0.00290898399063
1589285620817239314,6390,1589285620817124981,,-0.0142673151547,-1.28339521251,0.630338099777,0.0914075166421,0.00650832764688,-0.00583063437944
1589285620820313343,6391,1589285620820190264,,-0.0142640984645,-1.28339089697,0.630346959119,0.0914075041277,0.00650858115038,-0.0058305475946
1589285620826075006,6392,1589285620825955793,,-0.0146819636358,-1.28371275846,0.653018658417,0.0913031744474,0.00650915485665,-0.00750123086198
1589285620829152650,6393,1589285620829080092,,-0.0821885677753,-1.28328420471,0.629154073438,0.0886601580493,0.0052801014412,-0.00626248187259
1589285620832028713,6394,1589285620831956620,,-0.05991908121,-1.28362397708,0.652229515101,0.0903724371346,0.00589917700918,-0.00694556409558
1589285620837937358,6395,1589285620837852963,,-0.0599064156531,-1.28362953501,0.652219740128,0.0903723456079,0.00589973687159,-0.00694627942175
1589285620841020697,6396,1589285620840946026,,-0.0603171959894,-1.28396352731,0.674889216673,0.0902213866732,0.00589984060785,-0.00694770131654
1589285620846926928,6397,1589285620846812456,,-0.059906185411,-1.28363739806,0.652204285835,0.090372340958,0.00589979523815,-0.0069462903455
1589285620849874935,6398,1589285620849800090,,-0.0599040530929,-1.28364304297,0.652193371522,0.0903723390517,0.00590009557691,-0.00694606004442
1589285620852970081,6399,1589285620852897449,,-0.037293615667,-1.28367367822,0.652600673754,0.0913010829606,0.00590446361042,-0.00763521246563
1589285620855897460,6400,1589285620855809695,,-0.0146914912155,-1.28372020733,0.653003800823,0.0913275384884,0.00650932142679,-0.00833204897641
1589285620862601392,6401,1589285620862506721,,-0.0377092601915,-1.28400125633,0.675282729488,0.0911846835576,0.00590491358763,-0.00846654627741
1589285620867892717,6402,1589285620867795919,,-0.0377057890733,-1.28400461514,0.675276536758,0.091184663651,0.00590516583664,-0.00846658473887
1589285620873982056,6403,1589285620873883979,,-0.0377079912263,-1.28400303454,0.675279419202,0.0921129334836,0.00529609424989,-0.00929033040612
1589285620877015405,6404,1589285620876912072,,-0.0377183348182,-1.28400222024,0.675280389871,0.0921391481939,0.00529620898988,-0.010131119938
1589285620879918416,6405,1589285620879803031,,-0.0377149065036,-1.28400221734,0.675280586873,0.0921391257789,0.0052963992047,-0.0101312243548
1589285620883034053,6406,1589285620882875150,,-0.0377032981873,-1.28400717863,0.675271801462,0.0921390536765,0.00529714276572,-0.010131491345
1589285620885990782,6407,1589285620885897279,,-0.0381216489622,-1.28434187628,0.698061157463,0.092909849104,0.00529984163809,-0.0101268818941
1589285620888863705,6408,1589285620888805659,,-0.0150825196169,-1.2840585081,0.675666280625,0.0931344914032,0.00530374960541,-0.0124905020798
1589285620891942290,6409,1589285620891854545,,-0.0150884811267,-1.28405809014,0.675666941827,0.0931345983323,0.00530372539164,-0.0124897150269
1589285620897913761,6410,1589285620897833943,,-0.0149910274146,-1.41571157338,0.65460651226,0.0905662630231,0.00468336147468,-0.0133295198904
1589285620900951594,6411,1589285620900813509,,-0.0149970015056,-1.41570736283,0.654615481455,0.090566370452,0.00468322259472,-0.013328838751
1589285620907167754,6412,1589285620907025524,,-0.0150103811623,-1.41570990251,0.65460968232,0.0905968201812,0.00468390178453,-0.0141688494248
1589285620910068670,6413,1589285620909885335,,0.00792296513971,-1.28378607827,0.6533965849,0.0906590303679,0.00529984021973,-0.0156996300712
1589285620912984356,6414,1589285620912876037,,0.00807129658173,-1.41548768946,0.632314221181,0.0898877657357,0.00468430930876,-0.0156995700696
1589285620919251193,6415,1589285620919168381,,-0.0142625934058,-1.28341078214,0.630306505209,0.0898928139048,0.00468488290001,-0.015833662788
1589285620924963870,6416,1589285620924811836,,0.00765246685877,-1.41577006284,0.655012059813,0.0906964267555,0.00591436092215,-0.016533870002
1589285620930934943,6417,1589285620930804014,,-0.0150187247971,-1.41571411128,0.654600388644,0.0906638662863,0.00529878567688,-0.0158353520272
1589285620933942730,6418,1589285620933860317,,-0.0149378579507,-1.54760842636,0.633294466072,0.0907994085076,0.00468495650494,-0.0158351469715
1589285620940050833,6419,1589285620939908923,,-0.0153462304647,-1.5478539868,0.65602571729,0.0915706334118,0.00530162477972,-0.0158349939836
1589285620942948531,6420,1589285620942866387,,-0.0146101713908,-1.41542016629,0.63192852731,0.091716229902,0.00468798158419,-0.0158344400337
1589285620945923482,6421,1589285620945735474,,0.00805750530655,-1.41547391438,0.632345232799,0.0908264710164,0.00468671884621,-0.0165333222653
1589285620948812060,6422,1589285620948724521,,0.00846699393841,-1.41519687727,0.609658120341,0.0900605148575,0.00468459699312,-0.016532916621
1589285620955206554,6423,1589285620954913806,,-0.0141967582203,-1.41514208563,0.609243706693,0.0900334612196,0.00468353408006,-0.015833854512
1589285620960995119,6424,1589285620960908550,,0.0080549642356,-1.41547606075,0.632340460609,0.0899585046731,0.00529873179703,-0.0173745837543
1589285620966911732,6425,1589285620966831620,,0.0080599964859,-1.41547482349,0.632343166061,0.0890375096313,0.00468319535225,-0.0173717256539
1589285620969922305,6426,1589285620969827409,,0.0080679907993,-1.41547585518,0.632340754699,0.0890374189264,0.00468356012902,-0.0173720922081
1589285620973018381,6427,1589285620972886633,,0.00807423778615,-1.41547605084,0.632340236994,0.0890374549101,0.00468410728919,-0.0173717602527
1589285620975979391,6428,1589285620975892835,,0.0080867646879,-1.41547453771,0.632343464013,0.0899200237314,0.00468624154618,-0.016531906046
1589285620978905891,6429,1589285620978825253,,0.00809575209849,-1.41547477962,0.632342807498,0.0899199380756,0.00468666426275,-0.016532252108
1589285620987812441,6430,1589285620987736463,,-0.0149655332279,-1.41570780578,0.654615243671,0.0915654809283,0.00469127959551,-0.015834409656
1589285620990800472,6431,1589285620990732872,,-0.0149580415681,-1.41571437352,0.654601210966,0.091565391384,0.00469172137523,-0.0158347965655
1589285620993948599,6432,1589285620993848206,,0.00757341947259,-1.28411583861,0.676074800342,0.0923581120843,0.00469525287009,-0.0165348189661
1589285620996890364,6433,1589285620996817871,,0.00812810435015,-1.4154875856,0.632313725993,0.0917425915545,0.0046938239723,-0.0165346623095
1589285621002934373,6434,1589285621002791738,,-0.0145338801528,-1.41543444444,0.631898304875,0.091715913948,0.00469307577149,-0.0158347610794
1589285621006040046,6435,1589285621005915083,,-0.0145379645584,-1.41543349457,0.631900338593,0.0907678217728,0.00468904122431,-0.0150019572287
1589285621011879936,6436,1589285621011778905,,-0.0145457414529,-1.41543321157,0.631900793526,0.0907678048657,0.00468840426114,-0.0150022585973
1589285621015315205,6437,1589285621015084084,,-0.0149589694519,-1.41571637252,0.654596866474,0.0915037086036,0.00468923270337,-0.0141689805428
1589285621021159458,6438,1589285621021025161,,-0.0372110926654,-1.41538701625,0.631495643661,0.0898095821067,0.0052960766958,-0.0134745169205
1589285621027055137,6439,1589285621026974775,,0.00743451696842,-1.54791439549,0.65642570905,0.091508995641,0.00591629515594,-0.014027108244
1589285621030192427,6440,1589285621030095678,,-0.0152835380339,-1.54785951085,0.656014147048,0.0905419405487,0.00529667199655,-0.012499431265
1589285621032897217,6441,1589285621032768813,,-0.0376284272621,-1.41566556721,0.654201293846,0.09144913121,0.00468653799379,-0.0126302955927
1589285621035856113,6442,1589285621035782673,,-0.0145605809805,-1.41542561874,0.631917459142,0.0915721030995,0.0052985669142,-0.0116649087504
1589285621038998144,6443,1589285621038848954,,-0.0380043771438,-1.54781193505,0.655608755537,0.0914258008656,0.00529860089219,-0.0117991786529
1589285621044918337,6444,1589285621044831082,,-0.0149647790823,-1.41571206839,0.65460604227,0.0905417557934,0.00529594900596,-0.0125010758135
1589285621051005123,6445,1589285621050870251,,-0.0375946795981,-1.54756007594,0.632892547833,0.0906586072153,0.00529509619279,-0.0118032201625
1589285621053917539,6446,1589285621053846712,,-0.0149697145017,-1.41570756497,0.654615668867,0.0905658043087,0.00468318759861,-0.0133326972891
1589285621060153329,6447,1589285621060033051,,-0.0149735785472,-1.4157076985,0.654615291699,0.0905658439095,0.00468304419167,-0.0133324786603
1589285621062871437,6448,1589285621062783953,,-0.0149678293608,-1.41570701291,0.65461690588,0.090565689177,0.00468288957783,-0.0133335839991
1589285621065836787,6449,1589285621065755633,,-0.0145621168323,-1.4154233693,0.631922462229,0.0897989964849,0.00468046328033,-0.0133348397193
1589285621071886227,6450,1589285621071808087,,-0.0145614869976,-1.41542246196,0.631924509064,0.0889435237172,0.00467997975785,-0.0150067769043
1589285621074909183,6451,1589285621074788366,,-0.0141513426727,-1.4151438963,0.609240557476,0.0881772855459,0.00467746481631,-0.0150070067788
1589285621077900074,6452,1589285621077780042,,-0.0141508793419,-1.41514388351,0.609240597943,0.0882094270519,0.00467871402588,-0.0158376808321
1589285621083873084,6453,1589285621083796374,,-0.0145606731482,-1.415424089,0.631920883455,0.0880688645621,0.0046782812947,-0.0158375846761
1589285621086872880,6454,1589285621086803675,,0.00810279915912,-1.41547744765,0.63233674492,0.0871472131549,0.00467493546676,-0.0157031929299
1589285621089914918,6455,1589285621089833948,,0.00811164818486,-1.41547949954,0.632332038306,0.088096302122,0.00467942621618,-0.0165358772314
1589285621095936262,6456,1589285621095848448,,0.00812131488643,-1.41547940317,0.632332129965,0.0871800381543,0.0046767802012,-0.016534787225
1589285621098888686,6457,1589285621098819383,,0.00811814349132,-1.41547543136,0.632341061534,0.0871800358919,0.00467644610712,-0.0165348936469
1589285621107933782,6458,1589285621107858323,,0.00852975139506,-1.41519683208,0.609657350436,0.0864488781925,0.00467553604397,-0.0173725910258
1589285621110881746,6459,1589285621110815200,,0.00853389691347,-1.41519773777,0.609655190031,0.0864487943985,0.00467564534678,-0.0173729785768
1589285621113968123,6460,1589285621113871411,,0.0307967591795,-1.41554261841,0.632751008667,0.0872430334437,0.004679360597,-0.0180731958248
1589285621120315916,6461,1589285621120202275,,0.00813492071162,-1.4154763212,0.632338854033,0.0872191619702,0.00528964725162,-0.0173768392056
1589285621122877671,6462,1589285621122797814,,0.00827759883757,-1.54741118395,0.611013088133,0.0874040492541,0.0052920078232,-0.0182085919828
1589285621125933148,6463,1589285621125864973,,0.00828125569042,-1.54740889392,0.611018838133,0.0864886900474,0.00528847825261,-0.0182053242392
1589285621132166971,6464,1589285621132054559,,-0.0144367460463,-1.54735534134,0.610604888164,0.0854697597704,0.00466989334202,-0.015837463768
1589285621134899591,6465,1589285621134738777,,-0.0144286663236,-1.5473542572,0.610607826505,0.0854696478585,0.00467009954431,-0.0158380069082
1589285621137848735,6466,1589285621137780167,,0.00828973590776,-1.54740855566,0.611019579778,0.085503323712,0.00528172258164,-0.0165343196215
1589285621143940382,6467,1589285621143808308,,0.0083002916934,-1.54740960811,0.611016771158,0.0855032099699,0.00528215379924,-0.0165347700515
1589285621146857395,6468,1589285621146774873,,-0.0140917593914,-1.41513885768,0.609253642095,0.0854694022518,0.00467065197039,-0.015839169376
1589285621149871846,6469,1589285621149794441,,0.00857853393132,-1.41519544613,0.60965988316,0.0845632745622,0.00527719656276,-0.0157049407777
1589285621155972374,6470,1589285621155897490,,-0.0140765767269,-1.41513917113,0.609253265007,0.0836190858506,0.00527209223639,-0.0150090759174
1589285621159085399,6471,1589285621158984108,,-0.01407944396,-1.41513809657,0.609255694664,0.0836191058007,0.00527192312848,-0.0150090241707
1589285621162179107,6472,1589285621162088340,,-0.0136615474954,-1.41486284092,0.586487690634,0.0827844565272,0.00526585017123,-0.0133481374468
1589285621168007895,6473,1589285621167909628,,-0.0136497489304,-1.41486380295,0.586485644501,0.0827843741959,0.00526644218833,-0.0133484144939
1589285621171084537,6474,1589285621170943160,,-0.0136556412404,-1.41486293889,0.586487591845,0.0827844465647,0.00526623348636,-0.0133480480102
1589285621173976644,6475,1589285621173800074,,-0.0136464301447,-1.41486247824,0.586488917527,0.0827531069545,0.00526551156782,-0.0125231631042
1589285621179821821,6476,1589285621179749322,,-0.0136444203983,-1.41486082456,0.586492953641,0.0827474790543,0.00465809572754,-0.0125220655211
1589285621183103398,6477,1589285621183027809,,-0.0129166761133,-1.28244974496,0.562323619681,0.0811060800633,0.00465328918631,-0.0133442544294
1589285621188920829,6478,1589285621188851762,,-0.0355053339802,-1.28241105956,0.561909220813,0.0801369511881,0.005253330357,-0.0118308192484
1589285621192078173,6479,1589285621191959642,,-0.0350887677861,-1.28212243669,0.539261364282,0.0757236625118,0.00523038459308,-0.0118269808434
1589285621195144690,6480,1589285621194874436,,-0.0355050936288,-1.28244213301,0.561838313631,0.0756065538729,0.00523214878993,-0.0126415576815
1589285621197962290,6481,1589285621197860251,,-0.012821890331,-1.41437572992,0.54106439742,0.0729794421505,0.00521478642517,-0.0116877888187
1589285621204307635,6482,1589285621204156999,,-0.011994543405,-1.41387018963,0.495687667303,0.0687073032802,0.00518664914727,-0.0116712525793
1589285621210004751,6483,1589285621209901654,,-0.0119876397045,-1.41387389993,0.495677251156,0.0687073862096,0.0051873341998,-0.0116704599024
1589285621213046035,6484,1589285621212963488,,-0.0115727330115,-1.41363266113,0.473050440307,0.0661898721733,0.00457982422366,-0.0132661143597
1589285621216537872,6485,1589285621216438675,,-0.0112493978501,-1.28132662556,0.471719139251,0.0652464576557,0.00457261273257,-0.0124523623899
1589285621225200844,6486,1589285621225096497,,0.0341397513826,-1.41351297938,0.451270797772,0.0638290891607,0.00575840234763,-0.0170184416837
1589285621231184976,6487,1589285621231046284,,0.012142972208,-1.28083693806,0.427021271498,0.0621118514259,0.00456132386235,-0.0163104422433
1589285621234057276,6488,1589285621233959225,,0.0121369752994,-1.28083576516,0.427024960065,0.062111942821,0.00456108488024,-0.0163101610298
1589285621237161548,6489,1589285621236989263,,0.0121361950991,-1.28083150384,0.427037763574,0.0621598551097,0.00456382709477,-0.0171238795313
1589285621240104728,6490,1589285621239997899,,0.0352295348446,-1.14834283281,0.403396058575,0.0614873879262,0.00456318106442,-0.0185918605911
1589285621243049307,6491,1589285621242950241,,0.012749423492,-1.14826766364,0.402990962464,0.060529330913,0.00396580424257,-0.0178940909037
1589285621249427828,6492,1589285621249341667,,0.0127394779276,-1.14826594976,0.402996160427,0.0596763050688,0.00338439612918,-0.0186768521249
1589285621255167229,6493,1589285621255030179,,0.0352047953505,-1.14833619446,0.403417115082,0.0588208233205,0.00395860206343,-0.0193316398541
1589285621258067560,6494,1589285621257983175,,0.0351972052526,-1.14833488387,0.40342150798,0.058820959727,0.00395826994492,-0.0193312928096
1589285621261073448,6495,1589285621260963033,,0.034909543644,-1.01657545426,0.424213340805,0.0586755005637,0.00395690803145,-0.0193272776355
1589285621263875490,6496,1589285621263786776,,0.0351888945067,-1.14833092086,0.403433513427,0.0570195735114,0.00394557959202,-0.0192829824389
1589285621266881176,6497,1589285621266802063,,0.0355830277867,-1.14803686844,0.380970606754,0.0562632832853,0.00393993219884,-0.0192617458637
1589285621272969673,6498,1589285621272859330,,0.0352960276442,-1.01620858805,0.401697847109,0.0579708320556,0.00395456656309,-0.0201120605136
1589285621276152800,6499,1589285621276068537,,0.0577577115035,-1.01630504697,0.402127502455,0.0580184942672,0.00395663519414,-0.0207918511509
1589285621282196032,6500,1589285621282113123,,0.0352868622355,-1.01620841637,0.401699086669,0.0588758358126,0.00395983223777,-0.0201370308718
1589285621285070324,6501,1589285621285003132,,0.0352832020197,-1.01620821313,0.401699922319,0.0588757089292,0.00395942143052,-0.0201374826216
1589285621288045002,6502,1589285621287936611,,0.0352840079362,-1.01620750428,0.40170164476,0.0588754515275,0.00395910580794,-0.0201382972207
1589285621291055667,6503,1589285621290989947,,0.0133108713049,-1.01577778074,0.378879867872,0.0589714733088,0.00337972990701,-0.0194647928646
1589285621297044602,6504,1589285621296968733,,0.013310643725,-1.01577772283,0.378880031116,0.0589712813042,0.00337947795697,-0.0194654183053
1589285621300071825,6505,1589285621299991105,,0.0135041666523,-0.88383072103,0.376811630017,0.0607748919732,0.00338824265599,-0.0195102197217
1589285621303089954,6506,1589285621303020968,,-0.00946939764953,-1.01606933143,0.400881398092,0.0623388797916,0.0033915261503,-0.018061747987
1589285621309036806,6507,1589285621308967602,,-0.00946470390044,-1.01607037549,0.400878862662,0.0614393151818,0.00338719972417,-0.0180441289907
1589285621312017804,6508,1589285621311953167,,0.0352810761404,-1.01620740505,0.401702153294,0.0615307935682,0.00397154422337,-0.0194009158835
1589285621318074518,6509,1589285621317954819,,0.0352812989177,-1.01620606273,0.401705529457,0.0615306793783,0.0039713344003,-0.0194013209883
1589285621320831486,6510,1589285621320748996,,0.0129113667269,-1.01612930304,0.401286160997,0.0614947628438,0.00455812729228,-0.0187253908422
1589285621323868105,6511,1589285621323757280,,0.0569997144845,-1.01704054983,0.447095095885,0.0630432918061,0.00398000275148,-0.0193089945635
1589285621329911611,6512,1589285621329805227,,0.0349018803545,-1.0165710136,0.424224612701,0.0631903239199,0.00398089622379,-0.0194397803798
1589285621332831857,6513,1589285621332769649,,0.0349046482577,-1.01657322228,0.424219092249,0.0649023479567,0.00398597503307,-0.0178551124395
1589285621335834875,6514,1589285621335775920,,0.0349955152148,-0.884792955094,0.422017198412,0.0649494475142,0.00398821059149,-0.0186660174046
1589285621338896026,6515,1589285621338779069,,0.0349944467925,-0.884791385717,0.422020577319,0.0657736003856,0.00458135516836,-0.0170533010009
1589285621344869440,6516,1589285621344807284,,0.012736936691,-0.884711182557,0.421595411978,0.065781213791,0.00458208584929,-0.0171925626412
1589285621351169578,6517,1589285621351089576,,0.0349989819614,-0.884792768179,0.422017302804,0.0676249880585,0.00399956362684,-0.0179009214656
1589285621354043859,6518,1589285621353982015,,0.0127331592573,-0.884709739808,0.421598553653,0.0675016279214,0.0039933025544,-0.0155879279133
1589285621357185718,6519,1589285621357086370,,0.0127368013415,-0.884710509557,0.421596828344,0.0675014075284,0.00399312811068,-0.0155889269527
1589285621360130956,6520,1589285621360054064,,0.0346166741869,-0.885248232008,0.44440081961,0.0682996595845,0.00399852047994,-0.0162789952346
1589285621366071520,6521,1589285621365957331,,0.0346139432532,-0.885248650316,0.444400199056,0.0682997328653,0.00399847032915,-0.0162787000952
1589285621369433682,6522,1589285621369294361,,0.01253915486,-0.753903392405,0.441215644016,0.068312931596,0.00459419091338,-0.0164105276219
1589285621374900358,6523,1589285621374828194,,0.0125375684569,-0.753905237884,0.441212535721,0.068312975479,0.0045942151956,-0.0164103381488
1589285621377940706,6524,1589285621377849761,,0.0125372914037,-0.753905112016,0.441212758664,0.0682646679794,0.00399645456491,-0.0155978258816
1589285621381174480,6525,1589285621381054701,,0.0125334984595,-0.753904485265,0.441213937362,0.0682647601159,0.00399630518344,-0.0155974609106
1589285621384262748,6526,1589285621384056001,,0.0125302891332,-0.753903986869,0.441214880127,0.0691445855988,0.00459511926869,-0.0147959539771
1589285621389968923,6527,1589285621389839913,,0.0125266060336,-0.753902882475,0.441216871782,0.0691446813939,0.00459498903598,-0.014795546746
1589285621392935742,6528,1589285621392798351,,0.0125232777921,-0.753900598338,0.44122086912,0.0700489209765,0.00460011575121,-0.0148033430044
1589285621399220689,6529,1589285621399114452,,-0.00961347005378,-0.753838298016,0.440813212943,0.0700166657839,0.00459844159787,-0.0141205884964
1589285621404939070,6530,1589285621404805715,,-0.00886782883214,-0.622587251754,0.41508583569,0.0701607668151,0.00400193180993,-0.0141197945338
1589285621408043184,6531,1589285621407915445,,-0.00922768956989,-0.753280536516,0.418477245092,0.0710658233688,0.0040059277487,-0.0141256454401
1589285621414132516,6532,1589285621414024585,,-0.00928447818369,-0.623271005059,0.437397033966,0.0717576603963,0.00400619051593,-0.0124948937692
1589285621417179159,6533,1589285621417104685,,-0.00928811962198,-0.623270448575,0.437397749618,0.0717577120829,0.00400590345847,-0.0124946889685
1589285621422901182,6534,1589285621422817131,,0.0122843192045,-0.885156699126,0.444002012321,0.070010929205,0.00459738407623,-0.0139775447201
1589285621425971969,6535,1589285621425899105,,0.0122801376513,-0.885156989968,0.444001548173,0.0700110326024,0.00459730779314,-0.0139770519028
1589285621429367689,6536,1589285621429260773,,-0.0095890102688,-0.884643584942,0.421202560691,0.0691849996103,0.00518525178448,-0.0124815269038
1589285621434944179,6537,1589285621434745948,,-0.00959275358323,-0.884641696522,0.421206441645,0.0691850322627,0.00518493937191,-0.0124814756948
1589285621437978423,6538,1589285621437892899,,0.0126665699002,-0.884703698896,0.421613235876,0.0692160448929,0.00518669108991,-0.0131609173577
1589285621441011680,6539,1589285621440933968,,-0.00959806260574,-0.884641593936,0.421206536159,0.0691850887452,0.00518460594888,-0.0124813011132
1589285621446999865,6540,1589285621446915310,,-0.00959966905679,-0.884640485212,0.421208828145,0.0691851396794,0.00518458401297,-0.0124810278884
1589285621450097237,6541,1589285621450006742,,-0.00925546049483,-0.753278239308,0.418480766876,0.0692149127721,0.00459059225183,-0.0132899875091
1589285621452976120,6542,1589285621452895562,,-0.00925646392988,-0.75327757485,0.418481940725,0.069185171979,0.00518465063421,-0.0124808211686
1589285621459058632,6543,1589285621458987973,,-0.0092569159854,-0.753276667673,0.418483563662,0.069177932554,0.00458873075091,-0.012479924961
1589285621465140703,6544,1589285621465057868,,-0.00925905657416,-0.753277252751,0.418482463156,0.0673574495446,0.00457744044836,-0.0124682626849
1589285621468073861,6545,1589285621467976660,,-0.00926388645901,-0.753274162962,0.418487917903,0.0673650384768,0.00517107387977,-0.0124689302914
1589285621474180730,6546,1589285621474045608,,-0.00926526071116,-0.75327380188,0.418488537424,0.0664810358481,0.00457298724704,-0.0132679077703
1589285621477177710,6547,1589285621477028516,,-0.0092663604601,-0.75327416469,0.418487860019,0.0664810872597,0.00457305546339,-0.013267626649
1589285621480048812,6548,1589285621479985842,,-0.00926845039296,-0.753274244124,0.418487670758,0.0664811018974,0.0045728810324,-0.0132676134239
1589285621483128649,6549,1589285621483012411,,-0.00927211206708,-0.753273027083,0.4184897803,0.0673576677875,0.00457667353519,-0.0124673651657
1589285621486089150,6550,1589285621485997006,,-0.00927164474619,-0.75327334309,0.418489221847,0.0664426655898,0.00457078774942,-0.012460934471
1589285621489483930,6551,1589285621489393186,,-0.00927528932254,-0.753273256182,0.418489297519,0.066442736394,0.00457064542437,-0.0124606091386
1589285621494942341,6552,1589285621494869572,,-0.00927648592456,-0.753272624463,0.418490408078,0.0664427644677,0.00457059862225,-0.0124604766097
1589285621497869445,6553,1589285621497799835,,-0.00927575340411,-0.753271663268,0.418492154437,0.0656175800499,0.0045686715126,-0.0140736774182
1589285621503939906,6554,1589285621503850430,,-0.0304234252677,-0.621865243807,0.39235353082,0.06386208104,0.00455310204713,-0.0125681202466
1589285621506884116,6555,1589285621506822916,,-0.00851506356005,-0.621895609508,0.392738955482,0.0638957758893,0.0045549347197,-0.013242082344
1589285621509925057,6556,1589285621509826342,,-0.00851489855204,-0.621896165185,0.392738079153,0.0638958200811,0.00455514627836,-0.0132417963337
1589285621512979290,6557,1589285621512839855,,-0.00851523646583,-0.621896085497,0.392738198011,0.0638885772905,0.0039649351951,-0.013240798431
1589285621519266294,6558,1589285621519146483,,-0.0304242568206,-0.621865744126,0.392352673352,0.06386217485,0.00455339298604,-0.0125675381555
1589285621522375093,6559,1589285621522286994,,0.0128359940711,-0.753339150196,0.418894761408,0.0637605149191,0.00514416845651,-0.0131122349414
1589285621525059463,6560,1589285621524980414,,0.0128394013219,-0.753338764366,0.418895350862,0.0637605002256,0.00514447641431,-0.0131121855701
1589285621531194285,6561,1589285621531030443,,-0.00886685794047,-0.752725976417,0.396087030777,0.0629597089882,0.00513607598116,-0.0124311383862
1589285621533959055,6562,1589285621533840305,,-0.00886669767807,-0.752726801679,0.396085466029,0.0629514508772,0.00454696643719,-0.0124301684004
1589285621536971870,6563,1589285621536889162,,-0.00810456209453,-0.621225464681,0.370518595381,0.0630916236441,0.00454839041308,-0.0124315574302
1589285621543111228,6564,1589285621543004037,,-0.00810583246054,-0.621224248212,0.370520607162,0.0630998453962,0.00513747643962,-0.0124326390528
1589285621546024022,6565,1589285621545907914,,-0.0299916810519,-0.62119532251,0.370134879709,0.0630668779419,0.00513535619791,-0.011760308896
1589285621549350232,6566,1589285621549237659,,-0.00845689518584,-0.752190862363,0.373817786647,0.0621957935402,0.00512974987765,-0.0124239374773
1589285621555395060,6567,1589285621555287916,,-0.0309595110352,-0.75269414165,0.395689470009,0.0619362249923,0.0051218502887,-0.0101546837963
1589285621561060301,6568,1589285621560966093,,-0.0309568123306,-0.752693997354,0.395689955636,0.061936155837,0.00512184703224,-0.0101551072268
1589285621567101100,6569,1589285621567016201,,-0.0309589550977,-0.752692963869,0.395691753913,0.0619361719182,0.00512165291376,-0.0101551070516
1589285621570101039,6570,1589285621569989058,,-0.0309570760805,-0.752693832632,0.39569024834,0.0619361652771,0.00512185430988,-0.0101550459807
1589285621572993556,6571,1589285621572818436,,-0.0305374356588,-0.752159643578,0.373419990457,0.0611711991053,0.00511484048619,-0.010150298018
1589285621575937852,6572,1589285621575847925,,-0.0526230871645,-0.752155705919,0.37304454534,0.0611406238584,0.0051128726119,-0.00948247487037
1589285621579061169,6573,1589285621578960662,,-0.0304133653032,-0.621872110747,0.392343426722,0.0610308013359,0.00511329881828,-0.0101497023867
1589285621585124538,6574,1589285621585036951,,-0.0309577436009,-0.752695745382,0.395686557605,0.0619733350208,0.00512360076509,-0.0109537868087
1589285621591116434,6575,1589285621591005487,,-0.0305375571661,-0.752158915376,0.373421447296,0.0612088100579,0.00511666412561,-0.0109478609088
1589285621594167373,6576,1589285621594058665,,-0.0304128126192,-0.621872299314,0.392343170683,0.0610685496413,0.00511536567533,-0.0109466105428
1589285621600055885,6577,1589285621599966475,,-0.0299853542194,-0.621196127481,0.370134041333,0.0612087455797,0.00511632984931,-0.0109483776148
1589285621603028898,6578,1589285621602928578,,-0.0299836411385,-0.621196521164,0.37013351939,0.0612086945092,0.00511633968489,-0.0109486585329
1589285621606127710,6579,1589285621606041677,,-0.00809925110316,-0.621225657092,0.370518388908,0.0612414442567,0.00511832779085,-0.0116180153364
1589285621611999606,6580,1589285621611889465,,-0.00845371750407,-0.752191733005,0.373816106625,0.0612025302408,0.00511595381834,-0.0108206734069
1589285621615183691,6581,1589285621615042137,,-0.00845239581198,-0.752191094233,0.373817421844,0.061281663369,0.0051207610296,-0.0124167267539
1589285621621097795,6582,1589285621620998981,,-0.00845206554424,-0.752191560943,0.373816490202,0.061281655307,0.00512078546266,-0.0124167564668
1589285621624155525,6583,1589285621624004522,,-0.00850072757778,-0.621901202224,0.392730409936,0.0620368259492,0.00453932098798,-0.0124241029806
1589285621627126000,6584,1589285621627010103,,-0.00849893759106,-0.621902820378,0.392727886267,0.062991429124,0.0045485137039,-0.0132350860963
1589285621630105646,6585,1589285621629999876,,-0.0084955114574,-0.621903168568,0.39272740902,0.0620367051241,0.0045395635476,-0.0124246176563
1589285621636058424,6586,1589285621635924746,,-0.00849403760717,-0.621903127474,0.392727505975,0.0620366346049,0.00453946475185,-0.012425005852
1589285621639003322,6587,1589285621638904030,,-0.00849258096638,-0.621903196396,0.392727428335,0.0629506330066,0.00454625252404,-0.0124345707545
1589285621642283131,6588,1589285621642178766,,-0.00808816452412,-0.621228746392,0.370513451401,0.0621553330817,0.00512641022627,-0.0116285539657
1589285621648249786,6589,1589285621648148265,,-0.00808260661394,-0.621229702581,0.370511969468,0.0621552228598,0.00512671684095,-0.0116290079251
1589285621654167518,6590,1589285621654082038,,-0.0299637198174,-0.621199267367,0.370130523648,0.0639348904012,0.0045507137672,-0.0109706342006
1589285621660188027,6591,1589285621660052384,,-0.0299619323954,-0.621201700781,0.370126584255,0.0639347934411,0.00455058587457,-0.0109712522993
1589285621666234710,6592,1589285621666066032,,-0.0080723101136,-0.621232695234,0.370507176178,0.0639660315547,0.0045523273477,-0.011644757008
1589285621669633132,6593,1589285621669549966,,-0.00887162491471,-0.622594431143,0.415074986005,0.0672916986408,0.00516712971651,-0.0108623425236
1589285621675243640,6594,1589285621674955610,,-0.00886550059648,-0.622597012078,0.415071245543,0.0672915768431,0.00516742917441,-0.0108629545827
1589285621677991237,6595,1589285621677902495,,-0.00886100697507,-0.622598057875,0.415069772823,0.0682350070918,0.00458154640039,-0.011673649146
1589285621681189376,6596,1589285621681011377,,-0.00885553138232,-0.62259897252,0.415068517726,0.0672913954597,0.0051679598135,-0.0108638257081
1589285621686970618,6597,1589285621686893379,,-0.0307850933776,-0.622568859336,0.414684629424,0.0682053652281,0.00458048836329,-0.0109967346658
1589285621689939589,6598,1589285621689858944,,-0.0307825569504,-0.622567511432,0.414686841324,0.0682053293327,0.00458062981569,-0.0109968983787
1589285621692937100,6599,1589285621692838639,,-0.0307774510795,-0.62256924129,0.414684623267,0.0673181166637,0.00398331700562,-0.0117987387152
1589285621695961017,6600,1589285621695870059,,-0.0312012756077,-0.623253348265,0.436995064058,0.0689708606439,0.00458576741023,-0.0110004539515
1589285621698979913,6601,1589285621698895669,,-0.0307738711114,-0.622568000707,0.414686751443,0.0682051974434,0.00458119896216,-0.0109974792849
1589285621705134606,6602,1589285621705052664,,-0.0088390115473,-0.622598148566,0.415070105768,0.069140421922,0.00458824846303,-0.0116799659583
1589285621708132422,6603,1589285621707999041,,-0.00883857209599,-0.622598863718,0.415069042409,0.0691477012698,0.00518402564744,-0.0116807081445
1589285621713979887,6604,1589285621713900925,,-0.00883573619243,-0.622597787864,0.415070716552,0.0691476573131,0.00518419558906,-0.0116808929356
1589285621717177280,6605,1589285621717094757,,-0.00924088423704,-0.623282247643,0.437381936569,0.070863938924,0.00519754353456,-0.0124987116439
1589285621720360451,6606,1589285621720214998,,-0.00924496615252,-0.623280607959,0.437384186898,0.0708639847763,0.00519710044338,-0.0124986359249
1589285621722996773,6607,1589285621722894722,,0.0346690919957,-0.623446932778,0.438219681409,0.0691057780152,0.00518808146811,-0.0138487015437
1589285621729458379,6608,1589285621729373983,,0.0128611874598,-0.493891810027,0.433605551683,0.0727442204106,0.00461252637748,-0.0140039356616
1589285621732009119,6609,1589285621731916549,,0.012858993139,-0.493890535185,0.433607068849,0.072744211922,0.0046119731753,-0.0140041619539
1589285621738166715,6610,1589285621738046578,,0.0128571947813,-0.4938901295,0.433607584263,0.0727381382765,0.00401227259281,-0.0140034211798
1589285621741045964,6611,1589285621740953316,,0.0126950815941,-0.623346133889,0.437791473196,0.0736497080928,0.00461589333004,-0.0140086176857
1589285621747294132,6612,1589285621747122358,,0.0123048099828,-0.624026804114,0.460155361891,0.0753668350721,0.00462531374493,-0.0148430860726
1589285621749993505,6613,1589285621749907940,,0.0128291845902,-0.493889420681,0.433609221266,0.0755174649054,0.0046259638743,-0.0148423232671
1589285621753223325,6614,1589285621753142127,,0.0124507591281,-0.494709037522,0.456004579623,0.077152501652,0.00463184782638,-0.0140209453962
1589285621756127542,6615,1589285621756031637,,0.0124466573813,-0.494707652991,0.45600619364,0.0771525999122,0.00463160109915,-0.0140204862001
1589285621762829932,6616,1589285621762704663,,0.0124426775035,-0.494705900162,0.456008203838,0.0781761912862,0.00464042771357,-0.0164963739411
1589285621768074891,6617,1589285621767960857,,0.0124401948866,-0.494707289369,0.456006764469,0.0781762410116,0.00464024021131,-0.0164961910351
1589285621774183661,6618,1589285621773993403,,0.0129356852793,-0.366185813446,0.428650705799,0.0782800746306,0.00463942091592,-0.0156742675719
1589285621777154585,6619,1589285621777053542,,0.0129364300684,-0.366186333848,0.428650238755,0.0782801100675,0.00464000398663,-0.0156739179961
1589285621780175886,6620,1589285621780085970,,0.0129384850801,-0.366187113608,0.428649510598,0.0782800567838,0.00464022924903,-0.0156741174223
1589285621783129025,6621,1589285621783023129,,0.0129395127678,-0.36618884303,0.428648002159,0.0782801031078,0.00464104769646,-0.0156736437448
1589285621786113284,6622,1589285621785978848,,0.0129406173404,-0.366187623232,0.42864901087,0.079195354468,0.00464500706225,-0.0156783468392
1589285621789403929,6623,1589285621789315097,,0.0130480454825,-0.24111868991,0.423287915983,0.0801067101117,0.00525601421235,-0.0156827838729
1589285621791979118,6624,1589285621791859620,,0.0130473150946,-0.241117481606,0.423288626784,0.0801067600285,0.00525647039088,-0.0156823760028
1589285621795514676,6625,1589285621795346239,,0.0130495445999,-0.241117855642,0.423288344995,0.0801067003494,0.00525698671252,-0.0156825077766
1589285621801221941,6626,1589285621801063095,,0.013048854925,-0.241118468127,0.423288017366,0.0801008616425,0.00465125629287,-0.0156815261317
1589285621804309196,6627,1589285621804153233,,0.0127145280572,-0.242030984455,0.446080016639,0.0818168237931,0.00465959803858,-0.0165135307407
1589285621810278415,6628,1589285621810110113,,0.0127188635725,-0.242030499034,0.446080156419,0.0818166865239,0.00466002461418,-0.0165140904641
1589285621813254039,6629,1589285621813119297,,0.0123791316341,-0.242888138179,0.468924887547,0.0834628171938,0.0046650794927,-0.0156938856573
1589285621816682159,6630,1589285621816569799,,-0.00899430591895,-0.242819748903,0.468503915866,0.0833964481155,0.00405375531813,-0.0141738244988
1589285621824979017,6631,1589285621824890888,,0.0118727819788,-0.368873803133,0.496515669919,0.0860594474212,0.00528458889672,-0.015699730377
1589285621828098691,6632,1589285621827947699,,0.0118691636951,-0.368871580607,0.496517407589,0.085110370527,0.00527894376682,-0.0148696501244
1589285621834000168,6633,1589285621833915171,,0.0120240861217,-0.243693033093,0.491916761265,0.0851104154066,0.00527858029016,-0.0148695222786
1589285621837004955,6634,1589285621836930408,,0.0115002093672,-0.36969922084,0.519217801233,0.0868254287101,0.00528738216558,-0.0156996979314
1589285621839997132,6635,1589285621839907419,,0.0114968844776,-0.369698656897,0.51921827641,0.0876678510753,0.00528738934365,-0.0140320155209
1589285621842950915,6636,1589285621842875286,,0.0114951242883,-0.3697004842,0.519217014284,0.0876678681753,0.00528686887172,-0.0140321047934
1589285621849044049,6637,1589285621848919523,,0.0118595183037,-0.368875436982,0.496514773076,0.0869015532196,0.00528382524538,-0.0140325028075
1589285621852065225,6638,1589285621851928192,,0.0114936901907,-0.369704069223,0.519214493353,0.0894674366528,0.00590483003918,-0.0132001079038
1589285621858165478,6639,1589285621858023244,,0.0116649499082,-0.24445796551,0.514845406193,0.090379235074,0.00529493673858,-0.0131977173648
1589285621861223300,6640,1589285621861096428,,-0.00983957215776,-0.2443962159,0.514423796748,0.0930928146382,0.00468851926773,-0.0124914712212
1589285621867235187,6641,1589285621867133980,,-0.00983929351249,-0.244396852786,0.5144234995,0.0930928131768,0.0046889301184,-0.012491327897
1589285621870162253,6642,1589285621870049083,,-0.0102563841358,-0.245112525876,0.537391413081,0.0947359700103,0.00407643343978,-0.0116502633624
1589285621873290890,6643,1589285621873063988,,-0.0102536904309,-0.245113009521,0.537391243887,0.0947359060582,0.00407601992905,-0.0116509280605
1589285621876158662,6644,1589285621876039222,,-0.00949966514723,-0.121484830408,0.51100825868,0.0940245271143,0.00407688712041,-0.0133224032458
1589285621883001315,6645,1589285621882882301,,-0.009920702846,-0.12193130942,0.534202821267,0.0947960103266,0.00469379268982,-0.0133199202704
1589285621888078368,6646,1589285621887892939,,-0.0099184225578,-0.121931279616,0.534202870412,0.0947959474894,0.00469413381541,-0.0133202472564
1589285621894169617,6647,1589285621894059584,,-0.00991945555801,-0.121932823937,0.534202498739,0.0956857675819,0.00469543152158,-0.0124814534677
1589285621897283813,6648,1589285621897192018,,0.0115212435194,-0.121989944363,0.534626814265,0.0966454041838,0.00470007454627,-0.0140152087105
1589285621900202032,6649,1589285621900097924,,0.0117678391071,-0.000285008823758,0.53343947466,0.0966792937582,0.00531865058196,-0.0148618109144
1589285621903070596,6650,1589285621902959766,,0.011766329253,-0.000282304505107,0.533439509404,0.0966793383383,0.00531852929251,-0.014861564315
1589285621906035916,6651,1589285621905961808,,0.0115222164636,-0.121985385366,0.534627833538,0.0966747003627,0.00470123997339,-0.0148611045869
1589285621909257319,6652,1589285621909168065,,0.0331645437951,-0.000327635349798,0.533946015245,0.0975871842346,0.00470301378258,-0.0147151337035
1589285621912021137,6653,1589285621911947057,,0.0117668837716,-0.000279029951583,0.533439498895,0.0984997051229,0.00470507548136,-0.0148563767446
1589285621918146920,6654,1589285621918053564,,0.0117661974421,-0.000278276026817,0.533439514428,0.100359671962,0.00409090129233,-0.015689609137
1589285621920984053,6655,1589285621920905797,,0.0117670336493,-0.000280114832068,0.533439495021,0.100359635878,0.00409123876738,-0.0156897519544
1589285621924162314,6656,1589285621924023796,,0.0111717635969,-0.122403585568,0.55783125858,0.102038250098,0.00471414817751,-0.0156838546027
1589285621930011224,6657,1589285621929928420,,0.0110632405503,-0.000305280649647,0.580128999069,0.103698105032,0.00471678923781,-0.014835425623
1589285621933116420,6658,1589285621933044278,,0.0110614381185,-0.000305550606981,0.580129033297,0.103698177776,0.00471620760737,-0.0148351020614
1589285621935960971,6659,1589285621935876034,,0.0110584358245,-0.000305692532417,0.58012909046,0.10277642777,0.00409350075438,-0.0148383952728
1589285621944963597,6660,1589285621944866827,,0.0107015877856,-0.000317048325055,0.603424095368,0.103515749754,0.00409389218988,-0.0139843738864
1589285621948100270,6661,1589285621947876286,,0.0107037807289,-0.000314922900022,0.603424057586,0.104433814879,0.00409488093702,-0.0139801055842
1589285621954015082,6662,1589285621953898368,,-0.0111922107907,-0.123103501283,0.603944718794,0.105293487311,0.00409460067677,-0.012426509921
1589285621957194487,6663,1589285621957055041,,0.0107059036605,-0.000312471651275,0.603424021199,0.106211712772,0.00471747463176,-0.0122853441502
1589285621962968788,6664,1589285621962895360,,-0.0108950083012,-0.000263654526015,0.603001525106,0.108042784066,0.00471967894516,-0.012408918723
1589285621966105191,6665,1589285621966027407,,-0.0108924060562,-0.000265129955597,0.603001571471,0.108042728487,0.0047197556885,-0.0124093734481
1589285621969235935,6666,1589285621969161513,,-0.0108887771046,-0.000264154935225,0.60300163744,0.108017572171,0.00471933680174,-0.011566518956
1589285621974967764,6667,1589285621974886080,,-0.0113086030191,-0.000278327353565,0.626297850892,0.108760955675,0.00472019796456,-0.0107169231703
1589285621978253144,6668,1589285621978139917,,-0.0333048122552,-0.123401009373,0.626811220278,0.10965617891,0.00409744209267,-0.00999982989379
1589285621981124289,6669,1589285621981004996,,-0.0337759268942,-0.123720715721,0.650044872334,0.110400801626,0.0040970814053,-0.00913990614872
1589285621987134163,6670,1589285621987050915,,-0.0333066236363,-0.123401591067,0.626811009511,0.110565209784,0.00409834059963,-0.00999120838677
1589285621990193454,6671,1589285621990081766,,-0.0116076146552,-0.123443609808,0.627174943962,0.112389323245,0.00409956902668,-0.00982888621009
1589285621993201759,6672,1589285621993125451,,-0.012028802123,-0.123763687659,0.650411172943,0.113184620852,0.00472588135104,-0.0106767431094
1589285621999179330,6673,1589285621999096454,,-0.0120266863899,-0.12376404843,0.650411143419,0.113184587805,0.00472581664973,-0.0106771220756
1589285622005200037,6674,1589285622005121386,,-0.0116039264689,-0.123437580037,0.62717619899,0.112412891583,0.00409976532331,-0.0106846238542
1589285622011148623,6675,1589285622011052208,,-0.0113134532985,-0.000267080612493,0.626297768192,0.113355658505,0.00410120332262,-0.011522615335
1589285622014163768,6676,1589285622014075345,,-0.0113102788724,-0.000265001092224,0.62629782641,0.113379920223,0.00410165393912,-0.0123698664505
1589285622020321548,6677,1589285622020248515,,-0.0117331297812,-0.000278246231246,0.64959398569,0.114120324499,0.00348574766743,-0.0115163137203
1589285622023234982,6678,1589285622023143152,,-0.0121550613363,-0.000285261853879,0.672990180545,0.114918968659,0.00410260562228,-0.0123571639904
1589285622029445407,6679,1589285622029374357,,-0.0121565330242,-0.00028316874089,0.672990154846,0.11676782127,0.00348664136241,-0.0131904727231
1589285622032107984,6680,1589285622031952211,,-0.0121562925047,-0.000290184486395,0.672990156203,0.116767798203,0.00348739316514,-0.0131904781733
1589285622035070388,6681,1589285622034983307,,0.00999418377595,-0.000333586741897,0.650014259649,0.117844777694,0.00348946834667,-0.0138955260471
1589285622038029969,6682,1589285622037956096,,0.00963182145149,-0.000348293995813,0.67340955193,0.118615719872,0.00349006081702,-0.0138906241746
1589285622041018400,6683,1589285622040950481,,0.0099967827942,-0.000335140556669,0.650014218884,0.117870128891,0.00349027374767,-0.0147548374553
1589285622047002484,6684,1589285622046923806,,0.0320394770476,0.123109459272,0.651422295588,0.1197443104,0.00349209130181,-0.0163059361205
1589285622049984780,6685,1589285622049893039,,0.0320403153981,0.123108457765,0.651422443623,0.1197443156,0.00349163618304,-0.0163059953972
1589285622052976156,6686,1589285622052879817,,0.00999460665195,-0.000337756760845,0.650014250994,0.120666818391,0.00349154771477,-0.0164368556951
1589285622059043925,6687,1589285622058980721,,0.010279586075,0.123149987111,0.65094882715,0.121546893907,0.00286207618484,-0.0155785078532
1589285622068226476,6688,1589285622068148475,,0.0320340684039,0.123116116414,0.651421303444,0.121568382248,0.00286331481083,-0.0162928967637
1589285622074228910,6689,1589285622074098278,,0.0320328020586,0.123112070902,0.651422130289,0.121568400196,0.00286369860843,-0.0162926953923
1589285622080169339,6690,1589285622080093439,,0.0317139262561,0.123394135101,0.674758957256,0.122339259451,0.00286390213043,-0.0162874881894
1589285622083288005,6691,1589285622083191059,,0.0317107425549,0.123395147202,0.674758921799,0.123283475206,0.00286465963176,-0.01713336966
1589285622086325046,6692,1589285622086232125,,0.0536184049783,0.123370290231,0.675278969774,0.123305540894,0.00286577956695,-0.0178518649568
1589285622089173519,6693,1589285622089089080,,0.0536194534308,0.12336545825,0.675279769286,0.12330554258,0.00286530875521,-0.0178519288834
1589285622092092953,6694,1589285622092023564,,0.0317159723603,0.12338733039,0.674760105437,0.125107599719,0.00223443378949,-0.0171221471225
1589285622095018570,6695,1589285622094937434,,0.00990125607929,0.123419253846,0.674292284817,0.124177771589,0.00223582516831,-0.0164113750547
1589285622098016600,6696,1589285622097946267,,0.00989566759342,0.123422936788,0.674291692736,0.12417786407,0.00223676914458,-0.0164105466433
1589285622104095546,6697,1589285622104012068,,-0.0123192502312,0.123734418562,0.697118813936,0.125883677776,0.00223515725463,-0.0174005304262
1589285622107083194,6698,1589285622106993352,,-0.0123249529964,0.123725806031,0.697120241753,0.125883802075,0.00223579778769,-0.0173995488715
1589285622110101248,6699,1589285622109987790,,0.0095294653049,0.123681671153,0.697538601218,0.126823787792,0.00223587864899,-0.0181107522137
1589285622116599257,6700,1589285622116467292,,0.0094596174681,0.248928005741,0.722853431588,0.128474094403,0.00223316599101,-0.0172448526126
1589285622119569229,6701,1589285622119451636,,0.00946681143405,0.248931879393,0.722852003433,0.128474053613,0.00223101274667,-0.0172454351935
1589285622125089314,6702,1589285622124995861,,0.00915996370549,0.123936809554,0.720787748822,0.12759128019,0.00223264497971,-0.0181060462332
1589285622128165321,6703,1589285622128008054,,0.0314273505129,0.248908543356,0.723305253833,0.128523777325,0.0028623713244,-0.0188181456285
1589285622131120840,6704,1589285622131049381,,0.0314259635338,0.248911248315,0.723304383242,0.129439633902,0.00223049266122,-0.0188120894342
1589285622134092918,6705,1589285622134025220,,0.0314252249663,0.248911527386,0.723304319293,0.129439600054,0.00223127935094,-0.0188122290407
1589285622140309452,6706,1589285622140187155,,0.0318176404279,0.375044321371,0.726212431918,0.130348126944,0.00223058114742,-0.0188047667184
1589285622143101414,6707,1589285622142903731,,0.0318212170728,0.375047402403,0.726210684032,0.132174716527,0.00222964710502,-0.0187930332843
1589285622148942898,6708,1589285622148871773,,0.0318118366954,0.375042033229,0.726213867855,0.132174879796,0.00223067159115,-0.018791763363
1589285622152201828,6709,1589285622152088403,,0.0318152520287,0.375044580147,0.726212402916,0.133984445983,0.00160417946421,-0.0179211890927
1589285622158210625,6710,1589285622158133857,,0.00938258512382,0.375587749308,0.748791597384,0.135664748872,0.00160259072614,-0.01804586741
1589285622164110037,6711,1589285622164037688,,0.0536263221989,0.375546127378,0.749719773014,0.136625692012,0.00160391251101,-0.0194812527537
1589285622167150287,6712,1589285622167071432,,0.0314523545976,0.37555485806,0.749241319344,0.13748828488,0.00160084414124,-0.0178913281981
1589285622173260010,6713,1589285622173158094,,0.0536379490956,0.37554181965,0.749721099063,0.138427599679,0.00159929129731,-0.0186088744935
1589285622176215104,6714,1589285622176102529,,0.031105720558,0.376054944746,0.772382124501,0.141029653332,0.00159634195157,-0.0187235073559
1589285622179126514,6715,1589285622179027872,,0.0311068544225,0.376063996786,0.772377671542,0.141029622789,0.00159616297223,-0.0187237526709
1589285622182091625,6716,1589285622182012011,,0.0311069729873,0.376062567831,0.772378362511,0.141029666403,0.00159558231077,-0.0187234736554
1589285622188144886,6717,1589285622188027152,,0.0311093021037,0.376053037285,0.772382908951,0.14194829998,0.00159419550442,-0.0187159721393
1589285622191160341,6718,1589285622191048368,,0.0311011556492,0.376059853157,0.772379918517,0.142857237706,0.00159222014513,-0.0187064587487
1589285622197264205,6719,1589285622197177279,,0.00899476311424,0.376089398443,0.771934292003,0.14283507909,0.000954424690083,-0.0179838818787
1589285622200070761,6720,1589285622199987257,,0.0537952952783,0.503509370712,0.775922142329,0.143796583663,0.00159031904318,-0.0194240507991
1589285622203215514,6721,1589285622203105595,,0.0538040463455,0.503516320654,0.775917025575,0.144705115169,0.00158794920374,-0.0194174106257
1589285622206212866,6722,1589285622206140982,,0.0538211519079,0.503513652747,0.775917570525,0.145647932107,0.00158572517411,-0.0202742705762
1589285622212156457,6723,1589285622212081211,,0.0757083807308,0.504039132962,0.79934957811,0.146411731344,0.00158431867182,-0.0201292281268
1589285622221155474,6724,1589285622221053940,,0.0766337242948,0.632037694549,0.779545145998,0.147497389497,0.00220968333379,-0.0209861671144
1589285622227245695,6725,1589285622227168000,,0.0763016962552,0.632548370575,0.802416401883,0.14826502249,0.00220845416787,-0.0209802757335
1589285622230150325,6726,1589285622230078770,,0.053982046695,0.632546925279,0.801949440727,0.148267019088,0.00158156476574,-0.0211186489832
1589285622233041872,6727,1589285622232967687,,0.0539801136712,0.63254872207,0.8019481536,0.148266904114,0.00158287875257,-0.0211193577257
1589285622236046398,6728,1589285622235944228,,0.053962898744,0.632537607787,0.801958078594,0.147348593822,0.00158632872368,-0.0211250944978
1589285622239049202,6729,1589285622238961980,,0.0539452960142,0.632540148927,0.801957258562,0.145495185746,0.00095341195821,-0.0202755451151
1589285622245223995,6730,1589285622245048851,,0.0539572124813,0.632542839011,0.801954335087,0.145494917204,0.000953060104384,-0.0202774885874
1589285622248224736,6731,1589285622248109180,,0.0539481573748,0.632538216098,0.801958590589,0.144563549838,0.00159349028172,-0.019423170443
1589285622251295219,6732,1589285622251169096,,0.0539675757842,0.632550122861,0.801947892547,0.14456318254,0.00159231318612,-0.0194260005063
1589285622257231625,6733,1589285622257048070,,0.0544625691815,0.76194988049,0.804937003253,0.144538866275,0.00158926913839,-0.0185652290966
1589285622260181704,6734,1589285622260077284,,0.0543482179732,0.632024193166,0.779083356055,0.142853929722,0.00222001273664,-0.0185826384061
1589285622263150809,6735,1589285622263030596,,0.0543553068346,0.632025198226,0.779082046162,0.142853953494,0.00221838128258,-0.0185826504925
1589285622269685388,6736,1589285622269602051,,0.0319814775442,0.632050250103,0.778618996442,0.141875316208,0.00158924679828,-0.0161343640763
1589285622276349609,6737,1589285622276074247,,0.0323723519325,0.631513699248,0.755674144765,0.141082593147,0.00221497061933,-0.0152839848926
1589285622281419167,6738,1589285622281242135,,0.0323887638279,0.631515485553,0.755671948704,0.141082470868,0.00221295153582,-0.0152854060264
1589285622287216227,6739,1589285622287116790,,0.0324014077135,0.631515395669,0.755671481787,0.141082356735,0.00221161387508,-0.0152866530198
1589285622290213589,6740,1589285622290111872,,0.0108632444603,0.760493594828,0.735593509171,0.138409382849,0.00158697201255,-0.0128645848029
1589285622293263308,6741,1589285622293172881,,0.0108473458078,0.760496353351,0.735590891881,0.138411778106,0.00221201387306,-0.0128614305875
1589285622296240735,6742,1589285622296174068,,0.0108433279328,0.760496240583,0.735591067705,0.138411822431,0.00221224753125,-0.0128609133773
1589285622299300074,6743,1589285622299194445,,0.0331948616242,0.760470267659,0.736014935154,0.137521498561,0.00221167683009,-0.0135909798884
1589285622302922928,6744,1589285622302779309,,0.0331938672839,0.760479775598,0.736005156016,0.137521312773,0.00221323600046,-0.0135926058878
