%time,field.header.seq,field.header.stamp,field.header.frame_id,field.vector.x,field.vector.y,field.vector.z
1589285620552697509,6325,1589285620552555917,,0.499932634002,-0.159705930084,0.202954283684
1589285620555668805,6326,1589285620555585470,,0.499932088907,-0.159622309667,0.202951154306
1589285620558790615,6327,1589285620558597359,,0.499929262475,-0.159548468582,0.202943848275
1589285620562522503,6328,1589285620562421559,,0.499929003505,-0.159470260909,0.20294306974
1589285620567809622,6329,1589285620567590031,,0.499927332661,-0.159404763343,0.202941185972
1589285620570737123,6330,1589285620570627550,,0.499926092878,-0.159327751892,0.202936016718
1589285620576739044,6331,1589285620576536860,,0.499925913844,-0.159257698117,0.202934071736
1589285620579743469,6332,1589285620579511708,,0.499923904062,-0.159187201999,0.202931715801
1589285620582700114,6333,1589285620582534943,,0.499924305639,-0.159110838514,0.202929126249
1589285620585736835,6334,1589285620585650535,,0.499921074381,-0.159041378054,0.202928247661
1589285620591735829,6335,1589285620591578996,,0.499918966005,-0.158966104819,0.202925323369
1589285620594804483,6336,1589285620594697609,,0.499917261931,-0.158893415605,0.202924836943
1589285620600789996,6337,1589285620600649326,,0.499915365211,-0.158820059203,0.202923966955
1589285620606771604,6338,1589285620606666580,,0.499913524328,-0.158749119022,0.202925023264
1589285620609768340,6339,1589285620609631051,,0.499912212791,-0.158679958111,0.202923851541
1589285620612743057,6340,1589285620612613431,,0.499909023156,-0.158608370434,0.202923795158
1589285620616208125,6341,1589285620616050888,,0.499909696762,-0.15854102468,0.202925260173
1589285620619120297,6342,1589285620618961402,,0.499905866775,-0.158474535557,0.202921216684
1589285620624791262,6343,1589285620624668431,,0.499903360813,-0.158410802247,0.202923557216
1589285620627789720,6344,1589285620627621249,,0.49990014801,-0.158346875833,0.202920417465
1589285620630759090,6345,1589285620630638199,,0.499894400728,-0.158285194969,0.202917629734
1589285620633773247,6346,1589285620633659391,,0.499891510425,-0.158224890409,0.202915722121
1589285620639783075,6347,1589285620639700231,,0.499886097814,-0.15816638766,0.202915374815
1589285620642756890,6348,1589285620642630943,,0.499882397398,-0.158105036437,0.202913717981
1589285620648880167,6349,1589285620648798865,,0.499878263286,-0.158044164054,0.202908973734
1589285620651732164,6350,1589285620651624447,,0.499874779572,-0.157990003872,0.202910626895
1589285620654678644,6351,1589285620654607917,,0.499869197591,-0.157930332832,0.202906829187
1589285620657754443,6352,1589285620657637988,,0.499865512308,-0.157873301335,0.202906851246
1589285620663849697,6353,1589285620663704050,,0.499861750854,-0.157819110809,0.202907828334
1589285620666787429,6354,1589285620666682733,,0.499857176699,-0.157761995503,0.202907088277
1589285620672787625,6355,1589285620672671806,,0.49985222084,-0.157706442162,0.202901950791
1589285620675768894,6356,1589285620675640512,,0.499847713936,-0.157654512321,0.202903281094
1589285620678796473,6357,1589285620678670554,,0.499843487007,-0.157600149639,0.20290103353
1589285620684767868,6358,1589285620684656487,,0.499838974026,-0.157547257536,0.202898056734
1589285620687758216,6359,1589285620687642904,,0.499832405022,-0.157494790697,0.202894906362
1589285620690742763,6360,1589285620690639127,,0.499828989926,-0.157448570299,0.202897882347
1589285620696770166,6361,1589285620696689801,,0.499824046567,-0.157401792338,0.202894005228
1589285620699779745,6362,1589285620699643325,,0.49981842637,-0.157354459054,0.202892253737
1589285620702806288,6363,1589285620702682649,,0.499814139462,-0.157308825143,0.202890166098
1589285620708827390,6364,1589285620708701895,,0.499810347434,-0.157262174157,0.202889650289
1589285620711876552,6365,1589285620711711780,,0.499805322864,-0.157220331523,0.202888078399
1589285620714739013,6366,1589285620714633919,,0.49980075651,-0.157177253345,0.2028877909
1589285620720791570,6367,1589285620720626892,,0.499794951347,-0.157134769802,0.202886850277
1589285620723777458,6368,1589285620723607937,,0.499791528868,-0.157092058819,0.202886349253
1589285620726767643,6369,1589285620726658355,,0.499786649752,-0.157049355194,0.20288760325
1589285620732780016,6370,1589285620732621727,,0.499780546028,-0.15700738846,0.202885957616
1589285620735724126,6371,1589285620735631047,,0.499777869669,-0.156966816842,0.202888708884
1589285620738809761,6372,1589285620738671855,,0.49977290785,-0.156926469216,0.202887819369
1589285620744869194,6373,1589285620744679209,,0.499767112812,-0.156887193325,0.202886810021
1589285620747796065,6374,1589285620747685054,,0.499762769629,-0.156847429647,0.202886940662
1589285620750796548,6375,1589285620750677374,,0.49975768958,-0.156808822132,0.202887675673
1589285620756844631,6376,1589285620756741633,,0.499753830519,-0.156768232616,0.202889820821
1589285620759733933,6377,1589285620759601414,,0.499749071166,-0.156727710296,0.202890156681
1589285620762724582,6378,1589285620762609710,,0.499744444463,-0.156689761667,0.202888915436
1589285620768964138,6379,1589285620768806257,,0.49974006606,-0.156648407917,0.202889445611
1589285620771789952,6380,1589285620771666257,,0.499735640393,-0.156611519813,0.202891007632
1589285620774747489,6381,1589285620774668670,,0.499730712556,-0.156575344168,0.202890276334
1589285620780852641,6382,1589285620780695329,,0.499726252204,-0.156536987391,0.202892706082
1589285620786779404,6383,1589285620786674147,,0.499721676446,-0.156500137677,0.202896104073
1589285620789804968,6384,1589285620789667414,,0.499716900202,-0.156467881028,0.20289513098
1589285620792774826,6385,1589285620792669111,,0.49971265181,-0.156430533946,0.202897164452
1589285620795768824,6386,1589285620795638554,,0.49970899415,-0.156397863907,0.202897099985
1589285620804743663,6387,1589285620804595890,,0.499700455509,-0.156335975717,0.202898447211
1589285620807774877,6388,1589285620807629222,,0.499696038045,-0.156304185032,0.202899240672
1589285620813795173,6389,1589285620813650549,,0.499692274833,-0.156271536141,0.202901586135
1589285620817027391,6390,1589285620816915047,,0.499687974498,-0.156240916813,0.202903893943
1589285620820128424,6391,1589285620819951916,,0.499683216957,-0.156210463465,0.202905651367
1589285620825826931,6392,1589285620825702905,,0.499679061638,-0.156181381041,0.202905590435
1589285620828959901,6393,1589285620828886432,,0.499676389055,-0.156154977679,0.20290817964
1589285620831833698,6394,1589285620831729898,,0.499672958696,-0.156135212561,0.202909852682
1589285620837787185,6395,1589285620837647698,,0.499668780796,-0.156108367396,0.202909089702
1589285620840902915,6396,1589285620840700631,,0.4996669894,-0.156077499612,0.20290914053
1589285620846782344,6397,1589285620846649778,,0.499664980721,-0.156055380316,0.202911029814
1589285620849737326,6398,1589285620849636542,,0.499662851244,-0.156028709231,0.202912634419
1589285620852865419,6399,1589285620852688955,,0.499659413661,-0.15600480179,0.202911510933
1589285620855755784,6400,1589285620855653157,,0.499657708615,-0.155980120945,0.202912714615
1589285620862425140,6401,1589285620862342445,,0.499655899781,-0.155954630761,0.202913423387
1589285620867727230,6402,1589285620867628187,,0.499653473992,-0.155930528018,0.202913101344
1589285620873870575,6403,1589285620873708046,,0.499652159383,-0.155904489081,0.202914700841
1589285620876882094,6404,1589285620876739981,,0.499650440513,-0.155880422207,0.202914350233
1589285620879775500,6405,1589285620879639257,,0.49965095563,-0.155853887854,0.202915556464
1589285620882857894,6406,1589285620882710358,,0.499650302608,-0.155826949161,0.202914636122
1589285620885810454,6407,1589285620885709064,,0.499651152835,-0.15580178014,0.202915359698
1589285620888707998,6408,1589285620888642055,,0.499652084299,-0.155773635651,0.202916181301
1589285620891793955,6409,1589285620891659704,,0.499652161791,-0.155748904732,0.202919744319
1589285620897769276,6410,1589285620897651108,,0.499651363794,-0.155721709879,0.202920958484
1589285620900753524,6411,1589285620900643349,,0.499650970902,-0.155698231321,0.202923428337
1589285620906921200,6412,1589285620906744731,,0.499649801626,-0.155675291908,0.202926084886
1589285620909836780,6413,1589285620909700770,,0.499650159227,-0.155651475465,0.202928911958
1589285620912795606,6414,1589285620912682462,,0.499649733197,-0.155628802746,0.20292844409
1589285620919092601,6415,1589285620918974609,,0.499649887077,-0.155607347382,0.202928348548
1589285620924780856,6416,1589285620924651430,,0.499651716448,-0.155568416547,0.202933459574
1589285620930779361,6417,1589285620930633932,,0.499651567876,-0.155548137992,0.2029345637
1589285620933775148,6418,1589285620933673951,,0.499651650953,-0.155531027332,0.202937391459
1589285620939854538,6419,1589285620939710224,,0.499652616033,-0.155512571655,0.202942956918
1589285620942782031,6420,1589285620942658151,,0.49965229263,-0.155494914731,0.202945862507
1589285620945732704,6421,1589285620945618941,,0.499653300597,-0.155476805956,0.202949847064
1589285620948716196,6422,1589285620948625689,,0.499653682011,-0.15545942282,0.202952023456
1589285620954744668,6423,1589285620954639827,,0.499655059751,-0.155443804223,0.202955247727
1589285620960860526,6424,1589285620960708046,,0.499656248552,-0.155428453945,0.202956935898
1589285620966751833,6425,1589285620966653285,,0.499658093956,-0.155411843774,0.202960985513
1589285620969762778,6426,1589285620969658967,,0.499657737656,-0.155396992271,0.202960433563
1589285620972844979,6427,1589285620972706926,,0.499658918049,-0.155382357948,0.202962634943
1589285620975842042,6428,1589285620975701139,,0.499659896468,-0.155367256105,0.202964132732
1589285620978769732,6429,1589285620978659824,,0.49966052173,-0.155352884963,0.202964025925
1589285620987683451,6430,1589285620987604074,,0.499662323759,-0.155328600469,0.202965176282
1589285620990738517,6431,1589285620990620320,,0.499662767595,-0.155318759809,0.202964941925
1589285620993843185,6432,1589285620993655631,,0.499663769906,-0.155308651021,0.202966335042
1589285620996757957,6433,1589285620996666239,,0.499664794218,-0.155299891225,0.202967184714
1589285621002800716,6434,1589285621002666070,,0.499666210177,-0.155290996734,0.202969933226
1589285621005787056,6435,1589285621005684829,,0.499667251081,-0.155283356409,0.202970833841
1589285621011768994,6436,1589285621011649654,,0.499668380987,-0.155278243529,0.20297160226
1589285621014918504,6437,1589285621014755886,,0.499669629232,-0.155271892968,0.202973943367
1589285621020918221,6438,1589285621020712696,,0.499670487846,-0.155265639254,0.202974572229
1589285621026887826,6439,1589285621026746904,,0.499672033564,-0.155260578979,0.20297702339
1589285621029956095,6440,1589285621029845716,,0.49967296481,-0.155255055364,0.202978383179
1589285621032711330,6441,1589285621032608004,,0.499674595173,-0.155248512047,0.202979826902
1589285621035780448,6442,1589285621035634869,,0.499675070233,-0.155246102889,0.202980972538
1589285621038718888,6443,1589285621038630204,,0.499676278874,-0.155239098474,0.202982993497
1589285621044762460,6444,1589285621044639008,,0.499677998213,-0.155229969609,0.202986237767
1589285621050822919,6445,1589285621050674973,,0.499678273954,-0.155226803577,0.202988114642
1589285621053758384,6446,1589285621053661921,,0.499679833228,-0.155222506455,0.202991036539
1589285621060019069,6447,1589285621059868272,,0.499680742438,-0.155218318242,0.202994838137
1589285621062784368,6448,1589285621062650547,,0.499680871458,-0.155216073218,0.202995862357
1589285621065760478,6449,1589285621065634463,,0.499682308018,-0.155212229151,0.202999562478
1589285621071832141,6450,1589285621071672276,,0.499682920484,-0.155209198044,0.20300146254
1589285621074782722,6451,1589285621074669784,,0.49968316354,-0.155207767714,0.203003745124
1589285621077745582,6452,1589285621077649533,,0.499683676535,-0.155205323266,0.203005780541
1589285621083752948,6453,1589285621083653496,,0.499684133916,-0.155203193763,0.203008014237
1589285621086767573,6454,1589285621086688255,,0.499684933156,-0.155202567839,0.203011175717
1589285621089748200,6455,1589285621089661602,,0.499684538533,-0.155200625368,0.203011485638
1589285621095795577,6456,1589285621095643588,,0.49968471742,-0.155199164171,0.20301264567
1589285621098743281,6457,1589285621098650863,,0.499686153911,-0.155199591106,0.203016378485
1589285621107772217,6458,1589285621107657140,,0.499686103423,-0.155198535962,0.203020439949
1589285621110749686,6459,1589285621110657340,,0.49968596144,-0.155198396318,0.203022250879
1589285621113762052,6460,1589285621113673654,,0.499686529611,-0.155197941201,0.203024939741
1589285621120271746,6461,1589285621120013045,,0.499686211486,-0.155198356607,0.203025818368
1589285621122768630,6462,1589285621122636534,,0.499686684001,-0.155198387665,0.203028606767
1589285621125840055,6463,1589285621125688688,,0.499687090709,-0.155199859424,0.203030905977
1589285621131896502,6464,1589285621131778677,,0.499687609444,-0.155200196241,0.203032917128
1589285621134812099,6465,1589285621134613465,,0.49968769285,-0.155200930651,0.203034394267
1589285621137816408,6466,1589285621137677632,,0.499688260767,-0.155201827521,0.203037350951
1589285621143853424,6467,1589285621143698404,,0.499689150128,-0.155201273003,0.203039214728
1589285621146760845,6468,1589285621146649222,,0.499689881549,-0.155202925342,0.203041166501
1589285621149795493,6469,1589285621149673259,,0.499690917596,-0.155203222103,0.203043956128
1589285621155800165,6470,1589285621155695264,,0.499691507198,-0.155205122441,0.203045606603
1589285621158897996,6471,1589285621158760128,,0.499693165404,-0.15520727378,0.203049019374
1589285621161966712,6472,1589285621161876429,,0.499693761373,-0.155209015847,0.203050880115
1589285621167836953,6473,1589285621167721928,,0.49969510041,-0.155210838446,0.203053910595
1589285621170807167,6474,1589285621170707779,,0.49969655392,-0.15521545684,0.203057988148
1589285621173799120,6475,1589285621173672224,,0.499699317463,-0.155217140003,0.203063147654
1589285621179771960,6476,1589285621179645280,,0.499702145745,-0.155220892035,0.203069478129
1589285621182886675,6477,1589285621182738256,,0.499705101668,-0.155225842701,0.203076228578
1589285621188767006,6478,1589285621188692617,,0.499708762292,-0.155231222639,0.203084416038
1589285621191857978,6479,1589285621191708238,,0.499712222709,-0.155236093688,0.203093653619
1589285621194806370,6480,1589285621194686152,,0.499715571333,-0.15524231591,0.203103555514
1589285621197862269,6481,1589285621197692411,,0.499718373818,-0.155248961537,0.203111068322
1589285621204016884,6482,1589285621203846601,,0.499721286466,-0.155255875112,0.203119345539
1589285621209827044,6483,1589285621209708353,,0.499723264415,-0.155264667318,0.203126590828
1589285621212848580,6484,1589285621212729786,,0.499725651468,-0.155275168071,0.203134074123
1589285621216296470,6485,1589285621216176149,,0.499726479696,-0.155285456112,0.203140336022
1589285621224858125,6486,1589285621224762314,,0.499728346246,-0.155312163813,0.203152755802
1589285621230943979,6487,1589285621230742736,,0.499728720618,-0.155325554639,0.20315745467
1589285621233870585,6488,1589285621233698887,,0.499729313525,-0.155340440882,0.203163058677
1589285621236823621,6489,1589285621236686574,,0.499729995604,-0.155354664116,0.203169093138
1589285621239875690,6490,1589285621239726574,,0.499730486428,-0.155370328188,0.203173642858
1589285621242823707,6491,1589285621242688933,,0.49973042936,-0.155386549511,0.203178579215
1589285621249267218,6492,1589285621249142872,,0.499731874589,-0.155400246342,0.203184990612
1589285621254995669,6493,1589285621254760937,,0.499732244722,-0.155415731096,0.203189721033
1589285621257871958,6494,1589285621257752895,,0.499732898904,-0.155430529631,0.203194088574
1589285621260820964,6495,1589285621260726813,,0.499733763884,-0.155445818149,0.203198809227
1589285621263779421,6496,1589285621263678909,,0.499734393355,-0.155457626179,0.203201889306
1589285621266774593,6497,1589285621266685636,,0.499735114683,-0.155471913312,0.203205146181
1589285621272842206,6498,1589285621272684451,,0.499734949996,-0.155484147432,0.203206218649
1589285621275911725,6499,1589285621275818574,,0.499734905662,-0.155499196477,0.203206810653
1589285621282007018,6500,1589285621281878478,,0.499735084116,-0.15551098259,0.203206679554
1589285621284861527,6501,1589285621284759038,,0.499736289919,-0.155523923345,0.203205796148
1589285621287825741,6502,1589285621287703721,,0.499736719898,-0.15553605811,0.20320284613
1589285621290797788,6503,1589285621290713118,,0.499738962688,-0.155547234088,0.203200525378
1589285621296783030,6504,1589285621296714346,,0.499740634122,-0.155559901624,0.203198804391
1589285621299855721,6505,1589285621299771423,,0.499742151739,-0.155571478658,0.203198640023
1589285621302851209,6506,1589285621302770058,,0.499743996635,-0.155582261585,0.203197346879
1589285621308851346,6507,1589285621308748780,,0.499745536669,-0.155590396689,0.20319513684
1589285621311811612,6508,1589285621311731661,,0.499747456382,-0.155599701613,0.203194528676
1589285621317937343,6509,1589285621317844688,,0.499749274543,-0.155608395492,0.203193137249
1589285621320721171,6510,1589285621320645361,,0.499751310254,-0.155615673718,0.203190598277
1589285621323787332,6511,1589285621323636292,,0.499753378361,-0.155622173481,0.203186838944
1589285621329821072,6512,1589285621329687608,,0.499755771982,-0.155629765265,0.203185141629
1589285621332736473,6513,1589285621332674437,,0.499758002888,-0.155636064633,0.20318136512
1589285621335766918,6514,1589285621335671186,,0.499760103039,-0.155642668813,0.203179942476
1589285621338801416,6515,1589285621338662785,,0.49976182412,-0.155649538465,0.203177942145
1589285621344780514,6516,1589285621344695929,,0.499763220609,-0.155653574149,0.20317472812
1589285621350840777,6517,1589285621350757305,,0.499765038236,-0.155661390486,0.203172600991
1589285621353831472,6518,1589285621353764092,,0.499766974774,-0.15566795478,0.203170130972
1589285621357028200,6519,1589285621356840395,,0.499768436769,-0.15567299405,0.203165889288
1589285621359982470,6520,1589285621359810371,,0.499770348813,-0.155679972213,0.203163639886
1589285621365886752,6521,1589285621365727892,,0.499773037898,-0.155685463754,0.203163383708
1589285621369044937,6522,1589285621368913460,,0.499774938369,-0.155692202167,0.203161937651
1589285621374820018,6523,1589285621374726366,,0.499776663958,-0.155697238248,0.203160360654
1589285621377819717,6524,1589285621377681296,,0.499778693559,-0.155702015014,0.203159475268
1589285621380901796,6525,1589285621380773527,,0.49978023416,-0.155708092882,0.203159225004
1589285621383968456,6526,1589285621383803444,,0.499782357048,-0.155712093266,0.203160078293
1589285621389823368,6527,1589285621389715766,,0.499783587013,-0.155716778648,0.203159978298
1589285621392834875,6528,1589285621392705254,,0.499784332249,-0.155722349155,0.203159178065
1589285621398974984,6529,1589285621398808391,,0.499786392186,-0.155726223416,0.203160979351
1589285621404847147,6530,1589285621404689402,,0.499789074029,-0.155735846748,0.203159634726
1589285621407923674,6531,1589285621407731123,,0.499790376563,-0.155740602491,0.203160116766
1589285621413901045,6532,1589285621413755190,,0.499792179405,-0.155743775007,0.203160074976
1589285621417116411,6533,1589285621416920510,,0.499792565877,-0.155748274786,0.20315888198
1589285621422784245,6534,1589285621422710054,,0.49979447525,-0.155750759428,0.203160654734
1589285621425854535,6535,1589285621425713136,,0.499796458759,-0.155753167976,0.203161980474
1589285621429074874,6536,1589285621428986261,,0.499797856276,-0.155755395793,0.203162153842
1589285621434801236,6537,1589285621434643044,,0.499798403663,-0.155758944018,0.203162252029
1589285621437778142,6538,1589285621437690489,,0.499799896317,-0.155759570757,0.203163031348
1589285621440847111,6539,1589285621440713508,,0.499800756302,-0.155762291826,0.203163003024
1589285621446921655,6540,1589285621446718058,,0.499802129252,-0.155763745524,0.203164195088
1589285621449877763,6541,1589285621449769409,,0.499802930758,-0.155764070085,0.203165156402
1589285621452837034,6542,1589285621452727830,,0.499803586039,-0.155764324964,0.203165523977
1589285621458907887,6543,1589285621458748476,,0.49980506142,-0.155764880569,0.203166952119
1589285621464940972,6544,1589285621464788919,,0.499806533784,-0.155766116871,0.203168441174
1589285621467898908,6545,1589285621467771154,,0.499807157004,-0.155768471792,0.203169886609
1589285621473903363,6546,1589285621473751557,,0.499808014338,-0.155769482457,0.203170116836
1589285621476968577,6547,1589285621476770613,,0.499809063693,-0.155769870181,0.203171695053
1589285621479838056,6548,1589285621479754547,,0.499809674842,-0.155771104804,0.203171958782
1589285621482927164,6549,1589285621482792832,,0.499811070127,-0.155772229154,0.203174246447
1589285621485862976,6550,1589285621485744156,,0.499811518611,-0.155772438921,0.203174118616
1589285621489248543,6551,1589285621489127033,,0.499812469643,-0.155773736795,0.203175905647
1589285621494849742,6552,1589285621494745165,,0.499813258324,-0.155774950298,0.203176891991
1589285621497802617,6553,1589285621497690032,,0.499813484102,-0.155776383558,0.203176953448
1589285621503826746,6554,1589285621503718925,,0.499814597121,-0.155777078494,0.20317829968
1589285621506824458,6555,1589285621506705681,,0.499815162425,-0.155778644265,0.203178491993
1589285621509854206,6556,1589285621509731418,,0.4998161423,-0.155778976748,0.203180119514
1589285621512888623,6557,1589285621512727450,,0.499816788667,-0.155781072671,0.203181268585
1589285621519208232,6558,1589285621519028828,,0.499817571706,-0.155782900876,0.203182895495
1589285621522230237,6559,1589285621522095594,,0.499817971502,-0.155783110278,0.203183006448
1589285621524970157,6560,1589285621524742261,,0.499819346456,-0.155783610437,0.20318369622
1589285621530924156,6561,1589285621530818438,,0.499819857861,-0.155784460631,0.203184372795
1589285621533828323,6562,1589285621533746495,,0.499820066485,-0.155786104111,0.203185327655
1589285621536861570,6563,1589285621536754362,,0.49982007869,-0.155786777856,0.203185982683
1589285621542886147,6564,1589285621542781564,,0.499820123511,-0.155788921363,0.203186365575
1589285621545923872,6565,1589285621545743795,,0.499820520309,-0.155790087414,0.203186356836
1589285621549164025,6566,1589285621549028904,,0.499820929468,-0.155790797246,0.203187502707
1589285621554908131,6567,1589285621554784790,,0.499821200728,-0.155791846715,0.203188084628
1589285621560903018,6568,1589285621560756209,,0.499821642588,-0.155792032279,0.203188181141
1589285621566971724,6569,1589285621566778510,,0.499822048059,-0.155793654875,0.203188478194
1589285621569849189,6570,1589285621569759390,,0.499822196543,-0.155792874687,0.20318867871
1589285621572869830,6571,1589285621572709586,,0.499822554144,-0.155794034217,0.203189375299
1589285621575880643,6572,1589285621575752516,,0.499822894848,-0.155794789706,0.203189921271
1589285621578921183,6573,1589285621578772860,,0.499823089271,-0.155796501696,0.203190135626
1589285621584912642,6574,1589285621584825994,,0.499823307664,-0.155797458646,0.203189297725
1589285621590957285,6575,1589285621590797562,,0.499823307664,-0.155797458646,0.203189297725
1589285621593948686,6576,1589285621593781667,,0.499824427207,-0.155797892552,0.203190168778
1589285621599827818,6577,1589285621599747270,,0.499824033452,-0.155800405939,0.20318880416
1589285621602874604,6578,1589285621602747213,,0.499824519005,-0.155800662686,0.20318812401
1589285621605949882,6579,1589285621605776147,,0.49982440484,-0.155801538295,0.203188119053
1589285621611886165,6580,1589285621611739113,,0.499824854231,-0.155801747344,0.203187992689
1589285621614875610,6581,1589285621614778806,,0.499825340359,-0.155802801961,0.203187421774
1589285621620878821,6582,1589285621620764553,,0.499825699983,-0.155803602881,0.203187377719
1589285621623938525,6583,1589285621623762231,,0.49982542998,-0.155805764472,0.203185833586
1589285621626901806,6584,1589285621626762625,,0.499825808951,-0.155804765914,0.20318503852
1589285621629895394,6585,1589285621629774832,,0.499825921438,-0.155806108905,0.203183404517
1589285621635860036,6586,1589285621635750200,,0.499825452526,-0.155808252856,0.203182180101
1589285621638800058,6587,1589285621638702577,,0.499825842906,-0.155810253921,0.203180952652
1589285621642020141,6588,1589285621641918243,,0.499825816851,-0.155810979046,0.20317928834
1589285621647912595,6589,1589285621647810007,,0.499826617863,-0.155812181646,0.203177977703
1589285621653992139,6590,1589285621653841525,,0.499826478065,-0.155814201632,0.203176099606
1589285621659894327,6591,1589285621659781825,,0.499826273214,-0.15581675374,0.203173143283
1589285621665997500,6592,1589285621665802252,,0.499826508059,-0.155818915834,0.20316947315
1589285621669383529,6593,1589285621669283010,,0.499826103885,-0.155820500555,0.20316628244
1589285621674865910,6594,1589285621674752068,,0.499826312058,-0.155822573561,0.203164245177
1589285621677847582,6595,1589285621677750202,,0.499826259732,-0.155825245608,0.203161712028
1589285621680934373,6596,1589285621680779634,,0.49982666735,-0.155827716348,0.203160290509
1589285621686851877,6597,1589285621686749996,,0.499825935284,-0.155831138424,0.203158161194
1589285621689816436,6598,1589285621689716118,,0.499826642026,-0.155834804679,0.203157502839
1589285621692809917,6599,1589285621692697598,,0.499826859407,-0.155836370722,0.203156510122
1589285621695845234,6600,1589285621695731377,,0.499826257197,-0.155840617517,0.203155046504
1589285621698825919,6601,1589285621698721886,,0.499826296954,-0.155845036663,0.203154309484
1589285621704914209,6602,1589285621704806762,,0.49982637697,-0.155853614194,0.203152013261
1589285621707887868,6603,1589285621707790829,,0.499827019494,-0.155856771089,0.203150809525
1589285621713888247,6604,1589285621713762867,,0.499827201427,-0.155862075156,0.203150076526
1589285621717046304,6605,1589285621716957048,,0.499828464926,-0.155867285234,0.203150425924
1589285621720189635,6606,1589285621720060408,,0.499828326986,-0.15587417346,0.203148468193
1589285621722864323,6607,1589285621722748695,,0.499828143311,-0.155879713191,0.203145891957
1589285621729298707,6608,1589285621729224437,,0.499828910373,-0.155885616128,0.203144755448
1589285621731876806,6609,1589285621731777131,,0.499828499846,-0.155893511663,0.20314169364
1589285621737980130,6610,1589285621737785815,,0.499828843642,-0.15589967352,0.203139376649
1589285621740852452,6611,1589285621740754068,,0.499828195141,-0.155909768741,0.203137302527
1589285621747020097,6612,1589285621746821809,,0.499828758698,-0.155919273704,0.203136121278
1589285621749887642,6613,1589285621749770711,,0.499828870711,-0.155926274346,0.20313508344
1589285621752955144,6614,1589285621752826222,,0.49982904368,-0.155933818538,0.203133958211
1589285621755973720,6615,1589285621755813977,,0.499828360311,-0.155943425635,0.203131661253
1589285621762694781,6616,1589285621762548002,,0.499829356346,-0.155950522028,0.20313198847
1589285621767932236,6617,1589285621767796628,,0.499829624167,-0.15595782596,0.203129935669
1589285621774003533,6618,1589285621773838614,,0.499830149844,-0.155965709307,0.2031299693
1589285621776968012,6619,1589285621776824048,,0.499830583583,-0.155971243697,0.203128685844
1589285621779960062,6620,1589285621779858576,,0.499830840638,-0.155979708754,0.203126143179
1589285621782895037,6621,1589285621782794790,,0.499832401187,-0.155985835126,0.203125526117
1589285621785860020,6622,1589285621785747336,,0.499832371344,-0.155995076583,0.203122817359
1589285621789284114,6623,1589285621789177652,,0.499833271632,-0.15600056688,0.203121270539
1589285621791857688,6624,1589285621791725548,,0.499834850825,-0.156008230527,0.203120003934
1589285621794924763,6625,1589285621794823693,,0.499835086548,-0.15601539883,0.203117664035
1589285621800962199,6626,1589285621800804313,,0.499836264633,-0.156021914678,0.203116501939
1589285621804005099,6627,1589285621803862688,,0.499837917684,-0.156031571208,0.203115123586
1589285621809975468,6628,1589285621809812788,,0.499838495292,-0.156038957023,0.203111291685
1589285621812920590,6629,1589285621812795363,,0.499840220887,-0.156048209534,0.203110209648
1589285621816476551,6630,1589285621816288012,,0.499840859675,-0.156058422501,0.203107667071
1589285621824882129,6631,1589285621824724588,,0.499843025427,-0.156076490379,0.203104233311
1589285621827878282,6632,1589285621827762778,,0.49984295488,-0.156087169225,0.203102771589
1589285621833938318,6633,1589285621833774316,,0.499843863858,-0.156097041071,0.203100257526
1589285621836939623,6634,1589285621836779885,,0.499844800627,-0.156104932694,0.203099646855
1589285621839944281,6635,1589285621839744405,,0.499846005456,-0.156115861059,0.203096734656
1589285621842835980,6636,1589285621842736226,,0.499847175734,-0.15612527177,0.203092769746
1589285621848932223,6637,1589285621848781062,,0.499848120937,-0.156133888305,0.203090475952
1589285621851933835,6638,1589285621851788503,,0.499848735563,-0.15614109492,0.203086437017
1589285621857966397,6639,1589285621857784871,,0.499850811407,-0.156150833199,0.203084620976
1589285621860929747,6640,1589285621860835156,,0.499851190343,-0.156158443202,0.203079328878
1589285621867012134,6641,1589285621866848035,,0.499853259177,-0.156164411072,0.203078861664
1589285621869922873,6642,1589285621869805065,,0.499854289708,-0.156172712367,0.203076769223
1589285621872946920,6643,1589285621872826024,,0.499854689739,-0.156182541355,0.203073070181
1589285621875915639,6644,1589285621875813913,,0.499856551186,-0.156190711307,0.20307242107
1589285621882767557,6645,1589285621882667497,,0.499857273067,-0.156201219205,0.203069784235
1589285621887927989,6646,1589285621887767413,,0.499858401688,-0.15621074297,0.203067956677
1589285621893987266,6647,1589285621893845562,,0.499860317002,-0.156220252917,0.203067163261
1589285621896920482,6648,1589285621896840570,,0.499861580832,-0.156229488681,0.203066225308
1589285621899927415,6649,1589285621899825391,,0.499861863834,-0.156242155221,0.203062785738
1589285621902897580,6650,1589285621902794664,,0.499862503461,-0.156256096763,0.203061337838
1589285621905869433,6651,1589285621905776104,,0.499863059795,-0.156270911706,0.203060216998
1589285621909134259,6652,1589285621909042167,,0.499862788168,-0.1562857242,0.203057401675
1589285621911867565,6653,1589285621911790357,,0.499862972641,-0.156300845973,0.203054525737
1589285621918031887,6654,1589285621917914273,,0.499864248312,-0.15631480712,0.20305227146
1589285621920935335,6655,1589285621920780211,,0.49986436034,-0.15632867559,0.203049061292
1589285621924020136,6656,1589285621923897928,,0.499865504245,-0.156343567759,0.203049125504
1589285621929850884,6657,1589285621929740820,,0.499865959481,-0.156357456611,0.20304831003
1589285621932990997,6658,1589285621932819004,,0.49986592905,-0.156373541447,0.203046626572
1589285621935846181,6659,1589285621935735355,,0.499866759408,-0.156388627116,0.203045801886
1589285621944845839,6660,1589285621944731309,,0.499868436126,-0.156417934811,0.203043086705
1589285621947931114,6661,1589285621947747408,,0.499868584221,-0.156433543279,0.203040167794
1589285621953894773,6662,1589285621953756624,,0.499869073386,-0.156448240072,0.203037575897
1589285621956971706,6663,1589285621956797474,,0.499870173097,-0.156463676623,0.203035909742
1589285621962831812,6664,1589285621962759362,,0.499870247837,-0.156480006104,0.203032381922
1589285621966001007,6665,1589285621965826752,,0.499870181111,-0.156494587457,0.203027794029
1589285621969140453,6666,1589285621969038197,,0.499871198079,-0.156507716075,0.203024904301
1589285621974889443,6667,1589285621974760771,,0.499871251499,-0.156520160572,0.203021265406
1589285621977994587,6668,1589285621977839378,,0.499871890231,-0.156533843405,0.203019033694
1589285621980932963,6669,1589285621980804654,,0.499871789304,-0.156549205296,0.20301448918
1589285621986974550,6670,1589285621986831349,,0.499873969292,-0.156561379351,0.203014688879
1589285621989931665,6671,1589285621989806143,,0.499874224568,-0.15658041406,0.203013442704
1589285621993035529,6672,1589285621992850399,,0.499876551416,-0.156595565813,0.203012584036
1589285621999038202,6673,1589285621998877211,,0.499877097818,-0.156612367913,0.20301008816
1589285622004988765,6674,1589285622004886301,,0.499878333891,-0.156645155216,0.203005983396
1589285622011005183,6675,1589285622010820855,,0.499878434229,-0.156663928564,0.203004476448
1589285622013943488,6676,1589285622013854739,,0.4998784914,-0.156683735124,0.203001629277
1589285622020234402,6677,1589285622020141597,,0.499879136586,-0.156702673836,0.203001257858
1589285622023079129,6678,1589285622022882417,,0.499879430918,-0.156725151823,0.202999312037
1589285622029397753,6679,1589285622029270651,,0.499879618298,-0.156748454984,0.202998139774
1589285622031889834,6680,1589285622031783175,,0.499879502764,-0.156770134443,0.202996882941
1589285622034956544,6681,1589285622034811040,,0.499879996096,-0.156788482235,0.202993439423
1589285622037902613,6682,1589285622037794575,,0.499878821479,-0.156812510883,0.202988883275
1589285622040914445,6683,1589285622040794358,,0.499877901548,-0.156839957577,0.202988226678
1589285622046991404,6684,1589285622046793965,,0.499877695508,-0.156861739069,0.202987655581
1589285622049858745,6685,1589285622049782977,,0.499877579108,-0.156887136587,0.202984765137
1589285622052887674,6686,1589285622052778940,,0.499877945524,-0.156914581384,0.202983424824
1589285622059032953,6687,1589285622058854537,,0.499877746647,-0.15694293664,0.202982845216
1589285622068032649,6688,1589285622067918214,,0.499879070862,-0.156993971214,0.202980162434
1589285622073976907,6689,1589285622073873862,,0.49987967852,-0.157019914625,0.202978749843
1589285622079971729,6690,1589285622079889759,,0.499878761925,-0.15704686841,0.202975553241
1589285622083158948,6691,1589285622083014366,,0.499880135888,-0.157075454728,0.202975937375
1589285622086067493,6692,1589285622085915859,,0.499880056431,-0.157102646397,0.202975976673
1589285622088995023,6693,1589285622088841196,,0.499880549092,-0.157132932743,0.202973731987
1589285622091951630,6694,1589285622091868065,,0.499880691428,-0.157159646865,0.202968791535
1589285622094880091,6695,1589285622094781376,,0.499880386945,-0.157183994154,0.20296651959
1589285622097874806,6696,1589285622097782442,,0.499881148452,-0.157208909597,0.202966230195
1589285622103980891,6697,1589285622103847377,,0.499882334071,-0.15723707511,0.202961855897
1589285622106933595,6698,1589285622106830383,,0.499883209076,-0.15726360084,0.202961122411
1589285622109933018,6699,1589285622109829104,,0.499883957226,-0.157289606202,0.20295831172
1589285622116421306,6700,1589285622116232925,,0.499884793121,-0.157319399081,0.202954708537
1589285622119334023,6701,1589285622119197650,,0.499886224424,-0.157350538482,0.202949647256
1589285622124934164,6702,1589285622124823746,,0.499887976565,-0.157377633164,0.202949607607
1589285622127925186,6703,1589285622127843765,,0.499888960592,-0.157408731936,0.202946830833
1589285622130978797,6704,1589285622130872422,,0.499890761975,-0.157436085813,0.202943789707
1589285622133963949,6705,1589285622133865171,,0.499891441246,-0.157463210388,0.20294139649
1589285622140081077,6706,1589285622139881493,,0.499893288089,-0.157492378532,0.202940922089
1589285622142919854,6707,1589285622142789911,,0.499894012996,-0.157521212961,0.202935382081
1589285622148830845,6708,1589285622148759632,,0.499894762102,-0.15755096209,0.202932978156
1589285622151983467,6709,1589285622151875034,,0.499895598664,-0.15758550221,0.202928686667
1589285622158072044,6710,1589285622157870816,,0.499898906524,-0.157653310366,0.202916695599
1589285622163991271,6711,1589285622163855860,,0.4998999576,-0.1576887365,0.202916609336
1589285622167044629,6712,1589285622166897590,,0.499901322441,-0.157726673489,0.202911389671
1589285622172992326,6713,1589285622172868103,,0.499901896229,-0.15776485415,0.202906990013
1589285622176015567,6714,1589285622175820667,,0.499902558029,-0.157801798442,0.202901279889
1589285622178932755,6715,1589285622178838069,,0.499904256678,-0.157839537301,0.202898378277
1589285622181949909,6716,1589285622181869222,,0.49990390624,-0.157879417596,0.202895207777
1589285622188055794,6717,1589285622187845245,,0.499904945667,-0.157912898283,0.202890696236
1589285622190985673,6718,1589285622190856555,,0.499907194173,-0.157949438364,0.202889871162
1589285622196993265,6719,1589285622196874550,,0.4999074336,-0.157990231579,0.202883964611
1589285622199989096,6720,1589285622199830548,,0.499907908586,-0.158024503997,0.202882128477
1589285622202971873,6721,1589285622202875761,,0.499909293893,-0.158064056763,0.202877442625
1589285622206048673,6722,1589285622205912183,,0.499910988572,-0.158103786899,0.202871597303
1589285622211974768,6723,1589285622211850964,,0.499912766465,-0.158140873475,0.202869037146
1589285622221030456,6724,1589285622220860967,,0.499915309225,-0.158217282865,0.202859075851
1589285622227045819,6725,1589285622226919321,,0.499916147868,-0.158252428823,0.202853146109
1589285622230000407,6726,1589285622229871995,,0.499917600338,-0.158287433674,0.202849905008
1589285622232925098,6727,1589285622232819951,,0.49991976656,-0.158321877378,0.202844347175
1589285622235897993,6728,1589285622235802806,,0.499920851943,-0.158358174788,0.20284300457
1589285622238916984,6729,1589285622238836820,,0.499922583137,-0.158397355718,0.202841736118
1589285622244958413,6730,1589285622244839834,,0.499924879635,-0.158437361461,0.202835059408
1589285622248065411,6731,1589285622247878578,,0.499926709065,-0.158465340795,0.202829353191
1589285622251030016,6732,1589285622250914819,,0.499928356879,-0.158507309388,0.202821480328
1589285622257050510,6733,1589285622256892883,,0.499929195037,-0.158555328773,0.202817334875
1589285622259993912,6734,1589285622259835910,,0.499929850355,-0.15858930759,0.202807707704
1589285622262957788,6735,1589285622262878996,,0.499930876929,-0.15863078222,0.202802466761
1589285622269506715,6736,1589285622269414568,,0.499931578709,-0.158678720862,0.20279898625
1589285622275884894,6737,1589285622275795765,,0.499932687975,-0.158721877357,0.202789611372
1589285622281022276,6738,1589285622280904601,,0.499933857029,-0.158765531356,0.202783768549
1589285622287044329,6739,1589285622286879356,,0.499935885631,-0.158807396298,0.202777865904
1589285622290016967,6740,1589285622289900447,,0.499937180601,-0.158848516586,0.202769433142
1589285622292972314,6741,1589285622292877522,,0.49993960762,-0.158889144424,0.202767152981
1589285622296012729,6742,1589285622295916698,,0.499941708508,-0.158927717227,0.202760841972
1589285622298995203,6743,1589285622298883573,,0.499943253955,-0.158971493782,0.202757388537
1589285622302599814,6744,1589285622302502802,,0.499945458427,-0.159012107755,0.202752002031
1589285622308044474,6745,1589285622307893569,,0.499948582573,-0.159054011934,0.202748848406
1589285622310994399,6746,1589285622310851403,,0.499951187311,-0.159095287976,0.202743791472
1589285622314013740,6747,1589285622313873544,,0.499953570815,-0.159140479398,0.202739023315
1589285622317305510,6748,1589285622317165927,,0.499954964348,-0.15917949419,0.202731700864
1589285622320384714,6749,1589285622320217390,,0.499959018018,-0.159219466056,0.202728062793
1589285622323017959,6750,1589285622322863844,,0.499959936869,-0.159262206972,0.202721598625
1589285622329052443,6751,1589285622328934197,,0.499960107802,-0.159313682546,0.202714620764
1589285622332025385,6752,1589285622331902447,,0.499963179413,-0.159356923852,0.20270641483
1589285622336351039,6753,1589285622336268980,,0.499964103007,-0.15940227041,0.202701271462
1589285622341009736,6754,1589285622340879337,,0.499966694223,-0.15945213035,0.202691365319
1589285622344146265,6755,1589285622343902131,,0.499967393793,-0.159505471032,0.202682077313
1589285622350057137,6756,1589285622349937379,,0.499968824062,-0.159559345638,0.202675912933
1589285622353054177,6757,1589285622352933008,,0.499970239093,-0.15960964252,0.202666400367
1589285622356076474,6758,1589285622355871195,,0.499970875893,-0.159666322645,0.202657183639
1589285622365174794,6759,1589285622364935009,,0.499971354077,-0.15977459749,0.202638521068
1589285622368076831,6760,1589285622367853024,,0.499971455406,-0.159827910912,0.20262604395
1589285622374013953,6761,1589285622373861408,,0.499972302379,-0.159883930085,0.202621259048
1589285622380040677,6762,1589285622379888241,,0.499972623451,-0.159939028024,0.202611954432
1589285622383004475,6763,1589285622382899459,,0.499973543002,-0.159991762643,0.202600175453
1589285622386033289,6764,1589285622385885350,,0.499973786768,-0.160045188727,0.202591463955
1589285622389414649,6765,1589285622389323811,,0.499972566525,-0.160097767677,0.202577056122
1589285622396219169,6766,1589285622396125875,,0.499975117443,-0.160132813224,0.20257114149
1589285622401057976,6767,1589285622400897799,,0.499974989362,-0.160184539226,0.202557036703
1589285622406999855,6768,1589285622406876327,,0.499973074499,-0.160239708376,0.202545554721
1589285622409955411,6769,1589285622409845490,,0.499973298743,-0.160278035667,0.202536865429
1589285622413063889,6770,1589285622412912383,,0.49997442635,-0.160323495418,0.202525434562
1589285622416387487,6771,1589285622416259661,,0.499974256004,-0.160376711504,0.202517607343
1589285622425050625,6772,1589285622424914379,,0.499973401833,-0.160470432768,0.202495874021
1589285622428121678,6773,1589285622427970385,,0.499973454375,-0.16052057872,0.20248953829
1589285622434102154,6774,1589285622433881853,,0.499972833434,-0.160567299791,0.202483355539
1589285622437009874,6775,1589285622436891157,,0.499971089284,-0.160618125152,0.202472668559
1589285622439982313,6776,1589285622439833015,,0.499969279958,-0.160669347399,0.202467250925
1589285622442988559,6777,1589285622442873449,,0.499967848725,-0.160726534495,0.202454152558
1589285622445953311,6778,1589285622445854848,,0.499964567837,-0.160785006743,0.202443104695
1589285622449578553,6779,1589285622449487445,,0.499962553099,-0.16084312228,0.202434875962
1589285622458053946,6780,1589285622457893700,,0.499955988084,-0.160952419551,0.202410241515
1589285622461498713,6781,1589285622461382364,,0.499951375562,-0.161019993355,0.202398798831
1589285622467102534,6782,1589285622466889678,,0.499948772922,-0.161074289637,0.202390241289
1589285622470097245,6783,1589285622469889874,,0.499944080851,-0.161134022668,0.202378646568
1589285622472996090,6784,1589285622472849851,,0.49994011107,-0.161202237407,0.202362019395
1589285622478989075,6785,1589285622478860055,,0.499938212355,-0.161262455518,0.202355149485
1589285622488055436,6786,1589285622487894160,,0.499933326233,-0.161360407241,0.202333199744
1589285622490992919,6787,1589285622490880423,,0.499931531619,-0.161415618062,0.202325699393
1589285622494023451,6788,1589285622493884612,,0.499928433477,-0.161474110378,0.202318825516
1589285622497283195,6789,1589285622497164723,,0.499926087016,-0.161516933753,0.202307635289
1589285622503041266,6790,1589285622502923902,,0.499924765091,-0.161569412136,0.202298419081
1589285622506088559,6791,1589285622505940623,,0.499924910628,-0.16162908349,0.202292227979
1589285622512116254,6792,1589285622511962904,,0.499922461517,-0.161684839115,0.202279145765
1589285622518280578,6793,1589285622518095696,,0.499922105078,-0.161760519207,0.202263707064
1589285622521036482,6794,1589285622520896396,,0.499919111562,-0.161823285425,0.20225264964
1589285622527008954,6795,1589285622526869765,,0.499915030246,-0.161875383072,0.202245388629
1589285622530086445,6796,1589285622529900942,,0.499912888404,-0.161922937737,0.202236449559
1589285622536153161,6797,1589285622536045492,,0.499910660147,-0.161989167957,0.202227381734
1589285622539045550,6798,1589285622538913689,,0.499906739299,-0.162060569254,0.202218316938
1589285622545017410,6799,1589285622544913784,,0.499901807769,-0.162168974854,0.202198001256
1589285622551088541,6800,1589285622550947292,,0.499899911629,-0.162231726216,0.202191592977
1589285622554101392,6801,1589285622553899706,,0.499895510615,-0.162304843393,0.202185865254
1589285622560156438,6802,1589285622559937130,,0.499892514841,-0.162358755475,0.202178625277
1589285622563066249,6803,1589285622562918693,,0.499889429907,-0.16242718365,0.202167308679
1589285622566041150,6804,1589285622565901369,,0.499887057409,-0.162501936319,0.202160093036
1589285622569593316,6805,1589285622569455699,,0.499884245187,-0.162571810931,0.202148793186
1589285622575077429,6806,1589285622574933866,,0.499883211604,-0.162621028041,0.20213579727
1589285622581010705,6807,1589285622580853520,,0.499883670572,-0.16268812783,0.202127818509
1589285622587044022,6808,1589285622586931053,,0.499878570125,-0.162764374142,0.202112631915
1589285622590055626,6809,1589285622589929701,,0.49987833697,-0.162812677614,0.202103964856
1589285622593020522,6810,1589285622592921768,,0.499877167451,-0.162879854123,0.202090629344
1589285622596322235,6811,1589285622596239845,,0.499874596762,-0.162953504764,0.202077517295
1589285622605102219,6812,1589285622604997235,,0.499874944247,-0.163079907161,0.202050989501
1589285622608070510,6813,1589285622607905606,,0.499873102298,-0.163146832331,0.202039115578
1589285622614059949,6814,1589285622613917157,,0.499872912369,-0.163216325498,0.202026605726
1589285622617353076,6815,1589285622617178007,,0.499871865968,-0.163285761232,0.202015379408
1589285622620402325,6816,1589285622620262269,,0.499870694495,-0.163360039712,0.202005120584
1589285622626130151,6817,1589285622625946949,,0.499867692774,-0.163435909878,0.201994111597
1589285622632126254,6818,1589285622631941364,,0.499864062464,-0.163598925134,0.201970931195
1589285622638094544,6819,1589285622637926697,,0.499856448419,-0.163757381257,0.20194387752
1589285622644050848,6820,1589285622643948230,,0.499852926179,-0.16385443642,0.201933808487
1589285622647023402,6821,1589285622646933455,,0.499848182359,-0.163930291856,0.201922416807
1589285622650031466,6822,1589285622649919209,,0.499845774395,-0.16402227975,0.201910230976
1589285622656449977,6823,1589285622656315014,,0.499843465316,-0.164119685466,0.201901676721
1589285622662928445,6824,1589285622662828153,,0.499840050496,-0.164190008943,0.201890605007
1589285622668138126,6825,1589285622668021628,,0.499837810905,-0.16427289892,0.201874998788
1589285622674171889,6826,1589285622673938269,,0.499835718437,-0.164345499902,0.201867377095
1589285622680082911,6827,1589285622679944558,,0.499834279635,-0.164410377852,0.201859666802
1589285622683042318,6828,1589285622682941695,,0.499831633239,-0.164500324597,0.201846244165
1589285622686069358,6829,1589285622685968338,,0.49983044608,-0.164569656687,0.201839091639
1589285622692170324,6830,1589285622692002855,,0.499829483556,-0.164724242815,0.201812957074
1589285622695075688,6831,1589285622694938108,,0.499829693166,-0.164794262895,0.201805068266
1589285622701087120,6832,1589285622700980470,,0.499829290187,-0.164857388345,0.20178931515
1589285622707115649,6833,1589285622707019782,,0.499828755416,-0.164924681192,0.201780557001
1589285622710078289,6834,1589285622709957095,,0.499828063181,-0.164992005808,0.201771366863
1589285622713136351,6835,1589285622712999640,,0.499827309039,-0.165061382513,0.201760111633
1589285622716188456,6836,1589285622716078119,,0.499825319455,-0.165139681224,0.201750800327
1589285622719180380,6837,1589285622719092957,,0.499824038714,-0.165216959299,0.201734909934
1589285622725077083,6838,1589285622724946802,,0.49982075356,-0.165375518072,0.201713003493
1589285622728019202,6839,1589285622727930883,,0.499816735008,-0.165480565193,0.201702395976
1589285622734158813,6840,1589285622733993599,,0.499813622071,-0.165559803638,0.201692384789
1589285622740074340,6841,1589285622739932691,,0.499807613738,-0.165662987941,0.201675672332
1589285622743068996,6842,1589285622742936547,,0.499803496378,-0.165776647666,0.201666644481
1589285622746133596,6843,1589285622745958476,,0.499798224928,-0.165878441531,0.201654752098
1589285622749517968,6844,1589285622749353763,,0.499794489889,-0.165981657278,0.201642041311
1589285622752121761,6845,1589285622751988731,,0.499790485003,-0.166060840163,0.201633100668
1589285622761188129,6846,1589285622760969221,,0.499780799115,-0.1662781877,0.201608788646
1589285622767127535,6847,1589285622767011585,,0.499777550042,-0.166355584594,0.201599047454
1589285622770071197,6848,1589285622769930668,,0.499775775676,-0.166452424085,0.201584508437
1589285622773051535,6849,1589285622772929299,,0.499774122593,-0.166555843594,0.201573945749
1589285622776306115,6850,1589285622776197374,,0.49977467679,-0.166638309043,0.201559384945
1589285622779056373,6851,1589285622778921781,,0.499774517288,-0.166724886362,0.201542604513
1589285622785127947,6852,1589285622784958915,,0.499776082746,-0.166799267137,0.20152721775
1589285622788111941,6853,1589285622788001204,,0.499777655705,-0.16685796517,0.201513304332
1589285622794110789,6854,1589285622793979246,,0.499775629716,-0.166935928784,0.201493688014
1589285622800128664,6855,1589285622799999151,,0.499775905051,-0.167026635542,0.201479069643
1589285622803052240,6856,1589285622802926286,,0.499775101124,-0.167087186954,0.201463464436
1589285622806069147,6857,1589285622805933536,,0.499775405777,-0.167166673334,0.201440983287
1589285622809303210,6858,1589285622809200456,,0.499774158641,-0.167268265346,0.201423659025
1589285622812189818,6859,1589285622811985811,,0.499772703709,-0.167353568367,0.201406734943
1589285622821438604,6860,1589285622821337403,,0.499771144954,-0.167538623603,0.20137575882
1589285622827206780,6861,1589285622827025654,,0.499766766592,-0.167639712223,0.201357845046
1589285622830052935,6862,1589285622829935246,,0.499763826695,-0.167742000559,0.201348161958
1589285622833134942,6863,1589285622832982604,,0.499759068981,-0.167852585599,0.201338603912
1589285622836046005,6864,1589285622835952615,,0.49975496406,-0.167964560167,0.201322014267
1589285622839137395,6865,1589285622838992611,,0.499750833078,-0.168082480385,0.201312152959
1589285622845119986,6866,1589285622844977210,,0.499748061962,-0.168175995926,0.201294730643
1589285622848174844,6867,1589285622848027330,,0.499743104174,-0.168274402062,0.201280292347
1589285622854097688,6868,1589285622853977639,,0.499739314361,-0.168408260063,0.201269146649
1589285622860160936,6869,1589285622860024576,,0.499733155751,-0.168509800622,0.201255023204
1589285622863060921,6870,1589285622862954197,,0.499730267936,-0.168600150107,0.201241333423
1589285622866053340,6871,1589285622865940749,,0.499727407192,-0.168721162683,0.201225959328
1589285622869402938,6872,1589285622869294632,,0.499725093388,-0.16882755062,0.201213311221
1589285622876516619,6873,1589285622876350723,,0.499725824252,-0.168919477599,0.201199462919
1589285622881132342,6874,1589285622880952179,,0.499726570643,-0.169008713826,0.201184703776
1589285622884057852,6875,1589285622883948114,,0.499727016727,-0.169089926127,0.201173270513
1589285622887076491,6876,1589285622886974731,,0.499727651773,-0.169170934413,0.201160903345
1589285622890171497,6877,1589285622889993058,,0.499729097889,-0.16924854101,0.201150493081
1589285622893138514,6878,1589285622892990198,,0.499729456807,-0.169333263768,0.201137880007
1589285622899101553,6879,1589285622898973196,,0.499731365481,-0.169418048011,0.201127739438
1589285622905024344,6880,1589285622904924006,,0.499732686348,-0.169603666296,0.20109529335
1589285622908020632,6881,1589285622907951344,,0.499730449028,-0.169706962324,0.201075508734
1589285622914053817,6882,1589285622913918518,,0.499728055013,-0.169813873649,0.201057125876
1589285622917474090,6883,1589285622917333795,,0.499725586532,-0.169926532086,0.201043338986
1589285622923107698,6884,1589285622922976308,,0.499719604077,-0.170045499702,0.201028397209
1589285622926133356,6885,1589285622925990948,,0.49971273794,-0.170172379425,0.20101032123
1589285622929749114,6886,1589285622929629914,,0.499706708661,-0.170301833808,0.200996821294
1589285622936464233,6887,1589285622936379093,,0.499701527985,-0.170408489251,0.200982763138
1589285622941152723,6888,1589285622941048106,,0.499693476454,-0.170550032371,0.200962700415
1589285622947076098,6889,1589285622946948726,,0.49968982593,-0.17069676369,0.200954262542
1589285622950093895,6890,1589285622949957722,,0.499684033822,-0.170805525261,0.20094292146
1589285622953132380,6891,1589285622952990419,,0.499678855833,-0.170938928256,0.200926389648
1589285622956177194,6892,1589285622956079080,,0.499674529669,-0.171077334887,0.200915299828
1589285622965123775,6893,1589285622965019438,,0.499668747564,-0.171302763477,0.200884137372
1589285622968082514,6894,1589285622967987059,,0.499668302581,-0.17140856902,0.20087133424
1589285622974151971,6895,1589285622974001177,,0.499667335351,-0.171506343597,0.200853673766
1589285622980136498,6896,1589285622979981569,,0.499666575349,-0.171603336412,0.200838680018
1589285622983107701,6897,1589285622983009363,,0.499665278425,-0.171694702761,0.200822489399
1589285622986173636,6898,1589285622986020150,,0.499663266353,-0.171782104139,0.200802445496
1589285622989766690,6899,1589285622989591436,,0.499663454063,-0.17186782394,0.200788412089
1589285622998066865,6900,1589285622997964690,,0.499663566972,-0.172015845959,0.200748994003
1589285623001085692,6901,1589285623000965269,,0.499663960682,-0.172114607184,0.200733969627
1589285623007052241,6902,1589285623006957255,,0.499660723723,-0.172228094875,0.200715311868
1589285623010129380,6903,1589285623010005004,,0.49966001271,-0.172306631359,0.200704490389
1589285623013087261,6904,1589285623012990894,,0.499656543378,-0.172420805262,0.200686578032
1589285623016541121,6905,1589285623016417924,,0.499652317347,-0.172550193224,0.200673905722
1589285623025119381,6906,1589285623024984544,,0.49964050951,-0.172791897779,0.20064709623
1589285623028116330,6907,1589285623028007862,,0.499633291231,-0.172898150457,0.200634663988
1589285623034108124,6908,1589285623033976197,,0.499625742509,-0.173033578783,0.200626388481
1589285623040158091,6909,1589285623040011713,,0.499614606519,-0.173184400381,0.200608988736
1589285623043067512,6910,1589285623042963397,,0.499605592414,-0.17329367259,0.200600319987
1589285623046064729,6911,1589285623045939446,,0.49959842272,-0.173432303688,0.20058126248
1589285623049532219,6912,1589285623049420361,,0.499590442239,-0.173573227194,0.200566442531
1589285623052132044,6913,1589285623052019897,,0.499586481019,-0.173690843415,0.200554109506
1589285623058119933,6914,1589285623057987914,,0.49957846233,-0.173892390592,0.200525787717
1589285623061207531,6915,1589285623061066521,,0.499574237621,-0.174005822548,0.2005120611
1589285623067119666,6916,1589285623066974150,,0.499572537847,-0.174077764413,0.200495953985
1589285623070097235,6917,1589285623069990170,,0.499574392351,-0.174163985649,0.200485951761
1589285623073159619,6918,1589285623073048067,,0.499575994092,-0.174258129037,0.200471081506
1589285623079135929,6919,1589285623078954995,,0.499578372828,-0.174338830846,0.200457333783
1589285623085257406,6920,1589285623085020353,,0.499587609016,-0.174461606651,0.200435841619
1589285623091188316,6921,1589285623091023798,,0.499591049422,-0.174543608194,0.200428039611
1589285623094316067,6922,1589285623094058848,,0.499590820038,-0.17463711605,0.200419372098
1589285623100109258,6923,1589285623099953162,,0.49959187415,-0.174701299782,0.200411278053
1589285623103129172,6924,1589285623103007258,,0.499590814343,-0.174803216984,0.200396892679
1589285623106137439,6925,1589285623106042119,,0.499590320388,-0.174918038431,0.200387916097
1589285623109490253,6926,1589285623109341498,,0.499587097934,-0.175027122458,0.200371665892
1589285623118372436,6927,1589285623118224813,,0.49957944551,-0.175246975404,0.200342593477
1589285623124223224,6928,1589285623124047786,,0.499570265022,-0.175392698912,0.20033186953
1589285623127084943,6929,1589285623126956316,,0.499562411428,-0.17549853955,0.200320130927
1589285623130148619,6930,1589285623130020555,,0.499555312324,-0.175633765929,0.200307252911
1589285623133212507,6931,1589285623133076368,,0.499545231328,-0.175787304806,0.200293235162
1589285623139196612,6932,1589285623139012857,,0.499538893703,-0.175912008563,0.20027943852
1589285623148111248,6933,1589285623147981521,,0.499530375993,-0.17613454303,0.200253747524
1589285623151106328,6934,1589285623150962767,,0.499525812913,-0.176251235263,0.200242061527
1589285623154134269,6935,1589285623154023368,,0.499522074953,-0.176374807144,0.200230877172
1589285623160134335,6936,1589285623160040551,,0.499518950713,-0.176449780747,0.200216416763
1589285623163132203,6937,1589285623162998258,,0.499519689093,-0.176545025555,0.200202184635
1589285623166091684,6938,1589285623165975086,,0.499522381088,-0.176647136644,0.20018977298
1589285623172073346,6939,1589285623171987315,,0.499522744102,-0.176722331304,0.200175145632
1589285623178095892,6940,1589285623177962783,,0.499530554834,-0.176844496447,0.200146418048
1589285623184082493,6941,1589285623183993829,,0.499529371851,-0.176933802661,0.200133419839
1589285623187081445,6942,1589285623186983734,,0.499530711591,-0.176985436711,0.200118305315
1589285623190135315,6943,1589285623189993907,,0.499533357733,-0.177069034815,0.200105949793
1589285623196085254,6944,1589285623195979311,,0.499533369955,-0.177165470845,0.200090439615
1589285623199132210,6945,1589285623199004400,,0.499532981025,-0.17726010998,0.200075877533
1589285623208065324,6946,1589285623207961966,,0.499531881327,-0.177438827929,0.200047127416
1589285623211076485,6947,1589285623210967286,,0.49952658402,-0.177563069214,0.200036339668
1589285623214193039,6948,1589285623214053123,,0.499519855335,-0.177698826207,0.200020217723
1589285623220429208,6949,1589285623220298915,,0.49951406512,-0.177807459423,0.200010935857
1589285623223072571,6950,1589285623222963668,,0.499506477052,-0.177951808917,0.199995172207
1589285623226054091,6951,1589285623225925104,,0.49950058447,-0.178100429793,0.199982906897
1589285623232075515,6952,1589285623231952979,,0.499495737006,-0.178206151288,0.199968515822
1589285623238045650,6953,1589285623237943657,,0.499484751264,-0.178450372972,0.199943614807
1589285623244126654,6954,1589285623243996661,,0.499480534806,-0.178547294597,0.199935686918
1589285623247100722,6955,1589285623247021244,,0.499476402599,-0.178634280578,0.199921045661
1589285623253146201,6956,1589285623253005610,,0.499477141752,-0.178738604696,0.199908796835
1589285623256933661,6957,1589285623256831059,,0.499478123548,-0.178834106174,0.199893787078
1589285623262323649,6958,1589285623262239164,,0.499483564293,-0.17890594774,0.199884577026
1589285623265049017,6959,1589285623264952549,,0.499488716961,-0.1789748089,0.199868925259
1589285623268151412,6960,1589285623267958711,,0.499494018627,-0.179033817304,0.199860184792
1589285623274159657,6961,1589285623273973775,,0.499500633104,-0.179092424815,0.199849391396
1589285623277064783,6962,1589285623276972036,,0.499503787804,-0.179156244045,0.199839594747
1589285623280132733,6963,1589285623279997342,,0.4995068644,-0.179223212177,0.199827768771
1589285623286118048,6964,1589285623286005117,,0.499511619283,-0.179296359633,0.199816460971
1589285623289798211,6965,1589285623289696128,,0.49951421372,-0.179378117363,0.199805196919
1589285623298094493,6966,1589285623297986191,,0.499516265158,-0.179570447355,0.199773042688
1589285623301099978,6967,1589285623300992914,,0.499513758225,-0.179682718466,0.199759878403
1589285623307205900,6968,1589285623307024739,,0.499510712184,-0.179804845346,0.199744387807
1589285623310189972,6969,1589285623310013563,,0.499505079961,-0.179936959384,0.199732789308
1589285623313157812,6970,1589285623313014484,,0.499497051257,-0.180072540587,0.199716235479
1589285623316389048,6971,1589285623316287629,,0.49948924915,-0.18021493843,0.199702947424
1589285623319243103,6972,1589285623319127438,,0.499480997937,-0.180361199774,0.19969297063
1589285623325118805,6973,1589285623325016895,,0.499472021465,-0.180505759015,0.199680204473
1589285623328151444,6974,1589285623328055925,,0.499463777027,-0.180650753171,0.199670439283
1589285623334216381,6975,1589285623334069665,,0.499457642404,-0.18078852538,0.19966512108
1589285623340300680,6976,1589285623340048839,,0.499451352464,-0.180927756089,0.199656316786
1589285623343120051,6977,1589285623343013834,,0.499448148495,-0.181050790997,0.199646092289
