%time,field.header.seq,field.header.stamp,field.header.frame_id,field.wrench.force.x,field.wrench.force.y,field.wrench.force.z,field.wrench.torque.x,field.wrench.torque.y,field.wrench.torque.z
1589275159838504280,10524,1589275159838427626,,-0.211374939567,-0.904097420978,1.49297926373,0.330472598727,-0.00273289129881,0.037963378481
1589275159841555191,10525,1589275159841469188,,-0.211382414104,-0.904095718671,1.49297923633,0.330472422331,-0.00273307464693,0.0379649007866
1589275159844742998,10526,1589275159844570148,,-0.211386523964,-0.904096362326,1.49297826466,0.330472274006,-0.00273236466064,0.0379662429816
1589275159847677257,10527,1589275159847564684,,-0.234147202986,-0.904082814744,1.49262617371,0.331394099544,-0.0027344296454,0.0378327395818
1589275159850524712,10528,1589275159850426736,,-0.211857937014,-0.904389915347,1.51609675461,0.331254586134,-0.00273248994945,0.0370792670549
1589275159853506729,10529,1589275159853378832,,-0.211856038044,-0.904384650207,1.51610016075,0.331254592322,-0.00273166259042,0.0370792727334
1589275159856683097,10530,1589275159856578867,,-0.234618858509,-0.904374219849,1.51574512449,0.332162784372,-0.00273466712917,0.0378475167272
1589275159862698173,10531,1589275159862552313,,-0.234621133311,-0.904373707759,1.51574507792,0.332162721765,-0.00273455547062,0.0378480742485
1589275159868574459,10532,1589275159868472689,,-0.211844530284,-0.904394570941,1.51609585081,0.333989780119,-0.00273904893339,0.038037022317
1589275159871622451,10533,1589275159871548624,,-0.21185077253,-0.904393250911,1.516095766,0.333989630743,-0.00273913889063,0.0380383274362
1589275159877724192,10534,1589275159877637229,,-0.212351843821,-1.03464527187,1.51763299058,0.334899541689,-0.00274191335285,0.038054176633
1589275159883633024,10535,1589275159883527465,,-0.212355489603,-1.03464930184,1.517629733,0.334899496314,-0.00274268956046,0.0380545200281
1589275159889651936,10536,1589275159889543814,,-0.212347074239,-1.03465320546,1.51762824919,0.336738815705,-0.00274695225754,0.0380910659477
1589275159895995748,10537,1589275159895880717,,-0.212353400944,-1.03465100501,1.51762886412,0.336738674338,-0.00274715376876,0.0380923011344
1589275159901640446,10538,1589275159901556142,,-0.212867667785,-1.16518386733,1.51917771608,0.337649800273,-0.00209020153275,0.0381099762683
1589275159907641200,10539,1589275159907555944,,-0.191928274646,-1.42758677789,1.56876995832,0.339229761087,-0.00209440664655,0.0355915991124
1589275159913685174,10540,1589275159913596017,,-0.21429193249,-1.29654730663,1.56693000637,0.339202888364,-0.0027554837097,0.0372359026397
1589275159919658727,10541,1589275159919567100,,-0.191448467907,-1.29656732125,1.56730828734,0.340134079115,-0.00275714019562,0.0365044042496
1589275159925722136,10542,1589275159925614078,,-0.214294945263,-1.29655235306,1.56692541869,0.340150145485,-0.00275765033952,0.0354670939418
1589275159931674579,10543,1589275159931591545,,-0.214295796157,-1.29654262299,1.56693335341,0.34015015204,-0.00275776505958,0.0354670221502
1589275159937652007,10544,1589275159937562984,,-0.19237206666,-1.42785385703,1.59183087688,0.344603348027,-0.00276787908937,0.0339012876439
1589275159943736128,10545,1589275159943605492,,-0.192368140996,-1.42785682957,1.59182868495,0.344603344463,-0.00276684276282,0.0339014084641
1589275159949774212,10546,1589275159949640488,,-0.215232454014,-1.42782981694,1.59145105899,0.347368701711,-0.00277171405609,0.0329193773846
1589275159955619374,10547,1589275159955531515,,-0.215222863874,-1.42782643809,1.59145538741,0.347368822139,-0.00277061956582,0.0329181987295
1589275159958600011,10548,1589275159958519502,,-0.215691613779,-1.55903960457,1.59285868121,0.347383439143,-0.00276977287509,0.0320196101569
1589275159961538003,10549,1589275159961465894,,-0.215690985112,-1.55903661491,1.59286169252,0.347383506475,-0.00277038613014,0.0320188266031
1589275159964589170,10550,1589275159964457164,,-0.215640875968,-1.42809953545,1.61451724019,0.34904764618,-0.00277313606023,0.0329464639497
1589275159967720249,10551,1589275159967622914,,-0.216135829084,-1.55930241579,1.61590567622,0.349997329241,-0.00211460084093,0.0311672969764
1589275159973584436,10552,1589275159973509981,,-0.216135733359,-1.55930120918,1.61590685338,0.349997346005,-0.00211476652259,0.0311670974815
1589275159979616672,10553,1589275159979530438,,-0.17111138439,-1.69099460749,1.64106928989,0.352618352403,-0.00277862873079,0.0297123315542
1589275159982731265,10554,1589275159982648883,,-0.216569126235,-1.55956575789,1.63895712297,0.351673056705,-0.00343016627846,0.0311987692262
1589275159988735594,10555,1589275159988661309,,-0.239022992914,-1.55928653069,1.61551970144,0.354546479632,-0.00343728037852,0.0329144466835
1589275159994895267,10556,1589275159994769279,,-0.239040815819,-1.55928693727,1.61551667193,0.354546080576,-0.00343683314975,0.0329187916294
1589275160000690320,10557,1589275160000614929,,-0.172000645651,-1.82276971693,1.66548531028,0.358863605582,-0.0027952847773,0.0307447751242
1589275160006527120,10558,1589275160006444981,,-0.171985956318,-1.82276960531,1.6654869494,0.358863977993,-0.00279647112768,0.0307403200046
1589275160009698256,10559,1589275160009566857,,-0.217495034113,-1.69119259788,1.66342836549,0.357943252204,-0.00344830859155,0.0313224145106
1589275160015740473,10560,1589275160015669964,,-0.194579342487,-1.69121715483,1.66381958034,0.358865141001,-0.00345145819349,0.0305883757616
1589275160021743450,10561,1589275160021609265,,-0.194155518133,-1.6909682271,1.64066830002,0.361789556567,-0.00412028742784,0.0288578763739
1589275160027868776,10562,1589275160027702816,,-0.19416747134,-1.6909650449,1.6406701652,0.361789470928,-0.00412200761041,0.0288587043498
1589275160033773727,10563,1589275160033664003,,-0.195043708242,-1.69146438997,1.68687095673,0.365189175591,-0.00412865532747,0.0271244723226
1589275160036485319,10564,1589275160036407102,,-0.195937278942,-1.82320607231,1.71118978554,0.366897308833,-0.00413405801395,0.0253659856054
1589275160039550172,10565,1589275160039398778,,-0.196364703622,-1.82344309473,1.7343448458,0.367670848294,-0.00347437265423,0.0253785279099
1589275160042546345,10566,1589275160042464472,,-0.195490179757,-1.8229714406,1.6881378985,0.367958431245,-0.00413895290493,0.0253818514536
1589275160045541429,10567,1589275160045472883,,-0.195927779976,-1.82320924342,1.71118749448,0.368727121277,-0.00414109753055,0.0253968515269
1589275160048595821,10568,1589275160048478142,,-0.172909694605,-1.82323367983,1.71159078394,0.370564138084,-0.00414803810503,0.0255751409119
1589275160051595986,10569,1589275160051513175,,-0.195953787461,-1.82319310851,1.71120170751,0.370551529405,-0.0041488344978,0.0263308129794
1589275160054603145,10570,1589275160054508354,,-0.195960049249,-1.82318975316,1.71120456538,0.372395864974,-0.00415283917099,0.0254719458914
1589275160057631608,10571,1589275160057548792,,-0.172939100591,-1.82321967774,1.71160272833,0.372408253354,-0.00415276847412,0.0247203084899
1589275160060649906,10572,1589275160060555827,,-0.172941533986,-1.82321719047,1.71160513192,0.373333332654,-0.00415692682415,0.0238302713705
1589275160063594378,10573,1589275160063511034,,-0.172938736983,-1.82321560285,1.71160710567,0.373333325496,-0.00415608871166,0.0238305297078
1589275160066653922,10574,1589275160066501207,,-0.172949063711,-1.82321760256,1.71160393213,0.374253008149,-0.0041593323215,0.0238495207323
1589275160069664126,10575,1589275160069573536,,-0.172528255665,-1.69171853835,1.71034051802,0.37606587764,-0.0048275002093,0.0247917867242
1589275160072671957,10576,1589275160072597182,,-0.172519726476,-1.69172351709,1.71033645382,0.376065984231,-0.00482724485909,0.0247902195225
1589275160075716206,10577,1589275160075623487,,-0.172530607034,-1.69172541106,1.71033348291,0.376065829533,-0.00482733029541,0.02479254953
1589275160081779322,10578,1589275160081692389,,-0.172528274503,-1.82299028474,1.68854128848,0.376218318002,-0.00416674064266,0.024794322901
1589275160087626422,10579,1589275160087535452,,-0.195989551665,-1.69193995934,1.73310034297,0.377745027259,-0.00483279556394,0.0255791460733
1589275160090622008,10580,1589275160090528615,,-0.196445222081,-1.69216816893,1.75618055591,0.381252819053,-0.00484208136073,0.0256500641026
1589275160093884157,10581,1589275160093805061,,-0.196467388206,-1.69217465136,1.7561718301,0.381252548054,-0.00484319607153,0.0256538813823
1589275160099732394,10582,1589275160099650411,,-0.197362927202,-1.82388250622,1.78048355176,0.382066695393,-0.00484518951959,0.0229712977056
1589275160105698796,10583,1589275160105566507,,-0.174761101491,-1.95552291079,1.78207418856,0.383924200141,-0.00485029316072,0.0213578354378
1589275160108633160,10584,1589275160108504932,,-0.174764996685,-1.95551866497,1.78207846562,0.385753733154,-0.00485464581779,0.0213938278735
1589275160111614265,10585,1589275160111524064,,-0.197410274719,-1.82386160588,1.78049971234,0.386674647071,-0.0055121510854,0.0212625641068
1589275160114575813,10586,1589275160114492694,,-0.174776738728,-1.955505044,1.78209226058,0.387608781439,-0.00485960012469,0.0205240369225
1589275160117661188,10587,1589275160117528810,,-0.174786786951,-1.95549520758,1.78210206862,0.38851850894,-0.00486269324861,0.0205425531768
1589275160120610597,10588,1589275160120542195,,-0.197423745843,-1.82383893422,1.78052144222,0.391268865148,-0.00552251856474,0.0204566052101
1589275160123591510,10589,1589275160123495778,,-0.197429495258,-1.8238305337,1.78052940957,0.391268838469,-0.00552342625234,0.0204568704338
1589275160126657989,10590,1589275160126564762,,-0.197873158363,-1.82404862387,1.80361006007,0.392037502769,-0.00552521742359,0.0204728450072
1589275160129660622,10591,1589275160129575045,,-0.174821112958,-1.82408070045,1.80401210745,0.395694305679,-0.0055345981834,0.0206828023496
1589275160132702190,10592,1589275160132566124,,-0.174835981375,-1.82407805487,1.80401334154,0.395694149623,-0.00553494074968,0.0206856960717
1589275160135658333,10593,1589275160135565114,,-0.174837958458,-1.82406880983,1.80402249775,0.397525057375,-0.00488578815996,0.0207213022304
1589275160138620336,10594,1589275160138547049,,-0.174838140485,-1.8240644094,1.80402692943,0.398459042464,-0.0055412684329,0.019841237338
1589275160144653887,10595,1589275160144543152,,-0.174417609406,-1.82382190602,1.78096892078,0.398599985632,-0.00554247826614,0.0198462236486
1589275160147710851,10596,1589275160147605676,,-0.151913744335,-1.82408199951,1.80444510778,0.402146744685,-0.00555094757614,0.0182643643726
1589275160150610819,10597,1589275160150515712,,-0.151920738463,-1.82407639315,1.8044501863,0.402146691694,-0.00555144743159,0.0182653792
1589275160153576029,10598,1589275160153475572,,-0.152348992226,-1.8242987642,1.82763069547,0.403854449314,-0.00555441058907,0.0173893799867
1589275160156711100,10599,1589275160156614081,,-0.152761903773,-1.95590071649,1.8288082609,0.404764120515,-0.00555491620359,0.0174104961852
1589275160162553616,10600,1589275160162473768,,-0.152766803032,-1.95588168108,1.82882820972,0.406609464392,-0.00555863455754,0.0165486627392
1589275160165623501,10601,1589275160165507045,,-0.152773100453,-1.95588458515,1.82882457784,0.409374645115,-0.00556326908583,0.0157057898301
1589275160168543698,10602,1589275160168464501,,-0.153178848493,-1.95610599276,1.85189509769,0.411077834405,-0.00622447519423,0.014840274805
1589275160171843863,10603,1589275160171669504,,-0.153948894949,-2.08802860271,1.87609709395,0.412756606918,-0.00621873135669,0.0148704971961
1589275160177681210,10604,1589275160177583894,,-0.154271480802,-2.08825073198,1.89916432801,0.418137039095,-0.00621460894067,0.0131584694126
1589275160180574732,10605,1589275160180494667,,-0.154249332601,-2.08824276856,1.89917488323,0.418137123609,-0.00621105317156,0.0131574626389
1589275160183628157,10606,1589275160183532247,,-0.176812516835,-1.95651800331,1.89764791977,0.419953525558,-0.00621236167362,0.0139421792093
1589275160189876257,10607,1589275160189769418,,-0.131110650817,-2.08828443387,1.89958523744,0.419980571336,-0.00621177050509,0.0124267202267
1589275160196030354,10608,1589275160195918367,,-0.132309947415,-2.22049881159,1.94689646704,0.423351209334,-0.00622084848707,0.0124835978262
1589275160201734298,10609,1589275160201626785,,-0.132301419426,-2.22052352396,1.94686886096,0.424287136306,-0.00622198915477,0.0116010048494
1589275160207844537,10610,1589275160207743294,,-0.109698850883,-2.22077724121,1.97034568746,0.428777423898,-0.00623272384246,0.00822566804497
1589275160213659836,10611,1589275160213574908,,-0.132695350133,-2.22074529744,1.96992484065,0.430576115376,-0.00690296480663,0.00990871758651
1589275160219809953,10612,1589275160219725913,,-0.133099118472,-2.22096608869,1.99298431035,0.436892871672,-0.0069171007119,0.00731108395257
1589275160225613413,10613,1589275160225543708,,-0.13308755391,-2.2209741173,1.9929761356,0.436892916981,-0.006918162015,0.00730737124396
1589275160228695407,10614,1589275160228534011,,-0.133886759097,-2.35303725064,2.01716114989,0.439509681813,-0.00759517944383,0.0064507957957
1589275160231730843,10615,1589275160231626157,,-0.157031388481,-2.35299119939,2.01675486267,0.440405730647,-0.00760518901884,0.00722118454064
1589275160234584954,10616,1589275160234504243,,-0.157062711176,-2.35300535923,2.0167359028,0.442244077862,-0.0082710611468,0.00725398181769
1589275160237568079,10617,1589275160237474355,,-0.133959977492,-2.35304367908,2.0171487899,0.444103744882,-0.00827991485378,0.00562824743916
1589275160240624445,10618,1589275160240530886,,-0.157471419512,-2.48496026907,2.017682981,0.445951269851,-0.00895038612264,0.0046117353069
1589275160243636726,10619,1589275160243560965,,-0.157470791021,-2.48495450749,2.01769012593,0.44595127168,-0.00895031950228,0.00461168781585
1589275160246580034,10620,1589275160246509239,,-0.133993178691,-2.35306720004,2.01711914669,0.448689234901,-0.00829484336909,0.00481388269675
1589275160249739186,10621,1589275160249584537,,-0.157566942599,-2.35321890287,2.03978845393,0.452225383379,-0.00897163133728,0.00382758648437
1589275160252604572,10622,1589275160252509055,,-0.157573838583,-2.35322392134,2.0397821316,0.452225340939,-0.00897456954496,0.00382571215007
1589275160255714649,10623,1589275160255616950,,-0.157582994265,-2.35322284654,2.03978266426,0.454038576552,-0.00898064906128,0.00475945804365
1589275160258637598,10624,1589275160258554509,,-0.158392080331,-2.4853565301,2.06380925901,0.457573263429,-0.0089919004004,0.00392120671217
1589275160261670357,10625,1589275160261558657,,-0.135665172708,-2.48559062977,2.08730042717,0.461998849634,-0.00900344573398,0.00413939799223
1589275160264584761,10626,1589275160264488379,,-0.135661764896,-2.48560072931,2.08728862191,0.461998874353,-0.009001427056,0.00414102906113
1589275160267576086,10627,1589275160267494827,,-0.136428720949,-2.61778380538,2.11138248087,0.465520527047,-0.00900866542777,0.00420235424022
1589275160270693214,10628,1589275160270589839,,-0.136833190623,-2.61795573037,2.13447961064,0.467209207552,-0.0090092183729,0.00423322717416
1589275160273642094,10629,1589275160273549488,,-0.16037776809,-2.61810172648,2.15714614283,0.472549875045,-0.00901957343507,0.0041839579304
1589275160279700696,10630,1589275160279604846,,-0.137221431409,-2.61811264205,2.15759806259,0.474385690317,-0.00969410831814,0.00435341583587
1589275160282640623,10631,1589275160282552928,,-0.137610311195,-2.61830571445,2.18077483858,0.477898648635,-0.00903469827351,0.00441169518943
1589275160285606178,10632,1589275160285527203,,-0.161168067582,-2.61845548884,2.2034410833,0.483248009456,-0.00971350724089,0.00436164052068
1589275160288815726,10633,1589275160288626414,,-0.161143423148,-2.61847988617,2.20341389292,0.483248077185,-0.00971153166819,0.00435853449913
1589275160291692035,10634,1589275160291602291,,-0.1615638845,-2.61867098758,2.22649611788,0.48584654703,-0.00971773872265,0.00440481031266
1589275160294692322,10635,1589275160294613987,,-0.161515245617,-2.61868824384,2.22647935088,0.48675017664,-0.00971267001812,0.00532114886328
1589275160297668112,10636,1589275160297555205,,-0.162336215985,-2.61904284923,2.27278467447,0.489217361716,-0.00971194711337,0.00446509440055
1589275160300774123,10637,1589275160300672637,,-0.11643389309,-2.75116436891,2.27444552577,0.491074767243,-0.00971145620489,0.00298387512326
1589275160303695812,10638,1589275160303598731,,-0.116410848049,-2.75116621844,2.27444446818,0.493824378535,-0.00971454447947,0.00303257032766
1589275160306553569,10639,1589275160306468127,,-0.116400884002,-2.75116194742,2.27445014435,0.493824399102,-0.00971394361874,0.00303114547664
1589275160309593836,10640,1589275160309504416,,-0.139560310793,-2.61925429552,2.29631365296,0.495532332553,-0.0097164609645,0.00200811389451
1589275160312677547,10641,1589275160312592483,,-0.139589609611,-2.61922890664,2.29634083124,0.49736192945,-0.00972549104524,0.00204203412749
1589275160315620924,10642,1589275160315534675,,-0.116515395375,-2.61926901611,2.29675797346,0.500126612194,-0.00906359079817,0.0013345606523
1589275160318595105,10643,1589275160318485732,,-0.116530179222,-2.61925984822,2.29676767863,0.500126588716,-0.00906457254983,0.00133668961763
1589275160321628134,10644,1589275160321546491,,-0.11731466294,-2.75144792371,2.32072088672,0.501805131072,-0.00907258288289,0.00136806801913
1589275160324760315,10645,1589275160324645876,,-0.140413877538,-2.75141295211,2.32029515469,0.50452281347,-0.00974822605992,0.00308897241158
1589275160327547035,10646,1589275160327454766,,-0.140415953643,-2.75142692003,2.32027846575,0.504522811656,-0.009748165806,0.00308945871567
1589275160330571322,10647,1589275160330491065,,-0.140406828792,-2.7514469706,2.32025524142,0.505432647517,-0.00975230619492,0.00310147058962
1589275160333607873,10648,1589275160333481080,,-0.163569271843,-2.75137852236,2.31987252113,0.507258451368,-0.00975965081193,0.00388922120137
1589275160339565912,10649,1589275160339475692,,-0.141619675055,-2.88380852418,2.36743046019,0.513382199012,-0.00978716296281,0.00323040057329
1589275160342560171,10650,1589275160342460612,,-0.164783889235,-2.88375463522,2.36702996552,0.51519683279,-0.0104473450742,0.00402108704432
1589275160345590065,10651,1589275160345498370,,-0.16519271431,-2.88393919341,2.39011548544,0.517806601867,-0.00979320907266,0.00406916213754
1589275160348566267,10652,1589275160348486406,,-0.165602438071,-2.88412407789,2.41320283939,0.520405087426,-0.00979959806172,0.00411293024511
1589275160351559973,10653,1589275160351473187,,-0.166413665714,-3.0163752004,2.43710749179,0.52208357699,-0.00981074336138,0.0041425943892
1589275160354589752,10654,1589275160354493564,,-0.166832086725,-3.01653872698,2.46031536268,0.523759086739,-0.0098165265552,0.00507290028325
1589275160357567411,10655,1589275160357493741,,-0.167227770235,-3.01671153505,2.48341517848,0.526357633146,-0.00981875540414,0.00511905546064
1589275160360733041,10656,1589275160360619501,,-0.167184275644,-3.01671984969,2.48340800675,0.526357759521,-0.00981339577011,0.00511633782623
1589275160363597670,10657,1589275160363489526,,-0.167190151358,-3.01672867392,2.48339689191,0.52817106302,-0.00981919365931,0.00605209695888
1589275160366536133,10658,1589275160366458246,,-0.166767935974,-3.0165738788,2.46027661242,0.529230731566,-0.0104786098131,0.00607172312569
1589275160369560923,10659,1589275160369469751,,-0.167522423721,-3.14888843512,2.48412126737,0.529999543262,-0.0104793800939,0.00608387930348
1589275160372540526,10660,1589275160372464645,,-0.167511616298,-3.14887973532,2.48413302405,0.531829255793,-0.0104848612966,0.00611327029319
1589275160375626765,10661,1589275160375519215,,-0.144222118446,-3.28097991819,2.46213470652,0.532897422016,-0.0104896042323,0.00628141689317
1589275160378486730,10662,1589275160378393762,,-0.144642384575,-3.28113269349,2.48524270277,0.535513671334,-0.00983983942976,0.00541318562035
1589275160381478433,10663,1589275160381396897,,-0.168292981548,-3.28122848909,2.50795212624,0.538064223174,-0.0105111280929,0.00803220591528
1589275160384481521,10664,1589275160384402220,,-0.168615161959,-3.41348020498,2.5086133723,0.539910272024,-0.0105171323381,0.00715449336995
1589275160387700715,10665,1589275160387634228,,-0.169036366046,-3.41361275264,2.5317448853,0.541616646523,-0.00986530984113,0.00626943400404
1589275160390536804,10666,1589275160390425436,,-0.169019255512,-3.41361119752,2.53174812447,0.543446384648,-0.00986911811713,0.0062995599304
1589275160393791538,10667,1589275160393654584,,-0.169050282845,-3.41362597506,2.53172612787,0.545274690443,-0.01053877997,0.00632900367632
1589275160396854538,10668,1589275160396746239,,-0.192631844409,-3.41372250203,2.55453313268,0.54695780499,-0.0112185122679,0.00621068530047
1589275160399554041,10669,1589275160399464369,,-0.169904141903,-3.41390620143,2.57807301935,0.549555019415,-0.0105550158283,0.00640119082828
1589275160402531751,10670,1589275160402388364,,-0.170344066604,-3.41404065352,2.60120526564,0.550340059662,-0.0105577377067,0.00551426404814
1589275160405539767,10671,1589275160405412646,,-0.146722508666,-3.41395176718,2.57848606078,0.549601394262,-0.0105565080485,0.00383852107061
1589275160408519223,10672,1589275160408425250,,-0.169554829176,-3.4137466161,2.55496974802,0.549770252244,-0.0112271904635,0.00278762011667
1589275160411515228,10673,1589275160411433255,,-0.145947775082,-3.41361998747,2.53220393116,0.551779274301,-0.0105673776257,0.00116133817782
1589275160414511309,10674,1589275160414408454,,-0.145992739181,-3.41360343077,2.53222365884,0.551779275219,-0.0105660419123,0.00117299672063
1589275160417594281,10675,1589275160417463817,,-0.146022916459,-3.41362011685,2.53219942472,0.552690441828,-0.00990894807117,0.00119778856227
1589275160420578683,10676,1589275160420470428,,-0.146447099199,-3.41373317231,2.55545799019,0.55346246078,-0.009914225453,0.0012077099501
1589275160423573017,10677,1589275160423493419,,-0.146797301204,-3.54599304653,2.55612518303,0.555275649353,-0.00991962393835,0.00214493937257
1589275160426565214,10678,1589275160426487059,,-0.146811842508,-3.54601207991,2.55609794356,0.555275654659,-0.00991823759267,0.00214997080439
1589275160429495059,10679,1589275160429404919,,-0.147228817507,-3.54612320933,2.5792552771,0.556995983692,-0.0105799758804,0.000371843655822
1589275160432517470,10680,1589275160432419343,,-0.147210320154,-3.54611974051,2.57926110204,0.557915902356,-0.0105783552857,0.000389640468087
1589275160435551889,10681,1589275160435464780,,-0.147648937474,-3.54628665057,2.60234208634,0.558683335342,-0.0112490812704,0.000405898112687
1589275160438540509,10682,1589275160438459180,,-0.147690370393,-3.54627026396,2.60236206561,0.560529721787,-0.0112557496138,-0.000469419473545
1589275160441516763,10683,1589275160441439858,,-0.148472243351,-3.67869525258,2.62622209933,0.56313285226,-0.0105920945035,-0.000415620277803
1589275160444527992,10684,1589275160444440983,,-0.125688416139,-3.6788861501,2.64975305557,0.564808785666,-0.0105876469153,-0.00023203070664
1589275160447567706,10685,1589275160447482828,,-0.148435043273,-3.67869550281,2.62622385165,0.565847855613,-0.0112626223837,0.00145009597845
1589275160450522629,10686,1589275160450458461,,-0.148871497618,-3.67885666202,2.64930912385,0.568447609185,-0.0106022161804,0.0014984039066
1589275160453662306,10687,1589275160453584681,,-0.149213562898,-3.81116383539,2.64993664925,0.569357491413,-0.0106018831904,0.00151949622226
1589275160459621128,10688,1589275160459545049,,-0.149639064473,-3.81138130591,2.67293685991,0.573744615594,-0.0112805447417,0.0043243712886
1589275160462548560,10689,1589275160462459184,,-0.174065420982,-3.94392895451,2.71946599041,0.578930954002,-0.0112949166235,0.00517762828533
1589275160465515235,10690,1589275160465445053,,-0.17406719679,-3.94391914111,2.71948010866,0.578930952662,-0.0112945855699,0.00517850022707
1589275160470179892,10691,1589275160470017030,,-0.174074632507,-3.94391644672,2.71948354023,0.579824359171,-0.0112917687958,0.00610873258502
1589275160474473543,10692,1589275160474390900,,-0.174428837994,-4.07629935824,2.72002456789,0.582556108127,-0.0119656675661,0.00706877162402
1589275160477530222,10693,1589275160477440247,,-0.175343079203,-4.07654826351,2.76627632555,0.587754136977,-0.0113163759863,0.00716887697039
1589275160480556295,10694,1589275160480477052,,-0.199029016026,-3.9443593848,2.81171059555,0.592014043093,-0.0113242362341,0.00892951942756
1589275160483683960,10695,1589275160483600011,,-0.199035838115,-3.94437020411,2.81169493489,0.592014026512,-0.0113267810716,0.00892739082272
1589275160486725620,10696,1589275160486611999,,-0.199384264606,-4.07670686274,2.81228232368,0.593845030007,-0.0106637325704,0.00896056144956
1589275160489590039,10697,1589275160489479431,,-0.19941398987,-4.07670098977,2.81228872956,0.594780063386,-0.0113384320656,0.00806276394627
1589275160493007655,10698,1589275160492909993,,-0.199440803001,-4.07672368163,2.81225393367,0.595706285459,-0.0113441435958,0.00717463901155
1589275160495909916,10699,1589275160495803339,,-0.199440708897,-4.07668251144,2.8123136209,0.595706290663,-0.0113408861323,0.00717935521029
1589275160498659847,10700,1589275160498524400,,-0.199783278258,-4.07675294645,2.83552922349,0.596475275494,-0.0113354320802,0.00718698845619
1589275160501734414,10701,1589275160501607747,,-0.152501137291,-3.94440881928,2.81261550264,0.591221635721,-0.011306489846,0.00193735299783
1589275160504538518,10702,1589275160504444453,,-0.152559671052,-3.94437529931,2.81265933615,0.591221473049,-0.0113148857238,0.00193797845165
1589275160507711596,10703,1589275160507639064,,-0.151348269926,-3.81181700518,2.76567152094,0.587883096327,-0.0119717768732,5.4495548035e-05
1589275160510591945,10704,1589275160510493832,,-0.127682760432,-3.81177510562,2.74290636131,0.582582567983,-0.0119488005831,-0.00261724041639
1589275160513657065,10705,1589275160513570141,,-0.103664139335,-3.67939974319,2.71957010217,0.576389269686,-0.0119291208587,-0.00621617544312
1589275160519672965,10706,1589275160519564015,,-0.0781707242691,-3.41441354425,2.62603725686,0.563358568636,-0.0118877479407,-0.0126518092443
1589275160522579771,10707,1589275160522508895,,-0.0307027996234,-3.4141178815,2.5573631194,0.552004903245,-0.0118606247103,-0.018893327205
1589275160525520094,10708,1589275160525446042,,-0.0307631451326,-3.41408410489,2.55740748587,0.552004777337,-0.0118693801683,-0.0188915073481
1589275160528697860,10709,1589275160528557199,,-0.0300342669531,-3.28169439354,2.53352692983,0.546688174527,-0.0118556327503,-0.0208020176902
1589275160531601692,10710,1589275160531439428,,-0.0300967160651,-3.28171788332,2.53349576198,0.543046279289,-0.0118517698396,-0.0217625477644
1589275160534603734,10711,1589275160534514647,,-0.029736318379,-3.28152158289,2.51043980669,0.541384053213,-0.0125085503203,-0.0226865150909
1589275160537509928,10712,1589275160537432972,,-0.0290865153112,-3.14916292239,2.48662853516,0.538810710191,-0.0125092196737,-0.0245411654462
1589275160540678862,10713,1589275160540510932,,-0.0294836611808,-3.28135073673,2.48735183281,0.537899566399,-0.0131858523969,-0.0245528117787
1589275160543706506,10714,1589275160543626738,,-0.0525975264978,-3.28122039113,2.48703364234,0.536107542173,-0.0131843158436,-0.0265493585357
1589275160546563965,10715,1589275160546470605,,-0.0525501868636,-3.28124219172,2.48700588063,0.536107792106,-0.0131756924754,-0.0265485926039
1589275160549579713,10716,1589275160549478041,,-0.0757491205286,-3.28113491792,2.48665775792,0.536108770479,-0.013859894165,-0.0266969920776
1589275160552618175,10717,1589275160552472852,,-0.0756675236438,-3.28113336566,2.4866622904,0.536108696005,-0.0138511685705,-0.0267030154462
1589275160555727923,10718,1589275160555622094,,-0.0529020354298,-3.28139110718,2.51012129866,0.5359561543,-0.0131737616729,-0.0265634708237
1589275160561770214,10719,1589275160561662288,,-0.0528628213866,-3.28140528078,2.51010359608,0.53595611202,-0.0131694454658,-0.0265664639191
1589275160564704856,10720,1589275160564613110,,-0.0530846783454,-3.41370311777,2.51070838105,0.53317315465,-0.0124818967348,-0.0247995045403
1589275160567843731,10721,1589275160567680082,,-0.0530926783808,-3.4136501224,2.51078026584,0.533173044481,-0.0124846013149,-0.0248005116956
1589275160570847973,10722,1589275160570629779,,-0.0757737444617,-3.4134624651,2.4872388035,0.532353698691,-0.0131475600597,-0.0222404501004
1589275160579862493,10723,1589275160579681270,,-0.0767946987309,-3.54587306762,2.53433987087,0.53201020469,-0.013129427941,-0.0195367269064
1589275160582769013,10724,1589275160582599818,,-0.077047809507,-3.67811900426,2.53507426852,0.532898120683,-0.0117980412979,-0.0177028700951
1589275160588759425,10725,1589275160588661073,,-0.0774102960468,-3.67829494916,2.55823086865,0.53643669359,-0.0118017529063,-0.0185512027665
1589275160591698170,10726,1589275160591582208,,-0.0785528643389,-3.81096701975,2.60497655885,0.542527458126,-0.0111471666227,-0.0175408604552
1589275160594847989,10727,1589275160594753409,,-0.0792726478817,-3.94346227898,2.62877705376,0.551519779009,-0.0118332872948,-0.0164775656135
1589275160600744550,10728,1589275160600641933,,-0.0792980462338,-3.94348831062,2.62873723691,0.551519870527,-0.0118341442807,-0.0164738865419
1589275160603756840,10729,1589275160603657516,,-0.0797213377164,-3.94361177715,2.65186397521,0.556010937194,-0.0111737310479,-0.0191131648806
1589275160606741108,10730,1589275160606631169,,-0.0797818752739,-3.94361051657,2.65186402925,0.557856554834,-0.0118516513164,-0.0199814960468
1589275160609680731,10731,1589275160609589301,,-0.0559255792727,-3.81118424585,2.62855962914,0.558982724869,-0.0125122932368,-0.0234414337015
1589275160612752230,10732,1589275160612604541,,-0.0559369565884,-3.81118660142,2.62855597166,0.558982782916,-0.0125127936304,-0.0234397823513
1589275160615853328,10733,1589275160615755713,,-0.0557334030382,-3.67890314888,2.62788261161,0.556336737153,-0.0131826271131,-0.028914269735
1589275160621724062,10734,1589275160621631903,,-0.0557970514933,-3.67886921108,2.62792877153,0.556336536848,-0.0131923266787,-0.0289136999199
1589275160624814908,10735,1589275160624705148,,-0.0316598236135,-3.54635070075,2.58137152035,0.551185512805,-0.0138620125095,-0.0315689942531
1589275160630682376,10736,1589275160630589593,,0.0153712151896,-3.41410353455,2.55836942161,0.54323504517,-0.0138439969517,-0.038664733918
1589275160633901270,10737,1589275160633690495,,0.0154414762788,-3.41410339612,2.55836918323,0.543235055221,-0.0138350965447,-0.0386677783698
1589275160639811100,10738,1589275160639730898,,0.0158359258764,-3.41396748056,2.53514125498,0.537034918987,-0.0144903697077,-0.0423972987383
1589275160642771782,10739,1589275160642637312,,0.0158384933298,-3.41399663651,2.53510197539,0.537034857475,-0.0144900215051,-0.0423981968892
1589275160648825739,10740,1589275160648732121,,0.0389495386129,-3.41409921949,2.53546216176,0.538898489713,-0.0138280836083,-0.0440298065804
1589275160654717053,10741,1589275160654624153,,0.0158334266863,-3.41399279889,2.53510717511,0.540709912794,-0.0151622867507,-0.0432473100786
1589275160657813275,10742,1589275160657688687,,0.0379424259855,-3.54656832393,2.58256411748,0.545033453698,-0.0145058294492,-0.0448469681887
1589275160660826797,10743,1589275160660740496,,0.0380063297294,-3.54660988557,2.58250610132,0.547764274182,-0.0145074830032,-0.0439049691793
1589275160663737637,10744,1589275160663644014,,0.0381156029294,-3.54657925641,2.58254655402,0.547764854011,-0.0144901307302,-0.043903465399
1589275160666804948,10745,1589275160666671281,,0.0145930782657,-3.54657104688,2.60537135791,0.550329980511,-0.0144963878569,-0.0422001500288
1589275160669953650,10746,1589275160669751393,,0.0140593587039,-3.67893076592,2.62932698696,0.556536844856,-0.014493549444,-0.0393820537343
1589275160675767816,10747,1589275160675668095,,0.0142195051227,-3.67880416631,2.62950325385,0.556537432358,-0.0144715531152,-0.0393818403559
1589275160681837750,10748,1589275160681738613,,-0.010818499367,-3.81148042389,2.72246099481,0.564127931001,-0.0131438122568,-0.0357833172923
1589275160684667269,10749,1589275160684577308,,-0.0106333140911,-3.81139334434,2.72258363275,0.564127942377,-0.0131231445061,-0.0357907228274
1589275160687856492,10750,1589275160687667898,,0.0124754904245,-3.94374595206,2.72367011618,0.565062017314,-0.0131151890234,-0.0365488780277
1589275160690720295,10751,1589275160690625119,,-0.0345933572078,-3.94392856892,2.76904115479,0.568363925089,-0.0131072117696,-0.0331661830719
1589275160694024142,10752,1589275160693857049,,-0.0347631543425,-4.07636306928,2.76952621578,0.571095760102,-0.0131023038647,-0.0322219201007
1589275160699788212,10753,1589275160699609656,,-0.0354991701708,-4.07669837702,2.81575320999,0.571717010129,-0.0130891902242,-0.032212139859
1589275160702847214,10754,1589275160702720156,,-0.0123005071578,-4.07679252183,2.81610257062,0.578157051867,-0.0131030339677,-0.0337760033452
1589275160708770787,10755,1589275160708667521,,-0.0123619046087,-4.07683048563,2.81604734185,0.57815701397,-0.0131097967483,-0.0337740277596
1589275160711774400,10756,1589275160711644191,,0.0108429311988,-4.0769505104,2.81636353877,0.580956791576,-0.0131149982248,-0.0362986435881
1589275160714830037,10757,1589275160714730157,,0.0342551925682,-3.94469330147,2.81614005961,0.581024478945,-0.0131122960293,-0.0397791777389
1589275160720822617,10758,1589275160720647272,,0.0340167554576,-3.94464989123,2.81620375544,0.581024670809,-0.0131397353743,-0.0397673193505
1589275160723760547,10759,1589275160723653405,,0.057732841633,-3.81230526768,2.79272295293,0.579418448157,-0.0138209482222,-0.044168432074
1589275160726770392,10760,1589275160726669782,,0.081553410235,-3.81215013703,2.74681600802,0.576155555403,-0.0144934125097,-0.0495028415024
1589275160729669143,10761,1589275160729564037,,0.0813945015917,-3.81208915902,2.74690534724,0.57615563487,-0.0145138405321,-0.0494959309946
1589275160732724345,10762,1589275160732610121,,0.081497340436,-3.67977415031,2.7463100368,0.575253802481,-0.0151841281859,-0.0504114110226
1589275160735729788,10763,1589275160735618521,,0.10499007074,-3.67968587341,2.72362818963,0.57272534977,-0.0151962717447,-0.0539209332153
1589275160738728876,10764,1589275160738620467,,0.104794245837,-3.67967909739,2.72364488571,0.572725783435,-0.015218881127,-0.0539099492549
1589275160741675309,10765,1589275160741548967,,0.0814636973948,-3.6796269595,2.72321272733,0.5709174636,-0.0152260089253,-0.0549940803749
1589275160744739398,10766,1589275160744649677,,0.104213069006,-3.67984111882,2.7467418415,0.571699415833,-0.0159106831524,-0.0557479826313
1589275160747739605,10767,1589275160747649271,,0.104178004165,-3.67989898857,2.74666564122,0.571698327427,-0.0159209085707,-0.05575622438
1589275160750697242,10768,1589275160750605984,,0.0801906051021,-3.81230386528,2.76994154261,0.573388264876,-0.0159381332114,-0.0558796237746
1589275160753762835,10769,1589275160753658449,,0.103395117742,-3.81238974137,2.77033330889,0.57521428615,-0.0159512302332,-0.0557104966118
1589275160756903242,10770,1589275160756676479,,0.103298945154,-3.81238407697,2.77034469163,0.575213956743,-0.0159654511111,-0.0557098241622
1589275160759837417,10771,1589275160759646117,,0.102996393288,-3.81244434997,2.79356774117,0.576891615716,-0.0159614733293,-0.0556917149507
1589275160762767872,10772,1589275160762662888,,0.056471905562,-3.94462993287,2.79334115396,0.578682939391,-0.0159443238261,-0.0532381468882
1589275160768734033,10773,1589275160768625352,,0.0792934859174,-3.94470021355,2.81715330556,0.581300542483,-0.0152753134993,-0.0539577761429
1589275160771684381,10774,1589275160771556475,,0.0559844218016,-4.0769069882,2.81743636676,0.586684481174,-0.0152708069703,-0.0485617764797
1589275160774809625,10775,1589275160774711299,,0.0318571834359,-4.20944801836,2.86387001043,0.589930803505,-0.0145924151821,-0.0423132430869
1589275160777751472,10776,1589275160777661899,,0.0319948603446,-4.20947564185,2.86382787289,0.589931627895,-0.014570024756,-0.0423094650463
1589275160780737751,10777,1589275160780601252,,0.0084806733651,-4.20958541108,2.88647737661,0.593417812315,-0.0145631444697,-0.0405691751684
1589275160783762853,10778,1589275160783665429,,-0.015780230542,-4.34224665829,2.93284588755,0.597641994031,-0.0138852931461,-0.037017204796
1589275160786701373,10779,1589275160786613968,,-0.0156945536197,-4.34225908765,2.93282794481,0.597642143915,-0.0138744264881,-0.0370188594123
1589275160789738027,10780,1589275160789644355,,-0.0160834839031,-4.34240494742,2.95592338405,0.600187824691,-0.0138767358186,-0.0342499605316
1589275160793091027,10781,1589275160793018090,,-0.016469079093,-4.34258625976,2.97896911582,0.603695876011,-0.0138809400365,-0.0341925253079
1589275160798675271,10782,1589275160798586492,,-0.0399636656327,-4.47495807161,2.97904532877,0.610108027775,-0.0132339586685,-0.034231708279
1589275160801732122,10783,1589275160801636376,,-0.0401139914608,-4.47500946171,2.9789661115,0.610108266912,-0.013247398981,-0.034222246196
1589275160804783674,10784,1589275160804656898,,-0.0175315992891,-4.4751867339,3.00260710943,0.612732916366,-0.0139452661246,-0.0349361013817
1589275160807784016,10785,1589275160807690923,,0.00571928035769,-4.3428144011,3.00254572923,0.612783041686,-0.0139775037819,-0.0375040968251
1589275160810822800,10786,1589275160810726276,,0.0287388000385,-4.34287979633,3.00295208819,0.612831403271,-0.0146659367792,-0.0400723294908
1589275160813816445,10787,1589275160813716658,,0.0289504274222,-4.21056184147,3.0023353373,0.611947060761,-0.0146711844973,-0.041906010766
1589275160819763802,10788,1589275160819668861,,0.0531561112322,-4.21021536513,2.93330086078,0.609776003396,-0.0153609567873,-0.0490531681235
1589275160822782868,10789,1589275160822634214,,0.0534306869166,-4.07791047564,2.93267128265,0.606151834616,-0.0160189923441,-0.0509220138445
1589275160828727990,10790,1589275160828616221,,0.0777233133772,-4.07761251383,2.863563657,0.598468698961,-0.0160063499877,-0.0572497457958
1589275160831809211,10791,1589275160831694913,,0.0777153689998,-4.0776006988,2.86358069673,0.598468729375,-0.0160073762343,-0.0572491409205
1589275160834694977,10792,1589275160834623629,,0.077592887859,-3.94541434992,2.88610806292,0.596533227434,-0.0166694197491,-0.0590931024916
1589275160837808467,10793,1589275160837669566,,0.101377874183,-3.94533188494,2.86341484869,0.594013617974,-0.0166490717242,-0.0635443703237
1589275160840727478,10794,1589275160840635485,,0.101488864212,-3.94528084869,2.86348123563,0.594013652534,-0.016635911538,-0.0635474938794
1589275160843756037,10795,1589275160843671395,,0.101564480466,-3.94533695294,2.86340125296,0.594012862551,-0.0172816789841,-0.0635474750104
1589275160846660396,10796,1589275160846578664,,0.124881609907,-3.94540016646,2.86381420444,0.59404549247,-0.0172665470222,-0.0652251730006
1589275160849675316,10797,1589275160849589152,,0.101650679603,-3.81304482794,2.88608929542,0.594799579668,-0.0172570125605,-0.064448625155
1589275160852754544,10798,1589275160852658957,,0.0789446764511,-3.81283024387,2.86255751866,0.595837852429,-0.0165844770644,-0.0627670150301
1589275160855778974,10799,1589275160855698428,,0.0783929408418,-3.94516013803,2.88643392992,0.597461115546,-0.0165767502246,-0.0600209414331
1589275160861746334,10800,1589275160861642068,,0.0785471736391,-3.94514681337,2.88644794898,0.597461687912,-0.0165540633929,-0.0600215053991
1589275160864731827,10801,1589275160864630058,,0.0788757582676,-4.07737018763,2.86387718171,0.598466805388,-0.0165429489687,-0.0572949211895
1589275160867724792,10802,1589275160867622084,,0.0553934443307,-4.07740535311,2.8866368191,0.600122205097,-0.0165349611651,-0.0556039851579
1589275160870575332,10803,1589275160870492102,,0.0549798017471,-4.07753746753,2.90986031074,0.59988601098,-0.0158625953869,-0.0510560980158
1589275160873573089,10804,1589275160873505326,,0.0538464295598,-4.21013876261,2.95670089834,0.603198972703,-0.0158767565686,-0.0482743679231
1589275160879729336,10805,1589275160879598535,,0.00652466477471,-4.34259255147,2.97945581884,0.605726925564,-0.0145717564,-0.0439773136906
1589275160882894571,10806,1589275160882712516,,0.00565287995896,-4.47509431063,3.00324468264,0.608274840186,-0.0146011633238,-0.041205159979
1589275160888816602,10807,1589275160888721201,,-0.018228397802,-4.47520486521,3.02589037358,0.610805170809,-0.0146278651084,-0.0376657241854
1589275160891863102,10808,1589275160891721973,,-0.0195621619436,-4.60783533931,3.07280067027,0.617782783771,-0.0140006832766,-0.0348143486407
1589275160895039105,10809,1589275160894939288,,-0.0441454637816,-4.74037544285,3.11924890579,0.62385049432,-0.0133764074893,-0.0321198613805
1589275160897849878,10810,1589275160897762791,,-0.0675065809162,-4.87268468858,3.09612653942,0.626709133795,-0.0134102579022,-0.0303885537795
1589275160900670937,10811,1589275160900595133,,-0.0676771938366,-4.87269633289,3.09610448883,0.626709181368,-0.0134267744763,-0.0303802784107
1589275160903621315,10812,1589275160903530407,,-0.0679691744691,-4.74034082833,3.11878632524,0.630191425931,-0.0141215308229,-0.0284949209508
1589275160906705914,10813,1589275160906608476,,-0.0449432099202,-4.7403675344,3.1192495322,0.631159025123,-0.0148130469351,-0.0310479504701
1589275160910061386,10814,1589275160909969267,,-0.0455290569331,-4.7404734182,3.14239750942,0.631963091389,-0.0148294674872,-0.0328455462598
1589275160912725739,10815,1589275160912626233,,-0.0215182426726,-4.60801905693,3.11914177003,0.63215323876,-0.0148272791459,-0.0354284848858
1589275160915805592,10816,1589275160915652088,,-0.0211355050452,-4.60785353086,3.09607657755,0.630510402872,-0.0148241469469,-0.0372721803582
1589275160918779705,10817,1589275160918679886,,-0.0203282035637,-4.47533931123,3.07240630972,0.628873503088,-0.0154721620263,-0.0400331275248
1589275160921717915,10818,1589275160921633600,,0.00466743286707,-4.34263590657,3.00280570246,0.622088273184,-0.0161020751028,-0.0454512276812
1589275160924729463,10819,1589275160924633200,,0.00485608920059,-4.34261550146,3.00283491282,0.622088403922,-0.0160796765294,-0.0454573675206
1589275160927752055,10820,1589275160927657532,,0.0282710960965,-4.34262315549,3.00332764821,0.620311490423,-0.0153744172041,-0.0480726249771
1589275160930824269,10821,1589275160930723764,,0.0520872238721,-4.21025921719,3.00326481738,0.613098483395,-0.015986093959,-0.0534936011865
1589275160933815443,10822,1589275160933698303,,0.052345431446,-4.21015018922,3.00341316807,0.613097401203,-0.0159642949173,-0.0535125110191
1589275160939893717,10823,1589275160939775580,,0.0762513576322,-4.34261728916,2.98091550975,0.609681014728,-0.016549970833,-0.0588852018367
1589275160942847703,10824,1589275160942704593,,0.076430039378,-4.34258152669,2.98096303215,0.609681322567,-0.0165277551456,-0.0588882541149
1589275160948814393,10825,1589275160948706218,,0.0761374749602,-4.34275997732,3.00410994313,0.610471696761,-0.0165121974541,-0.0597939611099
1589275160951812440,10826,1589275160951704565,,0.0754968882002,-4.47535177862,3.02766362602,0.613988228109,-0.0171760931159,-0.0597387651764
1589275160954757501,10827,1589275160954669504,,0.0754129134477,-4.47533315688,3.02769324441,0.615835501909,-0.0171912169122,-0.0606128641098
1589275160957806309,10828,1589275160957705222,,0.051778169617,-4.47540041008,3.05040699528,0.622005787564,-0.0165527438956,-0.0561177329613
1589275160960797155,10829,1589275160960707032,,0.0518545861825,-4.47553342221,3.05021053943,0.622006076539,-0.0165396193835,-0.0561183997057
1589275160963824508,10830,1589275160963717597,,0.0506268860787,-4.47570454082,3.09669080158,0.624412746432,-0.0165899678675,-0.0533336565106
1589275160966832004,10831,1589275160966662716,,0.0503410355985,-4.47570070021,3.09670101256,0.627135045639,-0.0159613210126,-0.0523729089516
1589275160969922667,10832,1589275160969716773,,0.00262349505781,-4.60829096596,3.14256250353,0.63311364405,-0.0159943124878,-0.0452902336969
1589275160972759376,10833,1589275160972674942,,0.00230073450437,-4.60825701567,3.14261254094,0.633114060133,-0.0160273349796,-0.0452727398951
1589275160975793710,10834,1589275160975614265,,-0.0211508826061,-4.60818912512,3.14220779465,0.637643669155,-0.0153889630086,-0.0426135203336
1589275160978672196,10835,1589275160978570912,,0.000765872477533,-4.7408650228,3.18955426905,0.640941102326,-0.0147674181827,-0.0387648136768
1589275160981621518,10836,1589275160981540120,,-0.0239293190548,-4.87349968496,3.23585050265,0.644258008314,-0.0148043003743,-0.0361224412034
1589275160984640370,10837,1589275160984554510,,-0.0479478110066,-5.00604237641,3.25907937874,0.645881595968,-0.0148256326393,-0.0326131206357
1589275160987658042,10838,1589275160987558249,,-0.0492196322665,-5.1387048321,3.30584856267,0.65010067421,-0.0135165535452,-0.0289096696314
1589275160990872699,10839,1589275160990775620,,-0.0497124101342,-5.13885352631,3.3289299939,0.653573711399,-0.0135354041384,-0.0270276328795
1589275160993917065,10840,1589275160993798696,,-0.0740474382496,-5.2714771282,3.37535277147,0.657813489175,-0.0142126596006,-0.024380909657
1589275160996961345,10841,1589275160996874825,,-0.0975546281814,-5.40392399471,3.37533341427,0.65959382102,-0.0142181032614,-0.0217710775043
1589275160999689954,10842,1589275160999610331,,-0.074336861965,-5.40389409398,3.37589195008,0.660548030867,-0.0128815394751,-0.0234229348656
1589275161002610928,10843,1589275161002527538,,-0.0508167210499,-5.40394344897,3.37632936259,0.665148516708,-0.0135234790353,-0.0250177332368
1589275161005552634,10844,1589275161005483155,,-0.0504553892092,-5.40388678832,3.37642546731,0.668852835855,-0.0134926330364,-0.0267738524845
1589275161008699242,10845,1589275161008535417,,-0.0500422221506,-5.27118973674,3.3763231813,0.670717477634,-0.0134848316616,-0.0285649256324
1589275161011626923,10846,1589275161011532433,,-0.0505760989317,-5.27135222842,3.42269450743,0.674120068927,-0.0134527384932,-0.0303185880569
1589275161014631556,10847,1589275161014528272,,-0.049384722129,-5.13893086152,3.39887068451,0.673402061063,-0.0147306528731,-0.0330691009579
1589275161017735546,10848,1589275161017540276,,-0.0252248291833,-5.00644577836,3.37564759346,0.671797884123,-0.0147002821079,-0.037508879506
1589275161020635128,10849,1589275161020549849,,-0.0013923454877,-4.87414097201,3.37548253357,0.671866341752,-0.0146599617246,-0.0409996031505
1589275161023670883,10850,1589275161023570592,,0.0226051638627,-4.74172245096,3.35218376363,0.669335106417,-0.0152945170798,-0.0445335690963
1589275161026874364,10851,1589275161026771908,,0.0463613645488,-4.7417384108,3.32924377092,0.666818156008,-0.0159516613601,-0.0489800908481
1589275161029804824,10852,1589275161029595985,,0.0700121502077,-4.74172938814,3.30643801529,0.664288112471,-0.0159406949714,-0.0525171292862
1589275161032616479,10853,1589275161032539998,,0.0703299407324,-4.7416462563,3.28324683036,0.663535178422,-0.0166265386658,-0.0534430912013
1589275161035582196,10854,1589275161035478551,,0.0705959717175,-4.74155913789,3.26006311633,0.660071532557,-0.0166308407489,-0.0562203420329
1589275161038792428,10855,1589275161038686515,,0.093627948758,-4.74157971317,3.2605417919,0.658309843988,-0.0173172163414,-0.05973677538
1589275161041628555,10856,1589275161041545047,,0.0695570275991,-4.74157396014,3.28336770252,0.655456876385,-0.0180257924676,-0.0617434339442
1589275161044569851,10857,1589275161044503826,,0.0690743639225,-4.74150089697,3.28348340118,0.655456964343,-0.0180822232257,-0.0617259971834
1589275161047812614,10858,1589275161047709595,,0.0452849000915,-4.74146039383,3.30635047466,0.65528979105,-0.0181099086197,-0.0609701891761
1589275161050760710,10859,1589275161050690310,,0.0450894623434,-4.74148001137,3.30632501304,0.656227702851,-0.0181329659355,-0.0618530794276
1589275161053781775,10860,1589275161053703551,,0.0447986880841,-4.74133408479,3.30653822353,0.656226151744,-0.0181786828633,-0.0618561163831
1589275161060020549,10861,1589275161059868697,,0.0204052240931,-4.74160740572,3.35236060372,0.661357249388,-0.0175530559611,-0.0582709156795
1589275161062653120,10862,1589275161062579447,,0.0203515751533,-4.74155188235,3.35243946118,0.661355938395,-0.0175688693784,-0.0582810285069
1589275161065620401,10863,1589275161065531390,,0.0195633850044,-4.87408686902,3.37606789963,0.666648904858,-0.0175929525191,-0.0554642800048
1589275161068835681,10864,1589275161068736942,,0.0196484909141,-4.87413240513,3.37600166318,0.669363169391,-0.0175854637187,-0.0536006740477
1589275161071675545,10865,1589275161071608235,,0.0197629385291,-4.87409939123,3.37604865878,0.671157450308,-0.0169239588544,-0.0517584757853
1589275161074664132,10866,1589275161074595224,,0.019201205112,-5.00657415225,3.39977231174,0.675533011693,-0.0162496817296,-0.0489606928183
1589275161077632458,10867,1589275161077534623,,-0.00486431559939,-5.13917573971,3.44621960345,0.677943596382,-0.0162232102868,-0.0463521812356
1589275161080649978,10868,1589275161080537292,,-0.0286991326956,-5.13923889864,3.49223990126,0.681261685533,-0.0155297235929,-0.0437183961095
1589275161083659307,10869,1589275161083582328,,-0.0523376904966,-5.27166093961,3.51565905921,0.683778422326,-0.0155070665917,-0.0392865226423
1589275161086658916,10870,1589275161086535294,,-0.0759124848187,-5.4042014854,3.53881567604,0.686328702821,-0.0148138636815,-0.0366665148662
1589275161089705097,10871,1589275161089543699,,-0.0994960133867,-5.53674422679,3.56198021653,0.690707919272,-0.0147851519197,-0.0340213379497
1589275161093145885,10872,1589275161093021537,,-0.0764336490081,-5.40455686901,3.60832068515,0.695897915742,-0.0147543606992,-0.0328823844563
1589275161096041803,10873,1589275161095880298,,-0.076876715262,-5.53717132396,3.63186057499,0.701235784877,-0.01474021376,-0.0328000026764
1589275161098664314,10874,1589275161098578402,,-0.0541904336141,-5.66990871873,3.65570466452,0.703861865729,-0.0133788773715,-0.033507136719
1589275161101728732,10875,1589275161101592062,,-0.0773740054859,-5.67000470789,3.65506421559,0.704774363939,-0.0140366859693,-0.0336349934784
1589275161104613716,10876,1589275161104534755,,-0.0545985972813,-5.67021260855,3.67854685153,0.708306265271,-0.0140542425021,-0.034347262196
1589275161107811082,10877,1589275161107699076,,-0.0545974196236,-5.53783186959,3.67797334428,0.711056717602,-0.0140745388133,-0.0342724823524
1589275161110930828,10878,1589275161110806254,,-0.0548685685005,-5.53787994324,3.67789692486,0.711089579733,-0.0147777376881,-0.036086095885
1589275161113823652,10879,1589275161113698576,,-0.0316163106757,-5.53790670016,3.65503364201,0.710454748198,-0.0161486952373,-0.0432252404191
1589275161119845570,10880,1589275161119737877,,-0.0316404766086,-5.40529326628,3.63150801343,0.710630482749,-0.0162296498832,-0.045025960132
1589275161123027686,10881,1589275161122924170,,-0.008268523963,-5.40519271796,3.6088478621,0.709945274194,-0.0169404300601,-0.0494355875546
1589275161128798176,10882,1589275161128688978,,0.0150222419592,-5.405107946,3.58606951259,0.708329921105,-0.0176355835245,-0.0529480297121
1589275161131825500,10883,1589275161131752962,,0.0620004580421,-5.27267134971,3.56331213543,0.706795875642,-0.0176603725125,-0.0608674902809
1589275161134892836,10884,1589275161134802264,,0.0859735618138,-5.13999603455,3.51710081653,0.702648440279,-0.0183755687341,-0.0680524224191
1589275161137785398,10885,1589275161137696725,,0.0859000111512,-5.14004066037,3.51703739529,0.702647814978,-0.0183869488044,-0.0680558048244
1589275161140859277,10886,1589275161140771391,,0.109160111019,-5.1401155668,3.51744321875,0.700867843228,-0.0190483105578,-0.0706784504023
1589275161143942486,10887,1589275161143847993,,0.108988166656,-5.14000503455,3.51761006813,0.698152859979,-0.0197273405552,-0.0725496721532
1589275161146750607,10888,1589275161146663786,,0.108661924571,-5.14017039767,3.54067803271,0.699860218692,-0.0197142950526,-0.0734243871082
1589275161149903771,10889,1589275161149678313,,0.109039762185,-5.1402083802,3.540611275,0.699861130673,-0.0196648733503,-0.0734289472112
1589275161152814806,10890,1589275161152675205,,0.109648051772,-5.14001753633,3.51757129252,0.700012093272,-0.0196458939052,-0.0734324380796
1589275161155756239,10891,1589275161155661537,,0.109504444833,-5.14014420297,3.54069010385,0.701711338949,-0.0196018264319,-0.0742977086344
1589275161158793100,10892,1589275161158653081,,0.0860130833168,-5.2725930014,3.56392620842,0.702446080169,-0.0195601324992,-0.0726340369053
1589275161161821107,10893,1589275161161717744,,0.0858483556774,-5.27261433406,3.58720017447,0.703198194022,-0.0195265548902,-0.0717088591361
1589275161164945895,10894,1589275161164715865,,0.0630111609297,-5.27253578921,3.58679915031,0.708576843841,-0.0174859721791,-0.0654009723015
1589275161167835701,10895,1589275161167721893,,0.063411197998,-5.2724828823,3.58686987153,0.70857578639,-0.0174479719496,-0.0654225744299
1589275161170725175,10896,1589275161170639540,,0.0629374129774,-5.27270762065,3.63325686541,0.712819943423,-0.0174146235823,-0.0635356119855
1589275161173720363,10897,1589275161173628764,,0.0168123574644,-5.40502863485,3.60959148413,0.713798744069,-0.0167288969194,-0.059275464011
1589275161179815956,10898,1589275161179716572,,-0.0307334297285,-5.53762116419,3.65547376317,0.720682626539,-0.0160626378658,-0.0512550195921
1589275161183113397,10899,1589275161182990921,,-0.0547730384774,-5.53780366986,3.70143241829,0.723967831534,-0.0160666282249,-0.0467846627639
1589275161188941575,10900,1589275161188786236,,-0.0558172434096,-5.67051264027,3.74812805041,0.727284008675,-0.0153933668806,-0.0439998437105
1589275161191751911,10901,1589275161191672228,,-0.0811712955066,-5.93568010297,3.81819788479,0.734998616754,-0.0147881010699,-0.039454548322
1589275161194986187,10902,1589275161194879587,,-0.130339561557,-6.06856167522,3.93367288203,0.743360729948,-0.0148370579937,-0.0359450935162
1589275161197832924,10903,1589275161197718638,,-0.130667070929,-6.06856390124,3.93365858242,0.743360169366,-0.014874545391,-0.0359411931619
1589275161200765774,10904,1589275161200670512,,-0.107411000079,-6.06841310578,3.9110646434,0.746276415777,-0.0142505153008,-0.0366368781721
1589275161203896013,10905,1589275161203795836,,-0.132221906707,-6.20099001222,3.95756006565,0.752371184143,-0.0143126817326,-0.0357595211001
1589275161206837128,10906,1589275161206737368,,-0.132560598071,-6.20091730584,3.95766265509,0.752370437116,-0.0143539845378,-0.0357586831081
1589275161209997844,10907,1589275161209862923,,-0.133288105766,-6.20095104789,3.98091013744,0.755888000832,-0.0143987429097,-0.0356953561456
1589275161212843907,10908,1589275161212749412,,-0.133504365568,-6.20096991277,3.9808735053,0.759564128856,-0.014433160529,-0.0365386724966
1589275161215891407,10909,1589275161215806631,,-0.109733361769,-6.06843592275,3.95771092473,0.761594238632,-0.0144586628779,-0.0390857703571
1589275161218833524,10910,1589275161218727806,,-0.109536306545,-6.06836236897,3.93440721123,0.760856958282,-0.0144799369634,-0.0409081250515
1589275161221860902,10911,1589275161221706098,,-0.10890903319,-5.93566334536,3.91099750829,0.759236736046,-0.0151619791636,-0.0445792429054
1589275161224757402,10912,1589275161224683153,,-0.0853627790984,-5.8032446668,3.91098970992,0.758361290087,-0.0144841434506,-0.0462677217906
1589275161227845337,10913,1589275161227714588,,-0.0614044349318,-5.80312432846,3.86495627955,0.755983028725,-0.0158223879409,-0.0507115485509
1589275161230822866,10914,1589275161230736113,,-0.036334562135,-5.53805696009,3.81817992492,0.750013388317,-0.0164410782236,-0.0579746453129
1589275161233819690,10915,1589275161233720864,,-0.0360042385835,-5.53808649763,3.81814021119,0.750014351805,-0.0163960451059,-0.0579749342269
1589275161239909161,10916,1589275161239776325,,0.0121875682382,-5.53786434161,3.74944829334,0.741486283342,-0.0169971303453,-0.0678481043236
1589275161242879514,10917,1589275161242781143,,0.0362856384495,-5.40550864059,3.74936096908,0.739752746226,-0.0169272924359,-0.0732096437894
1589275161245826337,10918,1589275161245729642,,0.0606357521838,-5.40525554658,3.70360681452,0.735580907499,-0.0175421230506,-0.0785955674721
1589275161248839584,10919,1589275161248744290,,0.0609038840248,-5.40522429629,3.70364802303,0.735581483458,-0.0175078679793,-0.0785978150924
1589275161251870962,10920,1589275161251786042,,0.0846092405947,-5.40537778346,3.70391767963,0.736523113648,-0.0174685453842,-0.0802768397378
1589275161254869299,10921,1589275161254750075,,0.0846321924864,-5.53790791553,3.70425020223,0.735666725175,-0.0181030795129,-0.0830324112023
1589275161257853081,10922,1589275161257760947,,0.0847906843644,-5.53789922688,3.70425956735,0.735665782224,-0.0180897406855,-0.0830436720939
1589275161260855869,10923,1589275161260756463,,0.084500405522,-5.53800155242,3.72741465077,0.73551246784,-0.0187512805336,-0.0830588951022
1589275161263957744,10924,1589275161263859157,,0.0603669939496,-5.53818324174,3.77327012886,0.737935775739,-0.0187552830537,-0.0813491903345
1589275161266803177,10925,1589275161266713804,,0.0602904117337,-5.53826960449,3.77314459207,0.737935878555,-0.0187617052086,-0.0813467767354
1589275161270013749,10926,1589275161269809649,,0.036580348983,-5.67075518939,3.77305301946,0.73881168255,-0.0194494271311,-0.0796535590084
1589275161272808322,10927,1589275161272728065,,0.0126860035613,-5.67064572358,3.77272152933,0.744206136798,-0.0188654701425,-0.0742171658316
1589275161275878189,10928,1589275161275790129,,0.0123605845478,-5.67067450725,3.77267934547,0.744205156543,-0.0189070343187,-0.0742164182872
1589275161281866350,10929,1589275161281757338,,0.0119453269302,-5.53828771534,3.79554602769,0.751223583121,-0.0189614390511,-0.0659014745422
1589275161284866077,10930,1589275161284760138,,0.0114873787075,-5.53809440997,3.7958294882,0.751222485271,-0.0190238455117,-0.0658960035221
1589275161287899667,10931,1589275161287787751,,-0.0128766017874,-5.67057835146,3.81904115431,0.752850756575,-0.0190731841016,-0.0632607828153
1589275161290846346,10932,1589275161290740560,,-0.0391641319299,-5.9360493843,3.93525555296,0.759325707773,-0.0184522976233,-0.0569289200688
1589275161294063472,10933,1589275161293972271,,-0.0394811482506,-5.93600746218,3.93531562102,0.759325435454,-0.0184882327487,-0.0569208927869
1589275161297184776,10934,1589275161297079346,,-0.0641204105691,-6.06869309664,3.98163645855,0.760816002052,-0.018515909175,-0.0542969827782
1589275161302810242,10935,1589275161302685656,,-0.0422500664613,-6.20149756465,4.02869920274,0.762315808756,-0.0178749222746,-0.0523015394097
1589275161305746909,10936,1589275161305650989,,-0.0439011690416,-6.46690957034,4.07574302229,0.768434175216,-0.0179144146248,-0.0522064753388
1589275161308872604,10937,1589275161308764436,,-0.0443419681484,-6.46700262587,4.09890808786,0.775611158816,-0.0179368213633,-0.0520844885213
1589275161311806718,10938,1589275161311704604,,-0.0442856278285,-6.46696842719,4.098962653,0.775611795836,-0.0179267810556,-0.0520784587527
1589275161317861412,10939,1589275161317707814,,-0.06703793194,-6.33428156342,4.09833681622,0.77833464823,-0.0185933164887,-0.051278083202
1589275161320816702,10940,1589275161320717760,,-0.0426054625276,-6.20152572618,4.07538283538,0.780433051292,-0.019884395405,-0.0574900358894
1589275161324040957,10941,1589275161323888958,,-0.0184996365974,-6.06913550475,4.07533955924,0.77867199279,-0.0198259481366,-0.0610317322065
1589275161330053779,10942,1589275161329838175,,0.0778991236836,-5.67123465291,3.96016428616,0.76870513363,-0.0217779328815,-0.0760994581845
1589275161335734155,10943,1589275161335579687,,0.0782978777554,-5.67110985565,3.96033513515,0.768705881497,-0.0217307814458,-0.0761053825682
1589275161338950885,10944,1589275161338844323,,0.149572109734,-5.53859176578,3.91477182834,0.762808777096,-0.0230074982788,-0.0876295623683
1589275161341832910,10945,1589275161341754880,,0.174351044748,-5.40592300815,3.86840712483,0.755038980605,-0.0236004415555,-0.0967235176417
1589275161344852797,10946,1589275161344773404,,0.174704788447,-5.40586662273,3.86846996038,0.755037910669,-0.0235646581087,-0.0967405927186
1589275161347872022,10947,1589275161347797027,,0.175897599236,-5.40579591206,3.82193996367,0.751762870189,-0.0241662316505,-0.101360606169
