%time,field.header.seq,field.header.stamp,field.header.frame_id,field.vector.x,field.vector.y,field.vector.z
1589275513378539171,1857,1589275513378425333,,-0.0129588515526,-2.22107479886,1.26671010275
1589275513384502680,1858,1589275513384398576,,-0.0129975456733,-2.26723832742,1.2770788655
1589275513390485426,1859,1589275513390386533,,-0.013174138524,-2.31372033666,1.28789323243
1589275513396498041,1860,1589275513396356696,,-0.0132280303399,-2.35973116218,1.29849302132
1589275513402578571,1861,1589275513402481390,,-0.0132612994477,-2.40609585452,1.30945589858
1589275513408506255,1862,1589275513408440751,,-0.013314578074,-2.45387175434,1.32007721041
1589275513414430613,1863,1589275513414341547,,-0.0134242454027,-2.5011496703,1.33098076296
1589275513420418037,1864,1589275513420345390,,-0.0135223853768,-2.54920668964,1.34112893281
1589275513426758778,1865,1589275513426661640,,-0.0134141793391,-2.596824542,1.35236414362
1589275513432708835,1866,1589275513432590587,,-0.0134707198711,-2.59813556831,1.35104470657
1589275513438052699,1867,1589275513437980491,,-0.0135520365603,-2.64616498922,1.36219544977
1589275513444389384,1868,1589275513444270130,,-0.0135533671833,-2.69480319776,1.37307192362
1589275513450320252,1869,1589275513450193585,,-0.0134620315807,-2.74317268809,1.38468035938
1589275513456372747,1870,1589275513456286377,,-0.013499835937,-2.79228761198,1.39587341089
1589275513462513561,1871,1589275513462407963,,-0.013518109202,-2.84128281893,1.40757640797
1589275513468450763,1872,1589275513468366500,,-0.0134999402295,-2.89078180741,1.4189572033
1589275513474526127,1873,1589275513474400034,,-0.0133994433848,-2.93979243932,1.43075863968
1589275513480843333,1874,1589275513480733574,,-0.0133752754945,-2.98987602849,1.4421631113
1589275513486756262,1875,1589275513486666102,,-0.0132929820163,-3.02431709793,1.45051693534
1589275513492415061,1876,1589275513492296889,,-0.0132567110483,-3.03962578247,1.45374369139
1589275513498589104,1877,1589275513498448978,,-0.0132390894451,-3.08926315538,1.46570286044
1589275513504569267,1878,1589275513504437507,,-0.0131411557161,-3.13957580502,1.47776767375
1589275513510540874,1879,1589275513510424094,,-0.0131413671145,-3.18968737179,1.48962922142
1589275513516311356,1880,1589275513516216785,,-0.0130573075598,-3.23980531952,1.50172852416
1589275513522536782,1881,1589275513522377647,,-0.0131775611245,-3.29046573072,1.51395366831
1589275513528479986,1882,1589275513528389719,,-0.0130893934558,-3.34097342151,1.52609058548
1589275513534547439,1883,1589275513534457725,,-0.0130926421775,-3.3919170214,1.53852596944
1589275513540413977,1884,1589275513540318351,,-0.0131276858965,-3.44278723795,1.55071374248
1589275513552804483,1885,1589275513552600672,,-0.0130873223347,-3.49364192617,1.56249579077
1589275513558554105,1886,1589275513558456665,,-0.0130273392523,-3.54461048471,1.57529992264
1589275513564596826,1887,1589275513564411421,,-0.0128616373518,-3.59548728524,1.58767943667
1589275513570592402,1888,1589275513570508209,,-0.0128916996371,-3.64690123905,1.60034829154
1589275513576516533,1889,1589275513576401408,,-0.0128419923429,-3.69784504343,1.6127425725
1589275513582650152,1890,1589275513582504470,,-0.0129317622542,-3.74968934804,1.62519589213
1589275513588129202,1891,1589275513588041374,,-0.0128243784981,-3.80053354384,1.63737868038
1589275513594222835,1892,1589275513594099689,,-0.0128333018668,-3.85199724562,1.64952602581
1589275513600130019,1893,1589275513600020508,,-0.012589933804,-3.90319991681,1.66165213816
1589275513606413705,1894,1589275513606209375,,-0.0124617800567,-3.90233046188,1.66093741874
1589275513612125562,1895,1589275513612047347,,-0.0123530119627,-3.95330642485,1.67288741462
1589275513618092404,1896,1589275513618007984,,-0.0122824884647,-4.0045492174,1.68519721326
1589275513624463870,1897,1589275513624359972,,-0.0119486597264,-4.05475834859,1.6971220521
1589275513630666572,1898,1589275513630583992,,-0.0119051027221,-4.10570663481,1.70906979973
1589275513636641367,1899,1589275513636535147,,-0.0116698831693,-4.15391132441,1.71955881246
1589275513642990199,1900,1589275513642878957,,-0.0116990602277,-4.20458482505,1.73131158874
1589275513648555427,1901,1589275513648452780,,-0.0119810235012,-4.25299323881,1.7410862788
1589275513654642056,1902,1589275513654453103,,-0.0118942313019,-4.30281934465,1.75302597363
1589275513660634150,1903,1589275513660492055,,-0.0112165053171,-4.34591243671,1.76298090031
1589275513666603070,1904,1589275513666510728,,-0.0109982404811,-4.37535446141,1.76981375374
1589275513672635573,1905,1589275513672509307,,-0.0109259180448,-4.391091439,1.77258033156
1589275513678571071,1906,1589275513678480638,,-0.0110252297027,-4.44167399722,1.78463621584
1589275513684735964,1907,1589275513684555173,,-0.0112347268465,-4.49043723676,1.79511799409
1589275513690033563,1908,1589275513689947363,,-0.0112123316774,-4.5415706646,1.80732732704
1589275513696631723,1909,1589275513696451658,,-0.0113735199718,-4.58976251586,1.81832117112
1589275513702543925,1910,1589275513702435271,,-0.0116246821094,-4.64027527005,1.83017254364
1589275513708550045,1911,1589275513708459572,,-0.0118456420432,-4.68881478741,1.84117208021
1589275513714583854,1912,1589275513714472581,,-0.01191185599,-4.74014840176,1.85334172037
1589275513720580211,1913,1589275513720463023,,-0.0122241464352,-4.78914572047,1.86433074449
1589275513726722607,1914,1589275513726648021,,-0.0121806868901,-4.8404551623,1.87712757269
1589275513732528818,1915,1589275513732429183,,-0.0126897469361,-4.83621954102,1.8754008913
1589275513738627690,1916,1589275513738506463,,-0.0126519758821,-4.88729021318,1.88850300351
1589275513744883318,1917,1589275513744747805,,-0.0127649260711,-4.93852344327,1.90177765028
1589275513750749694,1918,1589275513750591331,,-0.0129575895065,-4.98743006456,1.91478095073
1589275513756640639,1919,1589275513756543812,,-0.0131669968978,-5.03831933114,1.92714766606
1589275513762568877,1920,1589275513762448360,,-0.0132664512769,-5.08498408907,1.93848024349
1589275513768721540,1921,1589275513768595462,,-0.0132413315727,-5.13519131292,1.950885145
1589275513774599554,1922,1589275513774504046,,-0.0135700924238,-5.18422793229,1.96220671643
1589275513780621305,1923,1589275513780508315,,-0.0136421073645,-5.23219360565,1.97330749834
1589275513786834313,1924,1589275513786698149,,-0.0137348281895,-5.28242842326,1.98527657618
1589275513792667498,1925,1589275513792561992,,-0.0135708419857,-5.27963602338,1.98433122178
1589275513798720860,1926,1589275513798607713,,-0.0134713837422,-5.32934494413,1.99632697171
1589275513804720519,1927,1589275513804541197,,-0.013522191009,-5.37658064462,2.00782947126
1589275513810954501,1928,1589275513810784826,,-0.0135516995024,-5.42672340629,2.0206720476
1589275513819840505,1929,1589275513819729056,,-0.0139796524651,-5.49907620629,2.03827691667
1589275513825469399,1930,1589275513825356725,,-0.0137768488965,-5.5189930769,2.04300553251
1589275513831548761,1931,1589275513831415934,,-0.013767864945,-5.5687585047,2.05483813927
1589275513837450323,1932,1589275513837376470,,-0.0138675240558,-5.61532441452,2.06562637098
1589275513843663959,1933,1589275513843587530,,-0.0139887753486,-5.66516064309,2.07762662414
1589275513849457328,1934,1589275513849374805,,-0.0143358164578,-5.71097858737,2.08787520143
1589275513855712439,1935,1589275513855627166,,-0.0143637513843,-5.75995971056,2.09947314892
1589275513861396365,1936,1589275513861328403,,-0.014293410928,-5.80462933018,2.10974252094
1589275513867442033,1937,1589275513867372580,,-0.0144482623542,-5.85298083577,2.12123715814
1589275513876437259,1938,1589275513876305355,,-0.0139507105552,-5.89182518207,2.13113998805
1589275513882138461,1939,1589275513882066348,,-0.0139657057584,-5.93942350611,2.14306292
1589275513888446709,1940,1589275513888341532,,-0.0137926847361,-5.98216999159,2.15399177362
1589275513894422719,1941,1589275513894319817,,-0.0137581220902,-6.02933342672,2.16577950503
1589275513900498219,1942,1589275513900400876,,-0.0133866402889,-6.07069065449,2.17636999347
1589275513906596258,1943,1589275513906513896,,-0.0131619522863,-6.11244395162,2.18623213881
1589275513912481382,1944,1589275513912373705,,-0.0131281116711,-6.10710187342,2.18454986758
1589275513918306184,1945,1589275513918205530,,-0.0130476560034,-6.15392352615,2.19599446383
1589275513924303479,1946,1589275513924240714,,-0.0129059523007,-6.19550811772,2.20618991514
1589275513930337607,1947,1589275513930227910,,-0.0127814043848,-6.23666462201,2.2156986899
1589275513936477868,1948,1589275513936388373,,-0.0124772177796,-6.27743838213,2.22600724452
1589275513942629110,1949,1589275513942539740,,-0.0122809602196,-6.31775205986,2.2356369286
1589275513948391081,1950,1589275513948278789,,-0.0123270947726,-6.36300337814,2.24673285477
1589275513954273872,1951,1589275513954192759,,-0.0119213981575,-6.40185647755,2.25686225145
1589275513960205221,1952,1589275513960119346,,-0.0115424947643,-6.44593353291,2.26834953838
1589275513966286699,1953,1589275513966062993,,-0.0112607194118,-6.43452525746,2.26566258451
1589275513969149604,1954,1589275513969066578,,-0.0111739654054,-6.47830327912,2.27658212588
1589275513975151267,1955,1589275513975070986,,-0.0102647653536,-6.51460050431,2.28592454438
1589275513978165914,1956,1589275513978053147,,-0.00987829312001,-6.50791696452,2.284529823
1589275513984148073,1957,1589275513984080775,,-0.00947821579853,-6.54497098504,2.29363867564
1589275513990167761,1958,1589275513990065682,,-0.00920787718938,-6.58824671182,2.30441623834
1589275513996170163,1959,1589275513996094477,,-0.00805973913801,-6.61576121798,2.31223011358
1589275514002175580,1960,1589275514002103925,,-0.0076176908927,-6.65269476271,2.32130553969
1589275514008124012,1961,1589275514008060005,,-0.00710931243436,-6.69450094886,2.33198532872
1589275514011214791,1962,1589275514011140863,,-0.00682287485638,-6.68214210806,2.32926884893
1589275514017443515,1963,1589275514017328945,,-0.00667303082217,-6.72359372602,2.33929313596
1589275514023174093,1964,1589275514023093586,,-0.00570751542257,-6.75893996746,2.34895311578
1589275514026241302,1965,1589275514026069680,,-0.00539780190859,-6.75214213991,2.34737792702
1589275514029127739,1966,1589275514029052130,,-0.00505059615307,-6.7876468147,2.35647242265
1589275514032188652,1967,1589275514032106260,,-0.00461325886671,-6.78031728249,2.35495771085
1589275514035151139,1968,1589275514035076501,,-0.00406112391792,-6.81371334925,2.36342381071
1589275514038117115,1969,1589275514038054979,,-0.00372226992508,-6.80543331776,2.36180978816
1589275514041155154,1970,1589275514041067067,,-0.00279840108353,-6.83728692182,2.37037503816
1589275514044605088,1971,1589275514044518493,,-0.00229238983086,-6.82861987134,2.36851226477
1589275514050591030,1972,1589275514050490326,,-0.00170534329175,-6.85946735306,2.37634221681
1589275514056467777,1973,1589275514056370695,,-0.000965301914324,-6.89793308492,2.38684652418
1589275514062615918,1974,1589275514062520245,,-0.000285236280329,-6.92828596735,2.39495587845
1589275514068416837,1975,1589275514068299499,,0.00033189474391,-6.96663374606,2.4047763622
1589275514074491657,1976,1589275514074389705,,0.000918563724794,-6.99600738914,2.41313662163
1589275514080426641,1977,1589275514080309980,,0.00132424598431,-7.03466603533,2.42331267623
1589275514086607065,1978,1589275514086525856,,0.00229294756056,-7.03258691615,2.42378862593
1589275514092695885,1979,1589275514092559904,,0.00277557410995,-7.05527610397,2.43022984739
1589275514098661365,1980,1589275514098586919,,0.00329520226077,-7.08524638394,2.43826356987
1589275514104432431,1981,1589275514104342046,,0.0037012272154,-7.12276865314,2.44761981774
1589275514110397900,1982,1589275514110313745,,0.00427567642869,-7.15082090673,2.45483751123
1589275514116324061,1983,1589275514116192525,,0.00460434606657,-7.18680554431,2.46448850722
1589275514122355001,1984,1589275514122269430,,0.00569444881398,-7.21280300407,2.47177736875
1589275514128323276,1985,1589275514128227640,,0.00583895771067,-7.24826360821,2.48063129669
1589275514134519254,1986,1589275514134335484,,0.0066721895559,-7.27258144523,2.48754416974
1589275514137363286,1987,1589275514137200671,,0.00693821073876,-7.26300435982,2.48503538529
1589275514143743905,1988,1589275514143663395,,0.00800631676892,-7.28618901099,2.49172950395
1589275514149266769,1989,1589275514149161836,,0.00855646786455,-7.31964869781,2.50078712229
1589275514152447396,1990,1589275514152349648,,0.0089848947137,-7.30923935883,2.49832693601
1589275514158503235,1991,1589275514158427921,,0.00994904403506,-7.33197215042,2.50488825257
1589275514164453872,1992,1589275514164376069,,0.0104569457717,-7.36535801445,2.51357618051
1589275514170336976,1993,1589275514170244323,,0.0111315282135,-7.38741569897,2.51957037789
1589275514176529691,1994,1589275514176440884,,0.0116426108113,-7.4201133749,2.5276170705
1589275514182374658,1995,1589275514182284292,,0.0123446200122,-7.44308676008,2.5338276016
1589275514188297395,1996,1589275514188193223,,0.012428132429,-7.46647083588,2.53848732963
1589275514194339901,1997,1589275514194279476,,0.0129836656421,-7.4978057159,2.54630129433
1589275514200397670,1998,1589275514200310971,,0.0133845264701,-7.53004301892,2.55430001649
1589275514206532420,1999,1589275514206446427,,0.013899285404,-7.51965691308,2.55155204641
1589275514212624622,2000,1589275514212496293,,0.0144657868673,-7.54292733465,2.55763192806
1589275514218610216,2001,1589275514218496792,,0.0148685205136,-7.57386047482,2.56532547099
1589275514224606184,2002,1589275514224501502,,0.0157183061183,-7.59443086165,2.57111378543
1589275514230644722,2003,1589275514230490441,,0.0162286929522,-7.62443899753,2.57922506038
1589275514236485398,2004,1589275514236413015,,0.0171675765372,-7.64340263979,2.58474567355
1589275514242875960,2005,1589275514242737064,,0.0175450700393,-7.67491450161,2.59253328549
1589275514248448608,2006,1589275514248350884,,0.0189924468462,-7.69099633809,2.59730337753
1589275514254485038,2007,1589275514254402678,,0.0195729759968,-7.72172885659,2.60525161437
1589275514260838082,2008,1589275514260730291,,0.0201810981367,-7.74880499936,2.61210406768
1589275514266558816,2009,1589275514266428202,,0.0209114559815,-7.7293002727,2.60727502288
1589275514272781847,2010,1589275514272653494,,0.0213502437511,-7.75782391183,2.61449168798
1589275514278594481,2011,1589275514278475161,,0.0215971573636,-7.78648711959,2.62135920932
1589275514284609767,2012,1589275514284508746,,0.0223527322313,-7.80643909449,2.62607645347
1589275514290761051,2013,1589275514290665994,,0.0230811688222,-7.83369119214,2.63308311134
1589275514296661274,2014,1589275514296551556,,0.0235850043495,-7.8609785502,2.64004635895
1589275514302626126,2015,1589275514302529388,,0.0243353283068,-7.88176828191,2.64473462122
1589275514308540418,2016,1589275514308433629,,0.024546758682,-7.89893999393,2.64857404869
1589275514314511748,2017,1589275514314426836,,0.0252428812223,-7.9261616086,2.65607059004
1589275514320610308,2018,1589275514320519789,,0.0255978768839,-7.95143599968,2.66258718031
1589275514326910101,2019,1589275514326744436,,0.0263957002553,-7.9661334198,2.66592811435
1589275514332749339,2020,1589275514332628531,,0.0272226896433,-7.94764130173,2.66120109457
1589275514338601792,2021,1589275514338496985,,0.0276150769773,-7.97205446258,2.66712131555
1589275514344805631,2022,1589275514344681214,,0.0278505713176,-7.99604988783,2.67286358527
1589275514350570016,2023,1589275514350486244,,0.0285912658071,-8.01844249091,2.67842519979
1589275514356602031,2024,1589275514356514137,,0.028942667456,-8.04212878309,2.68374058692
1589275514362555018,2025,1589275514362465444,,0.0296499865652,-8.06319184465,2.68959679676
1589275514368598501,2026,1589275514368513583,,0.0305234858387,-8.0741007735,2.69215142514
1589275514374780950,2027,1589275514374607247,,0.0312634511774,-8.09485730517,2.69782253256
1589275514380745769,2028,1589275514380602234,,0.0317254535601,-8.11490758729,2.70278190692
1589275514386986856,2029,1589275514386879136,,0.0332137912331,-8.12400514626,2.70630880332
1589275514392898630,2030,1589275514392804711,,0.0336218187886,-8.11330180953,2.70314158102
1589275514398523847,2031,1589275514398436624,,0.0345198745526,-8.13234978879,2.70837799656
1589275514404652164,2032,1589275514404537549,,0.034802459412,-8.15200653039,2.71300468779
1589275514410595363,2033,1589275514410496561,,0.0355652637863,-8.16999114651,2.71822515087
1589275514416639946,2034,1589275514416525029,,0.0361817205174,-8.18817594917,2.72275254867
1589275514422592858,2035,1589275514422511201,,0.0368353268795,-8.20572818409,2.72741237555
1589275514428643930,2036,1589275514428493136,,0.0379851259387,-8.21236414895,2.72898698526
1589275514434610356,2037,1589275514434523783,,0.0387294007062,-8.22944808386,2.73317814492
1589275514440605670,2038,1589275514440480254,,0.0393451124066,-8.24898493093,2.73797705372
1589275514449764152,2039,1589275514449647050,,0.0410294401422,-8.24491544517,2.73697996849
1589275514455689066,2040,1589275514455606734,,0.0415836874495,-8.26077929003,2.74168801311
1589275514461899345,2041,1589275514461777360,,0.0420345620356,-8.27476485754,2.74528973342
1589275514467918368,2042,1589275514467810158,,0.0427568804202,-8.28996542618,2.74963181189
1589275514476844519,2043,1589275514476733478,,0.0435247793463,-8.29462161272,2.7510413645
1589275514482517700,2044,1589275514482412876,,0.0442803519621,-8.30875504841,2.7546169579
1589275514488529510,2045,1589275514488441871,,0.0447162877077,-8.32233308571,2.75778687397
1589275514494487772,2046,1589275514494405423,,0.0454892066138,-8.33566697401,2.76129769877
1589275514500703576,2047,1589275514500615022,,0.0462666603428,-8.34724821417,2.76415272366
1589275514506901315,2048,1589275514506802112,,0.0467625120756,-8.35847500894,2.76683424942
1589275514512668143,2049,1589275514512566552,,0.0476012340698,-8.34687015381,2.76448420265
1589275514518536492,2050,1589275514518471681,,0.0486629915866,-8.34590937692,2.76398346994
1589275514524502037,2051,1589275514524400228,,0.0493414461194,-8.35631365782,2.76650965183
1589275514530405303,2052,1589275514530328090,,0.0509645108112,-8.35302160854,2.76671241235
1589275514533905069,2053,1589275514533804948,,0.051825835746,-8.36213301739,2.76943100119
1589275514539906247,2054,1589275514539701349,,0.0536939030834,-8.3368962819,2.76419381798
1589275514545876954,2055,1589275514545773979,,0.0545772277068,-8.34457122577,2.76633423566
1589275514551638726,2056,1589275514551538924,,0.0564768903342,-8.33993435731,2.76670603032
1589275514557381084,2057,1589275514557279205,,0.0575439303708,-8.34623681185,2.76917564537
1589275514563445757,2058,1589275514563335021,,0.0604930216745,-8.32648879242,2.76565357632
1589275514566489929,2059,1589275514566411783,,0.0611095656497,-8.30181846569,2.75970901041
1589275514572369639,2060,1589275514572240730,,0.0630662720335,-8.30811021951,2.76266623459
1589275514575398002,2061,1589275514575288323,,0.0640550005796,-8.31308756834,2.76438116371
1589275514581384071,2062,1589275514581276266,,0.0646505734883,-8.31852318504,2.76638959265
1589275514587409525,2063,1589275514587323067,,0.0653936507741,-8.32405407214,2.76815409067
1589275514596429614,2064,1589275514596350133,,0.0675681322232,-8.30426570908,2.76455915215
1589275514602490398,2065,1589275514602416645,,0.0693495585321,-8.29636193595,2.76405276467
1589275514608449064,2066,1589275514608350624,,0.0701533078383,-8.29974011713,2.76564388015
1589275514614383844,2067,1589275514614296758,,0.0716472035231,-8.29020891234,2.76491917202
1589275514620449926,2068,1589275514620379861,,0.0726314543336,-8.29240930513,2.76683661157
1589275514626656402,2069,1589275514626575460,,0.0742201968396,-8.28192612358,2.76522802005
1589275514632430350,2070,1589275514632322228,,0.0755026747684,-8.26848570887,2.76289724214
1589275514635317005,2071,1589275514635222940,,0.0777405139559,-8.25624576008,2.76167576843
1589275514638724270,2072,1589275514638617866,,0.0789761464082,-8.24264003425,2.75907662091
1589275514645066440,2073,1589275514644930773,,0.081021812204,-8.22911373387,2.75796724761
1589275514650640253,2074,1589275514650532159,,0.082063292489,-8.22903211375,2.75897143025
1589275514656718503,2075,1589275514656605880,,0.0840528171844,-8.21514899114,2.75800777605
1589275514662662760,2076,1589275514662550953,,0.0851751861504,-8.21355214539,2.75864660071
1589275514668685759,2077,1589275514668600671,,0.0862223695528,-8.21278708005,2.75934766004
1589275514674589757,2078,1589275514674502980,,0.0884094858276,-8.19810096947,2.75815003359
1589275514680841155,2079,1589275514680715262,,0.0898789108153,-8.18435246343,2.75603758816
1589275514686793646,2080,1589275514686716791,,0.0908197446592,-8.15266345922,2.74892576821
1589275514692559092,2081,1589275514692476428,,0.092291787373,-8.15729990883,2.75216060749
1589275514698711600,2082,1589275514698622557,,0.0930946256655,-8.15501530548,2.75236695818
1589275514704675116,2083,1589275514704589973,,0.0938373339697,-8.15274932874,2.75342432677
1589275514710556131,2084,1589275514710482709,,0.0952518112411,-8.13641314273,2.75044944994
1589275514716426234,2085,1589275514716333098,,0.0959441996047,-8.13205851955,2.75050620127
1589275514722437012,2086,1589275514722361111,,0.0973087482499,-8.11430025803,2.74877472422
1589275514725683542,2087,1589275514725531916,,0.0981581646972,-8.10062326701,2.74710696617
1589275514731460696,2088,1589275514731376593,,0.0996145517469,-8.08150037789,2.745021958
1589275514734357271,2089,1589275514734274049,,0.0998458173473,-8.07416527008,2.74443073202
1589275514737393179,2090,1589275514737314138,,0.100380322603,-8.04690668575,2.73911739043
1589275514740526591,2091,1589275514740446792,,0.101241266101,-8.0390961189,2.738803817
1589275514749560374,2092,1589275514749486805,,0.104063970616,-8.00652913326,2.73193673359
1589275514755553634,2093,1589275514755431975,,0.105633599038,-7.98457519196,2.72928593354
1589275514761590504,2094,1589275514761463946,,0.105958549597,-7.97661340583,2.72986272449
1589275514767586872,2095,1589275514767481561,,0.106602924353,-7.95375927041,2.72949717086
1589275514776616531,2096,1589275514776527300,,0.108033613637,-7.91837439565,2.72619751789
1589275514782423497,2097,1589275514782355091,,0.108239083174,-7.90916759068,2.72505285407
1589275514785485375,2098,1589275514785408964,,0.108071171593,-7.88154292667,2.72068012861
1589275514791477523,2099,1589275514791334991,,0.107647610983,-7.87198685765,2.71905610001
1589275514794755291,2100,1589275514794664978,,0.106300480087,-7.84688025192,2.71417631294
1589275514800516308,2101,1589275514800374279,,0.106018517743,-7.83610161167,2.71314022153
1589275514803517204,2102,1589275514803435831,,0.104972578226,-7.80841045546,2.70723253705
1589275514809416737,2103,1589275514809359347,,0.104414325149,-7.79671612277,2.70619234586
1589275514812640011,2104,1589275514812570362,,0.103840009221,-7.76880280791,2.70269743693
1589275514818365223,2105,1589275514818282751,,0.103136358869,-7.75719272476,2.70102693189
1589275514821453582,2106,1589275514821390281,,0.102394639873,-7.730750814,2.69822334423
1589275514824470971,2107,1589275514824386861,,0.102100418161,-7.7174003732,2.69635279211
1589275514827437272,2108,1589275514827378277,,0.101138882077,-7.69078343489,2.6922106269
1589275514836716366,2109,1589275514836612882,,0.100149619825,-7.66430914674,2.68706550121
1589275514843097579,2110,1589275514843003484,,0.0990511421625,-7.65053196016,2.68418028991
1589275514848689622,2111,1589275514848608477,,0.097575279509,-7.62344916883,2.67852529657
1589275514854610978,2112,1589275514854538195,,0.0971853931048,-7.61266431727,2.6756787165
1589275514860518597,2113,1589275514860411104,,0.0966938874664,-7.59815716263,2.67321409501
1589275514866685435,2114,1589275514866613941,,0.0962387846616,-7.58152954973,2.66950595594
1589275514872443042,2115,1589275514872372850,,0.0953471413562,-7.55625553203,2.66458310906
1589275514878792283,2116,1589275514878689836,,0.0948442482791,-7.53852477128,2.66186382522
1589275514884653890,2117,1589275514884544373,,0.0941947193521,-7.51374775402,2.65929331594
1589275514890818700,2118,1589275514890666909,,0.0931588440842,-7.48372597933,2.65370113085
1589275514896720542,2119,1589275514896603712,,0.0926064665999,-7.47102773332,2.65133910772
1589275514902693648,2120,1589275514902558213,,0.0925695140406,-7.45488067906,2.64943645491
1589275514908630913,2121,1589275514908514263,,0.091200431265,-7.42557234562,2.64336429607
1589275514914698311,2122,1589275514914612270,,0.0905424278074,-7.40910725667,2.64040554242
1589275514920846107,2123,1589275514920746072,,0.0901161621231,-7.39317329504,2.6376910865
1589275514926795359,2124,1589275514926719830,,0.0884518170976,-7.36631553492,2.63198189628
1589275514932389169,2125,1589275514932285140,,0.087990285544,-7.3551833883,2.63021313446
1589275514935686906,2126,1589275514935595153,,0.0866324466748,-7.32671696219,2.62472870082
1589275514941656730,2127,1589275514941582093,,0.0862345731653,-7.30877463933,2.6214736777
1589275514949606392,2128,1589275514949491403,,0.0856461797192,-7.2901214336,2.61760254981
1589275514954092391,2129,1589275514953979645,,0.0849788739552,-7.27095402719,2.61370405678
1589275514960056484,2130,1589275514959970182,,0.0844823413614,-7.22828431838,2.60467040496
1589275514965848137,2131,1589275514965752289,,0.0841858182652,-7.23788378019,2.60834883857
1589275514971688719,2132,1589275514971604750,,0.0834820799162,-7.21681102327,2.60464838053
1589275514977483904,2133,1589275514977392878,,0.0834025486614,-7.19534309019,2.60083816639
1589275514981140975,2134,1589275514980981259,,0.0830432924385,-7.17647810557,2.5971483932
1589275514987110070,2135,1589275514986789440,,0.082295963994,-7.14691952664,2.59125815355
1589275514992723293,2136,1589275514992627648,,0.0824254240632,-7.12648533166,2.58744265643
1589275514998581990,2137,1589275514998451327,,0.0818437914289,-7.10331380625,2.58293442472
1589275515004469917,2138,1589275515004370945,,0.0809311827811,-7.06584259211,2.57584149068
1589275515007525123,2139,1589275515007431805,,0.0804702880262,-7.04328389332,2.57152310055
1589275515010626772,2140,1589275515010551017,,0.080213034279,-7.034997493,2.57047944134
1589275515016782879,2141,1589275515016671138,,0.0794588695434,-7.00099024914,2.56319084408
1589275515022701683,2142,1589275515022607698,,0.0785844940473,-6.97192127189,2.55862644393
1589275515028664893,2143,1589275515028581013,,0.0777092233921,-6.94999930413,2.55359323138
1589275515034512271,2144,1589275515034406913,,0.0765980307154,-6.92932948855,2.54959693519
1589275515037493009,2145,1589275515037410360,,0.0763204656564,-6.92009202925,2.54934480098
1589275515040392294,2146,1589275515040311078,,0.0754937471503,-6.89955988032,2.54540509192
1589275515044029769,2147,1589275515043865347,,0.0736327468325,-6.88227114017,2.54131322764
1589275515049729442,2148,1589275515049609767,,0.0731011407728,-6.86081128705,2.53665324103
1589275515055646723,2149,1589275515055552211,,0.0726595301175,-6.83755165286,2.53216445661
1589275515061446916,2150,1589275515061310233,,0.0713186452093,-6.80287281026,2.52471861122
1589275515064663623,2151,1589275515064488087,,0.0703187605783,-6.77963486137,2.52123305829
1589275515070808870,2152,1589275515070653474,,0.0699489952111,-6.75401313169,2.51628155218
1589275515076680187,2153,1589275515076554133,,0.0692343311089,-6.71397753795,2.50869114052
1589275515082617328,2154,1589275515082545162,,0.0693576009397,-6.68686697683,2.5043813507
1589275515088617347,2155,1589275515088506525,,0.0687527079315,-6.6454761759,2.4966082059
1589275515094447935,2156,1589275515094297957,,0.0686190011764,-6.61697336919,2.49229481709
1589275515097654686,2157,1589275515097509987,,0.0686541856493,-6.60234184803,2.49069510994
1589275515103779298,2158,1589275515103701184,,0.0678563461317,-6.55997482977,2.48353988072
1589275515109642602,2159,1589275515109503594,,0.0679296916217,-6.53190874275,2.47810615675
1589275515115292045,2160,1589275515115218243,,0.0674092633652,-6.50370180065,2.47181396516
1589275515118371506,2161,1589275515118250896,,0.0671550290977,-6.49229369796,2.47102822877
1589275515121637542,2162,1589275515121495004,,0.0669822921138,-6.46543361445,2.46529514713
1589275515124567383,2163,1589275515124457202,,0.0662741734508,-6.45564938684,2.46345174497
1589275515130635659,2164,1589275515130491411,,0.0657799436216,-6.42967643316,2.45810673778
1589275515133734637,2165,1589275515133619124,,0.0652518339682,-6.40392455243,2.45333450824
1589275515136444174,2166,1589275515136376025,,0.0642788487718,-6.3959010974,2.45213377166
1589275515139504555,2167,1589275515139416699,,0.0628902705919,-6.3793017029,2.45028732154
1589275515145734489,2168,1589275515145620510,,0.0620591993793,-6.35524432493,2.44486527471
1589275515151287620,2169,1589275515151212336,,0.0617238354764,-6.33278717264,2.43990738007
1589275515154310925,2170,1589275515154201871,,0.061430966366,-6.30653321624,2.43457728866
1589275515157249066,2171,1589275515157186346,,0.0608658239687,-6.28842336878,2.43257038364
1589275515160486457,2172,1589275515160432020,,0.0603504429334,-6.25974713117,2.42654152532
1589275515163338410,2173,1589275515163282188,,0.0599579274228,-6.24751026092,2.42526399331
1589275515166915540,2174,1589275515166756978,,0.0596999506816,-6.23634058219,2.42392478614
1589275515172480789,2175,1589275515172412068,,0.0598440908197,-6.21067207294,2.41867620735
1589275515175513587,2176,1589275515175422321,,0.0596496983019,-6.1815702478,2.41299518281
1589275515178549629,2177,1589275515178493923,,0.0600851277427,-6.16027881504,2.40948323631
1589275515181346830,2178,1589275515181268331,,0.0604085770253,-6.1301474648,2.40370002053
1589275515184332701,2179,1589275515184270699,,0.060249973251,-6.11711139987,2.40109461467
1589275515187373152,2180,1589275515187261300,,0.0601502784274,-6.08650436507,2.39486729052
1589275515190335534,2181,1589275515190275442,,0.0601296509213,-6.07557898611,2.39406200454
1589275515196326614,2182,1589275515196235211,,0.0595580380395,-6.03534989322,2.38604333665
1589275515199304851,2183,1589275515199236260,,0.0594734382198,-6.02523017582,2.38484119138
1589275515205479734,2184,1589275515205401309,,0.0589990833901,-5.99639748623,2.37885543269
1589275515208531509,2185,1589275515208447458,,0.0588469747243,-5.96753880365,2.37239001731
1589275515211544930,2186,1589275515211427106,,0.0578977820972,-5.94913304737,2.37016402757
1589275515214475145,2187,1589275515214401341,,0.0575152708409,-5.92369778849,2.36496897352
1589275515217479371,2188,1589275515217379844,,0.0561617685905,-5.90693656352,2.36330442324
1589275515220428250,2189,1589275515220363016,,0.0559547627135,-5.88132097922,2.3578824861
1589275515223478513,2190,1589275515223411916,,0.0546763205308,-5.865571922,2.3561907784
1589275515229553960,2191,1589275515229436084,,0.053483374801,-5.82140313926,2.34858397695
1589275515232299793,2192,1589275515232230524,,0.0532184909144,-5.81293806092,2.34730600692
1589275515235377134,2193,1589275515235297858,,0.052651024892,-5.77439766033,2.33899895838
1589275515238353120,2194,1589275515238289142,,0.0526745910283,-5.76339679321,2.33782733926
1589275515241345734,2195,1589275515241291947,,0.0527065096303,-5.72153649546,2.33029482482
1589275515244487183,2196,1589275515244409785,,0.0525541312413,-5.71068562829,2.32807439449
1589275515247703416,2197,1589275515247637993,,0.0528823861226,-5.66683954676,2.32076746052
1589275515253625041,2198,1589275515253539550,,0.0528869738237,-5.63421301414,2.31397798081
1589275515259819097,2199,1589275515259645292,,0.0528278817781,-5.62266490154,2.31264058318
1589275515265672770,2200,1589275515265579510,,0.0532710105678,-5.59042868783,2.30645339553
1589275515271427835,2201,1589275515271347540,,0.052844226556,-5.54704727187,2.2983368568
1589275515274358726,2202,1589275515274299308,,0.0526306520961,-5.51585352966,2.29161837866
1589275515277373402,2203,1589275515277312412,,0.0525186620183,-5.49626231953,2.2901879507
1589275515280389095,2204,1589275515280308981,,0.052114463659,-5.46550401047,2.28336691727
1589275515283377001,2205,1589275515283306812,,0.0513280737583,-5.45008017391,2.28190041398
1589275515286581916,2206,1589275515286504969,,0.0506917047508,-5.44200498208,2.2809195632
1589275515289488004,2207,1589275515289400814,,0.0501308202352,-5.41421695204,2.27475692954
1589275515292373345,2208,1589275515292299251,,0.0493175562067,-5.40114797103,2.27442552062
1589275515295384459,2209,1589275515295308805,,0.0487880536008,-5.37263222681,2.26832526341
1589275515298391276,2210,1589275515298317664,,0.0484257684924,-5.36579743851,2.26786250041
1589275515301381052,2211,1589275515301315199,,0.0477038901203,-5.32984799161,2.26164778005
1589275515304344236,2212,1589275515304292098,,0.0474390159653,-5.32211584922,2.26157300902
1589275515307437132,2213,1589275515307336522,,0.0474908708236,-5.29247161459,2.25598083454
1589275515310368111,2214,1589275515310310044,,0.0473771596266,-5.28407470344,2.25498377175
1589275515316339098,2215,1589275515316296711,,0.0471819402504,-5.23525783649,2.24685047094
1589275515319440311,2216,1589275515319367136,,0.0472000919952,-5.22599029133,2.2461664247
1589275515322338599,2217,1589275515322290723,,0.0472877701795,-5.19446907356,2.23963990045
1589275515325670090,2218,1589275515325581989,,0.0471599768391,-5.18507670981,2.23899746454
1589275515328377192,2219,1589275515328326817,,0.0472750642165,-5.15229624993,2.23206119154
1589275515331379582,2220,1589275515331321068,,0.0473002117138,-5.14338260747,2.23063844676
1589275515334473695,2221,1589275515334388960,,0.0476677157732,-5.11189482228,2.22469549405
1589275515337433767,2222,1589275515337374275,,0.047622351589,-5.09451186466,2.22316058421
1589275515340742048,2223,1589275515340696886,,0.0477067799828,-5.06335783933,2.21716993088
1589275515346757873,2224,1589275515346699312,,0.0476507266492,-5.03258125379,2.21053206792
1589275515352450465,2225,1589275515352368066,,0.0471113375241,-5.01862432323,2.2097355145
1589275515355384656,2226,1589275515355312054,,0.0471222026601,-4.98864140006,2.20362116506
1589275515358421091,2227,1589275515358312945,,0.0468335040186,-4.97649109438,2.20297256226
1589275515361431360,2228,1589275515361360878,,0.0466139122977,-4.94869855333,2.19702158689
1589275515364390489,2229,1589275515364346769,,0.0461829961272,-4.94327489345,2.19673827264
1589275515367467950,2230,1589275515367381742,,0.0460244652258,-4.91503146396,2.1907488102
1589275515370421361,2231,1589275515370373429,,0.0454648940983,-4.90405022679,2.1901662773
1589275515376416342,2232,1589275515376351265,,0.0449329448128,-4.87024259538,2.18370015333
1589275515379550007,2233,1589275515379393982,,0.04488692215,-4.86472092711,2.18333379431
1589275515385403838,2234,1589275515385348904,,0.0446418707697,-4.83616691884,2.17702220948
1589275515388501849,2235,1589275515388433468,,0.0446228777566,-4.80692792281,2.17152414846
1589275515391712091,2236,1589275515391654689,,0.0444534023274,-4.80065827948,2.1710806883
1589275515394579560,2237,1589275515394518747,,0.0445055383244,-4.77158714406,2.16517429808
1589275515397648870,2238,1589275515397533247,,0.0445651054228,-4.76532726423,2.1650687534
1589275515400493540,2239,1589275515400430948,,0.0447591383874,-4.7356995534,2.1589282333
1589275515403264722,2240,1589275515403221435,,0.0446828156044,-4.72918866389,2.15818206824
1589275515409313214,2241,1589275515409264875,,0.0446779975166,-4.69394582498,2.15213217871
1589275515412355763,2242,1589275515412251549,,0.0447981166458,-4.68785524426,2.15243382962
1589275515415417351,2243,1589275515415295562,,0.0449849193831,-4.65885497335,2.14600835759
1589275515418300232,2244,1589275515418192853,,0.045007857194,-4.65270395666,2.1456682788
1589275515421515562,2245,1589275515421447449,,0.0447977649089,-4.62408883297,2.13940736194
1589275515424471636,2246,1589275515424401622,,0.0448314196643,-4.61839536929,2.13909838395
1589275515427505849,2247,1589275515427457073,,0.0448866684521,-4.58960769941,2.13316010303
1589275515430399924,2248,1589275515430341230,,0.0447806476897,-4.58474329673,2.13290114575
1589275515433264956,2249,1589275515433202426,,0.0447500830081,-4.55709522277,2.12702167741
1589275515436244405,2250,1589275515436197315,,0.0445760818437,-4.55223864648,2.126873124
1589275515439398834,2251,1589275515439274256,,0.0442643094639,-4.54787207399,2.12666045236
1589275515445618751,2252,1589275515445555058,,0.0443011081558,-4.52010242619,2.12107365077
1589275515448380785,2253,1589275515448292864,,0.0441777065637,-4.49318546453,2.11557778309
1589275515451318008,2254,1589275515451260166,,0.0440104067468,-4.48964545058,2.11574937041
1589275515454387395,2255,1589275515454334031,,0.0437715750586,-4.46317704298,2.11031773594
1589275515457814040,2256,1589275515457712481,,0.0435759543088,-4.46068506147,2.11041949386
1589275515463823433,2257,1589275515463730564,,0.0435827635707,-4.43487583664,2.1050052584
1589275515469840274,2258,1589275515469739783,,0.0431779070032,-4.40900438417,2.09919002421
1589275515475813685,2259,1589275515475702993,,0.0429763894244,-4.38388357903,2.09338276311
1589275515481711111,2260,1589275515481633554,,0.0426747989365,-4.3583301092,2.08799065675
1589275515487781580,2261,1589275515487671779,,0.0425164578473,-4.33301013718,2.08242208588
1589275515493885452,2262,1589275515493832402,,0.0423252203423,-4.30746448045,2.07669514737
1589275515499567880,2263,1589275515499509336,,0.0420452763032,-4.30489504327,2.07692562183
1589275515502503874,2264,1589275515502450884,,0.0420132826563,-4.28100217286,2.07164663826
1589275515505400821,2265,1589275515505346268,,0.0417839961785,-4.27868339515,2.07167353964
1589275515508563618,2266,1589275515508502848,,0.041507862222,-4.25349622089,2.06567417543
1589275515511549716,2267,1589275515511485740,,0.0415397414379,-4.25123512087,2.06588948612
1589275515514538119,2268,1589275515514491579,,0.0412308227884,-4.22693196665,2.06048852206
1589275515517659806,2269,1589275515517580592,,0.0411810141684,-4.22413476957,2.06056250828
1589275515520705535,2270,1589275515520636572,,0.0410859744122,-4.19947141986,2.05532430764
1589275515529376781,2271,1589275515529321805,,0.0408225180567,-4.17333128381,2.05025384676
1589275515532360897,2272,1589275515532276132,,0.0406418878258,-4.17121691093,2.05034486406
1589275515535391559,2273,1589275515535305842,,0.040521769789,-4.14769512742,2.04524685664
1589275515538372008,2274,1589275515538316914,,0.0403570995872,-4.14584128342,2.04518058593
1589275515541346414,2275,1589275515541287603,,0.0401383475285,-4.12237923669,2.0398132656
1589275515544542543,2276,1589275515544472877,,0.0399265660133,-4.12043560088,2.04016030178
1589275515547471655,2277,1589275515547389063,,0.0397361543752,-4.09699748523,2.03519086601
1589275515550691085,2278,1589275515550595930,,0.0394888704295,-4.09512599322,2.03526568689
1589275515556494843,2279,1589275515556399637,,0.0392570020294,-4.07204195562,2.03028483242
1589275515559835235,2280,1589275515559671810,,0.0390002746237,-4.06982778858,2.03015951849
1589275515565534166,2281,1589275515565471149,,0.0389499208945,-4.0467020249,2.02526058362
1589275515568568051,2282,1589275515568450669,,0.0388552894867,-4.02412467806,2.02022963591
1589275515571480020,2283,1589275515571395882,,0.0386125302105,-4.02189529525,2.02007057423
1589275515574620679,2284,1589275515574514290,,0.0385167922892,-4.00015210908,2.01547761281
1589275515577570804,2285,1589275515577508424,,0.0385202258338,-3.99827541955,2.01577749688
1589275515580575699,2286,1589275515580526557,,0.0383519085456,-3.97666832146,2.01079461757
1589275515583508107,2287,1589275515583438342,,0.0382174494544,-3.9747270034,2.01097334654
1589275515586698141,2288,1589275515586446998,,0.038218416617,-3.9731567851,2.01125748568
1589275515589858277,2289,1589275515589730373,,0.0380393623275,-3.95208265672,2.00636596213
1589275515595917430,2290,1589275515595811161,,0.0379370659842,-3.93112759127,2.00189677274
1589275515601754537,2291,1589275515601676287,,0.0377288277358,-3.9107246962,1.9972162345
1589275515607854394,2292,1589275515607735166,,0.0376957299747,-3.89038853178,1.99288567962
1589275515614134678,2293,1589275515614040535,,0.0374363666537,-3.87069440897,1.98837408375
1589275515619979192,2294,1589275515619885701,,0.0372946038552,-3.86986783746,1.98867814739
1589275515625730832,2295,1589275515625651973,,0.0372680417839,-3.85081211021,1.98431295375
1589275515631842409,2296,1589275515631769155,,0.0371491797206,-3.83211381488,1.97979085926
1589275515634746362,2297,1589275515634648507,,0.0370148893583,-3.81381160759,1.97545362876
1589275515637732589,2298,1589275515637667874,,0.0370356689248,-3.81335534835,1.97569234976
1589275515643982217,2299,1589275515643929358,,0.0369969958739,-3.79559153217,1.97170687115
1589275515649821410,2300,1589275515649722678,,0.0367092415876,-3.77841782738,1.96729501785
1589275515655758875,2301,1589275515655683318,,0.0367264412663,-3.76167097139,1.96339446737
1589275515661783470,2302,1589275515661661824,,0.0366882257788,-3.74515121506,1.95967051663
1589275515664746117,2303,1589275515664681026,,0.036550644536,-3.74474948779,1.9597994776
1589275515667676072,2304,1589275515667604726,,0.0366097936528,-3.72881495777,1.95634075256
1589275515670694113,2305,1589275515670569901,,0.0365859704477,-3.72878645171,1.95647268706
1589275515676647741,2306,1589275515676585218,,0.0364852211139,-3.71304083395,1.95352050157
1589275515679451650,2307,1589275515679384557,,0.0364480167664,-3.71285873996,1.95350556842
1589275515682356037,2308,1589275515682279403,,0.0364994760825,-3.69804147562,1.9504408214
1589275515685370873,2309,1589275515685301394,,0.0363982950528,-3.69784391927,1.95048632635
1589275515688484713,2310,1589275515688298720,,0.0363199666165,-3.68349717966,1.94707370136
1589275515691364931,2311,1589275515691289911,,0.0363984024649,-3.68345221551,1.94768625111
1589275515694430330,2312,1589275515694344416,,0.0364248763337,-3.66926689957,1.94448445392
1589275515697414963,2313,1589275515697325438,,0.0363021197367,-3.66950281134,1.94464639739
1589275515700453147,2314,1589275515700388649,,0.0362091692454,-3.65578585878,1.94138758975
1589275515703793824,2315,1589275515703725549,,0.0362486290245,-3.65573335784,1.94199530498
1589275515709914733,2316,1589275515709810787,,0.0361834780582,-3.64291541393,1.93897415388
1589275515715853806,2317,1589275515715759902,,0.0361948844246,-3.63041833218,1.93612360972
1589275515721790449,2318,1589275515721725162,,0.0362323915941,-3.6183378188,1.93363274726
1589275515727902549,2319,1589275515727796385,,0.036268874788,-3.60694791017,1.93096257711
1589275515736744190,2320,1589275515736661425,,0.0361607638613,-3.59612843779,1.92895217312
1589275515740090642,2321,1589275515740004980,,0.036139719417,-3.59624532419,1.92918722229
1589275515746176548,2322,1589275515746058727,,0.0360662171116,-3.58607856355,1.92675407253
1589275515751880982,2323,1589275515751741156,,0.0359946337061,-3.57632324996,1.92456809958
1589275515757930549,2324,1589275515757779888,,0.0359125107128,-3.56735465168,1.92240403324
1589275515763858340,2325,1589275515763756307,,0.0359281845833,-3.55897756035,1.92057010124
1589275515769919169,2326,1589275515769782768,,0.0358344433223,-3.55124063563,1.91897924801
1589275515775825354,2327,1589275515775745225,,0.0358626807899,-3.54383295409,1.91736082121
1589275515781666567,2328,1589275515781542406,,0.0358376236602,-3.53738556673,1.91598124073
1589275515784642366,2329,1589275515784522377,,0.0357717791678,-3.53776110318,1.91638453492
1589275515787640634,2330,1589275515787556640,,0.0357790124878,-3.53215940781,1.91518628332
1589275515790627361,2331,1589275515790510792,,0.0357487376716,-3.53260701292,1.91548973486
1589275515793863609,2332,1589275515793801434,,0.0357350673988,-3.52751562723,1.91482997479
1589275515800099867,2333,1589275515799949802,,0.0356354031124,-3.52325397917,1.91402400129
1589275515805847572,2334,1589275515805726021,,0.035622159078,-3.52355340056,1.91463273889
1589275515811829883,2335,1589275515811726450,,0.0356620897724,-3.52008410917,1.91414467821
1589275515817800078,2336,1589275515817729724,,0.0355778858842,-3.51738436929,1.9137839436
1589275515823843514,2337,1589275515823764989,,0.0355562777633,-3.51544730982,1.91336414046
1589275515829827438,2338,1589275515829717902,,0.0356255039361,-3.51396878995,1.91348449585
1589275515832879675,2339,1589275515832729522,,0.0355967536087,-3.51483402369,1.91388135401
1589275515835852063,2340,1589275515835754615,,0.0355572671521,-3.5144289375,1.91391281929
1589275515841838545,2341,1589275515841745002,,0.035476971264,-3.51507011773,1.91416910911
1589275515847868571,2342,1589275515847707154,,0.0354061506354,-3.5157991957,1.91470023053
1589275515856787537,2343,1589275515856671239,,0.0352686099816,-3.51713295294,1.91585913224
1589275515860008610,2344,1589275515859684720,,0.0351688638182,-3.51811810324,1.91618703465
1589275515865851190,2345,1589275515865758509,,0.0351838895355,-3.51747696045,1.91720688898
1589275515871840754,2346,1589275515871730602,,0.0352240796486,-3.51587565493,1.91866349787
1589275515877832291,2347,1589275515877740649,,0.0353188812459,-3.51344475915,1.92017944427
1589275515880779426,2348,1589275515880695747,,0.0353034573837,-3.51050529174,1.92183986044
1589275515883781297,2349,1589275515883668524,,0.0355432791457,-3.51149835768,1.92269542051
1589275515889750311,2350,1589275515889679155,,0.0357886065026,-3.50924572524,1.92558799089
1589275515892712708,2351,1589275515892632620,,0.0358098545745,-3.51046654856,1.92623771536
1589275515898709814,2352,1589275515898656224,,0.036074657996,-3.50558211746,1.92866533322
1589275515901729085,2353,1589275515901633092,,0.0361951980653,-3.5002803527,1.93117003451
1589275515904712335,2354,1589275515904643965,,0.036305912008,-3.50116745008,1.93174197755
1589275515907727050,2355,1589275515907653357,,0.036458480218,-3.49476741455,1.93417027428
1589275515910728585,2356,1589275515910676525,,0.0364246894591,-3.49590308311,1.93461206122
1589275515914049515,2357,1589275515913973677,,0.0365075821345,-3.48846423282,1.93733278856
1589275515919786470,2358,1589275515919684391,,0.0364360755193,-3.4893003862,1.93761055902
1589275515925757018,2359,1589275515925651063,,0.0364122475456,-3.48123108424,1.94006624037
1589275515928881195,2360,1589275515928736232,,0.0364388819764,-3.47226665105,1.94283349002
1589275515931735069,2361,1589275515931667095,,0.0364459387279,-3.47283673759,1.9430589241
1589275515934834640,2362,1589275515934780390,,0.0363493527766,-3.46310945681,1.94578436156
1589275515937739373,2363,1589275515937672964,,0.0363471715493,-3.46350500852,1.94605187768
1589275515940874492,2364,1589275515940770302,,0.0363095704572,-3.45298782749,1.94894306954
1589275515950442379,2365,1589275515950357472,,0.0362731331732,-3.44221035078,1.95250794992
1589275515955475834,2366,1589275515955381741,,0.0361641555181,-3.43030220753,1.9556808886
1589275515958627286,2367,1589275515958526529,,0.036276134391,-3.43041178458,1.95629273956
1589275515962010220,2368,1589275515961906902,,0.0363877623162,-3.41739688343,1.95982569877
1589275515967736191,2369,1589275515967648570,,0.0363235232498,-3.40379365074,1.96352747362
1589275515970798281,2370,1589275515970695597,,0.036353297004,-3.40362322336,1.96395626804
1589275515973878540,2371,1589275515973736804,,0.0363202236884,-3.38931788853,1.96791547928
1589275515976559714,2372,1589275515976448241,,0.0362792844904,-3.38913142559,1.96819344521
1589275515979700642,2373,1589275515979473745,,0.0362460902315,-3.38894147933,1.96828523804
1589275515982856493,2374,1589275515982707311,,0.0362872303992,-3.37356538092,1.97244020926
1589275515985902349,2375,1589275515985787929,,0.0363965326889,-3.37351011451,1.97303042525
1589275515992029523,2376,1589275515991863959,,0.0363685084783,-3.35744882619,1.97722658483
1589275515997909396,2377,1589275515997798479,,0.0364203244233,-3.34098396866,1.98191133036
1589275516003877195,2378,1589275516003792833,,0.0363611308685,-3.3238790142,1.98635633021
1589275516009800172,2379,1589275516009677653,,0.0365917540847,-3.30529667016,1.99180477817
1589275516013013061,2380,1589275516012742040,,0.0365838885004,-3.30489952555,1.99226973882
1589275516018864362,2381,1589275516018736540,,0.0366800406901,-3.28629545369,1.9969174284
1589275516021760409,2382,1589275516021654264,,0.0367403816929,-3.26665633931,2.00203397298
1589275516024710422,2383,1589275516024642159,,0.0368846995363,-3.26622282281,2.00220344868
1589275516027760558,2384,1589275516027684903,,0.0370614752099,-3.24608177439,2.00734472759
1589275516030967941,2385,1589275516030854711,,0.0373253466679,-3.24557184214,2.00744275148
1589275516033845034,2386,1589275516033764513,,0.0374593326822,-3.22488597106,2.01246713877
1589275516036921484,2387,1589275516036823744,,0.0376566350275,-3.22443500521,2.01249602556
1589275516043019644,2388,1589275516042933876,,0.0379426161003,-3.20304352222,2.01759032919
1589275516048676723,2389,1589275516048603840,,0.038245282259,-3.18090172632,2.02292072295
1589275516051663273,2390,1589275516051604213,,0.0386295924254,-3.18029624247,2.02289233587
1589275516054844404,2391,1589275516054749957,,0.0389645054055,-3.15753220697,2.02836005663
1589275516057690556,2392,1589275516057599092,,0.0392445111479,-3.1567298943,2.02826828941
1589275516060916568,2393,1589275516060780201,,0.039621513904,-3.13315633223,2.0339716445
1589275516063904109,2394,1589275516063781908,,0.0401505576451,-3.13191566854,2.03420916641
1589275516069694157,2395,1589275516069607170,,0.0409761467832,-3.10557109656,2.03993872828
1589275516072910899,2396,1589275516072833413,,0.0416529122298,-3.10411420334,2.04032813325
1589275516078929334,2397,1589275516078787926,,0.0421689419289,-3.07848390754,2.04633048235
1589275516084886830,2398,1589275516084744908,,0.0427172659626,-3.05235740475,2.05251010416
1589275516087962500,2399,1589275516087806256,,0.0433362388415,-3.02563606691,2.05893553056
1589275516094203638,2400,1589275516094068023,,0.043883699882,-2.99843985953,2.06530582121
1589275516099738702,2401,1589275516099466356,,0.0442046930058,-2.99728227096,2.06525252277
1589275516102469225,2402,1589275516102370992,,0.0447468123776,-2.96939796606,2.07203670373
1589275516105519978,2403,1589275516105387910,,0.0451078235695,-2.96782952106,2.07210156327
1589275516108385454,2404,1589275516108298028,,0.0456505732286,-2.93858386874,2.07861850054
1589275516111429326,2405,1589275516111326790,,0.0460785432056,-2.93576311321,2.07845852762
1589275516114577342,2406,1589275516114496603,,0.0465279447431,-2.90625155083,2.08557431585
1589275516117407593,2407,1589275516117343073,,0.0469906284257,-2.90500756995,2.08578780675
1589275516120392602,2408,1589275516120335650,,0.0473215644241,-2.8756842898,2.09309392845
1589275516123933217,2409,1589275516123844708,,0.0477935344409,-2.87427480787,2.09354829738
1589275516129984717,2410,1589275516129862884,,0.0482398281255,-2.84477126669,2.10099243866
1589275516135753868,2411,1589275516135632279,,0.0486330747661,-2.81438079974,2.10855128939
1589275516138624570,2412,1589275516138554424,,0.0489304807028,-2.81354918752,2.10901122231
1589275516141816959,2413,1589275516141737401,,0.049443348084,-2.78292809815,2.11689088127
1589275516145002976,2414,1589275516144939140,,0.0497493092807,-2.78175662394,2.11753585135
1589275516150805491,2415,1589275516150736191,,0.0500730488256,-2.75072708334,2.12571282084
1589275516153607788,2416,1589275516153558023,,0.0503942038122,-2.71911754926,2.1339790868
1589275516156923716,2417,1589275516156852879,,0.0507497278689,-2.71794086601,2.13472038175
1589275516162965075,2418,1589275516162865524,,0.0510178891236,-2.68609944023,2.14342729701
1589275516168946718,2419,1589275516168852451,,0.0512883281387,-2.65342056733,2.15211244586
1589275516174937421,2420,1589275516174865426,,0.0515393516862,-2.62063079021,2.16065060116
1589275516180828855,2421,1589275516180724320,,0.0517382089635,-2.58739495309,2.16962469713
1589275516183611383,2422,1589275516183531558,,0.0519482717657,-2.58678718009,2.1704551916
1589275516189583598,2423,1589275516189489511,,0.0523253943416,-2.55254072856,2.17997159215
1589275516192614196,2424,1589275516192543998,,0.0525584270227,-2.55180371304,2.18071101356
1589275516195493536,2425,1589275516195418284,,0.0527081848404,-2.51759770955,2.18993391871
1589275516198790766,2426,1589275516198721469,,0.0528661014443,-2.51727130515,2.19070465934
1589275516201790479,2427,1589275516201709516,,0.0530987044399,-2.48289743989,2.19996667832
1589275516204819523,2428,1589275516204733292,,0.0532826724396,-2.48238582727,2.20072491238
1589275516207813289,2429,1589275516207733868,,0.0534683217722,-2.44766050229,2.21008991779
1589275516210896700,2430,1589275516210824178,,0.0536831721516,-2.44721573266,2.21086047628
1589275516217334169,2431,1589275516217211716,,0.0538113572828,-2.41174888722,2.22015668261
1589275516223044407,2432,1589275516222942919,,0.0540761285803,-2.37604929598,2.2299447444
1589275516229137322,2433,1589275516229005297,,0.0542006397957,-2.33995643032,2.23960017435
1589275516235114089,2434,1589275516234991416,,0.0543840416923,-2.30306483945,2.24941689698
1589275516238015251,2435,1589275516237857454,,0.0546303705068,-2.30306242977,2.25030498348
1589275516244230062,2436,1589275516244123212,,0.0548257955543,-2.26592963716,2.25992942849
1589275516250195078,2437,1589275516250103674,,0.0548315193165,-2.22871401824,2.26985879687
1589275516255989059,2438,1589275516255859082,,0.0552319071977,-2.19058917461,2.28006375118
1589275516258836578,2439,1589275516258769007,,0.0553473700395,-2.19085429791,2.28078679949
1589275516261821676,2440,1589275516261738665,,0.0556565861098,-2.15257622493,2.29099843788
1589275516264755860,2441,1589275516264684633,,0.0559481756417,-2.15247119006,2.2915532686
1589275516267855943,2442,1589275516267792798,,0.0561505379828,-2.11403186686,2.30176860876
1589275516270876732,2443,1589275516270783069,,0.0564317269419,-2.11409204942,2.30245209746
1589275516276849576,2444,1589275516276761634,,0.0569166770075,-2.07513833271,2.313416805
1589275516280060015,2445,1589275516279739202,,0.057252758629,-2.07535753895,2.31394135644
1589275516285912253,2446,1589275516285828558,,0.0575219116046,-2.03594355285,2.32445969244
1589275516291866472,2447,1589275516291763861,,0.0577799783029,-1.99632552038,2.33490701842
1589275516294805083,2448,1589275516294718710,,0.0579562783727,-1.95582724503,2.34545059129
1589275516297830944,2449,1589275516297755752,,0.0581742728334,-1.95587170604,2.34606763833
1589275516300833352,2450,1589275516300726247,,0.0584226580223,-1.9151708733,2.35646181628
1589275516303790940,2451,1589275516303718580,,0.0585855309355,-1.91548791547,2.35689584489
1589275516309779766,2452,1589275516309705400,,0.0587134109254,-1.87484377218,2.36765718562
1589275516312975402,2453,1589275516312732612,,0.0587506186554,-1.8754238226,2.36799239524
1589275516318834186,2454,1589275516318744436,,0.0589198469911,-1.83389065596,2.37876125523
1589275516321803374,2455,1589275516321698559,,0.0590490284936,-1.79215865881,2.38949390897
1589275516324768302,2456,1589275516324681166,,0.0590806569378,-1.79258686946,2.38968980322
1589275516327770982,2457,1589275516327691990,,0.05925334572,-1.75061614617,2.40065586379
1589275516330707322,2458,1589275516330641096,,0.0592588722139,-1.75102985036,2.40089507041
1589275516334054196,2459,1589275516333917683,,0.0593043197285,-1.70856396115,2.41172084579
1589275516336842636,2460,1589275516336737828,,0.0593857314525,-1.70898449482,2.41192359535
1589275516339936422,2461,1589275516339839287,,0.0595105818597,-1.67655711623,2.42077694584
1589275516343171914,2462,1589275516343098962,,0.0594651104129,-1.6669236203,2.42341416745
1589275516348744377,2463,1589275516348613260,,0.0595734649637,-1.62356412674,2.43459626227
1589275516351735890,2464,1589275516351661204,,0.0596492289826,-1.62425757609,2.43490126044
1589275516354724852,2465,1589275516354646776,,0.0597225547231,-1.58126936464,2.44604201996
1589275516357752643,2466,1589275516357624244,,0.0598945871491,-1.58148684737,2.44628960513
1589275516360779312,2467,1589275516360678370,,0.0599182054237,-1.53806125016,2.4572729842
1589275516363937312,2468,1589275516363779506,,0.0601736223708,-1.53860159176,2.4573339501
1589275516369744034,2469,1589275516369637094,,0.0604780469228,-1.4955214839,2.4685183727
1589275516372721036,2470,1589275516372615396,,0.0606820896678,-1.49620811338,2.46833931169
1589275516378685736,2471,1589275516378604239,,0.0608377914275,-1.45220088657,2.47925885698
1589275516381698778,2472,1589275516381617693,,0.0609586707442,-1.40807669747,2.48986680514
1589275516384663234,2473,1589275516384592624,,0.0610802280621,-1.40935310652,2.48806965915
1589275516387725402,2474,1589275516387653791,,0.0613163107146,-1.3652595799,2.49770223991
1589275516390668415,2475,1589275516390527126,,0.0615285947356,-1.36672352905,2.49719082417
1589275516393647747,2476,1589275516393585791,,0.0613113919883,-1.32255931684,2.5078504114
1589275516396973112,2477,1589275516396864548,,0.0610476763433,-1.32460489787,2.50714600733
1589275516400024100,2478,1589275516399940969,,0.0607408952546,-1.32734156868,2.5065875607
1589275516405674812,2479,1589275516405608864,,0.0602490482235,-1.28369825051,2.51713209907
1589275516408634044,2480,1589275516408563146,,0.0601160027685,-1.24001548279,2.52839512267
1589275516411660868,2481,1589275516411587569,,0.0599473390827,-1.2449444559,2.52785284208
1589275516414628613,2482,1589275516414561651,,0.0599122670299,-1.20232768842,2.53872255935
1589275516417660568,2483,1589275516417595611,,0.0600147907296,-1.20349011068,2.53799119525
1589275516420663356,2484,1589275516420530889,,0.0602796489387,-1.15825196485,2.54883937073
1589275516423684942,2485,1589275516423620133,,0.0606419111224,-1.15965793062,2.5484754954
1589275516429651948,2486,1589275516429533241,,0.060964470114,-1.11515307925,2.55894706814
1589275516432693204,2487,1589275516432637108,,0.0610007597925,-1.11629996552,2.55844451653
1589275516438641380,2488,1589275516438572828,,0.0610781115835,-1.07009550494,2.56933548008
1589275516441666320,2489,1589275516441590219,,0.0613072207788,-1.02362643237,2.58052783244
1589275516444859859,2490,1589275516444754458,,0.061456740722,-1.02500215437,2.57938000047
1589275516447655313,2491,1589275516447537311,,0.0617412689201,-0.97853466574,2.59061302756
1589275516450655689,2492,1589275516450571217,,0.0619158589865,-0.979695141269,2.58991693627
1589275516456622384,2493,1589275516456555434,,0.0623153278863,-0.9342962829,2.6006227492
1589275516459778786,2494,1589275516459578833,,0.0625047598129,-0.935880361245,2.59981531827
1589275516462609432,2495,1589275516462538633,,0.0626989181541,-0.889151928609,2.61115317474
1589275516465550529,2496,1589275516465489972,,0.062826334031,-0.891173668357,2.6102854957
1589275516468684022,2497,1589275516468614071,,0.0630770156316,-0.844142872549,2.62168702717
1589275516471626482,2498,1589275516471557753,,0.0633862912761,-0.845926870659,2.62083430131
1589275516474674784,2499,1589275516474581302,,0.0635666096564,-0.798935925721,2.63182208761
1589275516477652800,2500,1589275516477557973,,0.063877340575,-0.800443847196,2.63131431158
1589275516480651492,2501,1589275516480588132,,0.0639697850457,-0.753085303128,2.64219337877
1589275516483874871,2502,1589275516483807442,,0.0644005171804,-0.754621527073,2.64136758727
1589275516489916369,2503,1589275516489804415,,0.0650765956565,-0.708394666124,2.65123650756
1589275516493016461,2504,1589275516492751504,,0.0654065136348,-0.710026315694,2.65032129581
1589275516498939838,2505,1589275516498840536,,0.0658511777436,-0.661777793623,2.66162688914
1589275516501539963,2506,1589275516501470754,,0.0662871235654,-0.61338859251,2.67320384459
1589275516504540729,2507,1589275516504460738,,0.0666553642178,-0.614608591859,2.67199894152
1589275516507628571,2508,1589275516507560880,,0.0670768337693,-0.565899977842,2.68366535979
1589275516510601711,2509,1589275516510522958,,0.0674563285367,-0.56700816842,2.68290145692
1589275516513800535,2510,1589275516513666573,,0.067767045761,-0.518481307536,2.69423072754
1589275516516702261,2511,1589275516516635591,,0.0682807217962,-0.519666187331,2.69284236733
1589275516519929762,2512,1589275516519781297,,0.068576695294,-0.520972088571,2.69184882207
1589275516522762074,2513,1589275516522641850,,0.0689796780783,-0.472286733197,2.70337125722
1589275516525685191,2514,1589275516525629514,,0.0694328812683,-0.473672022147,2.70227175926
