%time,field.header.seq,field.header.stamp,field.header.frame_id,field.wrench.force.x,field.wrench.force.y,field.wrench.force.z,field.wrench.torque.x,field.wrench.torque.y,field.wrench.torque.z
1589275513378146933,1857,1589275513378032700,,0.00441138383692,-1.0248370098,0.876983209358,0.187697301337,-0.000421075060779,-0.00435153551312
1589275513384099155,1858,1589275513383999837,,0.00401010636954,-1.02525828934,0.899804344233,0.18846466544,-0.00105845621855,-0.00433945164775
1589275513390088997,1859,1589275513390000804,,0.00400579260101,-1.02525217217,0.899811333442,0.189384471473,-0.00106128944795,-0.00432446910844
1589275513396119345,1860,1589275513396002355,,0.00401263912434,-1.02525689366,0.899805923208,0.191214072657,-0.00106497710754,-0.00429576551886
1589275513402253020,1861,1589275513402094142,,0.00401618142507,-1.02525715365,0.899805611172,0.191214082622,-0.00106411342187,-0.00429553601948
1589275513408178949,1862,1589275513408069434,,-0.0188823109002,-1.15615573695,0.901562608179,0.190331812328,-0.00170680362614,-0.00620894010963
1589275513414113329,1863,1589275513413971628,,0.00374082324954,-1.15621056492,0.901975834838,0.193060099872,-0.00171492055144,-0.00514195500243
1589275513420091311,1864,1589275513419974400,,0.00333766570521,-1.1565978066,0.924793896427,0.195693320798,-0.00236840821136,-0.00686217534567
1589275513426398520,1865,1589275513426155905,,0.00375006562406,-1.1562138347,0.901971605026,0.19677357879,-0.00172280418275,-0.00772107542487
1589275513432239815,1866,1589275513432111043,,0.0263786957097,-1.15628162786,0.902387255554,0.197708734725,-0.00172491783543,-0.00844290807666
1589275513437894203,1867,1589275513437788687,,0.0259815746418,-1.15665902664,0.925217416874,0.1984947751,-0.00237395632716,-0.00930762870151
1589275513444113941,1868,1589275513444015517,,0.0255891134923,-1.15704290727,0.948150666137,0.201116081792,-0.0017311501445,-0.0101444269336
1589275513449980521,1869,1589275513449891829,,0.0481424567009,-1.28834488365,0.950532021994,0.201191178505,-0.00108153967098,-0.0135219267271
1589275513456087450,1870,1589275513455944921,,0.0483368460744,-1.15711534493,0.948579616772,0.202999769005,-0.00173251370917,-0.0126192058594
1589275513462185661,1871,1589275513461996067,,0.0479403848621,-1.15749019889,0.971434387543,0.203807245178,-0.00173425955458,-0.0143620133177
1589275513468212054,1872,1589275513468035752,,0.0477554661883,-1.28868956786,0.973377802038,0.205636449366,-0.00173808552664,-0.0143360548681
1589275513474151374,1873,1589275513473991801,,0.0483368484443,-1.15711589264,0.948578948531,0.206714634453,-0.00302770786662,-0.0152089398163
1589275513480358844,1874,1589275513480176412,,0.048332055972,-1.15711682661,0.948578053425,0.207673892176,-0.00303027294616,-0.0169519395685
1589275513486201252,1875,1589275513486060758,,0.0709750165164,-1.157196802,0.949013902585,0.20769074198,-0.00302996838271,-0.0176891084364
1589275513492082750,1876,1589275513491957427,,0.0709712752582,-1.15719689766,0.949014065736,0.208611303105,-0.00239374728621,-0.01767647646
1589275513498181352,1877,1589275513498057462,,0.0479365792195,-1.15749401495,0.971430028385,0.210311819945,-0.00303741847198,-0.0186832424515
1589275513504194629,1878,1589275513504059851,,0.0479243533736,-1.15749546355,0.971428905552,0.210312031276,-0.0030375892603,-0.0186808356391
1589275513510129488,1879,1589275513510036821,,0.047922909162,-1.15749668371,0.97142752293,0.211250785614,-0.0036894018953,-0.0195477023602
1589275513516009642,1880,1589275513515929382,,0.0700421115396,-1.28911961345,0.996656032155,0.21201585766,-0.00369188741944,-0.01939711058
1589275513522103819,1881,1589275513521993227,,0.0701785321855,-1.15795140142,0.994727302856,0.212037421595,-0.00304300836717,-0.0202746465576
1589275513528101122,1882,1589275513528022178,,0.0700226477383,-1.28911928727,0.996657821723,0.212966498535,-0.00369513199863,-0.0211408653589
1589275513534143635,1883,1589275513534063612,,0.070010080443,-1.28911850198,0.996659720322,0.21296655635,-0.00369659091974,-0.0211400278787
1589275513540123133,1884,1589275513539968083,,0.09280564173,-1.2892074763,0.997095036916,0.213903550883,-0.00369830399818,-0.021867750738
1589275513552358926,1885,1589275513552202113,,0.0692096105794,-1.28980063567,1.04251088727,0.216399290993,-0.00305582258703,-0.0237421389757
1589275513558214661,1886,1589275513558049486,,0.0692021719803,-1.28980206747,1.04250960965,0.218238125789,-0.00306025747926,-0.0237166729963
1589275513564156004,1887,1589275513564044542,,0.0695837403424,-1.2894529717,1.01954084019,0.218396156696,-0.00371166638651,-0.0246036956845
1589275513570179299,1888,1589275513570081969,,0.115471375641,-1.2892838129,0.997564165685,0.219536193776,-0.003063642784,-0.0278317365994
1589275513576147477,1889,1589275513575995610,,0.0695678196103,-1.28944182998,1.01955601785,0.219359120896,-0.00306477423049,-0.026351216217
1589275513582170819,1890,1589275513582049203,,0.0919752684336,-1.28986258619,1.04298175603,0.220148627755,-0.00306882835835,-0.0270844501091
1589275513588014282,1891,1589275513587866991,,0.0919632739865,-1.2898458593,1.04300349959,0.222906662641,-0.0037284470766,-0.02793113757
1589275513594005399,1892,1589275513593901886,,0.11419775334,-1.42161811025,1.06810913523,0.224612904316,-0.00308392564688,-0.0286519473052
1589275513599963032,1893,1589275513599835137,,0.113891540752,-1.29055364097,1.08930746246,0.225401751018,-0.00374241638497,-0.0295338803826
1589275513606016397,1894,1589275513605916630,,0.11417108442,-1.42156275711,1.06818565526,0.223714368824,-0.00373870417747,-0.0295550558109
1589275513611875738,1895,1589275513611791303,,0.114150185756,-1.42153389241,1.06822630133,0.225564283832,-0.00374757030971,-0.0304145037895
1589275513617946368,1896,1589275513617830116,,0.113631170933,-1.55340425474,1.09274511075,0.227251350876,-0.00375417971888,-0.0303951321491
1589275513624135650,1897,1589275513624025388,,0.113597900521,-1.55340020985,1.09275431995,0.228192204058,-0.00376114085831,-0.0312656269613
1589275513630273270,1898,1589275513630160177,,0.113719126077,-1.42184541762,1.09112165102,0.228213815207,-0.00376306697628,-0.0321496071953
1589275513636219750,1899,1589275513636113872,,0.0909193177903,-1.42177908092,1.09065657756,0.228195035327,-0.00376996430631,-0.0314112089816
1589275513642667619,1900,1589275513642476466,,0.0907203894814,-1.55335357205,1.09226974749,0.230065670837,-0.00443233186007,-0.0331662857345
1589275513648089960,1901,1589275513647984889,,0.113114299003,-1.55375942905,1.11556107353,0.232679247666,-0.00444507548118,-0.0338825695086
1589275513654178701,1902,1589275513654050889,,0.11312707556,-1.55377870736,1.1155329265,0.231805910247,-0.00378748825607,-0.0356692830496
1589275513660192835,1903,1589275513660103253,,0.113276371126,-1.5537732035,1.11552544238,0.23180537638,-0.00376899266548,-0.0356747112309
1589275513666286911,1904,1589275513666092748,,0.113659967875,-1.55348743306,1.0926238629,0.231058472135,-0.00442026331933,-0.0365677816311
1589275513672203013,1905,1589275513672075867,,0.13658612577,-1.55359513615,1.09303808973,0.232882523404,-0.00442171947515,-0.0364099634535
1589275513678156472,1906,1589275513678043743,,0.113161843813,-1.68553273989,1.11696004144,0.232723802821,-0.00376832541816,-0.0356676678348
1589275513684260041,1907,1589275513684149678,,0.113288243636,-1.55382462587,1.11545260888,0.231803099054,-0.00442300103848,-0.0356824258649
1589275513689885583,1908,1589275513689785182,,0.136178519958,-1.55391873296,1.11588984013,0.231822666347,-0.00377352081224,-0.0364282992818
1589275513696142110,1909,1589275513696035512,,0.113561305255,-1.68528789363,1.09402573595,0.232863370616,-0.00377265348936,-0.0356745508913
1589275513702208785,1910,1589275513702021329,,0.113594378227,-1.68528918176,1.09402031813,0.232863004151,-0.00376974327357,-0.0356772505104
1589275513708184903,1911,1589275513708076559,,0.0903843594428,-1.68548935348,1.11646546753,0.233612116347,-0.00377106738093,-0.0349296020048
1589275513714193615,1912,1589275513714088758,,0.0899910969411,-1.68575419664,1.13947783116,0.233474236451,-0.00377136647693,-0.0349326967587
1589275513720197656,1913,1589275513720071007,,0.113229018951,-1.68557570137,1.11688840021,0.23456980078,-0.00442707687089,-0.036549145166
1589275513726346150,1914,1589275513726150531,,0.113062955736,-1.8174682087,1.11823415177,0.235466752861,-0.0044301501153,-0.0356542087259
1589275513732131974,1915,1589275513732040446,,0.136018343252,-1.81755438079,1.11866591225,0.236416269395,-0.00443340391028,-0.0372732407902
1589275513738185958,1916,1589275513738074845,,0.112652910496,-1.81771380656,1.14124962586,0.238132436581,-0.00443769322627,-0.0382749088595
1589275513744531424,1917,1589275513744280894,,0.135597963832,-1.81779219641,1.14169492796,0.239083336046,-0.00444010746857,-0.0399002541768
1589275513750288797,1918,1589275513750161043,,0.11242494647,-1.9496891202,1.1425417629,0.238156679731,-0.00443873980499,-0.039158394882
1589275513756271958,1919,1589275513756132776,,0.112438713705,-1.94968718203,1.14254371551,0.240029078067,-0.00444238104403,-0.0409080397174
1589275513762141352,1920,1589275513762052951,,0.112529845081,-1.94968425941,1.14253973084,0.240029234515,-0.0044312455342,-0.0409083294919
1589275513768367279,1921,1589275513768175543,,0.135162006702,-1.94998609998,1.16590278946,0.241747367775,-0.00443168561002,-0.0425217721369
1589275513774186002,1922,1589275513774074704,,0.134768045269,-1.95021989768,1.18882370989,0.243456623224,-0.0044362780356,-0.0433991410325
1589275513780158626,1923,1589275513780057024,,0.135153592553,-1.95001342711,1.16585805876,0.244470953984,-0.00443961259504,-0.0416065510799
1589275513786325199,1924,1589275513786138561,,0.134761211403,-1.95025718579,1.18876331273,0.24715664638,-0.00444549242824,-0.0451312411955
1589275513792268717,1925,1589275513792164006,,0.134752983052,-1.95025931004,1.1887607605,0.247156783566,-0.00444597491304,-0.045130442375
1589275513798243412,1926,1589275513798140506,,0.156980490778,-2.2147889852,1.2143309042,0.247011315457,-0.00508818450758,-0.0449895687363
1589275513804268040,1927,1589275513804141358,,0.15699349821,-2.21477384807,1.21435683049,0.247967321777,-0.00444379265953,-0.0467590174443
1589275513810465859,1928,1589275513810275600,,0.157004564886,-2.2147628513,1.2143754557,0.247967890776,-0.00444139873731,-0.0467562273482
1589275513819375806,1929,1589275513819251501,,0.156792645896,-2.34699342485,1.2153727728,0.249817736228,-0.00509437181356,-0.0476187766446
1589275513825158182,1930,1589275513825055587,,0.156743513867,-2.34700746555,1.21535199611,0.250759217524,-0.005101428676,-0.0484952798361
1589275513831145964,1931,1589275513831058538,,0.133386256497,-2.34711182472,1.23798754162,0.251509647775,-0.00575789848506,-0.0477445797115
1589275513837238913,1932,1589275513837028434,,0.133808622821,-2.34691703915,1.21494600955,0.250761437875,-0.00575452944531,-0.048640678048
1589275513843345120,1933,1589275513843249188,,0.156761984885,-2.34699332497,1.21537692079,0.251699055717,-0.00575878393606,-0.0493761881631
1589275513849145373,1934,1589275513849056483,,0.179731371684,-2.3470825384,1.21578907067,0.252650566542,-0.00510767541866,-0.0510111191374
1589275513855296002,1935,1589275513855179538,,0.179319650263,-2.34726687703,1.2388493301,0.254362998168,-0.00511362025537,-0.051880872031
1589275513861049239,1936,1589275513860986352,,0.179324995236,-2.34727171283,1.23883939392,0.254362497312,-0.00511411919229,-0.0518832784076
1589275513867140164,1937,1589275513867056259,,0.155789748179,-2.47965793089,1.26228814736,0.256039803454,-0.00642866150078,-0.0520111383592
1589275513876101123,1938,1589275513876008069,,0.156375532375,-2.34720448022,1.23838293699,0.256192475423,-0.00577065934025,-0.0520053544699
1589275513881952912,1939,1589275513881879826,,0.155808396855,-2.47967254679,1.26225713346,0.257891899207,-0.00577419841495,-0.0528851453686
1589275513888103385,1940,1589275513887990555,,0.156179409302,-2.4794919619,1.23930572543,0.258997220366,-0.00643415866061,-0.0546471258281
1589275513894091558,1941,1589275513894009252,,0.156172984897,-2.47949107083,1.2393083178,0.258997111434,-0.00643509875345,-0.054647531407
1589275513900217933,1942,1589275513900079619,,0.178633733863,-2.61209514823,1.263519944,0.25980795243,-0.00643114083903,-0.0562721812738
1589275513906298059,1943,1589275513906151728,,0.201338326805,-2.61233350442,1.28693679343,0.262454768893,-0.00643949823182,-0.057895295109
1589275513912126401,1944,1589275513912014240,,0.201347071304,-2.61233546509,1.2869314454,0.262454748471,-0.00643859311024,-0.0578954883547
1589275513918047954,1945,1589275513917956255,,0.201337655632,-2.612334875,1.28693411632,0.263385238442,-0.00709841161371,-0.0587765770801
1589275513924077141,1946,1589275513924007755,,0.201333807103,-2.61233987679,1.28692456527,0.263385319096,-0.00709838827423,-0.0587762184766
1589275513930040253,1947,1589275513929969330,,0.177838821801,-2.61240730268,1.30961184561,0.265078131333,-0.0064488807746,-0.0589014323144
1589275513936119830,1948,1589275513936033560,,0.20077101252,-2.74486345725,1.31082375212,0.266947099822,-0.00710968522018,-0.0605208603817
1589275513942491528,1949,1589275513942328221,,0.200764250029,-2.7448612845,1.31082933761,0.267878550598,-0.00711406627551,-0.0614127611385
1589275513948162834,1950,1589275513948037749,,0.20036528048,-2.74502164383,1.33380977173,0.270505374026,-0.00712182104409,-0.0622776179322
1589275513954078485,1951,1589275513953998669,,0.200370230098,-2.74501253914,1.33382776577,0.270554172453,-0.00646434145663,-0.0640648812805
1589275513960023257,1952,1589275513959922063,,0.200378099483,-2.74502658015,1.33379768683,0.272428007389,-0.0064672156939,-0.065825764668
1589275513965974168,1953,1589275513965877701,,0.22379573033,-2.74493762591,1.3112619431,0.273505892691,-0.0071277485379,-0.0665623399604
1589275513968959792,1954,1589275513968856064,,0.223168425196,-2.61289952612,1.35644016185,0.275063078298,-0.00777732932592,-0.067438675096
1589275513974999914,1955,1589275513974891098,,0.222601268649,-2.74541458689,1.38022644581,0.277680153672,-0.00778595717113,-0.0683138285397
1589275513977970436,1956,1589275513977877343,,0.222623485285,-2.74541169408,1.38022861665,0.277680861016,-0.00778246927875,-0.0683113507387
1589275513983978693,1957,1589275513983903204,,0.222612786079,-2.7454157783,1.3802222184,0.278599603368,-0.00713896900907,-0.0683024349702
1589275513990077623,1958,1589275513989893513,,0.223008085707,-2.74525268477,1.35723743122,0.279680210128,-0.00844761788822,-0.0691837624911
1589275513996001775,1959,1589275513995918036,,0.223052811501,-2.74524463913,1.35724635524,0.280612414848,-0.00844524397292,-0.070064508007
1589275514001972736,1960,1589275514001901444,,0.223031584558,-2.74526312008,1.35721246237,0.280612042998,-0.00844714504296,-0.0700657681063
1589275514007935044,1961,1589275514007864442,,0.22304550778,-2.74525271858,1.35723121347,0.282509626088,-0.00845139008462,-0.0727314569679
1589275514010968541,1962,1589275514010902686,,0.222613765211,-2.7454153107,1.38022299059,0.284218709249,-0.00845866132719,-0.0736054226139
1589275514017206674,1963,1589275514017135758,,0.222670520155,-2.74542287534,1.38019878838,0.284217961762,-0.00845390022843,-0.0736088558478
1589275514023045507,1964,1589275514022922700,,0.245748889478,-2.74551296112,1.38061952728,0.286112479334,-0.00846204777808,-0.0761337940396
1589275514025973211,1965,1589275514025904699,,0.24534340679,-2.74566075463,1.40374133578,0.287847589043,-0.00912593135145,-0.0779025203173
1589275514028968080,1966,1589275514028889094,,0.24530231219,-2.74565786005,1.40375417925,0.289648417087,-0.00913734355973,-0.0769946265495
1589275514032018682,1967,1589275514031915786,,0.245702901579,-2.74549283062,1.38066774301,0.288926815654,-0.00913444293702,-0.0787947670055
1589275514034970646,1968,1589275514034879567,,0.245292136636,-2.74567920886,1.40371419966,0.289696671415,-0.00913690593677,-0.0787888981803
1589275514037956200,1969,1589275514037876788,,0.221794083442,-2.7457358964,1.42632339231,0.288641292146,-0.00978010199752,-0.0789393952338
1589275514040960299,1970,1589275514040892656,,0.267880108534,-2.74590215162,1.42719351084,0.291415240822,-0.00914776592759,-0.0804152322184
1589275514044270037,1971,1589275514044175730,,0.290907939309,-2.87835165989,1.42838303762,0.293260126406,-0.00979842944797,-0.0811507516724
1589275514050266970,1972,1589275514050128817,,0.290947353414,-2.87835547564,1.42836732064,0.293259711555,-0.0097949518653,-0.0811526706461
1589275514056159911,1973,1589275514056071603,,0.313326255689,-2.74639817499,1.47405397604,0.297654675003,-0.00915614352264,-0.0854419790167
1589275514062309411,1974,1589275514062105673,,0.313296191124,-2.74637938749,1.4740953697,0.29765480155,-0.00916026423616,-0.0854410964775
1589275514068117580,1975,1589275514068020193,,0.313206795645,-2.8787273131,1.47485068308,0.300420215509,-0.00981504772147,-0.0863112323879
1589275514074193911,1976,1589275514074109404,,0.313255768839,-2.87874418702,1.47480734551,0.30042132448,-0.00980695326314,-0.0863082924731
1589275514080204471,1977,1589275514080082983,,0.312812736579,-2.87890634929,1.49791381149,0.302171882369,-0.0098153217224,-0.0889827114221
1589275514086179471,1978,1589275514086066392,,0.312784740173,-2.87889246411,1.4979463439,0.304007128695,-0.00982418893949,-0.0889641409834
1589275514092279528,1979,1589275514092143895,,0.312000302553,-2.8792005875,1.54398200019,0.306497925067,-0.00982779450926,-0.0907358026894
1589275514098256433,1980,1589275514098168717,,0.312174483588,-3.01140336176,1.52173997307,0.306673116293,-0.0098381089617,-0.0916266030737
1589275514104122378,1981,1589275514104044281,,0.289084728942,-3.01133528554,1.52128549284,0.308524759209,-0.0105065341783,-0.092659738472
1589275514110138028,1982,1589275514109995063,,0.288698293361,-3.01148909589,1.54429266606,0.310198795106,-0.0105099851826,-0.0926447703903
1589275514116014001,1983,1589275514115942133,,0.311740164684,-3.0115672911,1.54473631117,0.312987054336,-0.00985955903656,-0.0942621002469
1589275514122184842,1984,1589275514122018773,,0.311740967887,-3.01156029733,1.54474978383,0.313952866968,-0.00986225070495,-0.0960431418538
1589275514128056069,1985,1589275514127976142,,0.288277256516,-3.01165184602,1.56729357527,0.315605652242,-0.010526302036,-0.0952771895737
1589275514134159036,1986,1589275514134069690,,0.31123478012,-3.14412445679,1.5684249657,0.320289274105,-0.0111952751989,-0.0995864398073
1589275514137031464,1987,1589275514136944211,,0.311263324207,-3.14412414287,1.56841993051,0.320288677321,-0.0111933344283,-0.0995885773131
1589275514143508714,1988,1589275514143382090,,0.311343635705,-3.14414077546,1.56837064682,0.320265416605,-0.0111824155528,-0.0986808670165
1589275514149047276,1989,1589275514148964093,,0.333731609774,-3.14447666408,1.61502329889,0.322764771208,-0.0111879892961,-0.100316194229
1589275514152227352,1990,1589275514152114591,,0.310565846054,-3.14439629623,1.61458697233,0.324666686907,-0.0105318852232,-0.103137212053
1589275514158308646,1991,1589275514158196951,,0.333830996269,-3.14447797857,1.61500019891,0.326512164608,-0.0105266115639,-0.103874876633
1589275514164254640,1992,1589275514164156837,,0.356928956196,-3.14453479115,1.61547644915,0.332947506682,-0.0112043329359,-0.105461373491
1589275514170063454,1993,1589275514169974998,,0.356960355824,-3.14453583193,1.61546748539,0.332947676524,-0.0112006122631,-0.105461232514
1589275514176231014,1994,1589275514176146190,,0.333314693388,-3.27699124961,1.63877774915,0.335494040691,-0.0118652129834,-0.103787961001
1589275514182127632,1995,1589275514182025289,,0.333335375374,-3.27696922846,1.63881757655,0.339145774409,-0.0112225324198,-0.103748947906
1589275514188040828,1996,1589275514187957885,,0.332499933566,-3.27721638783,1.68505865977,0.340657215743,-0.0112343071864,-0.102831784075
1589275514194130133,1997,1589275514194047815,,0.355175085697,-3.27742849633,1.70854632114,0.345081206465,-0.0112481725102,-0.102641718328
1589275514200210469,1998,1589275514200079638,,0.35510606734,-3.27742743718,1.70856269902,0.345080566595,-0.0112566616577,-0.102642938908
1589275514206154140,1999,1589275514206080100,,0.33158184162,-3.27746650087,1.73122113716,0.349432353596,-0.0112753130164,-0.100050214997
1589275514212228374,2000,1589275514212139559,,0.331545903544,-3.27745637978,1.73124718058,0.349432499671,-0.0112794442219,-0.100049239158
1589275514218294730,2001,1589275514218123704,,0.331133910857,-3.27759827589,1.75439107724,0.352946251349,-0.0112909199699,-0.10001279658
1589275514224250109,2002,1589275514224168239,,0.307954461565,-3.27751351272,1.75396857775,0.357509066711,-0.0119554551964,-0.100103552844
1589275514230223170,2003,1589275514230123474,,0.307861798187,-3.27752183525,1.75396929303,0.35751008645,-0.0119630255167,-0.100099006429
1589275514236164785,2004,1589275514236071839,,0.30751145657,-3.27764332788,1.77704375618,0.360106140545,-0.0113096526571,-0.100064490197
1589275514242565275,2005,1589275514242485088,,0.307480933858,-3.27762646466,1.77708014046,0.361024677081,-0.0113155938672,-0.100052116553
1589275514248184841,2006,1589275514248085234,,0.308022272912,-3.27752424559,1.75393661435,0.361220783228,-0.0119503137874,-0.101846186611
1589275514254230167,2007,1589275514254127195,,0.307919913009,-3.27752337997,1.75395620502,0.361221097203,-0.0119609154992,-0.101843828476
1589275514260467257,2008,1589275514260349547,,0.330928415619,-3.14536045885,1.7767528295,0.362893176705,-0.0113062691747,-0.10168656679
1589275514266106410,2009,1589275514266023723,,0.30685255072,-3.27798715436,1.8230122125,0.366212910226,-0.0106426577313,-0.0999952859937
1589275514272314662,2010,1589275514272163151,,0.306912672936,-3.27798819112,1.82300022738,0.36616642458,-0.0112991221424,-0.0981911337401
1589275514278163920,2011,1589275514278059249,,0.306955570226,-3.27800537768,1.82296210075,0.366165886183,-0.0112945861959,-0.0981936633134
1589275514284273642,2012,1589275514284124417,,0.306909515976,-3.27801051425,1.82296061844,0.367039265118,-0.0113020638468,-0.0963863763896
1589275514290412424,2013,1589275514290273901,,0.306890769393,-3.27800254313,1.82297810788,0.367039324794,-0.0113044190857,-0.096385872943
1589275514296226438,2014,1589275514296109931,,0.30685977393,-3.27799493759,1.82299700142,0.367017454189,-0.0113067994899,-0.095475041367
1589275514302290052,2015,1589275514302161909,,0.283060260959,-3.41045605392,1.84639853224,0.367769662067,-0.01066124421,-0.0947134134985
1589275514308261720,2016,1589275514308086969,,0.260094063186,-3.27797361035,1.84533024333,0.369532599541,-0.0106640966588,-0.0921420452307
1589275514314233649,2017,1589275514314114116,,0.30612101357,-3.41050462927,1.84688241954,0.370423691433,-0.0100116354895,-0.0909330107425
1589275514320208831,2018,1589275514320117757,,0.259803173058,-3.41038136229,1.84597890944,0.361781212548,-0.00867762907253,-0.0742193198363
1589275514326521187,2019,1589275514326281821,,-0.0166045049378,-3.40927666299,1.77149617976,0.351457332583,-0.00799557373113,-0.0437505254824
1589275514332324623,2020,1589275514332149741,,-0.0166313709672,-3.40928219161,1.77148528777,0.35145769686,-0.00799657652152,-0.0437474157804
1589275514338237623,2021,1589275514338082367,,0.00636530892404,-3.27706005461,1.79430491695,0.352203831709,-0.00734562346546,-0.0426899222161
1589275514344505209,2022,1589275514344312666,,0.0291461052941,-3.27726026255,1.8177806015,0.353829661655,-0.0073504902335,-0.039830707778
1589275514350219862,2023,1589275514350108902,,0.0293113245597,-3.40952316709,1.79539218127,0.354852153233,-0.00669085639444,-0.0380168401118
1589275514356297853,2024,1589275514356163626,,0.0523852912667,-3.40955635081,1.79585917706,0.357569424326,-0.00604020969185,-0.0369375960945
1589275514362221167,2025,1589275514362123026,,0.0524367855943,-3.40957180551,1.79582833214,0.357531349623,-0.00603357801283,-0.0351344090472
1589275514368275611,2026,1589275514368162816,,0.00682985239999,-3.27691337225,1.77125897108,0.352160571852,-0.00734463033555,-0.0337095108434
1589275514374353015,2027,1589275514374251839,,0.0523882925507,-3.40959415057,1.79578732236,0.347446247041,-0.00667138337828,-0.034386983104
1589275514380300001,2028,1589275514380189408,,0.0524182464362,-3.40958997054,1.79579438471,0.347446315072,-0.00666835653663,-0.0343868828155
1589275514386694040,2029,1589275514386148469,,0.0526769918805,-3.27716572966,1.79516172189,0.349257155434,-0.00667018734012,-0.0334565725622
1589275514392419071,2030,1589275514392220492,,0.0527214156568,-3.27716639042,1.79515921152,0.350176481504,-0.00666956319472,-0.0334458420246
1589275514398243328,2031,1589275514398080391,,0.0296418370206,-3.27711599739,1.79472584687,0.352008766962,-0.00667306907068,-0.0335614511852
1589275514404271193,2032,1589275514404158537,,0.00642420798147,-3.27705851244,1.7943075236,0.353820769461,-0.00734263104251,-0.0327790325142
1589275514410226772,2033,1589275514410129629,,0.0296001102596,-3.27712301663,1.79471371857,0.355686530186,-0.00668424047497,-0.0343967245004
1589275514416223689,2034,1589275514416076741,,0.0291552912708,-3.27724939728,1.81780004295,0.358265262171,-0.00669401874678,-0.0334607810829
1589275514422230430,2035,1589275514422142148,,0.0291768644917,-3.27726785615,1.81776641755,0.359202791045,-0.00735501894364,-0.034342491231
1589275514428224720,2036,1589275514428133252,,0.0291500447564,-3.27728630828,1.81773357993,0.360056819322,-0.00669810173748,-0.0316399636801
1589275514434308692,2037,1589275514434166104,,0.0286824777986,-3.27741451762,1.84092016954,0.359956615437,-0.00670388065134,-0.0334348688205
1589275514440243384,2038,1589275514440148845,,0.0053881228719,-3.27732548018,1.84055660435,0.360831381094,-0.00671780325372,-0.0317681191354
1589275514449382341,2039,1589275514449257185,,0.00548866511516,-3.40959816405,1.81804001379,0.362791688312,-0.00540396638689,-0.0308440770937
1589275514455343811,2040,1589275514455196692,,0.00474261133735,-3.54217660225,1.84181123609,0.365392012878,-0.00607330607573,-0.0307991414473
1589275514461421223,2041,1589275514461311450,,0.00484997358129,-3.5422235463,1.84172067075,0.365391987743,-0.0060626136803,-0.0308015461388
1589275514467572575,2042,1589275514467342933,,0.00410182395467,-3.67483235449,1.86534076129,0.371602518765,-0.00608273639547,-0.0280044193618
1589275514476465620,2043,1589275514476346019,,0.00375050395421,-3.67497235111,1.88838510938,0.373280939099,-0.00608002699837,-0.0279779394189
1589275514482192050,2044,1589275514482104772,,-0.0195512016676,-3.54258183655,1.91047328519,0.375880433864,-0.00675688525326,-0.0280828061118
1589275514488180670,2045,1589275514488109276,,-0.0191495657502,-3.54243043951,1.88743833403,0.376932705919,-0.0067620748717,-0.0271691804872
1589275514494175785,2046,1589275514494097895,,0.00391978198437,-3.54247306259,1.88788116562,0.377894847603,-0.0067674922134,-0.0296993944112
1589275514500258587,2047,1589275514500178832,,0.003940083259,-3.54248175925,1.88786480461,0.377912415947,-0.00742772688246,-0.0306066707267
1589275514506419390,2048,1589275514506241437,,0.00397365355106,-3.54245541277,1.88791417125,0.377912326429,-0.00742550394503,-0.0306083153857
1589275514512188116,2049,1589275514512098462,,0.00308789007037,-3.5426994851,1.93419371731,0.377642268534,-0.00742864806305,-0.031507165265
1589275514518296471,2050,1589275514518175986,,0.00347848475596,-3.54256179515,1.91103187935,0.376907555699,-0.00743036419762,-0.0333142648535
1589275514524200892,2051,1589275514524127424,,0.00347855843425,-3.54254822912,1.91105702694,0.37690730754,-0.00743194576323,-0.0333167195711
1589275514530082473,2052,1589275514530016565,,0.0034644460387,-3.54252731395,1.91109582275,0.37871930159,-0.0067748344996,-0.0323883621007
1589275514533463865,2053,1589275514533351623,,0.0259215090247,-3.67514063919,1.93532766759,0.378614842481,-0.00744119680102,-0.0340429189689
1589275514539378501,2054,1589275514539175413,,0.0259270174884,-3.67514420569,1.9353208211,0.378615195173,-0.00743876981656,-0.0340395266766
1589275514545584062,2055,1589275514545399011,,0.00275720324637,-3.6750853698,1.93490171038,0.380408531203,-0.00809390434821,-0.0323619696146
1589275514551333709,2056,1589275514551140342,,0.00241757248503,-3.80754208799,1.9355032143,0.381319763809,-0.00744534329411,-0.0323419800484
1589275514557140693,2057,1589275514557056093,,0.00204747448514,-3.80764688785,1.95861321487,0.383880695752,-0.00744717874532,-0.0305056109047
1589275514563189061,2058,1589275514563044505,,0.00173080282757,-3.80777812251,1.98167425131,0.387361126446,-0.00744794990078,-0.0286490133338
1589275514566306710,2059,1589275514566086097,,0.001676999028,-3.80780770617,1.98161745168,0.3882634395,-0.00679335122811,-0.0277382211013
1589275514572098915,2060,1589275514572013389,,0.0010455182898,-3.9404068974,2.00525991627,0.38992335512,-0.00679043355878,-0.0268051841333
1589275514575214815,2061,1589275514575006766,,-0.0221745123357,-3.8079999134,2.02746036728,0.391581369964,-0.00679277352731,-0.0251302892732
1589275514581127310,2062,1589275514581047005,,-0.0224404909285,-3.94047971883,2.02800851517,0.392509452989,-0.006790891671,-0.0260113463257
1589275514587175666,2063,1589275514587073089,,-0.0224549337355,-3.94048414032,2.0279997642,0.391618039059,-0.00679043604154,-0.0269345969166
1589275514596081773,2064,1589275514595990283,,0.000717644564665,-3.94057675371,2.02834445179,0.393461728733,-0.00745343516267,-0.0276581683551
1589275514602188367,2065,1589275514602084238,,0.000626892982586,-3.94059354782,2.02831185469,0.395310744336,-0.00680180683746,-0.0285227496694
1589275514608207455,2066,1589275514608092567,,-0.0224515095126,-3.94055574415,2.027860667,0.394392942218,-0.00745647549756,-0.0286815515335
1589275514614159761,2067,1589275514614057783,,0.000697641690131,-3.94060287833,2.02829370421,0.39532842658,-0.00745515757959,-0.0294160226213
1589275514620228750,2068,1589275514620141607,,0.0239151867627,-3.94063878543,2.02875381959,0.395398965032,-0.00810701437238,-0.0328705324348
1589275514626385219,2069,1589275514626256941,,0.0239686686453,-3.94066712162,2.02869814743,0.395398810842,-0.00810263681041,-0.0328734664179
1589275514632183695,2070,1589275514632092134,,0.000765279194075,-3.94063249509,2.02823613885,0.397212737939,-0.00810318915234,-0.0320858576932
1589275514635082231,2071,1589275514634999084,,0.00103252598394,-3.80808923112,2.02781404284,0.397194271167,-0.00810584483231,-0.0311869863222
1589275514638312106,2072,1589275514638180911,,0.00106905266977,-3.80811126812,2.02777263946,0.397212928712,-0.00810103602618,-0.0320840396179
1589275514644533790,2073,1589275514644392028,,0.0243891322198,-3.80815039633,2.02822348483,0.397210621971,-0.00808920368835,-0.0319385346531
1589275514650304019,2074,1589275514650196575,,0.0237504822219,-3.94074230174,2.05186767349,0.398016565001,-0.00808499995913,-0.03372130675
1589275514656357758,2075,1589275514656219920,,-0.000126432601004,-4.07327999205,2.07510085229,0.398752477496,-0.00742665492208,-0.0320503549646
1589275514662321754,2076,1589275514662210305,,-0.0232163942848,-4.07322287586,2.07469153183,0.398717446742,-0.00807582668787,-0.0303995590904
1589275514668353807,2077,1589275514668258958,,-0.023672514896,-4.07334157131,2.09777590918,0.401279507424,-0.00743245830866,-0.0285520375551
1589275514674227141,2078,1589275514674134813,,-0.0243183787359,-4.20597393057,2.121456643,0.4019966719,-0.0074288516511,-0.0258350349041
1589275514680346858,2079,1589275514680251251,,-0.0252227829999,-4.20621882705,2.16761008009,0.407184593158,-0.00744830376331,-0.0248533137982
1589275514686446258,2080,1589275514686198645,,-0.025253311805,-4.20619136734,2.16766300903,0.407184385364,-0.00745269522954,-0.0248554016448
1589275514692292378,2081,1589275514692201990,,-0.0257189706073,-4.2063552849,2.19076334289,0.40801234989,-0.00679191111686,-0.0275438860219
1589275514698249265,2082,1589275514698163678,,-0.0257571227625,-4.20635758913,2.19075847044,0.408012219147,-0.00679605210769,-0.0275448013038
1589275514704309043,2083,1589275514704224435,,-0.0015551906618,-4.07367303391,2.14439256392,0.406578348002,-0.00745873572219,-0.0328190572736
1589275514710229763,2084,1589275514710139279,,-0.00159684720671,-4.07368166738,2.14437613233,0.40657786206,-0.007465146443,-0.032823619452
1589275514716171963,2085,1589275514716083151,,0.0463301147405,-3.94098074662,2.0752583847,0.403492417778,-0.00810621276976,-0.0397926010021
1589275514722228007,2086,1589275514722105060,,0.0462672033296,-3.9409526259,2.07531318946,0.403492650697,-0.00811145596912,-0.0397891706394
1589275514725292830,2087,1589275514725204773,,0.000141440963812,-3.80837758979,2.07391097446,0.402616393977,-0.00877447541098,-0.0418922281521
1589275514731153717,2088,1589275514731066876,,0.000326629791799,-3.80831499706,2.07402589011,0.402616968977,-0.00875546230306,-0.0418906799799
1589275514734156828,2089,1589275514734050666,,0.0243544802048,-3.80813367364,2.05156468037,0.401012358473,-0.00937710370845,-0.0453790273663
1589275514737173470,2090,1589275514737091937,,0.0475657423795,-3.80814859545,2.05205467287,0.400127761455,-0.00936982705575,-0.0470506841411
1589275514740268831,2091,1589275514740165569,,0.0473223824283,-3.80822621142,2.05191625563,0.400127329463,-0.00939299176129,-0.047049739072
1589275514749352991,2092,1589275514749242360,,0.0702855502637,-3.80830747764,2.05230120323,0.401061739218,-0.0087664052503,-0.0478065591979
1589275514755221680,2093,1589275514755111234,,0.0702986757647,-3.80822854185,2.05244722242,0.401062755468,-0.00810384070629,-0.0478069487839
1589275514761269969,2094,1589275514761138411,,0.0235058262715,-3.80821132847,2.0747387917,0.402669671202,-0.00877102956205,-0.0444673425929
1589275514767277045,2095,1589275514767158155,,0.0230371717262,-3.80832183066,2.097849305,0.405222110071,-0.00877263842113,-0.041702710638
1589275514776416454,2096,1589275514776279931,,0.0220891986698,-3.94093673714,2.12154841449,0.406867336177,-0.00813230603517,-0.0398577763217
1589275514782212189,2097,1589275514782102255,,-0.00231486352006,-4.07364140511,2.16776746769,0.413792207946,-0.00815515347412,-0.0344886462886
1589275514785236617,2098,1589275514785151426,,-0.00221858693473,-4.07365291721,2.16774593482,0.413792628909,-0.00814389656038,-0.0344862554778
1589275514791166603,2099,1589275514791092984,,-0.00225258384543,-4.07364075613,2.16776875286,0.413773813341,-0.00814869353451,-0.0335893746025
1589275514794382099,2100,1589275514794273271,,-0.00329953862588,-4.2064312883,2.21445422565,0.414394410343,-0.00814332592933,-0.0335845423092
1589275514800176441,2101,1589275514800101261,,-0.00373216307452,-4.20654591754,2.23755308502,0.415144601702,-0.00814471261311,-0.032660387657
1589275514803173742,2102,1589275514803109060,,-0.0272400845774,-4.206641585,2.26016943791,0.416835437144,-0.00814639964509,-0.0327961875969
1589275514809191337,2103,1589275514809105907,,-0.0272382962253,-4.20663666083,2.26017862434,0.416836017553,-0.00814282096876,-0.0327896987531
1589275514812305513,2104,1589275514812208184,,-0.0268524424401,-4.20650369318,2.23711115032,0.419762812046,-0.00881268960886,-0.0345315019541
1589275514818160124,2105,1589275514818047068,,-0.0268167293326,-4.2065362743,2.23705031443,0.419763040626,-0.00880775192526,-0.0345299830974
1589275514821199839,2106,1589275514821126134,,-0.00372482969184,-4.20655609747,2.23753395912,0.419799474874,-0.0081431113397,-0.0361706472538
1589275514824239751,2107,1589275514824136263,,-0.00352230412617,-4.07405105973,2.2370525163,0.419818632313,-0.00814898531675,-0.0370751456704
1589275514827144926,2108,1589275514827076861,,-0.0262926818552,-4.0739199192,2.21345700408,0.419052190662,-0.00881340060784,-0.037228435857
1589275514836300080,2109,1589275514836228002,,-0.00286207455692,-4.0738115721,2.19086359069,0.41839241633,-0.00949049203261,-0.0425017014677
1589275514842732816,2110,1589275514842625314,,0.0445152035256,-3.80891378649,2.16735996753,0.415900558272,-0.00948110654386,-0.0476710201611
1589275514848319038,2111,1589275514848215927,,0.0678392202378,-3.94130988161,2.14523800608,0.417016497725,-0.00882755659847,-0.0502144119729
1589275514854291128,2112,1589275514854172288,,0.0677582547912,-3.941265391,2.1453223026,0.417015600299,-0.00884016198165,-0.0502196469819
1589275514860173797,2113,1589275514860107528,,0.0447824869292,-3.80876681222,2.14430888553,0.415208119705,-0.00950086377658,-0.0512974008432
1589275514866343926,2114,1589275514866169129,,0.0448944256989,-3.80881159542,2.14422699794,0.415207611611,-0.00949081473911,-0.0513033732914
1589275514872196465,2115,1589275514872125269,,0.0445853144456,-3.94124454985,2.14482490102,0.417867875661,-0.00950554166147,-0.0476610436465
1589275514878444299,2116,1589275514878349715,,0.044722303042,-3.94129634876,2.14472686254,0.417868446272,-0.00948879434546,-0.0476593779381
1589275514884322245,2117,1589275514884208833,,0.0441867771358,-3.94136660592,2.16791623314,0.420457932438,-0.00950218749608,-0.046697405906
1589275514890434214,2118,1589275514890300699,,0.0444346403543,-3.94143432423,2.16778804729,0.420458045377,-0.00947638724709,-0.0467016316451
1589275514896378155,2119,1589275514896272573,,0.0199496848851,-4.20651553942,2.21482162312,0.422815503266,-0.00948075577787,-0.04230420267
1589275514902340875,2120,1589275514902195217,,0.0199678854429,-4.20651971897,2.21481352105,0.422816323062,-0.00947517546377,-0.0422972587551
1589275514908268059,2121,1589275514908162452,,-0.00391526027863,-4.33915811363,2.23784414649,0.426279743853,-0.00947900993092,-0.0396903416188
1589275514914351705,2122,1589275514914248217,,-0.00394076813718,-4.33917945275,2.23780272487,0.426279929452,-0.00947994701731,-0.0396881243916
1589275514920536970,2123,1589275514920389729,,-0.0278785307976,-4.47176730985,2.26093902243,0.42794361393,-0.00882534350651,-0.0389038861884
1589275514926569658,2124,1589275514926476148,,-0.00487730918794,-4.33937120122,2.28417090572,0.428749570757,-0.00883138387274,-0.0405497535971
1589275514932153815,2125,1589275514932058908,,-0.00536941107348,-4.33945669272,2.30732649328,0.430455508555,-0.00950624666067,-0.0414208001917
1589275514935291646,2126,1589275514935158630,,0.0179553373882,-4.2070087857,2.3072710002,0.43049102526,-0.00886278889654,-0.0430776159772
1589275514941315041,2127,1589275514941210986,,0.0178667127378,-4.20699489713,2.307297012,0.430489711,-0.00953648253461,-0.0430774048152
1589275514949086040,2128,1589275514948943638,,0.0412813144788,-4.20693287357,2.28462574861,0.430685860092,-0.00888718955389,-0.0456368060536
1589275514953520529,2129,1589275514953423649,,0.0640297862067,-4.20708738318,2.30819492026,0.42963995003,-0.00955746656872,-0.0464116470951
1589275514959468905,2130,1589275514959341065,,0.0650955155497,-4.07435022877,2.26141938876,0.428175702774,-0.0102120063388,-0.0500391811363
1589275514965376284,2131,1589275514965277030,,0.0650395324924,-4.07432859246,2.26145998074,0.428175689794,-0.0102178429413,-0.0500381007137
1589275514971378522,2132,1589275514971248747,,0.0657439706312,-3.94172416311,2.23786125725,0.427445266542,-0.0108789505021,-0.0518556914304
1589275514977208852,2133,1589275514977119918,,0.0421746934288,-4.0741061231,2.2380143699,0.427390226549,-0.0108834267939,-0.0492875633769
1589275514980677041,2134,1589275514980572665,,0.0653414639054,-4.07409460951,2.23857426596,0.426537117348,-0.0102244756803,-0.0518654743736
1589275514986406782,2135,1589275514986238363,,0.065179255707,-4.07422525622,2.26164212263,0.428156294976,-0.0102077683402,-0.0491420845444
1589275514992335969,2136,1589275514992198115,,0.0651963795869,-4.07418877387,2.2617073488,0.428156327713,-0.0102067997655,-0.0491420005025
1589275514998247356,2137,1589275514998157733,,0.0420830024331,-4.07418247177,2.2611827734,0.428140720588,-0.0101907490568,-0.0483821364693
1589275515004256721,2138,1589275515004100994,,0.0423238131195,-4.07425904378,2.26104030616,0.429041332026,-0.0101680670097,-0.0474717563981
1589275515007237013,2139,1589275515007158068,,0.0416575069109,-4.20686970211,2.2847352412,0.429776021815,-0.00951173483171,-0.0456503474619
1589275515010261481,2140,1589275515010189505,,0.0413864084767,-4.3393556513,2.28525831785,0.428818324603,-0.00950930801736,-0.0438552942469
1589275515016406286,2141,1589275515016242924,,0.0416539157061,-4.33938447105,2.28519873234,0.428817933768,-0.00948679149119,-0.0438639915449
1589275515022294068,2142,1589275515022198263,,0.0175238789768,-4.33953723219,2.33101814119,0.43030195976,-0.00950011486307,-0.0412786111496
1589275515028311697,2143,1589275515028189987,,0.0175016410733,-4.3396046485,2.33089279843,0.43030167278,-0.00950231588862,-0.0412810960268
1589275515034213786,2144,1589275515034136246,,0.0171160937518,-4.47212205681,2.33135884314,0.429392306235,-0.00950789455676,-0.0412910767925
1589275515037241231,2145,1589275515037114642,,0.0170202706761,-4.47211788271,2.3313675516,0.429393059975,-0.00951253732412,-0.0412821682322
1589275515040153558,2146,1589275515040016884,,-0.00561287735014,-4.33945416782,2.3073306625,0.42951849193,-0.00951853254529,-0.0405175695576
1589275515043586854,2147,1589275515043469458,,0.0175956861542,-4.33945835444,2.30785278643,0.429533590688,-0.00952758157651,-0.0412818493673
1589275515049330437,2148,1589275515049224890,,0.0172149299483,-4.47197305761,2.30833160639,0.431401573778,-0.00887635475275,-0.0430514906814
1589275515055253151,2149,1589275515055163367,,0.0171491495678,-4.47199639205,2.30828688924,0.431401735593,-0.00888090194329,-0.0430489313374
1589275515061267770,2150,1589275515061097443,,0.0172836837356,-4.33952006131,2.30773911301,0.430510676801,-0.00889438920414,-0.0439753932791
1589275515064208857,2151,1589275515064107774,,0.0411650712614,-4.20695578243,2.28458566099,0.431624317784,-0.00955951856785,-0.0465114082562
1589275515070372309,2152,1589275515070267428,,0.0416338604678,-4.20680454497,2.2614487205,0.430852776663,-0.00955283962755,-0.0465217248265
1589275515076304019,2153,1589275515076179266,,0.0417773655112,-4.20676148773,2.26152616842,0.429952543802,-0.00953776970918,-0.0474479049597
1589275515082264672,2154,1589275515082179018,,0.0650405667381,-4.20684376923,2.26190808985,0.428159860311,-0.00952650992937,-0.0491260845404
1589275515088273581,2155,1589275515088190746,,0.0651534226592,-4.20688973182,2.26181935546,0.42724920857,-0.0101674698574,-0.0491427240599
1589275515094178196,2156,1589275515094094478,,0.0652600541882,-4.20686011355,2.2618713693,0.426331028526,-0.0101502647068,-0.0491483489922
1589275515097207589,2157,1589275515097118454,,0.0421345537638,-4.20683096018,2.26139030802,0.425444748247,-0.0101317065997,-0.050198663948
1589275515103422744,2158,1589275515103287005,,0.0654597322948,-4.33941426735,2.26225317126,0.425423585704,-0.0100967214922,-0.0491549305819
1589275515109301200,2159,1589275515109168214,,0.0653387697116,-4.20700931868,2.28499705125,0.427085760309,-0.0100962713732,-0.0482294333346
1589275515115137874,2160,1589275515115041234,,0.0421707575048,-4.20702491298,2.28444001226,0.427069239756,-0.0100886881139,-0.0474757358854
1589275515118172034,2161,1589275515118072638,,0.041450586682,-4.33968064373,2.30795268936,0.427818908486,-0.0100912832507,-0.0465495444613
1589275515121273995,2162,1589275515121180894,,0.0414480618761,-4.33966522662,2.30798172351,0.427799622993,-0.0100927552713,-0.0456511763909
1589275515124243801,2163,1589275515124139245,,0.0413538839781,-4.3396770171,2.30796124331,0.427799039812,-0.0101034501391,-0.0456542755892
1589275515130251777,2164,1589275515130143929,,0.0417598569428,-4.33958463274,2.28481666927,0.428878864257,-0.0101065792832,-0.0465360057107
1589275515133392120,2165,1589275515133298799,,0.0410100187245,-4.47221599859,2.30838391009,0.42776115289,-0.0101087710546,-0.0438400206601
1589275515136299726,2166,1589275515136197398,,0.0177133990591,-4.47214506618,2.30799456875,0.427744917137,-0.0101217884179,-0.0430847541943
1589275515139164971,2167,1589275515139074308,,0.0172670728613,-4.47213842982,2.30801081011,0.427744672091,-0.0101611269238,-0.0430779268102
1589275515145509489,2168,1589275515145390827,,0.0166613281852,-4.4722149706,2.33118389752,0.42762226534,-0.0101792381021,-0.0439910477136
1589275515151101174,2169,1589275515151034495,,0.0392765934052,-4.60475147608,2.33216398146,0.428549858474,-0.00888709205184,-0.0447289351277
1589275515154096981,2170,1589275515154028866,,0.015559127362,-4.60479155328,2.35486515812,0.430202723304,-0.00890257023332,-0.0430361889328
1589275515157086830,2171,1589275515157012943,,-0.00789438482572,-4.6046537438,2.35459408945,0.429266885646,-0.00891824159362,-0.0422911554517
1589275515160323047,2172,1589275515160254763,,-0.00787599575937,-4.60468580502,2.35453145093,0.429266784824,-0.00891659096653,-0.0422925268401
1589275515163168379,2173,1589275515163093206,,-0.00777040159594,-4.6047730171,2.35436123598,0.429267345676,-0.00890351397423,-0.0422895891357
1589275515166572500,2174,1589275515166290485,,-0.00776463487874,-4.60474158572,2.35442272902,0.429267380933,-0.00890342821344,-0.042289249315
1589275515172246250,2175,1589275515172165288,,-0.00779612547716,-4.60470258229,2.35449890567,0.42926734859,-0.00890692969514,-0.0422888402808
1589275515175245083,2176,1589275515175175244,,-0.00744473817219,-4.47220326762,2.35398943194,0.429229690881,-0.00890190520665,-0.0404887068708
1589275515178287431,2177,1589275515178186968,,-0.00728318033171,-4.47216830823,2.35405635337,0.429229160533,-0.00889126368199,-0.0404966666752
1589275515181174341,2178,1589275515181055924,,-0.00745451807654,-4.60472928142,2.3544477957,0.430167968571,-0.00888058984654,-0.0413812368582
1589275515184154806,2179,1589275515184076196,,-0.00679246170234,-4.60468554942,2.33121562011,0.428498495328,-0.00885608340451,-0.0423142016818
1589275515187162278,2180,1589275515187087225,,0.0168793173782,-4.47220673935,2.33119812035,0.428477796779,-0.00818174085689,-0.0412748476938
1589275515190136190,2181,1589275515190067673,,0.0169011323505,-4.47221195465,2.33118795715,0.428478061038,-0.00817845581753,-0.0412727553959
1589275515196155925,2182,1589275515196056621,,0.0402419013541,-4.47233172727,2.33148711053,0.428493583167,-0.00816361450552,-0.0420343143924
1589275515199183545,2183,1589275515199049776,,-0.00642283227428,-4.60473046294,2.33112795121,0.427569825424,-0.00882277748451,-0.0414370568708
1589275515205215604,2184,1589275515205124743,,-0.00636673463809,-4.60471170227,2.33116516312,0.428498231982,-0.00882101068837,-0.0423241932501
1589275515208288887,2185,1589275515208200816,,-0.00608448091685,-4.47217547543,2.33072678966,0.426649317341,-0.00882036953879,-0.0414609384136
1589275515211236254,2186,1589275515211148787,,-0.00614348204993,-4.47217994077,2.33071806682,0.426648535588,-0.00882912821905,-0.041467118246
1589275515214213979,2187,1589275515214136188,,0.0398776083743,-4.60478994032,2.33207783437,0.425771502537,-0.00817584964018,-0.0429956421098
1589275515217215085,2188,1589275515217131191,,0.017070804262,-4.60460872712,2.30858420328,0.424985101864,-0.00884742003603,-0.0422590628437
1589275515220182438,2189,1589275515220116602,,0.0164777083063,-4.60465923145,2.33180374576,0.425754375626,-0.00820240316184,-0.0422480036146
1589275515223237438,2190,1589275515223137996,,-0.00617760695924,-4.47199685644,2.30775114818,0.424987292305,-0.00887456944661,-0.0424024739824
1589275515229245229,2191,1589275515229157037,,-0.00687224679821,-4.47211238282,2.33084565762,0.425736747599,-0.00890089607655,-0.0414880268697
1589275515232116579,2192,1589275515232045146,,-0.0296026186051,-4.4719414588,2.30732446,0.424952080566,-0.0088994341271,-0.0407479225674
1589275515235228353,2193,1589275515235081490,,-0.00648820528804,-4.47198716004,2.30776908559,0.42406652962,-0.00890430561439,-0.042421879091
1589275515238161336,2194,1589275515238072748,,-0.00643341491148,-4.47200646208,2.30773183517,0.424065418915,-0.00956305185864,-0.0424220983607
1589275515241154702,2195,1589275515241087807,,-0.00641186254334,-4.47201304574,2.30771913705,0.424065458196,-0.00956091908533,-0.0424221864186
1589275515244307514,2196,1589275515244225320,,-0.00594651126952,-4.47192434319,2.28457339595,0.42329651613,-0.00955667505981,-0.0424385656598
1589275515247346092,2197,1589275515247268003,,0.0170140796916,-4.47208383442,2.30811847311,0.422253707416,-0.00887630901217,-0.0432095132991
1589275515253365838,2198,1589275515253190562,,0.0170565943281,-4.47210854435,2.30807028208,0.422253727016,-0.00887212472478,-0.0432101811096
1589275515259316284,2199,1589275515259226925,,0.0175714810145,-4.47198642856,2.28498832399,0.421485264379,-0.00886210909354,-0.0432229831653
1589275515265414831,2200,1589275515265322187,,0.0169096388593,-4.60460925927,2.30858432799,0.42229371454,-0.00819312926339,-0.0450157890668
1589275515271238908,2201,1589275515271146547,,-0.00589962983866,-4.47209294064,2.30756567262,0.421318823358,-0.00883982151393,-0.0424663005505
1589275515274200685,2202,1589275515274114144,,-0.00586797011151,-4.4720726034,2.30760516675,0.421318608136,-0.00883849771599,-0.0424687112896
1589275515277175120,2203,1589275515277109478,,0.0174279569228,-4.47214345777,2.30799985837,0.421335189852,-0.00883257816972,-0.0432219823597
1589275515280181372,2204,1589275515280104277,,-0.00575093033629,-4.47209679197,2.30755858404,0.421317678145,-0.00949142862264,-0.0424693669348
1589275515283155401,2205,1589275515283084951,,-0.00565166313196,-4.60453801911,2.28486998755,0.419640841126,-0.00882480511693,-0.0424931816732
1589275515286156094,2206,1589275515286090450,,-0.0288542852023,-4.60451583128,2.28438344094,0.419623505848,-0.00949265602366,-0.0417410764875
1589275515289346808,2207,1589275515289223952,,-0.00582046082552,-4.6045481388,2.28484917018,0.419638968928,-0.00950592743642,-0.0424970059159
1589275515292171866,2208,1589275515292097312,,0.0172794440108,-4.60457124609,2.28534101881,0.420585084,-0.00885758877536,-0.0441449091341
1589275515295200570,2209,1589275515295124970,,-0.00602049832202,-4.60451626892,2.28491287658,0.420606649391,-0.00886184067295,-0.0451889455143
1589275515298161895,2210,1589275515298101393,,-0.0293617935732,-4.47200986337,2.3071949542,0.420410259741,-0.0095320210577,-0.0426388756954
1589275515301173955,2211,1589275515301115486,,-0.0298689211245,-4.60449907155,2.30773001727,0.419528230995,-0.00954828882809,-0.0444516883087
1589275515304162903,2212,1589275515304092528,,-0.00599040167887,-4.47191232188,2.28459681218,0.419657464646,-0.00954971274856,-0.043402864387
1589275515307195776,2213,1589275515307131775,,-0.0067642315699,-4.60452858861,2.30820694343,0.419544840942,-0.00955151317975,-0.0452000173387
1589275515310175156,2214,1589275515310120994,,0.0397118330968,-4.60465477789,2.3090370332,0.419578103807,-0.00888440388484,-0.0467142330694
1589275515316140121,2215,1589275515316092829,,-0.00663511513642,-4.60451684362,2.30823074753,0.420483276548,-0.00954519692751,-0.046100460584
1589275515319191518,2216,1589275515319123641,,0.0170928376737,-4.60449078017,2.28550453991,0.419731050252,-0.00953895177771,-0.0468696827513
1589275515322159050,2217,1589275515322101960,,0.0166847140693,-4.60457852073,2.30864727331,0.419581253635,-0.00887332030541,-0.0468717851987
1589275515325485893,2218,1589275515325365428,,0.0169563789377,-4.73700353989,2.28602018432,0.419732541291,-0.00886123979565,-0.0468694567939
1589275515328190323,2219,1589275515328131038,,0.0169779680896,-4.60456429386,2.30867351052,0.419581191201,-0.00884943687348,-0.0468768591111
1589275515331179010,2220,1589275515331116413,,-0.00605855315694,-4.73698658685,2.28551389678,0.41969526473,-0.00950681560487,-0.0452127819146
1589275515334233818,2221,1589275515334154862,,0.0175385992262,-4.60450172518,2.28547911215,0.419732050985,-0.00883817832912,-0.0468782012162
1589275515337213455,2222,1589275515337148992,,0.0176484147882,-4.60448416504,2.28551364447,0.419732047456,-0.00882939076083,-0.0468798887218
1589275515340560861,2223,1589275515340490161,,0.0173182294871,-4.6045960495,2.30860764656,0.419581240709,-0.0088202366436,-0.0468819190406
1589275515346526807,2224,1589275515346471078,,0.0174033245393,-4.60460811045,2.3085829505,0.419580990753,-0.00881392559747,-0.0468853428822
1589275515352184522,2225,1589275515352095326,,0.0403408174404,-4.73720155787,2.3094615551,0.417768169731,-0.00880521808969,-0.0476674081723
1589275515355183638,2226,1589275515355118335,,0.0401067746812,-4.86977297161,2.30986430738,0.41868777048,-0.00880397793753,-0.0476533093755
1589275515358153598,2227,1589275515358095125,,0.0403464886308,-4.73721943004,2.309424796,0.41870806552,-0.00814216829943,-0.0485520507709
1589275515361196756,2228,1589275515361119496,,0.0635141825174,-4.73725730787,2.30988904022,0.417803502824,-0.0088134510316,-0.0493237838673
1589275515364211334,2229,1589275515364159641,,0.0634748400634,-4.73726245452,2.30987956658,0.417803209392,-0.00881766156053,-0.0493255168474
1589275515367231214,2230,1589275515367161585,,0.0634301049786,-4.73726459323,2.30987640924,0.417802883366,-0.00882249919874,-0.049327413324
1589275515370223629,2231,1589275515370162136,,0.06338607458,-4.73726617688,2.30987437004,0.417802756999,-0.00882653022868,-0.0493277625136
1589275515376179027,2232,1589275515376122521,,0.0407043332757,-4.60455907454,2.28589982985,0.416097990298,-0.00883346389399,-0.0485982349643
1589275515379185977,2233,1589275515379105210,,0.017450825189,-4.60448914399,2.28550513089,0.416080415103,-0.00950599711476,-0.0478447356088
1589275515385194637,2234,1589275515385135322,,0.0169931182904,-4.60459961039,2.30860296019,0.415977676856,-0.00950875243385,-0.0496460102684
1589275515388234803,2235,1589275515388167038,,0.0401664561309,-4.60466563462,2.30900751906,0.415995658716,-0.0088417604521,-0.0503958628601
1589275515391325555,2236,1589275515391240554,,0.0401845542083,-4.60468283227,2.30897290796,0.41599546038,-0.00884063526159,-0.0503976974072
1589275515394291879,2237,1589275515394210334,,0.0402992171933,-4.7371226979,2.28631238487,0.416155047044,-0.00950605985691,-0.0513030350043
1589275515397304194,2238,1589275515397223309,,0.0173911474375,-4.60450892591,2.28546573172,0.41520976623,-0.00950621619527,-0.0496530250649
1589275515400373066,2239,1589275515400278684,,-0.00590514490451,-4.60445755004,2.28503150304,0.416141916585,-0.00951020777653,-0.0506882201867
1589275515403122199,2240,1589275515403071569,,-0.00583788259684,-4.60444409194,2.28505879443,0.41614172243,-0.00950567013424,-0.0506906652605
1589275515409121832,2241,1589275515409073212,,-0.00580231445294,-4.60444936935,2.2850482509,0.416103169039,-0.00950210162561,-0.0488813775848
1589275515412168011,2242,1589275515412096917,,-0.00582158958198,-4.6044506814,2.28504555805,0.415231974256,-0.0101528382607,-0.0506985453949
1589275515415149107,2243,1589275515415092982,,-0.005514292054,-4.47191585978,2.28459108579,0.414313249049,-0.00949645222924,-0.0507151158179
1589275515418119352,2244,1589275515418043647,,0.0402793902267,-4.60465459421,2.30902756863,0.415096163414,-0.00882837461605,-0.0513170859245
1589275515421340031,2245,1589275515421294486,,0.0175742092401,-4.60450400666,2.28547424215,0.415229567013,-0.00948999766833,-0.0505626695694
1589275515424246489,2246,1589275515424195579,,0.0176224080494,-4.60450054898,2.28548083714,0.414309997868,-0.00948397618276,-0.0505779762056
1589275515427399113,2247,1589275515427270569,,0.0412255487479,-4.60446481809,2.26266931404,0.412625428944,-0.00947850684249,-0.0504494029565
1589275515430204761,2248,1589275515430130464,,0.0412243166293,-4.60447044189,2.26265789218,0.412625332824,-0.00947883721483,-0.0504501270408
1589275515433096726,2249,1589275515433051071,,0.0180830741842,-4.60441085431,2.26224255081,0.41353809659,-0.00947909377946,-0.0505913078798
1589275515436121739,2250,1589275515436047826,,0.0181423129757,-4.60441817433,2.26222717778,0.413538026865,-0.00947430992157,-0.0505927739035
1589275515439232327,2251,1589275515439096073,,0.0177413183593,-4.60451783635,2.28544508839,0.413380545059,-0.00947320429846,-0.0496880820719
1589275515445460773,2252,1589275515445399934,,0.0412128911458,-4.47204841931,2.28539432436,0.412497906248,-0.00880460485218,-0.0513660327692
1589275515448190782,2253,1589275515448090986,,0.0644471630145,-4.47210291501,2.28582417595,0.411646474283,-0.00748468997363,-0.0539316552506
1589275515451126443,2254,1589275515451069450,,0.0641566667395,-4.604640666,2.2862711603,0.411645254374,-0.00814046170882,-0.0539321616007
1589275515454197133,2255,1589275515454129021,,0.0641773308,-4.60462388282,2.28630438202,0.41164510356,-0.00813966641148,-0.0539334327333
1589275515457449911,2256,1589275515457339140,,0.0645863944953,-4.60450275489,2.26313047069,0.409953880503,-0.00813712023157,-0.0539588950623
1589275515463433385,2257,1589275515463343223,,0.0412643712355,-4.60443649935,2.26272623328,0.40991681351,-0.00880581603415,-0.0523014860864
1589275515469450814,2258,1589275515469310406,,0.0412451837595,-4.60443279953,2.26273411188,0.409916501479,-0.00880859538734,-0.0523034635896
1589275515475457498,2259,1589275515475323122,,0.0419330879921,-4.47178460463,2.23918023638,0.408228137952,-0.00880717455665,-0.0523319401052
1589275515481369254,2260,1589275515481287204,,0.0419302995881,-4.47178849137,2.23917252652,0.408228404685,-0.00880635581857,-0.0523299971369
1589275515487410930,2261,1589275515487294843,,0.0187663618471,-4.47173465942,2.23874549973,0.408210794104,-0.00947073162266,-0.051576833595
1589275515493680107,2262,1589275515493625405,,0.0423858995079,-4.47169102019,2.21604874025,0.405611345379,-0.00879745302707,-0.0514723410323
1589275515499277453,2263,1589275515499216104,,0.0423757866794,-4.47169067385,2.21604963252,0.40561150377,-0.00879773715453,-0.0514710443059
1589275515502296026,2264,1589275515502229924,,0.0427855336175,-4.47157817992,2.19295904585,0.403933456364,-0.00879497000376,-0.0514970516624
1589275515505233198,2265,1589275515505143066,,0.0427843138439,-4.47158726089,2.19294055289,0.403933391538,-0.00879508934653,-0.0514975397608
1589275515508296973,2266,1589275515508228479,,0.0428246874598,-4.4715956894,2.19292257829,0.402974309372,-0.00879130886677,-0.0497087908942
1589275515511243172,2267,1589275515511189364,,0.0663579563751,-4.3391207086,2.19288133515,0.403910152815,-0.00879387616844,-0.0504523028882
1589275515514298195,2268,1589275515514226305,,0.0667778140808,-4.33901983847,2.16966309612,0.403138319685,-0.00879212048604,-0.0504645029988
1589275515517366682,2269,1589275515517295175,,0.0667843534702,-4.33902177703,2.169659018,0.403138517932,-0.00879078308971,-0.0504631522662
1589275515520414733,2270,1589275515520365423,,0.0435500156371,-4.33898177141,2.16919924796,0.402202400763,-0.0087872760112,-0.0497219807489
1589275515529223442,2271,1589275515529136772,,0.043550041767,-4.33897376341,2.16921526551,0.401273535341,-0.00878520721118,-0.0488370756509
1589275515532196247,2272,1589275515532111316,,0.0435498854054,-4.33896593558,2.16923092621,0.399434482296,-0.0087809475264,-0.0488654470122
1589275515535184082,2273,1589275515535113726,,0.0434049644294,-4.20655182318,2.19196585217,0.399296700605,-0.00878128102205,-0.048867885262
1589275515538198146,2274,1589275515538127044,,0.0433789888356,-4.20653857957,2.19199178171,0.399296322539,-0.00878531166972,-0.0488702499096
1589275515541185976,2275,1589275515541117273,,0.043106492579,-4.33905387403,2.19247532726,0.398358306382,-0.008120038447,-0.0479879673097
1589275515544372538,2276,1589275515544261907,,0.0430784883761,-4.33904597651,2.19249150731,0.398358258879,-0.00812276936263,-0.0479878994596
1589275515547240062,2277,1589275515547172118,,0.0206323854205,-4.20635901245,2.16838954419,0.395759624738,-0.00877871170641,-0.0481705387927
1589275515550274570,2278,1589275515550214987,,0.0207394606662,-4.33877052041,2.14577079727,0.395910429107,-0.00878200358893,-0.0481694670163
1589275515556217749,2279,1589275515556162299,,0.0207311329745,-4.33875808553,2.14579602102,0.394063243472,-0.00811497581613,-0.0472982905116
1589275515559345616,2280,1589275515559286277,,0.0214570729559,-4.20613472671,2.12219344307,0.391485096991,-0.00810689087676,-0.0482365867841
1589275515565302232,2281,1589275515565229939,,0.0214669033998,-4.20613632413,2.12219017759,0.391485144587,-0.00810583017704,-0.0482363787501
1589275515568283046,2282,1589275515568203048,,0.0214615474243,-4.20613639309,2.1221900951,0.390546049552,-0.00810474328534,-0.0473535714785
