%time,field.header.seq,field.header.stamp,field.header.frame_id,field.vector.x,field.vector.y,field.vector.z
1589274131842323394,15119,1589274131842185741,,0.223065474617,-1.97552155055,2.42084230388
1589274131848427204,15120,1589274131848261566,,0.223067080159,-2.00386280603,2.42776282939
1589274131854451026,15121,1589274131854288968,,0.22302979804,-2.03167857195,2.43443518739
1589274131860371065,15122,1589274131860273866,,0.222948119941,-2.06010707726,2.4411912961
1589274131866344898,15123,1589274131866238421,,0.222911665851,-2.08817687564,2.44770610351
1589274131872414413,15124,1589274131872302543,,0.222796300061,-2.11713448762,2.45460087997
1589274131878423139,15125,1589274131878287962,,0.222631431675,-2.11606538857,2.4535978806
1589274131884283719,15126,1589274131884176392,,0.222636725525,-2.14465805434,2.46042959865
1589274131890681138,15127,1589274131890573460,,0.222460868702,-2.17289761318,2.46670532572
1589274131896270085,15128,1589274131896144023,,0.222342365384,-2.20130983817,2.4733979773
1589274131902315828,15129,1589274131902192698,,0.222160080889,-2.22483860946,2.47814913364
1589274131908320377,15130,1589274131908164123,,0.221928533347,-2.25077341323,2.48386003767
1589274131914226385,15131,1589274131914090629,,0.221004682738,-2.27941152357,2.48870907722
1589274131920377989,15132,1589274131920264611,,0.220285005158,-2.30884807282,2.49468735356
1589274131926396433,15133,1589274131926280250,,0.219558078472,-2.33767212746,2.50000108194
1589274131932495595,15134,1589274131932392260,,0.219551656512,-2.36732466616,2.50710795697
1589274131938319465,15135,1589274131938211051,,0.219331181045,-2.36640491906,2.50607526449
1589274131944391494,15136,1589274131944283417,,0.219225785144,-2.396414099,2.51316292553
1589274131950393804,15137,1589274131950285888,,0.219295064161,-2.42617791021,2.52024357513
1589274131956295466,15138,1589274131956150592,,0.219430317209,-2.45652197584,2.5278971926
1589274131962391569,15139,1589274131962297270,,0.219406287331,-2.48717229235,2.53540710901
1589274131968446319,15140,1589274131968286798,,0.219581197028,-2.51758374232,2.54285686869
1589274131974482391,15141,1589274131974284877,,0.21968833701,-2.54782770286,2.55042286241
1589274131980532211,15142,1589274131980381027,,0.219645828098,-2.57877548194,2.55804900997
1589274131986557980,15143,1589274131986420846,,0.219635546098,-2.60975282369,2.56556735725
1589274131992437046,15144,1589274131992342990,,0.2195386112,-2.64094880533,2.57300996752
1589274131998410405,15145,1589274131998275504,,0.21946421652,-2.6413748082,2.57294372917
1589274132004401026,15146,1589274132004246963,,0.219539955039,-2.67250378233,2.58067138847
1589274132010447363,15147,1589274132010335947,,0.219455704609,-2.70409296025,2.58856665852
1589274132016274522,15148,1589274132016188674,,0.219392072749,-2.73583929299,2.59627056886
1589274132022488809,15149,1589274132022339820,,0.219388710691,-2.76768381675,2.60409738017
1589274132028211746,15150,1589274132028112008,,0.219297710608,-2.79960694271,2.61198710695
1589274132034064736,15151,1589274132033977657,,0.219219884943,-2.83184232066,2.61994186829
1589274132040069869,15152,1589274132039970928,,0.219209693992,-2.8640691571,2.62754476075
1589274132046054739,15153,1589274132045947417,,0.21899270226,-2.89644410345,2.63520461688
1589274132049156344,15154,1589274132049076307,,0.218850757965,-2.89630011486,2.63480934621
1589274132055421283,15155,1589274132055254847,,0.218641946871,-2.92876970179,2.64250974172
1589274132061251306,15156,1589274132061167266,,0.218357526273,-2.96114388038,2.65014883067
1589274132067332178,15157,1589274132067252225,,0.218293951499,-2.99367371994,2.6580477368
1589274132073188419,15158,1589274132073097939,,0.217998139057,-3.02643837934,2.66585400773
1589274132082323805,15159,1589274132082194047,,0.217569918264,-3.05887591724,2.67322955917
1589274132088571526,15160,1589274132088445427,,0.217195180857,-3.09153356365,2.68047244137
1589274132094345864,15161,1589274132094240822,,0.216424755662,-3.12418276409,2.68759491658
1589274132100473322,15162,1589274132100331072,,0.216092957192,-3.15712584398,2.6951097795
1589274132106270634,15163,1589274132106155934,,0.215718409252,-3.18982815355,2.70261041115
1589274132112377432,15164,1589274132112246141,,0.214634502057,-3.20830287284,2.70563298619
1589274132118226944,15165,1589274132118133058,,0.21425699956,-3.22256849913,2.70834099534
1589274132124212824,15166,1589274132124088938,,0.213139649214,-3.25523715174,2.71477867136
1589274132130164415,15167,1589274132130070565,,0.21265583717,-3.28824205579,2.72216928535
1589274132136199965,15168,1589274132136105493,,0.211857413341,-3.32089961362,2.72910991114
1589274132142299807,15169,1589274132142215333,,0.211635381026,-3.35404728718,2.73661718873
1589274132148195161,15170,1589274132148104928,,0.211079734091,-3.38709107325,2.74372259386
1589274132154246882,15171,1589274132154153708,,0.210847581111,-3.42023693802,2.75150466907
1589274132160214315,15172,1589274132160121905,,0.210737917856,-3.45303709449,2.75943553203
1589274132166174779,15173,1589274132166091715,,0.210513067345,-3.48526415812,2.7664529748
1589274132172386500,15174,1589274132172297529,,0.210339933253,-3.50155689475,2.77009022571
1589274132178452084,15175,1589274132178340477,,0.21039743617,-3.51215163427,2.77226003312
1589274132184283098,15176,1589274132184195390,,0.210065173103,-3.54418225262,2.77946981096
1589274132190720064,15177,1589274132190611726,,0.209696165346,-3.57647322914,2.78628458826
1589274132196103045,15178,1589274132195977457,,0.209475318212,-3.60963282435,2.79393158632
1589274132202104039,15179,1589274132202020840,,0.209279425828,-3.64062055133,2.80007064366
1589274132205140389,15180,1589274132205044166,,0.209315949753,-3.63847477931,2.79901197838
1589274132211346354,15181,1589274132211220056,,0.209452026924,-3.67134706826,2.80693441786
1589274132217227900,15182,1589274132217152121,,0.209537159684,-3.7042688042,2.81488719803
1589274132223171917,15183,1589274132223012188,,0.209794110244,-3.73642552669,2.82254531227
1589274132226046259,15184,1589274132225971814,,0.210034060617,-3.76900703493,2.83057559002
1589274132229054424,15185,1589274132228966993,,0.210155532492,-3.76666251867,2.82940444113
1589274132232343034,15186,1589274132232257822,,0.210338917582,-3.78260256644,2.83318838217
1589274132238311671,15187,1589274132238184560,,0.210440065326,-3.79663758868,2.8365144341
1589274132244274294,15188,1589274132244180439,,0.210343141648,-3.82945910208,2.84432653218
1589274132250262463,15189,1589274132250178690,,0.210580176317,-3.86024430832,2.85187414411
1589274132256340843,15190,1589274132256187753,,0.210587330785,-3.89327351649,2.85982028683
1589274132262309400,15191,1589274132262188191,,0.210798848323,-3.92389590825,2.86763256869
1589274132268225421,15192,1589274132268142671,,0.210671645662,-3.95685428111,2.8756696688
1589274132274328946,15193,1589274132274229365,,0.210547166023,-3.98866529825,2.88380877359
1589274132280233797,15194,1589274132280161384,,0.21057809355,-4.02205672791,2.89250766657
1589274132282963331,15195,1589274132282884447,,0.210159400979,-4.01951865042,2.89366567721
1589274132286032653,15196,1589274132285948362,,0.209877633018,-4.05267755344,2.90376965617
1589274132289253182,15197,1589274132289131595,,0.209449148031,-4.05120804551,2.9030719658
1589274132295031773,15198,1589274132294934838,,0.209163696389,-4.08496018034,2.91139686098
1589274132298411884,15199,1589274132298307883,,0.209095774211,-4.08373057414,2.91055712314
1589274132304156823,15200,1589274132304071884,,0.208964864396,-4.11739323732,2.91860334306
1589274132310181398,15201,1589274132310077103,,0.208258618211,-4.15094455888,2.92564336844
1589274132313168615,15202,1589274132313108204,,0.207936507804,-4.18462065041,2.93328248866
1589274132316241276,15203,1589274132316088260,,0.207247207106,-4.18351233313,2.93154634316
1589274132322217243,15204,1589274132322128164,,0.206987988517,-4.21719521805,2.93947777707
1589274132325620566,15205,1589274132325538581,,0.20650392735,-4.23233887785,2.94213492053
1589274132331252213,15206,1589274132331153492,,0.20622436591,-4.24979472209,2.94601960952
1589274132337390758,15207,1589274132337310534,,0.205941537094,-4.28315915791,2.95359397525
1589274132343429609,15208,1589274132343333576,,0.205939066799,-4.31704611209,2.96202368827
1589274132349573212,15209,1589274132349430161,,0.20552446728,-4.35026558626,2.9695781057
1589274132355306008,15210,1589274132355198393,,0.205330776153,-4.38393783754,2.97774306643
1589274132360955717,15211,1589274132360863409,,0.204965222121,-4.41693729097,2.98496123436
1589274132364001028,15212,1589274132363858795,,0.204630493617,-4.41647757877,2.98413427053
1589274132367079299,15213,1589274132367011215,,0.2040802632,-4.44968353816,2.99121925444
1589274132369986083,15214,1589274132369893254,,0.20373101455,-4.44909385558,2.99039713562
1589274132372987621,15215,1589274132372876593,,0.203146594829,-4.48233223164,2.99745571651
1589274132376198753,15216,1589274132376115971,,0.202924247191,-4.48167312044,2.99671518816
1589274132382422680,15217,1589274132382259822,,0.202412307042,-4.51499297998,3.00387821651
1589274132388440023,15218,1589274132388237993,,0.202344117309,-4.54878777221,3.01197965932
1589274132394346875,15219,1589274132394235066,,0.201937819273,-4.58169947681,3.0192373168
1589274132400304581,15220,1589274132400220267,,0.201743015225,-4.6155503684,3.02712954454
1589274132406393281,15221,1589274132406236991,,0.201360786526,-4.64841383789,3.03442856362
1589274132412649677,15222,1589274132412522989,,0.201176765705,-4.68221362166,3.04224446778
1589274132418249226,15223,1589274132418145578,,0.200933832564,-4.68095883665,3.04135698741
1589274132421238552,15224,1589274132421109591,,0.200675479056,-4.71382521431,3.04862273627
1589274132424328056,15225,1589274132424236718,,0.200337590449,-4.71290077423,3.04770028676
1589274132430263215,15226,1589274132430182835,,0.200090203519,-4.74652539371,3.05523947933
1589274132433328385,15227,1589274132433248394,,0.199877629138,-4.77979979409,3.06298074882
1589274132442148914,15228,1589274132442047568,,0.199138594421,-4.80939557687,3.0685523564
1589274132445352377,15229,1589274132445125031,,0.198930618862,-4.80765030001,3.06774184896
1589274132451386132,15230,1589274132451251804,,0.19870419742,-4.84062535457,3.07560342647
1589274132457369408,15231,1589274132457268508,,0.198476493806,-4.87335279582,3.08350790877
1589274132463439077,15232,1589274132463324026,,0.197862726093,-4.90405012029,3.09188197318
1589274132469319110,15233,1589274132469217853,,0.197531685771,-4.93653407306,3.10039571013
1589274132475410207,15234,1589274132475248161,,0.197014531897,-4.96645780006,3.10788398299
1589274132481453662,15235,1589274132481373947,,0.196772116063,-4.99923324388,3.11570409751
1589274132484049751,15236,1589274132483965127,,0.196353451685,-4.99540951024,3.11356214405
1589274132487509644,15237,1589274132487389679,,0.196273644366,-5.02838908507,3.12149498044
1589274132493365857,15238,1589274132493262574,,0.19577581165,-5.058490251,3.12788687538
1589274132502439336,15239,1589274132502323499,,0.195128730792,-5.08668718641,3.13340710144
1589274132508497001,15240,1589274132508334821,,0.194975412973,-5.11892022728,3.1412395878
1589274132514477774,15241,1589274132514343596,,0.194687965958,-5.14891687331,3.14790859816
1589274132520397850,15242,1589274132520303839,,0.19456120628,-5.18131909435,3.15571956414
1589274132526384810,15243,1589274132526303311,,0.19456613434,-5.2106749513,3.16331039821
1589274132532493120,15244,1589274132532408115,,0.194551378057,-5.22105340792,3.16592728563
1589274132538499515,15245,1589274132538369226,,0.194329391147,-5.23689495983,3.17017852648
1589274132544441179,15246,1589274132544342267,,0.1942293471,-5.26913475832,3.17830967395
1589274132550442297,15247,1589274132550354001,,0.193494440696,-5.29925390677,3.18495456685
1589274132556468482,15248,1589274132556356588,,0.193197167536,-5.33098790144,3.19268996326
1589274132562301016,15249,1589274132562223939,,0.192733329744,-5.36071684081,3.19887829711
1589274132568455445,15250,1589274132568304979,,0.192629983376,-5.39231234687,3.20653026738
1589274132574464652,15251,1589274132574372282,,0.192411039457,-5.42404770887,3.21399646629
1589274132580433895,15252,1589274132580340791,,0.192259505859,-5.45572377561,3.22139907718
1589274132582955034,15253,1589274132582884489,,0.19203219826,-5.45352555811,3.22075300533
1589274132586048431,15254,1589274132585921720,,0.191873883935,-5.45158595812,3.21972630037
1589274132589675473,15255,1589274132589575798,,0.191636057038,-5.48317125526,3.22716292739
1589274132595542916,15256,1589274132595437822,,0.191518189882,-5.5142410249,3.23505917951
1589274132601205485,15257,1589274132601119365,,0.191392795696,-5.54527756539,3.24301187956
1589274132606004191,15258,1589274132605837890,,0.191062950366,-5.54253728174,3.2422347405
1589274132610343416,15259,1589274132610233137,,0.190916803415,-5.57273674142,3.24994022132
1589274132616482032,15260,1589274132616360782,,0.190731779777,-5.59927414641,3.25652285724
1589274132622489385,15261,1589274132622370421,,0.190605219821,-5.62885304547,3.26349169504
1589274132628432723,15262,1589274132628301067,,0.190521271656,-5.65496355921,3.26893486457
1589274132634460498,15263,1589274132634331198,,0.190318859295,-5.6847859714,3.27581955249
1589274132640408383,15264,1589274132640319158,,0.19005751173,-5.714994317,3.28247289476
1589274132646630093,15265,1589274132646508641,,0.18960592267,-5.74144396625,3.28863279857
1589274132652471677,15266,1589274132652365934,,0.189376034022,-5.77167363908,3.29630587584
1589274132658486419,15267,1589274132658394505,,0.18908017979,-5.76883995085,3.29549801387
1589274132664396647,15268,1589274132664312996,,0.188744794491,-5.79881116715,3.30354898508
1589274132670437625,15269,1589274132670373081,,0.188517358493,-5.82924433316,3.31151717017
1589274132676478600,15270,1589274132676387299,,0.188295678783,-5.85879592172,3.31936943305
1589274132682467199,15271,1589274132682343874,,0.188241621434,-5.88484771093,3.32645887748
1589274132688595446,15272,1589274132688494251,,0.187805065495,-5.90926733487,3.33285359388
1589274132694348132,15273,1589274132694276496,,0.187596998565,-5.93737181556,3.33970920158
1589274132697334573,15274,1589274132697222467,,0.187503449605,-5.93291290958,3.33855645141
1589274132700294229,15275,1589274132700209130,,0.187172475351,-5.96080677726,3.34483722795
1589274132703214342,15276,1589274132703135258,,0.18707168414,-5.95495331537,3.34345383995
1589274132706379913,15277,1589274132706281316,,0.186705222417,-5.98147118071,3.34928259473
1589274132709396674,15278,1589274132709269567,,0.186640558711,-5.96946720609,3.34534126457
1589274132712544015,15279,1589274132712218945,,0.186656168018,-5.9626141396,3.34293495259
1589274132718298599,15280,1589274132718197410,,0.186780053019,-5.9828013673,3.34736649878
1589274132724496704,15281,1589274132724367077,,0.186973076198,-6.00889599537,3.35393235352
1589274132730402324,15282,1589274132730286612,,0.186723233362,-6.03510299635,3.36034107844
1589274132733254481,15283,1589274132733177647,,0.186723134337,-6.06156078728,3.3672405824
1589274132736228846,15284,1589274132736168988,,0.186619921324,-6.05621137127,3.36601003517
1589274132739517425,15285,1589274132739428088,,0.186513360602,-6.08318761372,3.37281868497
1589274132745416580,15286,1589274132745294866,,0.186317852286,-6.07874102438,3.37200642967
1589274132751450181,15287,1589274132751300797,,0.185913657034,-6.1065141491,3.37848962981
1589274132757270155,15288,1589274132757181876,,0.185831711968,-6.13421024624,3.385562246
1589274132760346759,15289,1589274132760255763,,0.185526927907,-6.1619616696,3.39239109517
1589274132763424774,15290,1589274132763302481,,0.184586593792,-6.15336734385,3.38933436495
1589274132769086028,15291,1589274132769017833,,0.184168835781,-6.18025805993,3.39561580661
1589274132772597351,15292,1589274132772492138,,0.184164635729,-6.20183665115,3.40004514953
1589274132778325887,15293,1589274132778235659,,0.184052100639,-6.19584979312,3.39759668063
1589274132781489524,15294,1589274132781367718,,0.184128496426,-6.2220346149,3.40342650056
1589274132787753319,15295,1589274132787663560,,0.184138623193,-6.24693110593,3.40898214523
1589274132793428726,15296,1589274132793322656,,0.184114172215,-6.27153342883,3.41432795051
1589274132796337782,15297,1589274132796250357,,0.184420316829,-6.25722568657,3.40970490962
1589274132799123074,15298,1589274132799031752,,0.184577241444,-6.28133499016,3.4149356203
1589274132802155753,15299,1589274132802060253,,0.184774167915,-6.27434863303,3.41214959671
1589274132805190510,15300,1589274132805026632,,0.185030487047,-6.26700120651,3.40933304288
1589274132808100361,15301,1589274132807989983,,0.184973000399,-6.29139890737,3.41421490907
1589274132811134212,15302,1589274132811027102,,0.185144215353,-6.28438322104,3.41192432878
1589274132814106010,15303,1589274132814021214,,0.185043810957,-6.30951660585,3.4170289188
1589274132817342005,15304,1589274132817263588,,0.185115458529,-6.29896863799,3.41257659214
1589274132820121079,15305,1589274132820037162,,0.185222689469,-6.32424495958,3.41813934574
1589274132823473339,15306,1589274132823342409,,0.185435934934,-6.31384201342,3.41354096949
1589274132829118596,15307,1589274132829003475,,0.185297923587,-6.33953011943,3.41885374664
1589274132832427871,15308,1589274132832356848,,0.185170209318,-6.36431188252,3.42393696326
1589274132835138938,15309,1589274132835071232,,0.185027443917,-6.35967278196,3.42168031225
1589274132838494758,15310,1589274132838399265,,0.185286262686,-6.35478994511,3.42032005286
1589274132844283971,15311,1589274132844199589,,0.185181132342,-6.37489497675,3.42288621978
1589274132847303907,15312,1589274132847237619,,0.185191341411,-6.39945124917,3.42774501209
1589274132850401340,15313,1589274132850241577,,0.185252647787,-6.39353952589,3.42484608285
1589274132853200004,15314,1589274132853123593,,0.185524725904,-6.41746684101,3.42942236479
1589274132856054848,15315,1589274132855989601,,0.186076746984,-6.40385287107,3.42336958165
1589274132862327122,15316,1589274132862228655,,0.187101694052,-6.41143865789,3.42111564154
1589274132865494076,15317,1589274132865155864,,0.187564618161,-6.40415257734,3.41790895557
1589274132871246914,15318,1589274132871172790,,0.188337029878,-6.41625271956,3.41827291652
1589274132874095813,15319,1589274132874026351,,0.188637612383,-6.4378731835,3.4218048528
1589274132877178117,15320,1589274132877088806,,0.189548675529,-6.42187808979,3.41556926647
1589274132880424402,15321,1589274132880315570,,0.189875577233,-6.44372211608,3.41939733199
1589274132883333746,15322,1589274132883233822,,0.190277085438,-6.42913269194,3.41311173954
1589274132886200630,15323,1589274132886122326,,0.190527977798,-6.45233807635,3.41758944856
1589274132889244930,15324,1589274132889147209,,0.19075455051,-6.43911986371,3.41165238644
1589274132892296241,15325,1589274132892133185,,0.190958321892,-6.43188518795,3.40887929584
1589274132895384151,15326,1589274132895267973,,0.191094106959,-6.4546319261,3.41332524875
1589274132898384491,15327,1589274132898237852,,0.191390594075,-6.44763848951,3.4105770586
1589274132904499543,15328,1589274132904395181,,0.191602843322,-6.47016800154,3.41549202423
1589274132910205389,15329,1589274132910132360,,0.191707260924,-6.4917102012,3.41966242538
1589274132913134293,15330,1589274132913040058,,0.191628163511,-6.51313967762,3.42361677533
1589274132916047794,15331,1589274132915992424,,0.191865706094,-6.50548539239,3.42055665736
1589274132919313394,15332,1589274132919249329,,0.192517429769,-6.51749948153,3.42129934336
1589274132922321212,15333,1589274132922236259,,0.19259649529,-6.50923741755,3.41752345803
1589274132925496345,15334,1589274132925269735,,0.193316646251,-6.49064353707,3.40998179276
1589274132931514213,15335,1589274132931391178,,0.193398545265,-6.51033228081,3.41306969033
1589274132937608773,15336,1589274132937512858,,0.193885880032,-6.52109810331,3.41275943747
1589274132943453456,15337,1589274132943376814,,0.194169196654,-6.54034766073,3.4161811678
1589274132946722526,15338,1589274132946592360,,0.194870286754,-6.54925115076,3.4159637211
1589274132955459642,15339,1589274132955322955,,0.195683535396,-6.55030302535,3.4115911049
1589274132961502910,15340,1589274132961390386,,0.19588197418,-6.570238753,3.41492324077
1589274132967295494,15341,1589274132967209074,,0.196193132727,-6.58204469842,3.41477215362
1589274132969996668,15342,1589274132969921306,,0.196076163649,-6.57536474821,3.41126844596
1589274132972976940,15343,1589274132972895109,,0.196204939188,-6.59522668159,3.41474636899
1589274132976456029,15344,1589274132976314560,,0.195943184578,-6.58734155674,3.41049943661
1589274132982542552,15345,1589274132982407091,,0.195784982214,-6.60271697272,3.41156715594
1589274132988704175,15346,1589274132988593564,,0.195866349453,-6.62398401236,3.41560028449
1589274132994408845,15347,1589274132994311551,,0.195608815714,-6.64715147036,3.41988123587
1589274132997497111,15348,1589274132997343242,,0.195944861797,-6.64031862339,3.41730700248
1589274133000447113,15349,1589274133000348500,,0.196138591588,-6.65906805254,3.42039625571
1589274133003414800,15350,1589274133003316146,,0.196010926414,-6.65433584443,3.41762404417
1589274133006487657,15351,1589274133006404105,,0.19595965394,-6.67502402144,3.42151085401
1589274133009473333,15352,1589274133009400320,,0.195996909958,-6.66708276971,3.4180410805
1589274133012511306,15353,1589274133012329049,,0.196055381177,-6.65902264268,3.41489967595
1589274133015591346,15354,1589274133015489073,,0.196260461463,-6.6784904157,3.41865519814
1589274133021485736,15355,1589274133021391815,,0.196330224113,-6.69816566813,3.42208521979
1589274133024478066,15356,1589274133024384208,,0.196263476531,-6.69066128449,3.41829453527
1589274133027517026,15357,1589274133027425582,,0.196049282875,-6.70942504494,3.42079891838
1589274133033547571,15358,1589274133033410625,,0.196308236277,-6.72685626565,3.42375740251
1589274133036494917,15359,1589274133036386407,,0.196902692819,-6.71776816561,3.42031940936
1589274133039686413,15360,1589274133039611740,,0.196976861625,-6.72657088264,3.41905661236
1589274133045092906,15361,1589274133044970522,,0.197389685242,-6.71715060588,3.41547889766
1589274133051125281,15362,1589274133050998543,,0.19728465709,-6.73453423559,3.41798115528
1589274133054517777,15363,1589274133054353678,,0.197489972016,-6.75209079307,3.42156034621
1589274133057057662,15364,1589274133056986764,,0.197714841921,-6.74379094014,3.41828734527
1589274133060021563,15365,1589274133059946003,,0.197706065096,-6.761486102,3.42167416929
1589274133063034604,15366,1589274133062909152,,0.197298764608,-6.75446674027,3.41830451744
1589274133066610328,15367,1589274133066478200,,0.196812837967,-6.76638696421,3.41876279514
1589274133069380867,15368,1589274133069312070,,0.196634542258,-6.76009287982,3.41586565557
1589274133072576390,15369,1589274133072442687,,0.196568675704,-6.75298555431,3.41343538295
1589274133075428871,15370,1589274133075324873,,0.196079457379,-6.7721256374,3.41668891776
1589274133078783371,15371,1589274133078442246,,0.195644746636,-6.76523237898,3.41362097104
1589274133081451408,15372,1589274133081361165,,0.19558454052,-6.78340018767,3.41734472271
1589274133084440673,15373,1589274133084335985,,0.195381640522,-6.77672434382,3.41417236275
1589274133087808762,15374,1589274133087738903,,0.195144566022,-6.79503156725,3.41712197489
1589274133093164275,15375,1589274133092961780,,0.195223467338,-6.81194832011,3.42035535699
1589274133096330249,15376,1589274133096244056,,0.195124006354,-6.80403393155,3.4170686588
1589274133102502387,15377,1589274133102380120,,0.194989550279,-6.81290831552,3.41709667357
1589274133105651208,15378,1589274133105374889,,0.194902998966,-6.80433761031,3.41418640457
1589274133111584455,15379,1589274133111445240,,0.194521370182,-6.82028036988,3.41671526038
1589274133117631346,15380,1589274133117530171,,0.194828042391,-6.83516998355,3.42006419286
1589274133123435666,15381,1589274133123308687,,0.194811518493,-6.85002918994,3.42296580654
1589274133126382375,15382,1589274133126263937,,0.194990287404,-6.8646318178,3.42577720256
1589274133129428032,15383,1589274133129348679,,0.194978624784,-6.85598047833,3.4226048827
1589274133132529416,15384,1589274133132402733,,0.194937237481,-6.84636890327,3.41851583888
1589274133135560042,15385,1589274133135399888,,0.194969095818,-6.86119634531,3.4208739051
1589274133138279214,15386,1589274133138187631,,0.19478366111,-6.85307798571,3.41776614601
1589274133141128455,15387,1589274133141050917,,0.194795461225,-6.86909234645,3.42099240229
1589274133144241760,15388,1589274133144129799,,0.194726627554,-6.8632915573,3.41864133836
1589274133147619632,15389,1589274133147529816,,0.194143653362,-6.87993191555,3.42169416679
1589274133153572283,15390,1589274133153440514,,0.1936350215,-6.89654959064,3.4249370544
1589274133156521344,15391,1589274133156420019,,0.193277231635,-6.89202329733,3.42338075505
1589274133162558249,15392,1589274133162462088,,0.192314139329,-6.90339730013,3.42523804097
1589274133168514029,15393,1589274133168415510,,0.191806448088,-6.92114276109,3.42890821213
1589274133171583559,15394,1589274133171461304,,0.191533727759,-6.91575975909,3.42704942102
1589274133177629536,15395,1589274133177495951,,0.191253646801,-6.9331299238,3.43122769906
1589274133180414594,15396,1589274133180335231,,0.191229287862,-6.94960580669,3.43491799131
1589274133183441153,15397,1589274133183347919,,0.190702653745,-6.9441567772,3.43231315108
1589274133186259686,15398,1589274133186183803,,0.190278541248,-6.96064994484,3.43528750107
1589274133189277492,15399,1589274133189202672,,0.190303929674,-6.9536136202,3.43270861242
1589274133192570009,15400,1589274133192310317,,0.189928815019,-6.94624354281,3.42969383393
1589274133195204955,15401,1589274133195091065,,0.189853683931,-6.96093397442,3.43267601986
1589274133198168097,15402,1589274133198103041,,0.189638308209,-6.95364504742,3.42980302048
1589274133201701857,15403,1589274133201563685,,0.189359209962,-6.96729529759,3.43216836026
1589274133207601111,15404,1589274133207465174,,0.189125644262,-6.98095177326,3.43450836558
1589274133213526958,15405,1589274133213409659,,0.189049090687,-6.99401188543,3.4368505175
1589274133216549605,15406,1589274133216431351,,0.189175647765,-6.98487502873,3.43361854763
1589274133222524913,15407,1589274133222405677,,0.189111953388,-6.98899471307,3.43300043399
1589274133225576637,15408,1589274133225354958,,0.189012340189,-6.98098327758,3.42990271208
1589274133231419023,15409,1589274133231306680,,0.189378542896,-6.99468770237,3.43269706562
1589274133234524928,15410,1589274133234388567,,0.189390940131,-7.00732089,3.4347764619
1589274133237472469,15411,1589274133237364076,,0.189170336836,-6.99929143532,3.43191853262
1589274133240584107,15412,1589274133240488853,,0.188994037153,-7.01445766334,3.43497871758
1589274133243555609,15413,1589274133243424470,,0.188581673493,-7.00780974308,3.43235557957
1589274133246443829,15414,1589274133246330076,,0.187926705022,-7.02223908615,3.43457635028
1589274133249434067,15415,1589274133249325639,,0.187383120009,-7.01724183524,3.43231016985
1589274133255527178,15416,1589274133255424996,,0.186441244346,-7.03033226796,3.43359227042
1589274133258723605,15417,1589274133258471287,,0.186298454697,-7.02550954269,3.43169049134
1589274133264494475,15418,1589274133264388504,,0.185884010805,-7.04335964,3.43526156928
1589274133267409995,15419,1589274133267319043,,0.185323886171,-7.05968039221,3.43833271565
1589274133270362880,15420,1589274133270283804,,0.184798071762,-7.05480696479,3.43621002912
1589274133273362706,15421,1589274133273276163,,0.184666774696,-7.06960263992,3.4398559518
1589274133276380675,15422,1589274133276240665,,0.184584306304,-7.06463426976,3.43852012913
1589274133282556952,15423,1589274133282479947,,0.184093737085,-7.07449011593,3.43957033166
1589274133285509407,15424,1589274133285430449,,0.184069544443,-7.06404376447,3.43601304546
1589274133288603335,15425,1589274133288536752,,0.183971235736,-7.08240621163,3.43966502164
1589274133291870496,15426,1589274133291802318,,0.183723969214,-7.07593742382,3.43739892918
1589274133297533819,15427,1589274133297410633,,0.183736660607,-7.08875353057,3.44015629504
1589274133300489044,15428,1589274133300381994,,0.183537225718,-7.10095572494,3.44240446998
1589274133303471577,15429,1589274133303349814,,0.183486279073,-7.09379276695,3.43997085214
1589274133306438108,15430,1589274133306345591,,0.183281950802,-7.10502103319,3.4416752556
1589274133309143867,15431,1589274133309065372,,0.183288120139,-7.09800835217,3.4390896692
1589274133315334270,15432,1589274133315247215,,0.183351711206,-7.09978676998,3.43830902369
1589274133318466588,15433,1589274133318394051,,0.183581453266,-7.0906044178,3.43557665878
1589274133324558290,15434,1589274133324441619,,0.183762315232,-7.0997275475,3.43769304684
1589274133327504620,15435,1589274133327416815,,0.183442552381,-7.10937311211,3.43892183528
1589274133330336745,15436,1589274133330240263,,0.183603454165,-7.10051027578,3.43701820703
1589274133333481103,15437,1589274133333382099,,0.183555434762,-7.11080165419,3.43905862712
1589274133336384453,15438,1589274133336287730,,0.183450176614,-7.10310623479,3.43623813697
1589274133339735520,15439,1589274133339622741,,0.183280024221,-7.11394461398,3.43819893876
1589274133342441752,15440,1589274133342306544,,0.182855120787,-7.1068449323,3.43528814745
1589274133345488636,15441,1589274133345356475,,0.182617919598,-7.10085693571,3.43296948306
1589274133348379914,15442,1589274133348292645,,0.1824964323,-7.113584855,3.43565077944
1589274133351412937,15443,1589274133351282299,,0.181949362689,-7.10974892319,3.43359943529
1589274133354344031,15444,1589274133354245813,,0.181547549554,-7.12282839806,3.4359812864
1589274133357583858,15445,1589274133357476522,,0.181214531747,-7.11783793436,3.43420473134
1589274133360324691,15446,1589274133360225490,,0.180676726309,-7.13171302674,3.43726985193
1589274133363396443,15447,1589274133363296216,,0.180109711048,-7.12686397088,3.4359507666
1589274133366315316,15448,1589274133366235551,,0.179523913822,-7.13898374474,3.43843480667
1589274133369391616,15449,1589274133369193729,,0.179250058208,-7.13372111323,3.43654683275
1589274133375576392,15450,1589274133375469739,,0.178806972472,-7.14037898258,3.43664937627
1589274133378788211,15451,1589274133378512179,,0.178700829207,-7.13495551441,3.43429859221
1589274133381571257,15452,1589274133381461086,,0.178517792122,-7.14627623332,3.43614082121
1589274133384511085,15453,1589274133384417164,,0.178477964114,-7.14034529982,3.433766756
1589274133387688070,15454,1589274133387590634,,0.178358769434,-7.15081931379,3.43564808725
1589274133390646800,15455,1589274133390561787,,0.17787912204,-7.14525734011,3.43275570868
1589274133393499165,15456,1589274133393401419,,0.177546413806,-7.15510800853,3.43400661351
1589274133396576888,15457,1589274133396483349,,0.177815162178,-7.14922433003,3.43261813514
1589274133402307641,15458,1589274133402224032,,0.17754947202,-7.15106283513,3.43126657466
1589274133405423729,15459,1589274133405203117,,0.177837562593,-7.14420972915,3.42942908091
1589274133408384490,15460,1589274133408254826,,0.178063781146,-7.15196327484,3.43121579421
1589274133411262695,15461,1589274133411145662,,0.178105618016,-7.1436550954,3.42840189111
1589274133414441356,15462,1589274133414364393,,0.178018187115,-7.15140960911,3.4299578211
1589274133417459871,15463,1589274133417385838,,0.17838979035,-7.14296012924,3.42811809409
1589274133420467615,15464,1589274133420338730,,0.178281009507,-7.15090557439,3.42935851331
1589274133423574743,15465,1589274133423468498,,0.178372322047,-7.14401219986,3.42705724545
1589274133426421109,15466,1589274133426347306,,0.178555899904,-7.15236712425,3.42841655243
1589274133429465414,15467,1589274133429372566,,0.178385692819,-7.14614450178,3.42575509552
1589274133435521198,15468,1589274133435446777,,0.177806456853,-7.1505920851,3.42475964868
1589274133438524288,15469,1589274133438453322,,0.177634394794,-7.14578882608,3.42291375913
1589274133441434043,15470,1589274133441314055,,0.177424318814,-7.15776583771,3.42523613458
1589274133444547794,15471,1589274133444478741,,0.17716643624,-7.15366503811,3.4238094046
1589274133447536385,15472,1589274133447444377,,0.176903322345,-7.16427349985,3.42582346376
1589274133450426853,15473,1589274133450353909,,0.176755658167,-7.1613130558,3.42487386246
1589274133453532653,15474,1589274133453404042,,0.176432697331,-7.17192063416,3.42721859603
1589274133456525289,15475,1589274133456395919,,0.176077679757,-7.16737741458,3.42532960396
1589274133459893929,15476,1589274133459798132,,0.175841044091,-7.17691697167,3.4272501649
1589274133465620830,15477,1589274133465364797,,0.175745385987,-7.17254566131,3.42562304356
1589274133468378576,15478,1589274133468278109,,0.175644226326,-7.18321187717,3.42780470902
1589274133471409261,15479,1589274133471296549,,0.175393806736,-7.17868487818,3.42574943994
1589274133474406920,15480,1589274133474325657,,0.175316783595,-7.18735336769,3.4272447168
1589274133477599021,15481,1589274133477427468,,0.175272440273,-7.18328550267,3.4255940318
1589274133480447137,15482,1589274133480355643,,0.175023970764,-7.1915701964,3.42690806614
1589274133483457181,15483,1589274133483346517,,0.174777725485,-7.18510976552,3.42428746082
1589274133486516324,15484,1589274133486438154,,0.174595265374,-7.19446278946,3.42605386894
1589274133489547172,15485,1589274133489474611,,0.174738969565,-7.18878609357,3.42487116121
1589274133495486638,15486,1589274133495342164,,0.174623513871,-7.19200946783,3.42462494003
1589274133498793654,15487,1589274133498511070,,0.174725482159,-7.18571344349,3.422721475
1589274133504470145,15488,1589274133504370905,,0.17463127259,-7.19259322767,3.42408520536
1589274133507429641,15489,1589274133507312485,,0.174871603956,-7.19860069652,3.42572233879
1589274133510420490,15490,1589274133510333345,,0.174714628478,-7.19213847673,3.4240068899
1589274133513450462,15491,1589274133513354370,,0.174598071276,-7.19879002834,3.42523582594
1589274133516469923,15492,1589274133516365693,,0.17447567741,-7.19355141059,3.42317229049
1589274133519721582,15493,1589274133519583188,,0.17442665209,-7.19932286802,3.42401173798
1589274133522420375,15494,1589274133522344076,,0.174358080248,-7.19245138096,3.42132600186
1589274133525529975,15495,1589274133525335304,,0.174228775368,-7.18710912312,3.41904523671
1589274133528388016,15496,1589274133528294420,,0.174216019519,-7.19338106954,3.41984137873
1589274133531551240,15497,1589274133531409442,,0.173813176723,-7.18752567024,3.41736994409
1589274133534446442,15498,1589274133534365996,,0.173350188054,-7.19440430136,3.41839650098
1589274133537391154,15499,1589274133537292491,,0.173133837791,-7.18955683958,3.41745357951
1589274133540482456,15500,1589274133540373411,,0.172731356823,-7.1973031806,3.41947517351
1589274133543423833,15501,1589274133543339535,,0.172566576489,-7.19327932285,3.41835307603
1589274133546748186,15502,1589274133546653088,,0.172105372445,-7.20150672774,3.41996841697
1589274133549504465,15503,1589274133549410420,,0.171969906498,-7.1977774468,3.41896525106
1589274133552969034,15504,1589274133552832976,,0.171686260478,-7.20554375722,3.42051394665
1589274133558585564,15505,1589274133558509410,,0.171522378288,-7.20173350575,3.41927432813
1589274133564701011,15506,1589274133564636913,,0.171337839161,-7.20847304563,3.42070020033
1589274133567434049,15507,1589274133567339183,,0.1710959358,-7.21602485917,3.42242941404
1589274133570452548,15508,1589274133570388613,,0.170621570178,-7.21159967779,3.420529183
1589274133573495509,15509,1589274133573368305,,0.170446850624,-7.21733149841,3.42180441427
1589274133576399857,15510,1589274133576327224,,0.170144085449,-7.21326916233,3.42033825734
1589274133579538942,15511,1589274133579444534,,0.170012807082,-7.21845631901,3.42106385339
1589274133585665517,15512,1589274133585486870,,0.169679610952,-7.21299340684,3.4189641978
1589274133591732697,15513,1589274133591663044,,0.169765768394,-7.21877096277,3.41997026983
1589274133594551242,15514,1589274133594448563,,0.169656065691,-7.22406451412,3.42027939216
1589274133597501127,15515,1589274133597413517,,0.169665459248,-7.21843597984,3.41793019164
1589274133600402916,15516,1589274133600297221,,0.169599662755,-7.22372309498,3.41881428192
1589274133603402293,15517,1589274133603308618,,0.169744241361,-7.21791778954,3.41727754603
1589274133606576036,15518,1589274133606513809,,0.169753536019,-7.22116877107,3.41813649505
1589274133610379501,15519,1589274133610309661,,0.169968462316,-7.21423921409,3.41644834834
1589274133615504306,15520,1589274133615385612,,0.169926235267,-7.21808232584,3.41732232319
1589274133618367840,15521,1589274133618303642,,0.170460895846,-7.21222730814,3.41615433229
1589274133621360051,15522,1589274133621290181,,0.170335659064,-7.21536278753,3.41632631036
1589274133624084390,15523,1589274133624020193,,0.170661131553,-7.20868865225,3.41462288448
1589274133627088436,15524,1589274133627035934,,0.170797687354,-7.21237450142,3.41521741093
1589274133630566897,15525,1589274133630473837,,0.170718803428,-7.20599591836,3.41299463323
1589274133633529338,15526,1589274133633446396,,0.170538781068,-7.20846847154,3.41308834043
1589274133636506311,15527,1589274133636419862,,0.170584496338,-7.20255350523,3.41132202676
1589274133639101936,15528,1589274133639031099,,0.170314255265,-7.20634778256,3.41182050691
1589274133642441026,15529,1589274133642367350,,0.170259499589,-7.20148695111,3.41016918741
1589274133645529462,15530,1589274133645443043,,0.170125131475,-7.19730895362,3.40845579103
1589274133648260516,15531,1589274133648174662,,0.16993521961,-7.20193745481,3.40914344585
1589274133651313475,15532,1589274133651245302,,0.169784236507,-7.19781100463,3.40755046628
1589274133654542092,15533,1589274133654469630,,0.169404300823,-7.20189333153,3.40837191377
1589274133657615269,15534,1589274133657510675,,0.169350683603,-7.1977057368,3.40760152226
1589274133660562324,15535,1589274133660465435,,0.169053948721,-7.20146201321,3.40806528799
1589274133663532204,15536,1589274133663462935,,0.168953593613,-7.19868046425,3.40692530116
1589274133666417010,15537,1589274133666357087,,0.168848698055,-7.2020781776,3.40756159676
1589274133669499772,15538,1589274133669418023,,0.168804031381,-7.19697681943,3.40552455834
1589274133675555581,15539,1589274133675446460,,0.168570251831,-7.1950975525,3.40427853153
1589274133678590382,15540,1589274133678467818,,0.168634739811,-7.18932790861,3.40245098851
1589274133681479245,15541,1589274133681397428,,0.168461551708,-7.19063803018,3.40199994546
1589274133684591744,15542,1589274133684475592,,0.168544815782,-7.18510746179,3.39966954775
1589274133687477138,15543,1589274133687388687,,0.168727070105,-7.18644156795,3.39973627494
1589274133690873320,15544,1589274133690765578,,0.168771443077,-7.18100632831,3.39747276641
1589274133693458431,15545,1589274133693386498,,0.168851221267,-7.18159195116,3.39732933936
1589274133696300899,15546,1589274133696219657,,0.168909602502,-7.17445773653,3.39494621686
1589274133699237921,15547,1589274133699173676,,0.169181543575,-7.17379701859,3.39484053948
1589274133702222769,15548,1589274133702144099,,0.169529845411,-7.16609609641,3.39274977505
1589274133705344442,15549,1589274133705206715,,0.169698663193,-7.15797338776,3.39083740447
1589274133708365868,15550,1589274133708246254,,0.170024311653,-7.15610274525,3.39041825974
1589274133711227073,15551,1589274133711154664,,0.170324704601,-7.14748701057,3.38785134785
1589274133714552284,15552,1589274133714480665,,0.170662901903,-7.14515253563,3.3872500491
1589274133717337452,15553,1589274133717236565,,0.17112541732,-7.13562325227,3.38516206992
1589274133720276415,15554,1589274133720160518,,0.17136275906,-7.13384686611,3.38421504529
1589274133723250819,15555,1589274133723168419,,0.171386385267,-7.12571095909,3.3816951268
1589274133726201569,15556,1589274133726134026,,0.171614438546,-7.1241591156,3.38100464046
1589274133729207800,15557,1589274133729076716,,0.171723894717,-7.11748486696,3.37886908495
1589274133735254916,15558,1589274133735183945,,0.171476077569,-7.11178557444,3.37644393706
1589274133738359523,15559,1589274133738252141,,0.171231140954,-7.10721039527,3.37498140887
1589274133741257404,15560,1589274133741185886,,0.170914240902,-7.10901361451,3.37490137159
1589274133744218712,15561,1589274133744132505,,0.170819998284,-7.10517708698,3.3739578139
1589274133747240546,15562,1589274133747109036,,0.170888882915,-7.10659909735,3.37450379482
1589274133750280530,15563,1589274133750205440,,0.170872387092,-7.10224450685,3.37309293561
1589274133753354342,15564,1589274133753280421,,0.170916543918,-7.10272371152,3.37347348808
1589274133756246596,15565,1589274133756163472,,0.171017423141,-7.0981426936,3.37246455566
1589274133762334989,15566,1589274133762252756,,0.171318154892,-7.09221744659,3.37065307389
1589274133765170138,15567,1589274133765112031,,0.17148084361,-7.08663460098,3.36899051829
1589274133768150798,15568,1589274133768058616,,0.17157595047,-7.08514036298,3.36780231553
1589274133771193353,15569,1589274133771106020,,0.171798528947,-7.07849941428,3.36585081975
1589274133774192865,15570,1589274133774135603,,0.172202238919,-7.07606888015,3.36507449663
1589274133777064759,15571,1589274133776999698,,0.172308806766,-7.0694271313,3.36284167322
1589274133780136039,15572,1589274133780051938,,0.172651161607,-7.06701022234,3.36185994247
1589274133783121081,15573,1589274133783051746,,0.173008455928,-7.06023101094,3.35957575371
1589274133786490512,15574,1589274133786398605,,0.173441678289,-7.05677576627,3.35896427617
1589274133789313588,15575,1589274133789233496,,0.174015933696,-7.0488669632,3.35689769415
1589274133792988991,15576,1589274133792906068,,0.174490214133,-7.04403300301,3.35577428538
1589274133795333881,15577,1589274133795158770,,0.175022116728,-7.03566332326,3.35359210416
1589274133798383999,15578,1589274133798311292,,0.175580550658,-7.02739484251,3.35201905577
1589274133801485102,15579,1589274133801391784,,0.1762668137,-7.02065871122,3.35068599745
1589274133804143202,15580,1589274133804060183,,0.176901453754,-7.01017114595,3.34829655067
1589274133807364597,15581,1589274133807275382,,0.177463807896,-7.00425895443,3.34708971035
1589274133810256376,15582,1589274133810177013,,0.177842893734,-6.99491171148,3.34470822404
1589274133813092611,15583,1589274133813023836,,0.178296025127,-6.98764056247,3.3431068566
1589274133816071149,15584,1589274133815995849,,0.178468165081,-6.9799076875,3.34085572605
1589274133822141032,15585,1589274133822059360,,0.178646643179,-6.96887527384,3.33760372498
1589274133825064789,15586,1589274133825013985,,0.178683674766,-6.9637553778,3.33609138053
1589274133828266179,15587,1589274133828215298,,0.178570032921,-6.96251881669,3.33552875225
1589274133831098995,15588,1589274133831037268,,0.178466411603,-6.95846274828,3.33398419485
1589274133834092681,15589,1589274133834037331,,0.178158906522,-6.95778059116,3.33328895013
1589274133837589262,15590,1589274133837523903,,0.177949201299,-6.95475643933,3.33272381361
1589274133840669744,15591,1589274133840553292,,0.177707010192,-6.95429168796,3.33262610041
1589274133843686776,15592,1589274133843571337,,0.177713098259,-6.9516833592,3.33289770481
1589274133846884892,15593,1589274133846787494,,0.177616447869,-6.95009145894,3.33288521066
1589274133849528579,15594,1589274133849453157,,0.177577292809,-6.94519022317,3.33174067697
1589274133855502287,15595,1589274133855414644,,0.178140225512,-6.93729078495,3.3300124095
1589274133858229214,15596,1589274133858163272,,0.178579275045,-6.93103437543,3.32841815988
1589274133861315130,15597,1589274133861210705,,0.178838587342,-6.92622163998,3.32697773375
1589274133864279564,15598,1589274133864211454,,0.178728816941,-6.92040819736,3.32449650773
1589274133867189914,15599,1589274133867105161,,0.179275707936,-6.91544837992,3.32301289112
1589274133870440738,15600,1589274133870264012,,0.179553496502,-6.90956283509,3.32113443924
1589274133873478111,15601,1589274133873390753,,0.179943115005,-6.90466412345,3.31955747451
1589274133876516850,15602,1589274133876419196,,0.180157078207,-6.89900608997,3.3175873232
1589274133882389989,15603,1589274133882299349,,0.180967470928,-6.8866219155,3.31477858271
1589274133885619114,15604,1589274133885501819,,0.18142001415,-6.87944949041,3.31333558892
1589274133888420080,15605,1589274133888357548,,0.181844047591,-6.87278581394,3.312138299
1589274133891612395,15606,1589274133891540098,,0.182258369587,-6.86569543877,3.31075908431
1589274133897257755,15607,1589274133897183856,,0.182864146015,-6.8581387751,3.30883779809
1589274133900250965,15608,1589274133900172886,,0.183286045708,-6.85044733509,3.30718744627
1589274133903489983,15609,1589274133903350784,,0.183879681146,-6.84228660895,3.30603630823
1589274133906454798,15610,1589274133906363154,,0.184474090257,-6.83352955751,3.30446085125
1589274133909505742,15611,1589274133909422385,,0.184744982584,-6.82459474982,3.30246159441
1589274133915469800,15612,1589274133915347993,,0.185614094222,-6.80673621639,3.29778774788
1589274133918563969,15613,1589274133918333224,,0.185933784135,-6.79857919383,3.29535099914
1589274133921191764,15614,1589274133921125545,,0.186221897684,-6.79069569469,3.29301716871
1589274133924258887,15615,1589274133924166884,,0.186455423971,-6.78291873731,3.2907098756
1589274133927289724,15616,1589274133927220977,,0.186504048521,-6.7765210937,3.28853913121
1589274133930230440,15617,1589274133930156186,,0.186545473047,-6.7710799669,3.2873297015
1589274133933157467,15618,1589274133933089079,,0.186334992377,-6.76698742379,3.28622880119
1589274133936443784,15619,1589274133936392839,,0.186282988988,-6.76496941851,3.28604554605
1589274133939761907,15620,1589274133939667903,,0.186087696451,-6.7619786741,3.28548647146
1589274133942131009,15621,1589274133942072860,,0.185957375845,-6.76019697038,3.28491741667
1589274133945804266,15622,1589274133945674647,,0.185713243358,-6.75828865229,3.28463824622
1589274133948582827,15623,1589274133948483987,,0.185492102892,-6.75704215512,3.28451347724
1589274133951156598,15624,1589274133951108502,,0.185070609238,-6.75557678301,3.28395263829
1589274133954169141,15625,1589274133954082746,,0.18493259912,-6.75299685351,3.28319098927
1589274133957134598,15626,1589274133957041377,,0.184833683014,-6.75072745853,3.2823494616
1589274133960537966,15627,1589274133960467673,,0.184842516236,-6.74626571746,3.28095983909
1589274133963494768,15628,1589274133963425730,,0.184728938135,-6.74314390093,3.27922779151
1589274133966587012,15629,1589274133966488755,,0.184763633297,-6.73772922111,3.27756502318
1589274133969179782,15630,1589274133969090376,,0.185112751255,-6.73314771709,3.27636611907
1589274133973458022,15631,1589274133973359618,,0.185395543932,-6.72685329023,3.27440355049
1589274133978596054,15632,1589274133978488951,,0.185738522979,-6.72279893602,3.27290562149
1589274133981619959,15633,1589274133981508852,,0.186383334482,-6.71664626741,3.27117481102
1589274133984663813,15634,1589274133984576948,,0.186491997358,-6.71263781165,3.26961259033
1589274133988019882,15635,1589274133987896174,,0.186854521864,-6.70604325526,3.26810953188
1589274133990969803,15636,1589274133990828277,,0.187192064982,-6.70125153646,3.2670711286
1589274133993682839,15637,1589274133993611795,,0.187459560712,-6.69397983452,3.26537925754
1589274133996730158,15638,1589274133996642236,,0.187862305477,-6.68858972871,3.26415271749
1589274133999658349,15639,1589274133999569519,,0.188559339605,-6.67986904652,3.26248407651
1589274134002596014,15640,1589274134002443671,,0.18898619793,-6.67301919545,3.26074881017
1589274134005656161,15641,1589274134005500448,,0.189222927948,-6.66678980817,3.25901964514
1589274134008689099,15642,1589274134008570542,,0.189497247678,-6.65849764239,3.25665921884
1589274134011695777,15643,1589274134011581268,,0.189824334897,-6.6523702852,3.25532291969
1589274134014524445,15644,1589274134014449021,,0.190023137514,-6.64273126783,3.25240939067
1589274134017847553,15645,1589274134017672699,,0.190060383703,-6.63665483725,3.25056239748
1589274134020733789,15646,1589274134020599945,,0.190133276357,-6.62755085928,3.24809420554
1589274134023823086,15647,1589274134023686808,,0.190247588732,-6.62176561533,3.24659093579
1589274134026967388,15648,1589274134026836712,,0.190291065759,-6.61264852983,3.24445021286
1589274134029763564,15649,1589274134029625509,,0.190498163335,-6.60676401469,3.24292355016
1589274134035759791,15650,1589274134035652662,,0.190427513284,-6.59273363214,3.23933978904
1589274134038718678,15651,1589274134038629723,,0.1905247686,-6.58610070296,3.23789518798
1589274134041708894,15652,1589274134041583740,,0.190628463604,-6.57646825337,3.23549972611
1589274134044719212,15653,1589274134044593248,,0.190439029164,-6.57098958354,3.23409706607
1589274134047553999,15654,1589274134047485486,,0.190282678445,-6.56197692829,3.23187425038
1589274134050641098,15655,1589274134050572151,,0.190082871164,-6.55685165048,3.23059228392
1589274134053681114,15656,1589274134053585577,,0.189873064395,-6.54820114167,3.22828726344
1589274134056720502,15657,1589274134056572451,,0.189716783899,-6.54469231614,3.22727383891
1589274134059606762,15658,1589274134059536383,,0.189358321477,-6.53771365722,3.22507205621
1589274134062764039,15659,1589274134062673081,,0.188930850126,-6.53541118029,3.22413996647
1589274134065688575,15660,1589274134065445326,,0.188477055135,-6.53373382484,3.223255609
1589274134068544492,15661,1589274134068431618,,0.187763880264,-6.52867664589,3.22138438378
1589274134071723488,15662,1589274134071616136,,0.187264014431,-6.52826186432,3.22094114534
1589274134077720406,15663,1589274134077593394,,0.186784097443,-6.5233507603,3.21964990108
1589274134080610655,15664,1589274134080502045,,0.186397543132,-6.51831918395,3.21858943872
1589274134083684746,15665,1589274134083583692,,0.186019975729,-6.51774592998,3.21824597003
1589274134086582502,15666,1589274134086443483,,0.185595133655,-6.51273501847,3.21663040541
1589274134089581803,15667,1589274134089492399,,0.185313882339,-6.5122434042,3.21636087736
1589274134093065935,15668,1589274134092995000,,0.184944299876,-6.50656915433,3.21462414585
1589274134095205205,15669,1589274134095127838,,0.1847491691,-6.50544456156,3.2142210573
1589274134098223144,15670,1589274134098147959,,0.184324507502,-6.50465806376,3.2134842448
1589274134101175762,15671,1589274134101099854,,0.184184301334,-6.49787692308,3.21146517392
1589274134104270851,15672,1589274134104191088,,0.184004091883,-6.49632189056,3.21071638692
1589274134107379601,15673,1589274134107247047,,0.184006574052,-6.48958080743,3.20847191495
1589274134110249643,15674,1589274134110171725,,0.184143178845,-6.48780777756,3.20769684839
1589274134116244163,15675,1589274134116185425,,0.184196313744,-6.48058046582,3.20532879361
1589274134119210233,15676,1589274134119156403,,0.184530194319,-6.47296381528,3.20315102981
1589274134122716907,15677,1589274134122569524,,0.184683392636,-6.4704521777,3.20217173427
1589274134128311499,15678,1589274134128237144,,0.185169369805,-6.46191348395,3.20013061421
1589274134131497687,15679,1589274134131323311,,0.185488512342,-6.45850224556,3.19921869279
1589274134134246695,15680,1589274134134125400,,0.18579616194,-6.4492716934,3.19670488248
1589274134140203601,15681,1589274134140124050,,0.186123637981,-6.43996807436,3.19440843143
1589274134143319042,15682,1589274134143184106,,0.186479618454,-6.43634111213,3.19339565765
1589274134146207889,15683,1589274134146138974,,0.186723908044,-6.42672250072,3.19101819708
1589274134155312966,15684,1589274134155233568,,0.187340912403,-6.41337192285,3.18759030837
1589274134158344568,15685,1589274134158204525,,0.187690437254,-6.4099684952,3.18691767853
1589274134164343053,15686,1589274134164267540,,0.187668774829,-6.40080118281,3.18430367759
1589274134167255307,15687,1589274134167175562,,0.187783208965,-6.39131776632,3.18154824066
1589274134170267849,15688,1589274134170203452,,0.187767109363,-6.38846193827,3.18027068206
1589274134176362082,15689,1589274134176300635,,0.187802090044,-6.37913378188,3.17786762578
1589274134179641336,15690,1589274134179547069,,0.18797912876,-6.36963497442,3.1755333366
1589274134182231223,15691,1589274134182163823,,0.187964865488,-6.3670241975,3.17475907701
1589274134188502706,15692,1589274134188441563,,0.188167378343,-6.35721190212,3.17254606724
1589274134191873061,15693,1589274134191500066,,0.188367596524,-6.35432143584,3.17201431655
1589274134194244806,15694,1589274134194176236,,0.188340784688,-6.34488912092,3.16959153276
1589274134200266774,15695,1589274134200195929,,0.188340275144,-6.33533486716,3.16727306958
1589274134203213265,15696,1589274134203135539,,0.188290380354,-6.33290266077,3.16652092303
1589274134206399480,15697,1589274134206334204,,0.188338019722,-6.32334827498,3.16401673449
1589274134215467686,15698,1589274134215385281,,0.188047749302,-6.31252025568,3.16094438664
1589274134218293582,15699,1589274134218212470,,0.187786764015,-6.31112978191,3.16050192302
1589274134224344677,15700,1589274134224204176,,0.187596333938,-6.30249694224,3.15801470321
1589274134227519095,15701,1589274134227442455,,0.187374427816,-6.29382032873,3.15579406568
1589274134230266583,15702,1589274134230162321,,0.187012798062,-6.29314751139,3.15525908496
1589274134236266149,15703,1589274134236164706,,0.186834659656,-6.28440267113,3.15304099569
1589274134239282612,15704,1589274134239186158,,0.186609648385,-6.27601047084,3.15054001681
1589274134242365855,15705,1589274134242270122,,0.186460473452,-6.27578902321,3.15070834681
1589274134248496714,15706,1589274134248436341,,0.186173623606,-6.26720646121,3.14835818932
1589274134251309623,15707,1589274134251245910,,0.186165711892,-6.26705519074,3.14843683446
1589274134254532163,15708,1589274134254468407,,0.185990538483,-6.25864980694,3.14629901653
1589274134260254231,15709,1589274134260152144,,0.185903211362,-6.24994059327,3.14412988806
1589274134263303362,15710,1589274134263242784,,0.185773314069,-6.25029529844,3.1440681343
1589274134269284747,15711,1589274134269220133,,0.185727370737,-6.24144868128,3.14183768075
1589274134275365629,15712,1589274134275254914,,0.185401188546,-6.23307554839,3.13951095376
1589274134281307540,15713,1589274134281231784,,0.185367180173,-6.22449814866,3.13742743111
1589274134284423907,15714,1589274134284333686,,0.185096134718,-6.22486182186,3.13724725749
1589274134287587601,15715,1589274134287520237,,0.184938069537,-6.21630556534,3.13490573728
1589274134293181086,15716,1589274134293123505,,0.184848660315,-6.20801677544,3.1328718113
1589274134296220184,15717,1589274134296151321,,0.184703318326,-6.20832255051,3.13287528201
1589274134299212118,15718,1589274134299145582,,0.184487762961,-6.19964654052,3.13059385509
1589274134305614840,15719,1589274134305309858,,0.184240543521,-6.20037213226,3.13065678456
1589274134308319163,15720,1589274134308248482,,0.18396832831,-6.19185501598,3.12826755747
1589274134311214849,15721,1589274134311156698,,0.183625949573,-6.19266200981,3.12835627278
1589274134317474460,15722,1589274134317405588,,0.183318406613,-6.18409181858,3.12606662075
1589274134320421771,15723,1589274134320322794,,0.182836726928,-6.17548618816,3.12376690611
1589274134323258486,15724,1589274134323178151,,0.182302794853,-6.17688904594,3.12402540762
1589274134329493268,15725,1589274134329394090,,0.181748336628,-6.16824343237,3.12179457014
1589274134335521066,15726,1589274134335441815,,0.180578288405,-6.16159219504,3.11945449313
1589274134341423993,15727,1589274134341309242,,0.180023859261,-6.1531315501,3.11688562934
1589274134344371707,15728,1589274134344295183,,0.179513245931,-6.15477404475,3.11692397381
1589274134347418953,15729,1589274134347302332,,0.179161167246,-6.14614000578,3.11438818887
1589274134353396277,15730,1589274134353266826,,0.178829750271,-6.13738467239,3.11202779807
1589274134356378958,15731,1589274134356293602,,0.178356676592,-6.13843386312,3.11167614461
1589274134359872546,15732,1589274134359749910,,0.178127009767,-6.1292393288,3.10941721747
1589274134365354950,15733,1589274134365244780,,0.177866238607,-6.13044817846,3.10956832192
1589274134368314352,15734,1589274134368235390,,0.177596146812,-6.1210431944,3.10706366129
1589274134371312455,15735,1589274134371222559,,0.17738918889,-6.1218420937,3.10709739393
1589274134377519249,15736,1589274134377420594,,0.177092975285,-6.11267054084,3.10464683706
1589274134380462632,15737,1589274134380387849,,0.176891565679,-6.10305925163,3.10201105101
1589274134383376559,15738,1589274134383237169,,0.176768706277,-6.10380183124,3.10217210773
1589274134389589686,15739,1589274134389503804,,0.176679463313,-6.09403623892,3.09971732967
1589274134395291556,15740,1589274134395213759,,0.176512494243,-6.08467317979,3.09697795183
1589274134401838459,15741,1589274134401676592,,0.176436368845,-6.07458862106,3.09425343491
1589274134404629719,15742,1589274134404565265,,0.176339653917,-6.07519518436,3.09427841748
1589274134410406294,15743,1589274134410335876,,0.17625697502,-6.06468203318,3.09151511915
1589274134413432085,15744,1589274134413332223,,0.176338336734,-6.05437227856,3.08906411841
1589274134416525119,15745,1589274134416355361,,0.176329740499,-6.05446945261,3.08920145638
1589274134422651374,15746,1589274134422575538,,0.17628517424,-6.04395831731,3.08636967929
1589274134425870429,15747,1589274134425674508,,0.17628237403,-6.04386770223,3.08629982263
1589274134431443135,15748,1589274134431302660,,0.176364725294,-6.03304462455,3.08372692964
1589274134434244288,15749,1589274134434197027,,0.176415289332,-6.02201427455,3.08097144277
1589274134437375138,15750,1589274134437296819,,0.176404481692,-6.02230879905,3.08093886577
1589274134440318296,15751,1589274134440233099,,0.176487912673,-6.01111921735,3.07803082929
1589274134446353427,15752,1589274134446293359,,0.176540976933,-5.99959883964,3.07528036031
1589274134449301127,15753,1589274134449249276,,0.17656401382,-5.99948547073,3.0751984115
1589274134455397534,15754,1589274134455306842,,0.176651279766,-5.98827802073,3.07240136979
1589274134458418331,15755,1589274134458244835,,0.17682200926,-5.98799454446,3.07230559884
1589274134461406353,15756,1589274134461320483,,0.177017501977,-5.97676152336,3.06959017153
1589274134464367339,15757,1589274134464277889,,0.177249179012,-5.97591525202,3.06945901618
1589274134470401820,15758,1589274134470333700,,0.177371770228,-5.96466263671,3.06645321878
1589274134473418310,15759,1589274134473345049,,0.177623278202,-5.9527923346,3.06352398587
1589274134479620155,15760,1589274134479529974,,0.177815249611,-5.94090725214,3.0604733218
1589274134482609020,15761,1589274134482510669,,0.178097472635,-5.94023786143,3.06019243105
1589274134485908991,15762,1589274134485816801,,0.178451104162,-5.92143750783,3.05537928788
1589274134488910330,15763,1589274134488815516,,0.178868948855,-5.92738187004,3.05700556048
1589274134494692448,15764,1589274134494606861,,0.179374922348,-5.91493248324,3.05387126488
1589274134497688678,15765,1589274134497606290,,0.179963413394,-5.91360333841,3.05358982559
1589274134503251101,15766,1589274134503186499,,0.180771005288,-5.9008958062,3.05081755714
1589274134506293992,15767,1589274134506228705,,0.181345967859,-5.88809537954,3.04763450533
1589274134509367779,15768,1589274134509251069,,0.18211832074,-5.88646046569,3.04765556739
1589274134518686976,15769,1589274134518524488,,0.183412790653,-5.87106437334,3.04478482352
1589274134521401243,15770,1589274134521309701,,0.184052729965,-5.85786123431,3.04175957097
1589274134527383921,15771,1589274134527303436,,0.184676392968,-5.84451600113,3.03892851233
1589274134530322500,15772,1589274134530254708,,0.185137648347,-5.84339725474,3.03873276874
1589274134533673167,15773,1589274134533569669,,0.185698460507,-5.83018853617,3.0357598298
1589274134536824348,15774,1589274134536681882,,0.18624390803,-5.82859938194,3.03568789441
1589274134542730662,15775,1589274134542656480,,0.186597254283,-5.81599745428,3.03270925569
1589274134545702868,15776,1589274134545616024,,0.187011250299,-5.81465782144,3.03266413077
1589274134551733866,15777,1589274134551660464,,0.187350400394,-5.80181816034,3.02973462543
1589274134554620192,15778,1589274134554517814,,0.187557924819,-5.78936826854,3.02669469441
