%time,field.header.seq,field.header.stamp,field.header.frame_id,field.wrench.force.x,field.wrench.force.y,field.wrench.force.z,field.wrench.torque.x,field.wrench.torque.y,field.wrench.torque.z
1589274131841916645,15119,1589274131841799992,,0.140165843314,-1.69742134025,2.22516686508,0.496032176326,0.00554782153626,-0.0468472493216
1589274131847987372,15120,1589274131847869010,,0.163142018708,-1.69748044736,2.2256139015,0.496049386974,0.00620325840501,-0.0476026327579
1589274131853991699,15121,1589274131853867065,,0.139925533553,-1.82878805391,2.22624062378,0.496923595101,0.00554358586737,-0.0459182713531
1589274131859989575,15122,1589274131859877742,,0.139919068661,-1.82878789617,2.22624115969,0.497843277022,0.00553999156325,-0.0459035921925
1589274131865947002,15123,1589274131865835865,,0.139513773188,-1.82898235843,2.249384683,0.497673919359,0.00553752597199,-0.0450046388748
1589274131872044073,15124,1589274131871846864,,0.116263354106,-1.96040709387,2.24999299759,0.497658702881,0.00553493204607,-0.0442466760204
1589274131877983963,15125,1589274131877881821,,0.138873851325,-1.96066976392,2.27365889352,0.499347242043,0.00552990193765,-0.0440763684766
1589274131883925662,15126,1589274131883812273,,0.115686072429,-1.82930045454,2.29534583399,0.497369855343,0.00553186860831,-0.0442523201612
1589274131890302616,15127,1589274131890189368,,0.115699374,-1.82929227864,2.29535167939,0.497369531302,0.005530575485,-0.0442561236589
1589274131895901583,15128,1589274131895770759,,0.16229488801,-1.96053873371,2.25086450651,0.495861232692,0.00619111860002,-0.0457955357027
1589274131901973062,15129,1589274131901826638,,0.161869311249,-2.09233773849,2.27508769955,0.496613299324,0.00622168757081,-0.0448941967499
1589274131907960600,15130,1589274131907807030,,0.161990877223,-2.09234398116,2.27507330579,0.496612262048,0.00624122419422,-0.0449029583446
1589274131913878424,15131,1589274131913795740,,0.161982470339,-2.09236948321,2.27505045032,0.49753275888,0.00689238859307,-0.0448991699921
1589274131919951235,15132,1589274131919850056,,0.162006105801,-2.09239734764,2.27502314005,0.499323320067,0.006219301758,-0.0430640254481
1589274131925965902,15133,1589274131925861338,,0.138761280298,-1.96098283938,2.29667580418,0.50103250016,0.00619905977374,-0.0441003924202
1589274131932044737,15134,1589274131931913851,,0.138673749352,-2.22409930827,2.27550856479,0.502981630506,0.00486423271906,-0.0431670195465
1589274131937989326,15135,1589274131937817039,,0.138669017551,-2.224104362,2.27550391359,0.502981520886,0.00486162801446,-0.0431685902408
1589274131943948937,15136,1589274131943839268,,0.161294354524,-2.22435803615,2.29905870751,0.503767025332,0.00552476890835,-0.0439132376701
1589274131949970285,15137,1589274131949834758,,0.161266776955,-2.2243549122,2.29906366453,0.503767269053,0.00552082844412,-0.0439109372575
1589274131955913192,15138,1589274131955816390,,0.161256444592,-2.22435091267,2.29906825883,0.503767505987,0.0055212950607,-0.0439081602728
1589274131961945466,15139,1589274131961849440,,0.161236260498,-2.22433703844,2.29908309769,0.503767667659,0.00551796106996,-0.0439067244623
1589274131968005432,15140,1589274131967888556,,0.184346552366,-2.22439998329,2.29952610169,0.50561438375,0.0061702765726,-0.0446331868895
1589274131974012172,15141,1589274131973894865,,0.184345792818,-2.22440517163,2.29952114374,0.505614640491,0.00617370751832,-0.0446298039038
1589274131980066846,15142,1589274131979948846,,0.137762764458,-2.22446420362,2.32177156953,0.509118465914,0.00550979224668,-0.043956303286
1589274131986147623,15143,1589274131986005577,,0.137759603325,-2.22446712589,2.32176895729,0.509118577288,0.00551056794464,-0.0439549160506
1589274131992063937,15144,1589274131991888234,,0.137736651126,-2.22447451301,2.32176324147,0.510984616817,0.00550755986369,-0.0457255889605
1589274131997988627,15145,1589274131997873220,,0.137713754381,-2.2244744725,2.32176463849,0.510984905559,0.00550538393362,-0.0457226241997
1589274132003956135,15146,1589274132003862240,,0.160346435092,-2.22472870586,2.34532280342,0.512650832175,0.00483752280991,-0.0446443395417
1589274132010043453,15147,1589274132009949188,,0.160501926816,-2.35632953324,2.32312744094,0.512792205164,0.00483665029605,-0.0446384486106
1589274132015891119,15148,1589274132015807897,,0.137273675692,-2.22467114799,2.34488408332,0.515373580183,0.00416348400093,-0.0438371782706
1589274132022054861,15149,1589274132021947057,,0.137256648131,-2.22466628864,2.34488969031,0.515373971519,0.00416440384502,-0.0438324898839
1589274132027886664,15150,1589274132027783190,,0.160061827705,-2.35652072332,2.3462422202,0.515390988105,0.00483221936677,-0.0445877273926
1589274132033820046,15151,1589274132033714951,,0.137239519893,-2.22466623252,2.34489074608,0.51631375487,0.00483018799812,-0.0447160128515
1589274132039811600,15152,1589274132039733318,,0.136842539234,-2.22485680052,2.3681150701,0.518914883161,0.00482450376287,-0.0446763664752
1589274132045818432,15153,1589274132045710201,,0.160053199148,-2.35651357779,2.34624998564,0.519969595013,0.00482245699732,-0.0445122345698
1589274132048911408,15154,1589274132048825324,,0.137002850253,-2.35646181307,2.34580383121,0.520874095788,0.00482039143882,-0.043739852894
1589274132055002742,15155,1589274132054896122,,0.136194545437,-2.35682488313,2.39215340285,0.52332601398,0.00548298903917,-0.0437003248096
1589274132060884155,15156,1589274132060783042,,0.136197059501,-2.35683176524,2.39214647922,0.523325980284,0.0054832859473,-0.0437006910721
1589274132066983278,15157,1589274132066872881,,0.159241071797,-2.35690115754,2.39257508344,0.524259333816,0.00481404325645,-0.0444421398965
1589274132072868612,15158,1589274132072770680,,0.159475482062,-2.22513582369,2.39165379612,0.526050805802,0.0041430120132,-0.042597395337
1589274132081992065,15159,1589274132081843567,,0.135553853306,-2.48886868964,2.41615245479,0.527707674238,0.00480728039663,-0.040909801843
1589274132088226072,15160,1589274132088076774,,0.135807345511,-2.35703616889,2.41525071545,0.52861723809,0.0048062556222,-0.040896915498
1589274132093970189,15161,1589274132093866333,,0.135182223958,-2.48906900254,2.43925136961,0.530323279731,0.00480482268474,-0.0417758043505
1589274132100077786,15162,1589274132099879053,,0.15760248756,-2.62123585684,2.46374426073,0.532003666025,0.0054673105426,-0.0416040315136
1589274132105958223,15163,1589274132105846044,,0.157622541906,-2.6212468111,2.46373132324,0.532003365046,0.00546801486751,-0.0416077874818
1589274132112053558,15164,1589274132111856214,,0.158042704467,-2.62108944276,2.44049166554,0.531211509122,0.00480043383212,-0.0407220431991
1589274132117916622,15165,1589274132117816794,,0.158053349945,-2.62111074227,2.44046810024,0.532111277267,0.00412991702932,-0.0397978890892
1589274132123892152,15166,1589274132123792991,,0.134602141866,-2.62123845745,2.46323935029,0.535600829864,0.00478968294679,-0.0380856130515
1589274132129836394,15167,1589274132129733144,,0.134613148107,-2.62125045272,2.4632259841,0.535584480745,0.00545579830556,-0.0371857411102
1589274132135914224,15168,1589274132135814881,,0.157063200707,-2.75346179312,2.48759417858,0.53729372609,0.00478687570961,-0.0388223966607
1589274132142100096,15169,1589274132141904288,,0.15706765152,-2.75345818506,2.48759789123,0.540042816678,0.00478029749952,-0.0387792287393
1589274132147924931,15170,1589274132147781797,,0.15707931197,-2.75342644921,2.48763228212,0.540042494196,0.00477780186708,-0.038784026909
1589274132153975602,15171,1589274132153861491,,0.133994054835,-2.75333423755,2.48723600781,0.541839394044,0.00477311702571,-0.0370923264497
1589274132159966045,15172,1589274132159820051,,0.15748690004,-2.75320966839,2.46456557496,0.542916782013,0.0054399938296,-0.0378316903599
1589274132165884541,15173,1589274132165781421,,0.134183065827,-2.88512604117,2.46500489177,0.543819795161,0.00477229038423,-0.0370616448141
1589274132171943844,15174,1589274132171770946,,0.157578309103,-2.75311512499,2.46466534445,0.542916296994,0.00545214266901,-0.0378369015338
1589274132178015016,15175,1589274132177884143,,0.134724077328,-2.75301981155,2.46426098979,0.54474603087,0.00481773769477,-0.0379615413818
1589274132184000158,15176,1589274132183850010,,0.134745313894,-2.75297303316,2.46431208751,0.544765230616,0.00548869084416,-0.038865532557
1589274132190306195,15177,1589274132190197141,,0.133536754663,-2.75345095457,2.53370241485,0.54800877324,0.00548235782501,-0.0397282722249
1589274132195852722,15178,1589274132195728371,,0.15622165152,-2.75366444754,2.55736973944,0.547893394929,0.00548008975271,-0.0413964967801
1589274132201879743,15179,1589274132201770601,,0.156580890273,-2.75349911016,2.53414619805,0.548023315721,0.00546742619382,-0.0404933309924
1589274132204866352,15180,1589274132204766199,,0.156509845594,-2.7535137063,2.53413472716,0.548949306068,0.00478392432943,-0.0413825022489
1589274132210946780,15181,1589274132210851508,,0.133791902776,-2.75331143011,2.51055699136,0.549067792153,0.00477602486643,-0.0397183384186
1589274132216923791,15182,1589274132216797351,,0.133359444806,-2.75348569331,2.53367400159,0.550720698336,0.00476613858705,-0.0378741907826
1589274132222867802,15183,1589274132222762373,,0.1559414258,-2.75372436198,2.55732232779,0.552435238434,0.00474536355407,-0.0395064711046
1589274132225802458,15184,1589274132225734615,,0.155925409199,-2.75373373775,2.55731320854,0.554247055378,0.00473753547758,-0.0385733375697
1589274132228827048,15185,1589274132228738872,,0.155865663879,-2.75376197572,2.5572864435,0.554247218876,0.00472680538239,-0.0385723046711
1589274132232121771,15186,1589274132231848243,,0.155861611746,-2.75376990759,2.55727814918,0.554247080211,0.00472390423123,-0.0385746524975
1589274132237941653,15187,1589274132237848992,,0.179023484854,-2.7538535605,2.55769066311,0.553352359748,0.0047223818663,-0.0393498115515
1589274132243924729,15188,1589274132243816909,,0.156486855968,-2.62167484078,2.53319630397,0.552602755081,0.00539257659657,-0.040417127356
1589274132249924644,15189,1589274132249831645,,0.156751805534,-2.48978905832,2.53234067313,0.547122034141,0.00540871855394,-0.041410559908
1589274132255980812,15190,1589274132255875789,,0.180742157735,-2.48950703586,2.48650677527,0.541045251008,0.00408694351416,-0.0431789157962
1589274132261940318,15191,1589274132261854184,,0.180778529871,-2.48951943788,2.48649171408,0.541045352816,0.00409735634846,-0.0431766531955
1589274132267942450,15192,1589274132267839563,,0.158022469014,-2.48928905453,2.46291848783,0.539377727205,0.00410246012669,-0.0442602802427
1589274132273939384,15193,1589274132273859732,,0.157784269806,-2.62118856394,2.46378294093,0.53939597165,0.00410741141772,-0.0451590125769
1589274132279916550,15194,1589274132279832588,,0.157762618206,-2.62118582176,2.4637872448,0.539396410941,0.00410788524971,-0.0451537221125
1589274132282803891,15195,1589274132282692072,,0.157692725429,-2.621154719,2.46382480849,0.540299930639,0.00411087074608,-0.0442140192047
1589274132285821543,15196,1589274132285722139,,0.157628450714,-2.62112908986,2.46385618682,0.540283390558,0.00411321591693,-0.0432932585343
1589274132288972452,15197,1589274132288885389,,0.134524581421,-2.62105506286,2.46343873045,0.540288307808,0.0047797108193,-0.0434332184106
1589274132294797294,15198,1589274132294709944,,0.157610670597,-2.62110623042,2.46388164263,0.540303409313,0.00478242243166,-0.0441907963982
1589274132298032492,15199,1589274132297935918,,0.13467464523,-2.75285075474,2.44106949502,0.538560800929,0.00478221983263,-0.0416416622539
1589274132303979588,15200,1589274132303792076,,0.134510755346,-2.62103802425,2.46345761408,0.538395181447,0.00478218534233,-0.0407404658655
1589274132309866443,15201,1589274132309779535,,0.133871014901,-2.75319471069,2.48739707834,0.538235909704,0.00478090419224,-0.0398443879447
1589274132312911925,15202,1589274132312837976,,0.133469242603,-2.75336921116,2.51051079654,0.538970342648,0.00544651254915,-0.0380162448584
1589274132315868283,15203,1589274132315776509,,0.155922657593,-2.88563870401,2.53484285679,0.538816174051,0.00544682755624,-0.0378772334765
1589274132321922505,15204,1589274132321829554,,0.155939179161,-2.88565588767,2.53482227862,0.538815989241,0.00544797598773,-0.0378796972149
1589274132325131520,15205,1589274132325056740,,0.180195386702,-2.75339173577,2.4881789796,0.535517589287,0.005456369107,-0.0414193875103
1589274132330942984,15206,1589274132330866510,,0.180212340599,-2.75339006419,2.48817960148,0.535517467643,0.00545848298011,-0.041420681723
1589274132337010456,15207,1589274132336921491,,0.135177565467,-2.75275880431,2.41786163132,0.529553117615,0.00480353389122,-0.0418076459243
1589274132343014368,15208,1589274132342877122,,0.135174562141,-2.75276714478,2.41785230349,0.529553258984,0.00480478978129,-0.0418057109123
1589274132349096442,15209,1589274132348980511,,0.158029324483,-2.88487869778,2.41908776504,0.525063613751,0.00548465603141,-0.0462598833987
1589274132354980118,15210,1589274132354872315,,0.135847615011,-2.6205997566,2.39390565891,0.522447114021,0.00415729877737,-0.0455444254038
1589274132360786441,15211,1589274132360699930,,0.159112702181,-2.75249916893,2.37204490501,0.516231947044,0.00417454068906,-0.0482190381436
1589274132363791718,15212,1589274132363671091,,0.18270846907,-2.75239854479,2.34926241871,0.511873166884,0.00485196389309,-0.0517702427093
1589274132366875227,15213,1589274132366790346,,0.182715575145,-2.75240464575,2.34925471813,0.509115855309,0.00485812244734,-0.0509114894382
1589274132369828129,15214,1589274132369721376,,0.182730231329,-2.75240423416,2.3492540604,0.50731293381,0.00486225946331,-0.0527489253721
1589274132372762936,15215,1589274132372699387,,0.182731522655,-2.7524123033,2.34924450605,0.504574058432,0.00486824613212,-0.0527918477465
1589274132375903973,15216,1589274132375824217,,0.205591665863,-2.88454136417,2.35048760919,0.500902779516,0.00487652017412,-0.0527027563613
1589274132381944873,15217,1589274132381842549,,0.182719919512,-2.75240498413,2.34925398378,0.499977821263,0.00487719472242,-0.0519585861773
1589274132388184103,15218,1589274132388066157,,0.205988552689,-2.88437545055,2.32738511416,0.497395658829,0.00488477710121,-0.0527545879839
1589274132393966816,15219,1589274132393862638,,0.20638833244,-2.88420587299,2.30428893972,0.497557147819,0.005553183553,-0.053651127709
1589274132399982298,15220,1589274132399880097,,0.205999493678,-2.88435746218,2.32740643898,0.495605331798,0.00555926283014,-0.0545846303317
1589274132405985804,15221,1589274132405880033,,0.20559630716,-2.88452267553,2.35051013792,0.495415744751,0.00489348201997,-0.052781825552
1589274132412298204,15222,1589274132412009557,,0.205599741183,-2.88452313511,2.35050927355,0.49537837159,0.00489111763817,-0.0509706453665
1589274132417985227,15223,1589274132417882158,,0.205805421421,-3.01649589569,2.3281709519,0.493691795222,0.00556447432045,-0.0509966649294
1589274132420956022,15224,1589274132420819603,,0.206591912095,-3.01619047577,2.2819556907,0.492154678011,0.00556390191219,-0.0510206764293
1589274132424072140,15225,1589274132423918385,,0.183717839705,-2.88398365104,2.28074541454,0.489437350757,0.00556764275052,-0.0521214251858
1589274132430025689,15226,1589274132429936160,,0.207191368801,-2.88389183292,2.25797071628,0.483237797139,0.00491177236065,-0.0556917864566
1589274132432957738,15227,1589274132432874634,,0.207591563738,-2.88373454132,2.23486479988,0.48062114834,0.00491540673236,-0.0548212969464
1589274132441948053,15228,1589274132441790327,,0.230951704351,-2.75170268125,2.23449476917,0.477935713599,0.00491590330175,-0.0574381999178
1589274132444945998,15229,1589274132444855626,,0.277585888596,-2.75168920816,2.21225627385,0.474491590456,0.00624603999093,-0.0608093659531
1589274132451034947,15230,1589274132450894966,,0.277579215161,-2.75169306884,2.21225230913,0.474491568946,0.00624472218657,-0.0608096691338
1589274132456998472,15231,1589274132456907141,,0.254804821228,-2.75145256611,2.18871718457,0.468245012801,0.00493522195176,-0.0619568172199
1589274132463059759,15232,1589274132462944633,,0.278900646597,-2.61913026936,2.14202857274,0.462230495155,0.0042837771132,-0.0664108141673
1589274132468967126,15233,1589274132468872914,,0.278869165777,-2.61911991033,2.14204533768,0.462231281763,0.00428229663952,-0.066405434499
1589274132475020427,15234,1589274132474908960,,0.279262116318,-2.61894031572,2.11896096457,0.460526481634,0.00495405764876,-0.0655242969431
1589274132481017239,15235,1589274132480942812,,0.279266391874,-2.6189364709,2.1189651531,0.460526358283,0.00495399344019,-0.0655251687434
1589274132483902218,15236,1589274132483747703,,0.279295606194,-2.61892789855,2.1189718976,0.460525650544,0.00495493585619,-0.0655300714556
1589274132487338141,15237,1589274132487184549,,0.279271766028,-2.61892953595,2.11897301604,0.460523982617,0.00428481111097,-0.0655306253499
1589274132492998229,15238,1589274132492930231,,0.256151288722,-2.61886561126,2.11851467055,0.460507085413,0.00428760501219,-0.0647755756533
1589274132502045394,15239,1589274132501941110,,0.278386518828,-2.75135102116,2.16596790692,0.460212724297,0.00495727020733,-0.0646449067831
1589274132508025481,15240,1589274132507939306,,0.278216717859,-2.88345281593,2.1667940416,0.460173928704,0.00495720354413,-0.0628345261392
1589274132514024212,15241,1589274132513934881,,0.278230093561,-2.88345752763,2.16678605402,0.460173611368,0.00495776015305,-0.0628368062158
1589274132520013066,15242,1589274132519920745,,0.254830188157,-2.75145729503,2.18870828649,0.460871648769,0.00495204555386,-0.0593547725218
1589274132526035415,15243,1589274132525928923,,0.254640220833,-2.88355825447,2.18952909894,0.461781649267,0.00495386971404,-0.0593368829083
1589274132532140788,15244,1589274132531903159,,0.254657258199,-2.88353939745,2.1895519515,0.461781753253,0.00495698128539,-0.0593358137856
1589274132538095667,15245,1589274132537972474,,0.254894217179,-2.75141671069,2.18875184904,0.460853444658,0.00496765414229,-0.0584462788705
1589274132544115090,15246,1589274132543921996,,0.254479378832,-2.75156461285,2.21187514036,0.460702732081,0.00496676271307,-0.0584462501225
1589274132550104269,15247,1589274132549988416,,0.232233647256,-2.75114883418,2.16515864368,0.456425182894,0.00431192960009,-0.0586571073172
1589274132556090556,15248,1589274132556002475,,0.255299561622,-2.75122581436,2.16558601048,0.45373304613,0.00498420784276,-0.0612639027084
1589274132562001561,15249,1589274132561888477,,0.233049686451,-2.75083518848,2.11894579157,0.449467722668,0.00432636201422,-0.0623788141557
1589274132568051184,15250,1589274132567928633,,0.23306351343,-2.75083745065,2.11894133401,0.449467780353,0.00432919524025,-0.06237820194
1589274132574033076,15251,1589274132573963968,,0.232882096364,-2.88296312443,2.11976083069,0.449429083097,0.00432889630857,-0.0605789750988
1589274132580037406,15252,1589274132579958552,,0.232881510665,-2.88297064208,2.1197506707,0.449411274959,0.00499347181302,-0.0596690665544
1589274132582801897,15253,1589274132582718273,,0.232859254642,-2.88298403159,2.11973490515,0.449411487537,0.00499137069628,-0.059667641251
1589274132585854461,15254,1589274132585747298,,0.256333403274,-2.88289345736,2.09698093289,0.448636531199,0.00499125629905,-0.0595355874067
1589274132589304437,15255,1589274132589194566,,0.20988053388,-3.01494027844,2.09690067123,0.448583342712,0.00432350362838,-0.0571231061114
1589274132595174649,15256,1589274132595029427,,0.255929491921,-2.88305489753,2.1201685929,0.450308768045,0.00498818598671,-0.0586087963757
1589274132600922353,15257,1589274132600842567,,0.2561552374,-3.0150672694,2.09778183683,0.449520035006,0.00565858304301,-0.0577157830766
1589274132603988555,15258,1589274132603897098,,0.232678396319,-3.01514785028,2.12054216743,0.451128225315,0.0056561850507,-0.0542229304372
1589274132610106619,15259,1589274132609876012,,0.208904385741,-3.14743387644,2.14398815299,0.45367380091,0.00630974672718,-0.051611795815
1589274132616032116,15260,1589274132615937723,,0.208934431931,-3.14731157784,2.14416475212,0.45367394647,0.00631254111815,-0.0516101745954
1589274132622080089,15261,1589274132621983368,,0.208575677235,-3.14741479108,2.16731676388,0.456224773883,0.00631001568449,-0.0488626299529
1589274132628049590,15262,1589274132627935725,,0.208645586892,-3.14745543578,2.16725100855,0.45622382664,0.00631541665457,-0.0488707757911
1589274132634138393,15263,1589274132633978708,,0.208432602249,-3.27974504671,2.16794408111,0.458052767163,0.00631022777903,-0.0488450701172
1589274132640062572,15264,1589274132639950108,,0.231233699683,-3.28000156601,2.19149585922,0.460687592364,0.00630290450593,-0.0504819777561
1589274132646218454,15265,1589274132646089767,,0.231242688071,-3.28005114267,2.1914207078,0.459766211746,0.00565019997297,-0.0504976988507
1589274132652097544,15266,1589274132651988984,,0.231224879106,-3.28005354161,2.19141899629,0.458875557763,0.00565123235466,-0.0514102279417
1589274132658125259,15267,1589274132658001476,,0.2322102889,-3.14749732055,2.1444137191,0.455543935804,0.00565504811874,-0.0532718293459
1589274132664094696,15268,1589274132663950918,,0.232186308436,-3.14747902039,2.14444317579,0.455544337682,0.00565336078374,-0.053268571756
1589274132670047368,15269,1589274132669973629,,0.232125107583,-3.14747869472,2.14445027933,0.453743780575,0.00565272393064,-0.0550915869569
1589274132676137801,15270,1589274132676015690,,0.255556129415,-3.14738729346,2.12181671837,0.45210118712,0.00564887943664,-0.0567697408236
1589274132682058513,15271,1589274132681959054,,0.231957044575,-3.14745289302,2.14450633376,0.451934881043,0.00563668652221,-0.0560121196689
1589274132688310582,15272,1589274132688153803,,0.255401195087,-3.14734178719,2.12190287261,0.45118281891,0.00563181094741,-0.0567764550045
1589274132694024780,15273,1589274132693940138,,0.231464116192,-3.14758326301,2.16763352671,0.45455194116,0.00561985850322,-0.0568816317819
1589274132697014411,15274,1589274132696909132,,0.253298369142,-3.41250891477,2.21576026338,0.456050977674,0.00561086161562,-0.054903925995
1589274132699930439,15275,1589274132699853918,,0.230422960554,-3.28013181272,2.21465288964,0.456955967443,0.0062644730668,-0.0541371139657
1589274132702926997,15276,1589274132702837951,,0.230503674638,-3.28010287779,2.21468734548,0.458784748639,0.00627076086716,-0.05411067749
1589274132706042028,15277,1589274132705969530,,0.207382414856,-3.27999958748,2.21430148851,0.462388758468,0.0062705115504,-0.0514890831481
1589274132709026294,15278,1589274132708902404,,0.207464675365,-3.27989755551,2.21444491367,0.462387767257,0.00627429063836,-0.051497523473
1589274132712530683,15279,1589274132711836700,,0.207331506651,-3.41225138925,2.21505379723,0.46330661106,0.00628231056247,-0.0514887813894
1589274132717979937,15280,1589274132717883640,,0.206975240204,-3.4123588507,2.23819164606,0.466730681414,0.00627871387589,-0.0469228740316
1589274132724116447,15281,1589274132724030629,,0.207043956701,-3.4124076175,2.23811093839,0.466730372375,0.00628790497585,-0.0469247171826
1589274132730059551,15282,1589274132729953227,,0.182710188412,-3.67727032038,2.28533741506,0.471840616964,0.00628447775172,-0.0424711418591
1589274132732947089,15283,1589274132732871900,,0.182755790882,-3.67728394197,2.28531185044,0.471840690471,0.00629178460897,-0.0424692433421
1589274132735966235,15284,1589274132735865412,,0.159330577052,-3.54499211816,2.30735728258,0.472557735242,0.00628895471299,-0.0398820236041
1589274132739248590,15285,1589274132739083953,,0.182372734026,-3.41287789477,2.3302119304,0.473340441121,0.00563550466876,-0.0406246070032
1589274132745082040,15286,1589274132744959901,,0.182333240582,-3.41292486981,2.33014621896,0.473340699618,0.00563251946477,-0.0406220090285
1589274132751077519,15287,1589274132750989862,,0.182449925489,-3.54510585145,2.30771139953,0.476250800459,0.00627566575026,-0.0414755952601
1589274132756959225,15288,1589274132756870564,,0.182389607507,-3.54510034954,2.30772461954,0.476251172289,0.0062696211486,-0.0414722396911
1589274132760260822,15289,1589274132759925265,,0.182335025356,-3.54511891195,2.30770041719,0.477189555858,0.00626286563646,-0.0423660637758
1589274132763037084,15290,1589274132762940814,,0.182720141156,-3.54500795269,2.28456456928,0.477348975573,0.0062608105001,-0.0432640401945
1589274132768925037,15291,1589274132768811600,,0.182667760819,-3.5450052434,2.28457296212,0.477349428959,0.00625650558773,-0.043259660343
1589274132772182894,15292,1589274132772076562,,0.205284489393,-3.5452152901,2.30809126298,0.478151922064,0.00624292132505,-0.0449047801973
1589274132777977151,15293,1589274132777895410,,0.205312981683,-3.54522263252,2.30807745068,0.478151601778,0.00624486314179,-0.0449079205215
1589274132781147376,15294,1589274132781031643,,0.181939934535,-3.67748116726,2.30833739937,0.47907421009,0.00623947234718,-0.0450504811156
1589274132787419920,15295,1589274132787312726,,0.181976229736,-3.67746012676,2.3083680583,0.479074141362,0.0062437725593,-0.0450506161944
1589274132793078386,15296,1589274132792974613,,0.204516659618,-3.81005431246,2.33247215397,0.482606821373,0.00624306835581,-0.0457536344288
1589274132796013704,15297,1589274132795913139,,0.204639014791,-3.80998271223,2.33257837663,0.482606709406,0.00625792193563,-0.0457527862594
1589274132798870851,15298,1589274132798785754,,0.204477531191,-3.67775895965,2.3550235729,0.484284816183,0.00625709979572,-0.0457276080273
1589274132801936669,15299,1589274132801840299,,0.181361847775,-3.67771861811,2.35456247982,0.485152376841,0.0062566776602,-0.0431439093123
1589274132804927038,15300,1589274132804827123,,0.181416691423,-3.67771174131,2.35456899604,0.486043713215,0.00626127022836,-0.0422287110569
1589274132807858398,15301,1589274132807792267,,0.181707403412,-3.54539962705,2.35387639765,0.487872645889,0.00626421107497,-0.0422035700478
1589274132810902512,15302,1589274132810814063,,0.158314405504,-3.67771216395,2.35403790102,0.489660419086,0.00627018727943,-0.0395991604498
1589274132813905956,15303,1589274132813817019,,0.157904292583,-3.67781774977,2.37728363599,0.491322389035,0.00560907224205,-0.0386719631727
1589274132816970577,15304,1589274132816860642,,0.157874306273,-3.67782157812,2.37727970484,0.493135683026,0.00626003930729,-0.0377373707788
1589274132819877172,15305,1589274132819787609,,0.157222002493,-3.8103281131,2.4009888073,0.495715868788,0.00625601104135,-0.0367806892604
1589274132823003278,15306,1589274132822923177,,0.134033420427,-3.81028519483,2.40054324452,0.498430612658,0.00558668877892,-0.0350781876768
1589274132828865297,15307,1589274132828787245,,0.134010286977,-3.81031469294,2.40049771428,0.49843063592,0.00558397544816,-0.035078289182
1589274132832135128,15308,1589274132832054999,,0.156103618694,-3.94306614812,2.44765007689,0.502680176078,0.00623482953324,-0.0330487745088
1589274132834910956,15309,1589274132834839354,,0.156027571297,-3.94307776519,2.44763621108,0.502680452725,0.0062269311925,-0.0330460556551
1589274132838134727,15310,1589274132837969493,,0.132358566688,-3.94315902242,2.47040648746,0.504330320318,0.00621561422126,-0.0313491666905
1589274132843991080,15311,1589274132843916270,,0.132281806771,-3.94317355023,2.47038741009,0.504330497938,0.00620660306884,-0.0313480945673
1589274132847004024,15312,1589274132846889616,,0.132268085676,-3.94316722181,2.47039824601,0.50433050149,0.00620455372794,-0.03134844309
1589274132850020264,15313,1589274132849949080,,0.132643089933,-3.94305491131,2.44716783769,0.503558567866,0.00620116378549,-0.0313611546872
1589274132852958831,15314,1589274132852894058,,0.109411446847,-3.94298427248,2.44676746809,0.503542404139,0.00553514132614,-0.0306006801913
1589274132855829872,15315,1589274132855762814,,0.132065569618,-3.9431800082,2.4703886714,0.503473267021,0.00552889742093,-0.0340732676488
1589274132862074497,15316,1589274132861978085,,0.132792145961,-3.81059319446,2.4467036421,0.501817188996,0.00553917271467,-0.0359050789863
1589274132864982566,15317,1589274132864895602,,0.13283008637,-3.81055202219,2.44676570482,0.501816997664,0.0055422227548,-0.0359072823407
1589274132871044084,15318,1589274132870896613,,0.133390149338,-3.81047776719,2.42356289874,0.501066082066,0.00556323355611,-0.0368333948144
1589274132873884416,15319,1589274132873802038,,0.15659108034,-3.81050983161,2.42402670234,0.501134433379,0.00556724101925,-0.0403046336377
1589274132876920991,15320,1589274132876856788,,0.156685366232,-3.81056064188,2.42394073514,0.500242517595,0.00558005332315,-0.0412351511199
1589274132880061111,15321,1589274132879959248,,0.156736099601,-3.81058429143,2.42390027639,0.500242193681,0.00558503262421,-0.0412384064229
1589274132882976077,15322,1589274132882893198,,0.156512107818,-3.94298073421,2.4244761031,0.499340532389,0.00558921278071,-0.0421553121056
1589274132885973444,15323,1589274132885868070,,0.156393891334,-3.94299634514,2.42445834317,0.499341176703,0.00557823407912,-0.042149133772
1589274132889118554,15324,1589274132888968725,,0.132725603368,-3.94304311034,2.44718237836,0.500111497244,0.00489779479382,-0.0422789587197
1589274132891826272,15325,1589274132891744560,,0.133073852825,-3.94294083946,2.4240386532,0.501136506448,0.00488961676794,-0.0404535892801
1589274132895106314,15326,1589274132894926909,,0.201888200593,-4.07566322325,2.44899091143,0.503781962904,0.00554365663556,-0.0426848359417
1589274132897969105,15327,1589274132897895086,,0.179313021815,-3.94304319359,2.42493041013,0.503918180652,0.00553452548214,-0.041922061597
1589274132904106469,15328,1589274132903989902,,0.178786316606,-3.94317310727,2.44804090508,0.504687515557,0.00552258960048,-0.0419027546677
1589274132910030055,15329,1589274132909936182,,0.179169848057,-3.9430718416,2.42489440963,0.50571224154,0.00551836605509,-0.0400680756615
1589274132912941145,15330,1589274132912837394,,0.155220949095,-4.0755531378,2.44813514457,0.508259254997,0.00550747587548,-0.0374612141872
1589274132915919606,15331,1589274132915790945,,0.155167718428,-4.07551705317,2.4481985901,0.508259491871,0.00550173602753,-0.0374588437149
1589274132919146934,15332,1589274132919057632,,0.154651555812,-4.07566540314,2.47137204424,0.510843398856,0.00548779985539,-0.036497386582
1589274132922016482,15333,1589274132921925651,,0.131244769475,-4.20803879349,2.47149067734,0.510810425096,0.0054880913754,-0.0348390814786
1589274132925063709,15334,1589274132924944953,,0.130647959036,-4.34060689529,2.49513166944,0.511543330782,0.00549539505735,-0.0330227685852
1589274132931034136,15335,1589274132930920108,,0.130705179561,-4.34061172804,2.49512026543,0.511543114825,0.0055008077652,-0.0330252126045
1589274132937195582,15336,1589274132937076730,,0.130069144268,-4.47320212378,2.51873310256,0.515026907427,0.00615422570383,-0.0311542959641
1589274132943033019,15337,1589274132942932506,,0.129032074326,-4.60589298517,2.56558683776,0.522020710367,0.00614668027908,-0.0292216794804
1589274132946300870,15338,1589274132946209427,,0.12924486971,-4.6058289487,2.56569108587,0.522020547443,0.0061715120892,-0.0292193560431
1589274132955131726,15339,1589274132954955519,,0.12968679988,-4.47331309177,2.5652422105,0.524771342067,0.00685580543679,-0.0291710030685
1589274132961078236,15340,1589274132960981531,,0.0834724475674,-4.34074550786,2.56386598007,0.52477552013,0.00618399001241,-0.0294686974097
1589274132967159663,15341,1589274132967058796,,0.0834731258529,-4.34075866259,2.56384368628,0.524775760433,0.00618712579526,-0.0294637594917
1589274132969889074,15342,1589274132969759797,,0.0834339928563,-4.34078621787,2.56379830658,0.523883644189,0.00618456331087,-0.0303821096452
1589274132972825621,15343,1589274132972742831,,0.129869434509,-4.34091461242,2.56462064459,0.522127322074,0.00619125429462,-0.0346480858402
1589274132976030750,15344,1589274132975929097,,0.153090873242,-4.34096302737,2.56505731474,0.522140106976,0.00553580931359,-0.0354142425916
1589274132982096651,15345,1589274132981977818,,0.152859859015,-4.34097383884,2.56505279523,0.521304503854,0.00617410697794,-0.0390408008301
1589274132988257323,15346,1589274132988155789,,0.153158880198,-4.34087169903,2.54182009061,0.521441428471,0.00550783197341,-0.0390296811667
1589274132994184927,15347,1589274132993936738,,0.199018670538,-4.34108671012,2.56593841021,0.51955962488,0.0054990948731,-0.0432906221555
1589274132997060040,15348,1589274132996966886,,0.198962287282,-4.34107206528,2.56596755888,0.519579810602,0.00615243916481,-0.0441887079802
1589274133000037877,15349,1589274132999963251,,0.199437746166,-4.3409829275,2.54270166583,0.518826025572,0.00616104409202,-0.0451151944065
1589274133002994853,15350,1589274133002938776,,0.199262008145,-4.34096800052,2.54274092732,0.518826562079,0.00614175114928,-0.0451116549857
1589274133006159439,15351,1589274133006022382,,0.199201255065,-4.34097928333,2.54272642543,0.518825082254,0.00547803703705,-0.0451106177659
1589274133009118651,15352,1589274133009028784,,0.199218817082,-4.34097391335,2.54273421721,0.519734610734,0.00547716653609,-0.0450976353635
1589274133012219225,15353,1589274133011950164,,0.198845379788,-4.34109501296,2.56593779823,0.521407905388,0.0054791438356,-0.0441567109267
1589274133015330345,15354,1589274133015038874,,0.176359634203,-4.2084636976,2.54177875276,0.521548887101,0.00548056116481,-0.044307755799
1589274133021189055,15355,1589274133021028490,,0.176322836169,-4.20847759439,2.54175829644,0.523351969307,0.00547209276575,-0.0424616445131
1589274133024106838,15356,1589274133023990308,,0.152235648894,-4.20860130384,2.58774955297,0.525768652648,0.00546286424837,-0.0407632049403
1589274133027120383,15357,1589274133027027599,,0.175593282422,-4.20860730418,2.58826190731,0.527595894029,0.0061216769306,-0.0405914851265
1589274133033169856,15358,1589274133032991490,,0.175660793984,-4.20862244325,2.58823270941,0.527595817112,0.00613061098622,-0.040591136531
1589274133036091431,15359,1589274133036012617,,0.175615859491,-4.47340054104,2.56617617034,0.527675198869,0.00613741891149,-0.03696311036
1589274133039288885,15360,1589274133039213913,,0.152011165183,-4.47344762338,2.5888696173,0.52935804383,0.00681004925931,-0.0370888075284
1589274133044871213,15361,1589274133044791560,,0.15137071589,-4.60602920333,2.61249989412,0.530090816262,0.00681164539697,-0.0352605569778
1589274133050929636,15362,1589274133050833343,,0.128252639707,-4.60598189707,2.61205291889,0.531877944715,0.00614412942498,-0.0326706452408
1589274133054068384,15363,1589274133053989094,,0.103968644554,-4.73865708106,2.65841343844,0.535199751335,0.00680653834249,-0.0300355207511
1589274133056865004,15364,1589274133056795084,,0.0800527482079,-4.87120667026,2.6815877409,0.53774764198,0.00680468033481,-0.0274181435543
1589274133059876707,15365,1589274133059795290,,0.0801069151335,-4.87122504951,2.68155273642,0.537747663901,0.00681207988749,-0.027415876099
1589274133062865587,15366,1589274133062761068,,0.103308695029,-4.87128406479,2.68197524232,0.539574634693,0.00679949109618,-0.0272424322091
1589274133066230018,15367,1589274133066152331,,0.0799577336314,-4.8711978292,2.68160663571,0.541371985443,0.00678653523647,-0.0255492973175
1589274133069032075,15368,1589274133068950500,,0.0798452762584,-4.87119845528,2.68160884922,0.541372084153,0.00677323460752,-0.0255507351897
1589274133072226006,15369,1589274133072007092,,0.102665970809,-4.87140153174,2.70508505558,0.542173325999,0.0067704837692,-0.0271966507603
1589274133075037804,15370,1589274133074928112,,0.102662788633,-4.87138669279,2.70511189862,0.542173308363,0.00676969583926,-0.0271971984775
1589274133078090510,15371,1589274133077997815,,0.103358711616,-4.7387541559,2.68156156845,0.541422147263,0.00677233435187,-0.02811257046
1589274133081018161,15372,1589274133080949836,,0.103326941266,-4.73876216936,2.68154863171,0.541422302287,0.00677016733786,-0.0281101066696
1589274133084069433,15373,1589274133083952676,,0.103136285943,-4.73880217386,2.68148527542,0.541440324543,0.00674918309854,-0.0290230509978
1589274133087398012,15374,1589274133087310071,,0.103524904676,-4.73866641832,2.65841411194,0.540669681661,0.0060763490377,-0.0290419477077
1589274133092866221,15375,1589274133092794174,,0.126746245241,-4.73874600717,2.65879982831,0.541621815628,0.00608040288052,-0.0306867534154
1589274133096041567,15376,1589274133095941667,,0.149953099648,-4.73881839529,2.65920039286,0.538061487575,0.0080868970508,-0.0360298428834
1589274133102135593,15377,1589274133102036267,,0.174060293339,-4.73866408569,2.61328732177,0.534719293098,0.00610067945366,-0.0377603910079
1589274133105112175,15378,1589274133105016656,,0.174391114221,-4.60614671067,2.61284150785,0.532943609224,0.00611425337995,-0.0404976397115
1589274133111087550,15379,1589274133110978906,,0.17404792634,-4.60623314086,2.63609750371,0.53190403888,0.00612376007777,-0.0414301618096
1589274133117278033,15380,1589274133117137447,,0.174799161054,-4.47364273368,2.61238071487,0.532104912495,0.00548022976149,-0.0441395607359
1589274133123202483,15381,1589274133123056595,,0.174592614936,-4.60611944486,2.61287611735,0.531220117301,0.00482360268685,-0.0459564716552
1589274133126099793,15382,1589274133125991569,,0.221408644454,-4.47373242602,2.61327739736,0.53125205798,0.00550442442257,-0.0474768019535
1589274133129188492,15383,1589274133129050753,,0.174784304129,-4.60609355817,2.61290893575,0.532139183804,0.00484058090047,-0.045946803287
1589274133132213726,15384,1589274133131940212,,0.17490290842,-4.60609860341,2.6128921054,0.532138425489,0.00484999866224,-0.0459545920122
1589274133135283089,15385,1589274133135016927,,0.175252532813,-4.47363272936,2.61236747172,0.533029516672,0.00485749331315,-0.0450416216561
1589274133138053905,15386,1589274133137924970,,0.198214287961,-4.60623317769,2.61317380885,0.53396585239,0.00552735751178,-0.0457853959791
1589274133140926159,15387,1589274133140836661,,0.174871531067,-4.4738136598,2.63546939353,0.535650327841,0.00552477024165,-0.0459040098839
1589274133143978085,15388,1589274133143885316,,0.174546711022,-4.60628197801,2.63597918473,0.535632636904,0.00551689829541,-0.0449971359516
1589274133147186153,15389,1589274133147085884,,0.174537734368,-4.60631566047,2.63592091935,0.535632493598,0.00551528881431,-0.0449990390926
1589274133153121358,15390,1589274133153004929,,0.17453143273,-4.60634163872,2.63587593867,0.534704788701,0.00551669690617,-0.0441099753966
1589274133156153474,15391,1589274133156040770,,0.174196582008,-4.73882208708,2.6363793596,0.534670470325,0.00616516441094,-0.0422905194405
1589274133162206608,15392,1589274133162069282,,0.150174915514,-4.87144235332,2.65942379087,0.538145662004,0.00615394522585,-0.0405630180598
1589274133168122749,15393,1589274133168013967,,0.172931070892,-4.87158722349,2.68301511265,0.538931353486,0.00680838175661,-0.0413099313023
1589274133171165287,15394,1589274133171046344,,0.148431463338,-5.00424596647,2.72940770079,0.545864506823,0.0061142742198,-0.0358911105923
1589274133177192562,15395,1589274133177078206,,0.148330891909,-5.00424249369,2.7294195354,0.545865049445,0.00610707207256,-0.0358840834138
1589274133180058598,15396,1589274133179973261,,0.124813758062,-5.1367302483,2.72940123816,0.550395433277,0.00676111758565,-0.033237904507
1589274133183066489,15397,1589274133182992859,,0.124020139093,-5.26939676725,2.7529068866,0.553850471783,0.00674248659454,-0.0304578541754
1589274133186036172,15398,1589274133185956621,,0.147173356515,-5.26945485926,2.75333432995,0.554802427135,0.00673329504144,-0.0321103460755
1589274133189056633,15399,1589274133188988385,,0.147122457109,-5.2694369546,2.75337131661,0.554802478773,0.00672757462824,-0.0321106528787
1589274133192022473,15400,1589274133191904408,,0.147150482303,-5.26945981478,2.75332606842,0.555713741387,0.00739515468579,-0.0320983981442
1589274133194958567,15401,1589274133194856511,,0.147141151017,-5.26944674331,2.75335158382,0.555713855636,0.00739505872079,-0.0320964422121
1589274133197990162,15402,1589274133197875653,,0.123566931793,-5.26944190949,2.77613865574,0.557369848476,0.00739464669947,-0.030406865282
1589274133201221043,15403,1589274133201085871,,0.100428697328,-5.26936896918,2.77574106252,0.555541317342,0.00673667456768,-0.0305836950589
1589274133207175211,15404,1589274133207051367,,0.124062192002,-5.26930286595,2.75308472287,0.554805184454,0.00674022324237,-0.0322685317351
1589274133213140454,15405,1589274133213022768,,0.12479109697,-5.13666541978,2.72952427801,0.55313435666,0.00674835110523,-0.0331997605746
1589274133216153204,15406,1589274133216038673,,0.148110520475,-5.13667913751,2.7300258389,0.551372719812,0.00676434500134,-0.0367129782751
1589274133222174754,15407,1589274133222044149,,0.148581186772,-5.0040751761,2.72971266844,0.548704725809,0.00679267965838,-0.0403828869908
1589274133225198803,15408,1589274133225010750,,0.149013003809,-5.00399876132,2.70643938206,0.546993178418,0.00612858153921,-0.0394994304869
1589274133231053413,15409,1589274133230951390,,0.196195131271,-4.87144115984,2.6838071351,0.54542513323,0.00613664655562,-0.0455849613608
1589274133234096488,15410,1589274133233990233,,0.196372893132,-4.87142735731,2.68381918746,0.545424605997,0.0061542661447,-0.0455888941885
1589274133237141396,15411,1589274133237011495,,0.173330597504,-4.87139013097,2.6833471676,0.545427161224,0.00616994302387,-0.0457360496965
1589274133240198949,15412,1589274133240095409,,0.150047864429,-4.87133006755,2.68292657215,0.54633018361,0.00551084324259,-0.0449587790725
1589274133243095184,15413,1589274133242999907,,0.150096004879,-4.87137413742,2.68284386105,0.545428073095,0.0055163944563,-0.0458821713703
1589274133246112457,15414,1589274133245953877,,0.150143989476,-4.87140196488,2.68279064766,0.546329593914,0.00551941133987,-0.0449648934571
1589274133249083439,15415,1589274133248998384,,0.172771572035,-5.00411481235,2.70672882904,0.546195203505,0.00617822622861,-0.045729485878
1589274133255207621,15416,1589274133255049555,,0.172891637358,-4.87162437558,2.7062387676,0.548016915339,0.00616192314836,-0.0447937901053
1589274133258227730,15417,1589274133258104652,,0.172450043407,-4.87175571352,2.72941964833,0.548771153797,0.00615959609171,-0.0438743122172
1589274133264164286,15418,1589274133264025119,,0.172341974767,-4.87175131933,2.72943431734,0.548771272457,0.00614715441308,-0.0438745729804
1589274133267087820,15419,1589274133266983703,,0.125773004159,-4.8716238336,2.72861231638,0.548721481943,0.00547728858943,-0.0414415399914
1589274133270040592,15420,1589274133269937568,,0.126158895792,-4.87151819373,2.70538852115,0.548823372865,0.00547123488595,-0.0396343452371
1589274133273017282,15421,1589274133272925532,,0.149012776375,-5.00411256052,2.70622897802,0.549724200577,0.00612145615129,-0.0385555772395
1589274133276001323,15422,1589274133275920381,,0.148515215775,-5.00421191482,2.7294655762,0.550478775759,0.00611342696324,-0.0376343845306
1589274133282184573,15423,1589274133282100841,,0.147723926109,-5.13685651566,2.75300675379,0.552141394734,0.00676741929016,-0.0366995958594
1589274133285147621,15424,1589274133285027158,,0.123755510697,-5.26943388746,2.77614548236,0.553797081915,0.00675417384553,-0.0350002025016
1589274133288267811,15425,1589274133288193459,,0.123699679206,-5.26940554486,2.77620176737,0.553797116205,0.00674758579279,-0.0350009306512
1589274133291583416,15426,1589274133291457115,,0.122573208157,-5.40215544117,2.82296340087,0.558045006279,0.00806194345121,-0.0331235462204
1589274133297170317,15427,1589274133297079226,,0.121861590781,-5.53482419501,2.84646739464,0.563338038903,0.00739098341593,-0.0303111056105
1589274133300102815,15428,1589274133299987037,,0.121890288942,-5.53479913328,2.84651489677,0.563337911229,0.00739266551474,-0.0303130681905
1589274133303155369,15429,1589274133302988541,,0.12186478711,-5.53481186456,2.84649123368,0.565167577089,0.0073872707084,-0.0302807103751
1589274133306106731,15430,1589274133306016955,,0.0980459864364,-5.66739339625,2.86963222146,0.567706534617,0.00671844886871,-0.0267616977111
1589274133308965453,15431,1589274133308865173,,0.0980462050738,-5.66733243907,2.8697525985,0.567706532806,0.00671788320519,-0.0267618781418
1589274133315033088,15432,1589274133314896582,,0.0748779289704,-5.66726008335,2.86935566258,0.56858572435,0.00739774599145,-0.0250805608678
1589274133318083249,15433,1589274133318004668,,0.0752709805143,-5.53465414827,2.86903332435,0.568568190527,0.00740840210395,-0.024177121554
1589274133324155736,15434,1589274133324071549,,0.0753988849844,-5.53465559476,2.86902717542,0.568587065744,0.0080813141913,-0.0250790290727
1589274133327198039,15435,1589274133327080801,,0.0755457137724,-5.53469997601,2.8689376951,0.568586540444,0.00809241430897,-0.0250873578925
1589274133330018240,15436,1589274133329922181,,0.0756352782484,-5.53469207625,2.8689505753,0.56862149375,0.00810623770832,-0.0268878773182
1589274133333188197,15437,1589274133333082148,,0.121757887947,-5.53492017029,2.89288210224,0.569400516579,0.00744924953572,-0.02749150219
1589274133336087889,15438,1589274133336000558,,0.122772923518,-5.26971808766,2.86894476429,0.566872091613,0.00746154318455,-0.0311656596654
1589274133339428290,15439,1589274133339332836,,0.123283192924,-5.26960109009,2.84584238014,0.565201138103,0.00747394941939,-0.032109603616
1589274133342072265,15440,1589274133341960715,,0.123379246943,-5.26961820558,2.84580652466,0.565200764903,0.00748188836309,-0.0321143235356
1589274133345151721,15441,1589274133345041341,,0.123106077258,-5.40222074226,2.8461132865,0.56340473565,0.00681532857258,-0.0339554284529
1589274133348094071,15442,1589274133347999621,,0.146462299698,-5.2697483365,2.8460955546,0.564392658739,0.00680466937523,-0.0374202240696
1589274133351061483,15443,1589274133350961900,,0.146361901533,-5.26972487224,2.84614416463,0.564392663065,0.00679243682678,-0.0374223811912
1589274133354074888,15444,1589274133353930466,,0.146457022344,-5.40221840262,2.82334258708,0.563677445421,0.00678847135039,-0.0401575270921
1589274133357289769,15445,1589274133357156163,,0.169983775873,-5.2696843987,2.82344014125,0.563726674223,0.00611824898011,-0.0427262047372
1589274133360014625,15446,1589274133359941295,,0.169875688184,-5.26966147612,2.82348942885,0.563727004843,0.00610786514321,-0.0427233281299
1589274133363024501,15447,1589274133362919292,,0.170182905666,-5.26957918237,2.80023573475,0.563883419596,0.00609964498795,-0.0436284999214
1589274133366029765,15448,1589274133365940954,,0.169707286701,-5.26966742595,2.82348845116,0.563763830492,0.00609548336643,-0.0445321708399
1589274133369007645,15449,1589274133368926856,,0.192842577007,-5.26974697894,2.82387728039,0.563797128505,0.00609076686011,-0.0461922804096
1589274133375216291,15450,1589274133375111881,,0.193000887378,-5.13721053914,2.82346478153,0.563816946712,0.00674894074035,-0.0470951429308
1589274133378182816,15451,1589274133378076914,,0.169495483956,-5.26969789729,2.82344430251,0.562862508359,0.00607696019808,-0.0454484373666
1589274133381141119,15452,1589274133381049063,,0.192901517613,-5.13720407339,2.82348333649,0.563815102338,0.00606740583586,-0.0470995754068
1589274133384157990,15453,1589274133384052534,,0.192597462297,-5.26976853182,2.82385378779,0.563796841131,0.0060607159924,-0.0461997399684
1589274133387465185,15454,1589274133387350651,,0.19258869642,-5.26976079524,2.82386882331,0.563796700358,0.00605857937791,-0.0462017380832
1589274133390319426,15455,1589274133390246447,,0.19253603388,-5.26972395998,2.82394115335,0.563796298181,0.00604903899766,-0.0462078954942
1589274133393156344,15456,1589274133393064828,,0.169307435856,-5.26963586916,2.82357135127,0.562861171408,0.006044627519,-0.0454693019499
1589274133396333409,15457,1589274133396165256,,0.169201173933,-5.2696030823,2.82363891014,0.562861707767,0.00603566952149,-0.0454638520543
1589274133402080352,15458,1589274133401912140,,0.192503793152,-5.26962144773,2.82413463977,0.56376024628,0.00604148017388,-0.0444032562461
1589274133405068446,15459,1589274133404957919,,0.122114692929,-5.40206675027,2.84644826432,0.566258376944,0.0053790598429,-0.03935525345
1589274133408081974,15460,1589274133407949011,,0.12214369272,-5.40204622573,2.84648597176,0.566258600912,0.0053838971639,-0.0393513692629
1589274133411036501,15461,1589274133410908634,,0.145420942578,-5.40209541773,2.84692283052,0.567176766147,0.0060469178308,-0.0391822689749
1589274133414095791,15462,1589274133414011307,,0.145194030509,-5.40215794055,2.87010696229,0.570668285596,0.0067263412664,-0.038221749656
1589274133417116611,15463,1589274133417019023,,0.145349017034,-5.40216125224,2.87009288424,0.570668244322,0.0067441476402,-0.0382192280667
1589274133420087007,15464,1589274133420000311,,0.12201790325,-5.53470334649,2.86999136769,0.570633617316,0.00608796368978,-0.0365615862875
1589274133423241397,15465,1589274133423122528,,0.144617891454,-5.66743482895,2.89390812158,0.574130839459,0.00608770231233,-0.0354441194358
1589274133426041192,15466,1589274133425969206,,0.144691054466,-5.66745289881,2.89386907611,0.574130629814,0.00609416667144,-0.0354464043648
1589274133429132937,15467,1589274133428998198,,0.121565234217,-5.66741204015,2.89341473979,0.5750350973,0.00609717134691,-0.0346798867602
1589274133435138295,15468,1589274133435027822,,0.121261844807,-5.66757026458,2.91651578841,0.577602775297,0.00677006709834,-0.032831830648
1589274133438145933,15469,1589274133438065283,,0.121298417234,-5.66758295116,2.91648961402,0.579449743593,0.00677020830858,-0.0337066796963
1589274133441090317,15470,1589274133441002916,,0.121182058267,-5.66758414313,2.91649213478,0.579449964001,0.00675910308574,-0.0337051193576
1589274133444200982,15471,1589274133444098442,,0.121063018254,-5.66759123744,2.91648329223,0.579450431704,0.00675020717037,-0.0336988609265
1589274133447227715,15472,1589274133447044007,,0.1213992997,-5.66751327495,2.89322340716,0.578678629471,0.00674446035513,-0.0337096812284
1589274133450088490,15473,1589274133450016678,,0.144770197926,-5.53497378638,2.89331789489,0.57871136809,0.00673654636387,-0.0353677910355
1589274133453151793,15474,1589274133453069121,,0.144415945505,-5.66756030796,2.8936724558,0.577790324934,0.00606318111283,-0.0353791695465
1589274133456126773,15475,1589274133456027870,,0.144628905899,-5.53498192356,2.89330939452,0.57688050666,0.00605828056634,-0.0353963321572
1589274133459486318,15476,1589274133459418135,,0.145018593713,-5.53490965796,2.87013467399,0.574337247328,0.00673185306851,-0.0381592986797
1589274133465127389,15477,1589274133465006959,,0.14494350189,-5.53492080581,2.87011696902,0.574337317882,0.00672400452406,-0.0381596205589
1589274133468056722,15478,1589274133467976427,,0.168411600563,-5.40239172216,2.87020672587,0.572566548216,0.00671905071833,-0.0416719243354
1589274133471069702,15479,1589274133470964993,,0.168756108735,-5.40234470277,2.84698514816,0.571815567094,0.00671239273821,-0.0425917606985
1589274133474147405,15480,1589274133473954181,,0.191925857925,-5.40242018727,2.84738053583,0.571848780033,0.00671058482126,-0.0442626453427
1589274133477154952,15481,1589274133477065035,,0.192253085571,-5.40232071205,2.82426089962,0.570204734513,0.00603770289934,-0.0460974815808
1589274133480117117,15482,1589274133480040089,,0.215790405112,-5.2698267774,2.82429255836,0.568426613829,0.00603901731523,-0.048707967693
1589274133483099182,15483,1589274133483022738,,0.215820371493,-5.26984355303,2.82425896683,0.568444364412,0.00604140786559,-0.0496149867866
1589274133486219809,15484,1589274133486152377,,0.215761488418,-5.26983075428,2.82428734715,0.566632977463,0.00603832594567,-0.0505502043539
1589274133489238440,15485,1589274133489149703,,0.215717921009,-5.2698404737,2.82427253965,0.566633535952,0.00603707006483,-0.0505440937079
1589274133495134452,15486,1589274133494977432,,0.216117048577,-5.26972973067,2.80106669186,0.564958380045,0.00537919563837,-0.0514879314997
1589274133498249040,15487,1589274133498133498,,0.239231478532,-5.13731281647,2.8243722239,0.568514123298,0.00603696471356,-0.0530951885619
1589274133504140403,15488,1589274133504028354,,0.239283424968,-5.13730608821,2.82438006159,0.568514034863,0.00604245911475,-0.0530955104647
1589274133507149515,15489,1589274133507007741,,0.215741823441,-5.13733848873,2.84709294056,0.568311634462,0.0060516561632,-0.0505173339758
1589274133510096248,15490,1589274133510018353,,0.215799307821,-5.13732347105,2.84711568203,0.568311749522,0.00605902084205,-0.0505151567468
1589274133513078457,15491,1589274133513000402,,0.21581879636,-5.13731815481,2.84712379741,0.567420300741,0.00606330012713,-0.0514440300651
1589274133516147504,15492,1589274133516031796,,0.169100149925,-5.26972197656,2.84671249225,0.567369772201,0.00540695258844,-0.0490121227767
1589274133519381763,15493,1589274133519264557,,0.192436162878,-5.26978151399,2.84712659992,0.567368163532,0.00607859976682,-0.0488687304872
1589274133522089815,15494,1589274133522010005,,0.192607110221,-5.26978368356,2.84711102479,0.567367259314,0.00609236860048,-0.0488775131076
1589274133525159340,15495,1589274133525038263,,0.192713146033,-5.26978187823,2.84710719102,0.569178126905,0.00609680079277,-0.0479490963839
1589274133528055308,15496,1589274133527992572,,0.192176862795,-5.40246211191,2.87057150561,0.572615344151,0.00676975033949,-0.0442680093169
1589274133531164947,15497,1589274133531080795,,0.191892906187,-5.40260190952,2.89361581354,0.57338333139,0.00677907792446,-0.0442625995471
1589274133534061604,15498,1589274133533993316,,0.191943227402,-5.40262538799,2.89356863942,0.57338297897,0.0067826076531,-0.0442666239156
1589274133537054413,15499,1589274133536978524,,0.169155298103,-5.40250324051,2.86995307583,0.573517805525,0.00611666066935,-0.0435011525922
1589274133540144916,15500,1589274133540062366,,0.168452356228,-5.53514352241,2.8935053351,0.575172424301,0.00677986603919,-0.0416496266584
1589274133543092259,15501,1589274133543021685,,0.168417759399,-5.53514091124,2.89351234407,0.575172656876,0.00677772543165,-0.0416467631401
1589274133546390104,15502,1589274133546330809,,0.167669354382,-5.66779616952,2.91714384241,0.576852997748,0.00609911820462,-0.041617687646
1589274133549226627,15503,1589274133549072378,,0.167177305291,-5.66789245372,2.94027848137,0.577605815802,0.00675964746023,-0.0406971710047
1589274133552571607,15504,1589274133552500300,,0.167078541881,-5.66788676283,2.94029506528,0.579382308652,0.0067458716749,-0.0379414536445
1589274133558130342,15505,1589274133558043244,,0.167009068022,-5.66787525911,2.94032118735,0.579382441345,0.00673903340476,-0.0379406425738
1589274133564414162,15506,1589274133564314161,,0.167349910141,-5.66778447419,2.91718490854,0.581363335405,0.00672924677668,-0.0379038710215
1589274133567106370,15507,1589274133567032247,,0.143515229985,-5.66777576998,2.93998785737,0.58121552692,0.00672147627968,-0.0380425792649
1589274133570103864,15508,1589274133570026045,,0.143437345463,-5.66774407213,2.94005276522,0.581215504537,0.00671205005229,-0.0380445854652
1589274133573134038,15509,1589274133573057962,,0.144058168081,-5.53511099818,2.91648600421,0.579606894428,0.00604441343271,-0.0416953672699
1589274133576090271,15510,1589274133576019638,,0.191162758559,-5.40257338819,2.89371739144,0.57522414334,0.00604452577555,-0.0442031308575
1589274133579122442,15511,1589274133579058446,,0.191146003978,-5.4025998371,2.89366911754,0.575224080705,0.0060425217338,-0.0442042199281
1589274133585116735,15512,1589274133585031497,,0.214315798976,-5.27023211084,2.91689300525,0.576046704412,0.00604320680531,-0.0467649594863
1589274133591460578,15513,1589274133591363324,,0.285092582932,-5.13769258717,2.87137539114,0.566485982378,0.00606581612278,-0.0582780780064
1589274133594238232,15514,1589274133594121469,,0.261892199164,-5.13762237503,2.8709641035,0.563767849245,0.00606923313239,-0.0593756753578
1589274133597212718,15515,1589274133597123970,,0.285110618326,-5.13766249334,2.87142744602,0.562916696527,0.00541294021546,-0.0628770615279
1589274133600078207,15516,1589274133600011822,,0.285111560128,-5.13761924987,2.87150472395,0.562916586706,0.0054115192243,-0.0628781670187
1589274133603086721,15517,1589274133603003527,,0.285513596447,-5.13751649675,2.84837732835,0.55941647286,0.0047511527484,-0.0638453164259
1589274133606270713,15518,1589274133606196470,,0.286258556593,-5.004883779,2.82482404223,0.558703587332,0.00476449316087,-0.0665670942559
1589274133610068357,15519,1589274133610006006,,0.286385340695,-5.00483906071,2.82489042002,0.558703246919,0.00477666642644,-0.0665690789317
1589274133615134377,15520,1589274133615061841,,0.309859093405,-5.13732884655,2.80251166245,0.558922723369,0.00477872100624,-0.0700495835493
1589274133618086811,15521,1589274133618004288,,0.309881492467,-5.13728276733,2.80259365278,0.558923364511,0.00478307452021,-0.0700441705639
1589274133621081136,15522,1589274133620992184,,0.310225045737,-5.00473406797,2.8021905191,0.558920937806,0.0041230599803,-0.0700506465875
1589274133623930174,15523,1589274133623829301,,0.286782937469,-5.13723078828,2.80212675831,0.557968669662,0.00480344987839,-0.0683978008053
1589274133626955110,15524,1589274133626877512,,0.286627898806,-5.00476460744,2.82499772456,0.558738752811,0.00413488302984,-0.0683874687432
1589274133630143316,15525,1589274133630069578,,0.287167803462,-5.00466826463,2.80174490711,0.55886888376,0.0048141090536,-0.0674849407058
1589274133633136352,15526,1589274133633069194,,0.287082837721,-4.87229393582,2.82446315417,0.560541217347,0.00482139008321,-0.0665467787674
1589274133636107164,15527,1589274133636039653,,0.286904581047,-5.00481705664,2.82487671643,0.560522444093,0.00482590629292,-0.065644702929
1589274133638950578,15528,1589274133638872141,,0.28714799465,-4.87233418004,2.82438710682,0.562314866276,0.00482465640595,-0.0638064039994
1589274133642088815,15529,1589274133642028077,,0.263939326474,-4.87230675798,2.82390726705,0.562280849782,0.00482262201816,-0.0621334876428
1589274133645204252,15530,1589274133645093685,,0.263688264062,-5.00481978451,2.82434304324,0.562262193852,0.00481840853879,-0.0612323740791
1589274133648031949,15531,1589274133647948598,,0.239945462038,-5.00485933463,2.8470583297,0.562980171686,0.00548027233268,-0.0586392695588
1589274133651076822,15532,1589274133650998757,,0.262981774591,-5.137467526,2.84786621375,0.563852016987,0.00613385137108,-0.0566744689973
1589274133654187272,15533,1589274133654084717,,0.238956944695,-5.27003991245,2.87099882682,0.565488864086,0.00612391874484,-0.0540633048986
1589274133657226471,15534,1589274133657142300,,0.214984589827,-5.40263623547,2.89409959712,0.567098133274,0.00611121459634,-0.050549319113
1589274133660189657,15535,1589274133660113150,,0.214466678734,-5.40273561807,2.91733721036,0.569675459449,0.00676502309651,-0.048694518626
1589274133663144635,15536,1589274133663076722,,0.214034427542,-5.53528389511,2.91775511002,0.571487127057,0.00674367456658,-0.0477480228382
1589274133666051605,15537,1589274133665993146,,0.213959277385,-5.53528057337,2.9177669234,0.571487404279,0.00673708746708,-0.0477456346233
1589274133669134152,15538,1589274133669057545,,0.166573710729,-5.53532297608,2.96324869452,0.573850591135,0.0067261651175,-0.0434726938585
1589274133675131978,15539,1589274133675066557,,0.142844774652,-5.66787220094,2.96313052699,0.576531768659,0.00670740568169,-0.0399369654043
1589274133678263292,15540,1589274133678113268,,0.142820771072,-5.66790231285,2.96307408533,0.578345193695,0.00737093424769,-0.0389896091445
1589274133681146011,15541,1589274133681061494,,0.142839691677,-5.66793715633,2.96300652214,0.581950933904,0.00736224470027,-0.0362198818155
1589274133684240928,15542,1589274133684143528,,0.142811340394,-5.66794131264,2.96299993813,0.581950755786,0.00735735004488,-0.036223738042
1589274133687283881,15543,1589274133687222453,,0.142774072608,-5.6679518351,2.96298160558,0.58195087816,0.00735433823755,-0.0362223836261
1589274133690505689,15544,1589274133690374103,,0.119500931034,-5.66789571168,2.96255800065,0.582855669572,0.00734347608085,-0.0354528622086
1589274133693092756,15545,1589274133693002317,,0.142747736976,-5.6679555809,2.96297570903,0.581987520149,0.00800814613476,-0.0380368282125
1589274133695998264,15546,1589274133695906403,,0.142847334283,-5.66792699645,2.96302558846,0.581987133526,0.008015821605,-0.0380411267949
1589274133699042007,15547,1589274133698965508,,0.189824055834,-5.66791805551,2.94079758537,0.579436469076,0.00802606042518,-0.0405081068182
