%time,field.header.seq,field.header.stamp,field.header.frame_id,field.vector.x,field.vector.y,field.vector.z
1589274131841661808,15119,1589274131841519349,,0.501115327373,-0.200893349324,0.219858146912
1589274131847735860,15120,1589274131847540974,,0.501115335401,-0.200892650654,0.219857148303
1589274131853730219,15121,1589274131853591236,,0.50111514899,-0.200888560751,0.21985471791
1589274131859797104,15122,1589274131859607262,,0.5011147406,-0.200886780249,0.219852517696
1589274131865722116,15123,1589274131865603805,,0.501114558329,-0.200882461416,0.219848924777
1589274131871737184,15124,1589274131871590109,,0.5011139815,-0.200881846372,0.219847047883
1589274131877770873,15125,1589274131877594658,,0.501113157158,-0.200876500876,0.219842032886
1589274131883687046,15126,1589274131883550832,,0.501113183628,-0.200873335346,0.219839659262
1589274131890131233,15127,1589274131889939080,,0.501112304344,-0.200867688066,0.219834326629
1589274131895835957,15128,1589274131895528743,,0.501111711827,-0.200862197451,0.219830901951
1589274131901751305,15129,1589274131901563553,,0.501110800404,-0.200831592462,0.219817595522
1589274131907677067,15130,1589274131907546442,,0.501109642667,-0.200812330103,0.219808915948
1589274131913732279,15131,1589274131913578403,,0.501105023414,-0.200805906326,0.219795757563
1589274131919686860,15132,1589274131919582735,,0.501101425026,-0.200802806385,0.219788078273
1589274131925752671,15133,1589274131925623748,,0.501097790392,-0.200795985213,0.219776911554
1589274131931710668,15134,1589274131931584282,,0.501097758283,-0.200792657316,0.219774548281
1589274131937729832,15135,1589274131937578925,,0.501096655905,-0.200788058581,0.219769384819
1589274131943845257,15136,1589274131943553512,,0.501096128926,-0.200785874364,0.219766765595
1589274131949747501,15137,1589274131949601244,,0.501096475321,-0.200781833406,0.219763953839
1589274131955748097,15138,1589274131955609681,,0.501097151586,-0.200780073459,0.219763851858
1589274131961789541,15139,1589274131961601186,,0.501097031437,-0.20077923415,0.219762878717
1589274131967756574,15140,1589274131967640479,,0.501097905985,-0.200776599544,0.219761454551
1589274131973831300,15141,1589274131973639709,,0.501098441685,-0.200772536184,0.219760463729
1589274131979843286,15142,1589274131979598017,,0.50109822914,-0.200771410276,0.219759628266
1589274131985802310,15143,1589274131985673973,,0.50109817773,-0.200769860212,0.21975811081
1589274131991817889,15144,1589274131991601569,,0.501097693056,-0.200768841057,0.219756074095
1589274131997893217,15145,1589274131997652404,,0.501097321083,-0.200770971071,0.219755742903
1589274132003776489,15146,1589274132003618653,,0.501097699775,-0.200769064271,0.219754993282
1589274132009831787,15147,1589274132009647836,,0.501097278523,-0.200768915569,0.219754945985
1589274132015677789,15148,1589274132015573757,,0.501096960364,-0.200769019416,0.219753808582
1589274132021860659,15149,1589274132021650852,,0.501096943553,-0.200769090689,0.219753154802
1589274132027684507,15150,1589274132027576411,,0.501096488553,-0.200769041146,0.219752687143
1589274132033695100,15151,1589274132033560134,,0.501096099425,-0.200770048741,0.219752418626
1589274132039706796,15152,1589274132039569816,,0.50109604847,-0.200770519217,0.219750267162
1589274132045703421,15153,1589274132045543616,,0.501094963511,-0.200771245541,0.21974827934
1589274132048701374,15154,1589274132048593327,,0.50109425379,-0.200770525598,0.219746302987
1589274132054848333,15155,1589274132054658184,,0.501093209734,-0.200771250139,0.219744399116
1589274132060667396,15156,1589274132060578670,,0.501091787631,-0.200771032368,0.219742072395
1589274132066750316,15157,1589274132066616065,,0.501091469757,-0.20077113735,0.219740930872
1589274132072719287,15158,1589274132072563063,,0.501089990695,-0.2007719706,0.219739214715
1589274132081738976,15159,1589274132081608863,,0.501087849591,-0.200770732132,0.219735235932
1589274132088091429,15160,1589274132087850897,,0.501085975904,-0.200770167818,0.219730487207
1589274132093750265,15161,1589274132093592243,,0.501082123778,-0.200769144607,0.21972503228
1589274132099756959,15162,1589274132099655525,,0.501080464786,-0.200769183849,0.219721437555
1589274132105761027,15163,1589274132105615002,,0.501078592046,-0.200767622017,0.219717672368
1589274132111717754,15164,1589274132111623825,,0.50107317251,-0.200767025764,0.219709542781
1589274132117787535,15165,1589274132117625507,,0.501071284998,-0.200765862863,0.219704960069
1589274132123846366,15166,1589274132123589087,,0.501065698246,-0.200763367462,0.219695688783
1589274132129669668,15167,1589274132129530925,,0.501063279186,-0.200762185255,0.219691090171
1589274132135736686,15168,1589274132135622329,,0.501059287067,-0.20075890797,0.219684152031
1589274132141911601,15169,1589274132141649615,,0.501058176905,-0.200757732631,0.219679959992
1589274132147694666,15170,1589274132147596207,,0.50105539867,-0.200755698934,0.219673673861
1589274132153789238,15171,1589274132153635750,,0.501054237906,-0.200753846418,0.219670688777
1589274132159751665,15172,1589274132159634601,,0.501053689589,-0.200749945855,0.219668367756
1589274132165693056,15173,1589274132165587289,,0.501052565337,-0.200742870023,0.219661402182
1589274132171682215,15174,1589274132171524145,,0.501051699666,-0.200733821148,0.219656960297
1589274132177742971,15175,1589274132177623840,,0.501051987181,-0.200708796146,0.219648309659
1589274132183739883,15176,1589274132183581511,,0.501050325866,-0.200700147566,0.219642158131
1589274132190051739,15177,1589274132189927555,,0.501048480827,-0.200692520052,0.219633961418
1589274132195672494,15178,1589274132195558058,,0.501047376591,-0.200688964589,0.219629858048
1589274132201779114,15179,1589274132201589810,,0.501046397129,-0.200674288421,0.219618149634
1589274132204743280,15180,1589274132204610254,,0.501046579749,-0.200663559561,0.219612856308
1589274132210733272,15181,1589274132210628397,,0.501047260135,-0.200658054509,0.219610001881
1589274132216731960,15182,1589274132216595247,,0.501047685798,-0.200652554666,0.219607238651
1589274132222788067,15183,1589274132222593849,,0.501048970551,-0.200642997387,0.219602944
1589274132225660242,15184,1589274132225582703,,0.501050170303,-0.200635341319,0.219600454486
1589274132228709493,15185,1589274132228586405,,0.501050777662,-0.200623618738,0.219594598742
1589274132231729014,15186,1589274132231587959,,0.501051694588,-0.200615882461,0.219591659318
1589274132237740692,15187,1589274132237618530,,0.501052200327,-0.200602717407,0.219587454537
1589274132243731194,15188,1589274132243593311,,0.501051715708,-0.200595844858,0.219583769998
1589274132249739703,15189,1589274132249630833,,0.501052900882,-0.200578596966,0.219578714577
1589274132255800057,15190,1589274132255611206,,0.501052936654,-0.200572384895,0.219575605762
1589274132261828528,15191,1589274132261647745,,0.501053994242,-0.200553964167,0.219571784
1589274132267775928,15192,1589274132267671628,,0.501053358228,-0.200547058369,0.219569045085
1589274132273772060,15193,1589274132273607280,,0.50105273583,-0.20053426041,0.219566777348
1589274132279709991,15194,1589274132279603256,,0.501052890468,-0.200529218713,0.219567272101
1589274132282680162,15195,1589274132282568728,,0.501050797005,-0.200516528326,0.219573062154
1589274132285666219,15196,1589274132285574555,,0.501049388165,-0.200510187767,0.219580548281
1589274132288863029,15197,1589274132288736521,,0.50104724574,-0.200502840228,0.219577059829
1589274132294740535,15198,1589274132294594699,,0.501045818482,-0.20049933916,0.21957561887
1589274132297787853,15199,1589274132297698098,,0.501045478871,-0.200493191129,0.21957142018
1589274132303736938,15200,1589274132303601233,,0.501044824322,-0.200489125587,0.219568556565
1589274132309709404,15201,1589274132309603684,,0.501041293091,-0.200484395756,0.219560635083
1589274132312695286,15202,1589274132312633631,,0.501039682539,-0.200480191723,0.219555684561
1589274132315739413,15203,1589274132315584574,,0.501036236036,-0.200474650137,0.219547003834
1589274132321798728,15204,1589274132321663009,,0.501034939943,-0.200470391532,0.219543492746
1589274132324965771,15205,1589274132324741724,,0.501032519637,-0.200464592722,0.219536399186
1589274132330792931,15206,1589274132330665921,,0.50103112183,-0.200460636986,0.219533013892
1589274132336813655,15207,1589274132336661378,,0.501029707685,-0.200454637552,0.219527680317
1589274132342762292,15208,1589274132342631499,,0.501029695334,-0.200451190637,0.21952660846
1589274132348847833,15209,1589274132348682076,,0.501027622336,-0.200444355712,0.219521147474
1589274132354754565,15210,1589274132354630351,,0.501026653881,-0.200439743509,0.219518728912
1589274132360711566,15211,1589274132360595959,,0.501024826111,-0.200431735587,0.219511568455
1589274132363657842,15212,1589274132363562473,,0.501023152468,-0.200429437026,0.219507433636
1589274132366820868,15213,1589274132366650574,,0.501020401316,-0.200422439323,0.21949960168
1589274132369742124,15214,1589274132369611896,,0.501018655073,-0.20041949091,0.219495491086
1589274132372692746,15215,1589274132372600288,,0.501015732974,-0.200412642382,0.219487523889
1589274132375741721,15216,1589274132375634296,,0.501014621236,-0.200409346826,0.219483821247
1589274132381748325,15217,1589274132381618885,,0.501012061535,-0.200402902196,0.219476375406
1589274132388039094,15218,1589274132387883735,,0.501011720587,-0.20039883808,0.219473623101
1589274132393759583,15219,1589274132393651714,,0.501009689096,-0.200390373733,0.219466655671
1589274132399851188,15220,1589274132399675760,,0.501008715076,-0.200386629867,0.219462867229
1589274132405737127,15221,1589274132405633939,,0.501006803933,-0.200377982757,0.21945612121
1589274132411769396,15222,1589274132411662123,,0.501005883829,-0.200374060392,0.21945197041
1589274132417901345,15223,1589274132417723737,,0.501004669163,-0.200367786466,0.219447533008
1589274132420825689,15224,1589274132420621194,,0.501003377395,-0.200359249528,0.219440644546
1589274132423814248,15225,1589274132423678898,,0.501001687952,-0.200354627328,0.219436032298
1589274132429917258,15226,1589274132429739076,,0.501000451018,-0.200349943326,0.219430526486
1589274132432775450,15227,1589274132432647777,,0.500999388146,-0.200343579205,0.219426048803
1589274132441736689,15228,1589274132441633100,,0.500995692972,-0.200318902204,0.219410742862
1589274132444822679,15229,1589274132444696756,,0.500994653094,-0.200310175819,0.219406690325
1589274132450919291,15230,1589274132450674296,,0.500993520987,-0.200302484597,0.219402856588
1589274132456833510,15231,1589274132456684638,,0.500992382469,-0.200293653919,0.219399262029
1589274132462860723,15232,1589274132462690415,,0.50098931363,-0.200274780442,0.219398042326
1589274132468782414,15233,1589274132468661723,,0.500987658429,-0.200264957041,0.21939755022
1589274132474819099,15234,1589274132474679991,,0.500985072659,-0.200242458578,0.219391962309
1589274132480821983,15235,1589274132480664193,,0.50098386058,-0.200234353876,0.219388067402
1589274132483702307,15236,1589274132483597826,,0.500981767258,-0.200215235208,0.219377357634
1589274132487178283,15237,1589274132487033748,,0.500981368222,-0.200208295425,0.219374062402
1589274132492865894,15238,1589274132492706449,,0.500978879058,-0.20018711693,0.219363100796
1589274132501849179,15239,1589274132501684000,,0.500975643654,-0.200156579658,0.219347821439
1589274132507820292,15240,1589274132507675636,,0.500974877065,-0.200146394311,0.219344146233
1589274132513831949,15241,1589274132513684325,,0.50097343983,-0.200125207386,0.219334698746
1589274132519794829,15242,1589274132519676316,,0.500972806031,-0.200116237707,0.21933100838
1589274132525774146,15243,1589274132525675043,,0.500972830672,-0.200092234532,0.219326266935
1589274132531761996,15244,1589274132531660795,,0.50097275689,-0.200079934258,0.219323303233
1589274132537922199,15245,1589274132537693994,,0.500971646956,-0.200052759367,0.219317963774
1589274132543879884,15246,1589274132543693411,,0.500971146736,-0.200043599305,0.219316029748
1589274132549868226,15247,1589274132549772473,,0.500967472203,-0.200024061027,0.219306720707
1589274132555910069,15248,1589274132555778450,,0.500965985838,-0.200012830865,0.219302922656
1589274132561818714,15249,1589274132561679657,,0.500963666649,-0.199991818141,0.21929144997
1589274132567799390,15250,1589274132567663908,,0.500963149917,-0.199980389766,0.219287358345
1589274132573824588,15251,1589274132573745605,,0.500962055197,-0.199969920962,0.219282402936
1589274132579858791,15252,1589274132579725581,,0.500961297529,-0.199959424722,0.219277196847
1589274132582718814,15253,1589274132582601314,,0.500960160991,-0.199948433634,0.219273966488
1589274132585742602,15254,1589274132585642667,,0.50095936942,-0.199938735634,0.219268832963
1589274132589121718,15255,1589274132588914754,,0.500958180285,-0.199928063308,0.219263866395
1589274132594813737,15256,1589274132594693186,,0.500957590949,-0.199915099799,0.219261269566
1589274132600835652,15257,1589274132600666984,,0.500956963978,-0.199902265268,0.219259028758
1589274132603791041,15258,1589274132603659011,,0.500955314752,-0.19988856385,0.219255143063
1589274132609796641,15259,1589274132609705165,,0.500954584017,-0.199871847675,0.219251742099
1589274132615806490,15260,1589274132615667281,,0.500953658899,-0.199837133598,0.219242805003
1589274132621892774,15261,1589274132621738775,,0.500953026099,-0.199817947943,0.219235879154
1589274132627888487,15262,1589274132627705098,,0.500952606358,-0.199781749866,0.21922140734
1589274132633928539,15263,1589274132633758342,,0.500951594296,-0.199764449306,0.219214227625
1589274132639800455,15264,1589274132639675859,,0.500950287559,-0.199749424932,0.219205977811
1589274132646020766,15265,1589274132645824827,,0.500948029613,-0.199715962055,0.219195349549
1589274132651822087,15266,1589274132651675968,,0.50094688017,-0.199701762707,0.219192378007
1589274132657876816,15267,1589274132657711190,,0.500945400899,-0.199687594266,0.219188338697
1589274132663794125,15268,1589274132663689101,,0.500943723972,-0.199672474446,0.219187349578
1589274132669877153,15269,1589274132669742329,,0.500942586792,-0.199660044554,0.219186041573
1589274132675893268,15270,1589274132675760188,,0.500941478394,-0.19964359529,0.219184251086
1589274132681860095,15271,1589274132681702173,,0.500941208107,-0.19961004385,0.219178745711
1589274132688080021,15272,1589274132687923029,,0.500939025327,-0.199568736674,0.219169867969
1589274132693845352,15273,1589274132693712286,,0.500937984993,-0.199546267113,0.219163398017
1589274132696797091,15274,1589274132696676914,,0.500937517248,-0.199523972584,0.219157634266
1589274132699753977,15275,1589274132699666555,,0.500935862377,-0.199500871494,0.219148395542
1589274132702751472,15276,1589274132702649178,,0.500935358421,-0.199471604184,0.219141478602
1589274132705832899,15277,1589274132705750273,,0.500933526112,-0.19944205279,0.219130087195
1589274132708831693,15278,1589274132708702911,,0.500933202794,-0.199382032917,0.219110380545
1589274132711738196,15279,1589274132711649206,,0.50093328084,-0.199347767585,0.219098348985
1589274132717851703,15280,1589274132717694840,,0.500933900265,-0.199287000848,0.219080080997
1589274132723868933,15281,1589274132723733306,,0.500934865381,-0.199256217062,0.219072596039
1589274132729837171,15282,1589274132729731673,,0.500933616167,-0.199226449158,0.219064438936
1589274132732830949,15283,1589274132732670261,,0.500933615672,-0.199198397254,0.219058851241
1589274132735748243,15284,1589274132735676367,,0.500933099607,-0.199171650173,0.219052698505
1589274132738978492,15285,1589274132738894929,,0.500932566803,-0.199146660575,0.219046774051
1589274132744863913,15286,1589274132744691648,,0.500931589261,-0.199124427628,0.219042712775
1589274132750854827,15287,1589274132750717778,,0.500929568285,-0.199103900451,0.219035280575
1589274132756846448,15288,1589274132756669324,,0.50092915856,-0.199083474071,0.21903091694
1589274132759779635,15289,1589274132759684296,,0.50092763464,-0.199063818146,0.219025457925
1589274132762826322,15290,1589274132762696877,,0.500922932969,-0.199020846517,0.219010174274
1589274132768806391,15291,1589274132768683944,,0.500920844179,-0.198997388732,0.219002103641
1589274132771855945,15292,1589274132771704784,,0.500920823179,-0.198947879812,0.218984899887
1589274132777803129,15293,1589274132777690746,,0.500920260503,-0.198917945522,0.218972657542
1589274132780912113,15294,1589274132780743757,,0.500920642482,-0.198891985022,0.21896258549
1589274132787293944,15295,1589274132787081027,,0.500920693116,-0.198860107873,0.218951273812
1589274132792801701,15296,1589274132792698268,,0.500920570861,-0.198827292589,0.218939046114
1589274132795811822,15297,1589274132795689007,,0.500922101584,-0.198755753878,0.218915930909
1589274132798745212,15298,1589274132798652032,,0.500922886207,-0.198721013863,0.21890326283
1589274132801838415,15299,1589274132801712541,,0.50092387084,-0.198686082078,0.218889332712
1589274132804788640,15300,1589274132804686140,,0.500925152435,-0.198649344945,0.218875249943
1589274132807752415,15301,1589274132807668440,,0.500924865002,-0.198616594905,0.218860974637
1589274132810778516,15302,1589274132810679185,,0.500925721077,-0.198581516473,0.218849521736
1589274132813760642,15303,1589274132813673348,,0.500925219055,-0.198553000423,0.218836498942
1589274132816803738,15304,1589274132816646886,,0.500925577293,-0.198500260583,0.218814237309
1589274132819782837,15305,1589274132819659574,,0.500926113447,-0.198473022329,0.218803646111
1589274132822797886,15306,1589274132822698323,,0.500927179675,-0.198421007598,0.21878065423
1589274132828756334,15307,1589274132828654369,,0.500926489618,-0.198396398879,0.218768955804
1589274132831834336,15308,1589274132831731034,,0.500925851047,-0.198367836521,0.218756254093
1589274132834755623,15309,1589274132834671209,,0.50092513722,-0.198344641018,0.218744970838
1589274132837903629,15310,1589274132837750142,,0.500926431313,-0.198320226834,0.218738169541
1589274132843828608,15311,1589274132843709540,,0.500925905662,-0.198268866313,0.218713028956
1589274132846824601,15312,1589274132846708508,,0.500925956707,-0.19824035487,0.218699499716
1589274132849838186,15313,1589274132849745768,,0.500926263239,-0.198210796253,0.21868500507
1589274132852831449,15314,1589274132852735223,,0.50092762363,-0.198179740233,0.218670213331
1589274132855698893,15315,1589274132855623336,,0.500930383735,-0.198111670384,0.218639949415
1589274132861875304,15316,1589274132861746211,,0.50093550847,-0.197999514226,0.218591158442
1589274132864774075,15317,1589274132864677218,,0.500937823091,-0.197963083823,0.218575125012
1589274132870815815,15318,1589274132870681380,,0.500941685149,-0.197874114199,0.218539577233
1589274132873811475,15319,1589274132873662115,,0.500943188062,-0.197833368147,0.218520024821
1589274132876815891,15320,1589274132876717101,,0.500947743378,-0.197753392679,0.21848884689
1589274132879889343,15321,1589274132879750466,,0.500949377886,-0.197714393569,0.218470932407
1589274132882797857,15322,1589274132882693836,,0.500951385427,-0.197641446449,0.218439504445
1589274132885800630,15323,1589274132885711888,,0.500952639889,-0.197609890382,0.218424997243
1589274132888997968,15324,1589274132888854681,,0.500953772753,-0.197543799319,0.218395311932
1589274132891743659,15325,1589274132891629058,,0.500954791609,-0.19750762594,0.218381446479
1589274132894860652,15326,1589274132894692746,,0.500955470535,-0.197474419971,0.218366941329
1589274132897787855,15327,1589274132897676480,,0.50095695297,-0.197439452788,0.218353200378
1589274132903863332,15328,1589274132903713613,,0.500958014217,-0.197405811052,0.218341202882
1589274132909910215,15329,1589274132909771904,,0.500958536305,-0.197367890105,0.218325646902
1589274132912813384,15330,1589274132912713608,,0.500958140818,-0.197330069837,0.218309176739
1589274132915822171,15331,1589274132915673273,,0.50095932853,-0.197291798411,0.218293876149
1589274132919025829,15332,1589274132918922903,,0.500962587149,-0.197207572398,0.218261515464
1589274132921874464,15333,1589274132921748898,,0.500962982476,-0.197166262078,0.218242636038
1589274132924851352,15334,1589274132924739104,,0.500966583231,-0.197073292676,0.218204927711
1589274132930825610,15335,1589274132930693835,,0.500966992726,-0.19702811798,0.218184462596
1589274132936946943,15336,1589274132936756552,,0.5009694294,-0.196939013528,0.21814717794
1589274132942816776,15337,1589274132942702086,,0.500970845983,-0.196893019358,0.218128726103
1589274132946029998,15338,1589274132945906489,,0.500974351434,-0.196795993172,0.21809225296
1589274132954845395,15339,1589274132954737322,,0.500978417677,-0.196660413892,0.218035180216
1589274132960827201,15340,1589274132960740441,,0.500979409871,-0.196619965479,0.218016809132
1589274132967056849,15341,1589274132966801396,,0.500980965664,-0.196539586324,0.217981201476
1589274132969795054,15342,1589274132969668513,,0.500980380818,-0.196506186573,0.217963682938
1589274132972803632,15343,1589274132972632317,,0.500981024696,-0.196466812047,0.217946401505
1589274132975802254,15344,1589274132975694857,,0.500979715923,-0.196427386423,0.217925166843
1589274132981870900,15345,1589274132981739928,,0.500978924911,-0.19636631047,0.217896017181
1589274132988107131,15346,1589274132987923828,,0.500979331747,-0.196335430218,0.217881878962
1589274132993838538,15347,1589274132993720362,,0.500978044079,-0.196314796012,0.217869165844
1589274132996842905,15348,1589274132996734372,,0.500979724309,-0.196280631777,0.217856294677
1589274132999832858,15349,1589274132999731130,,0.500980692958,-0.196238657703,0.217837810639
1589274133002796741,15350,1589274133002707696,,0.500980054632,-0.196214996662,0.217823949581
1589274133005865542,15351,1589274133005760559,,0.50097979827,-0.196183472875,0.217809642462
1589274133008851119,15352,1589274133008762254,,0.50097998455,-0.196143766617,0.217792293595
1589274133011798231,15353,1589274133011721430,,0.500980276906,-0.196103465981,0.217776586572
1589274133014932717,15354,1589274133014791281,,0.500981302307,-0.196066602944,0.217761813707
1589274133020928168,15355,1589274133020785688,,0.500981651121,-0.196031546242,0.217745605574
1589274133023835754,15356,1589274133023737952,,0.500981317383,-0.195994024324,0.217726652152
1589274133026880703,15357,1589274133026780909,,0.500980246414,-0.195955185219,0.217706009591
1589274133032899006,15358,1589274133032751593,,0.500981541181,-0.195910464541,0.217687832816
1589274133035987238,15359,1589274133035754614,,0.500984513464,-0.19586502404,0.21767064285
1589274133039063018,15360,1589274133038980596,,0.500984884308,-0.195777947981,0.217631556454
1589274133044834777,15361,1589274133044672518,,0.500986948426,-0.195730846597,0.21761366788
1589274133050856396,15362,1589274133050738117,,0.500986423285,-0.195687468202,0.217593605032
1589274133053835384,15363,1589274133053755447,,0.50098744986,-0.195645753454,0.217579126603
1589274133056792941,15364,1589274133056701619,,0.50098857421,-0.195604254189,0.217562761599
1589274133059824359,15365,1589274133059698696,,0.500988530325,-0.195564037328,0.217547522551
1589274133062767621,15366,1589274133062668044,,0.500986493823,-0.195528940519,0.217530674292
1589274133066036288,15367,1589274133065917238,,0.50098406419,-0.195460659634,0.217500995179
1589274133068816816,15368,1589274133068726076,,0.500983172711,-0.195429189212,0.217486509481
1589274133071874356,15369,1589274133071760906,,0.500982843379,-0.195393652585,0.217474358118
1589274133074848343,15370,1589274133074729310,,0.500980397287,-0.195362287409,0.217458859394
1589274133077939045,15371,1589274133077765422,,0.500978223733,-0.195327821117,0.217443519661
1589274133080820715,15372,1589274133080730459,,0.500977922703,-0.195292416677,0.217430577548
1589274133083775742,15373,1589274133083714916,,0.500976908203,-0.195259037458,0.217414715748
1589274133087179761,15374,1589274133087091286,,0.50097572283,-0.195225157836,0.217398109874
1589274133092772159,15375,1589274133092689186,,0.500976117337,-0.195185159191,0.217383131183
1589274133095835619,15376,1589274133095737450,,0.500975620032,-0.195145587248,0.217366697692
1589274133101898913,15377,1589274133101762084,,0.500974947751,-0.195066215615,0.217335901877
1589274133104989649,15378,1589274133104735856,,0.500974514995,-0.195023362089,0.217321350532
1589274133110931687,15379,1589274133110757283,,0.500972606851,-0.194980176661,0.217303270005
1589274133117005854,15380,1589274133116860482,,0.500974140212,-0.194932575248,0.217289502297
1589274133122918500,15381,1589274133122768076,,0.500974057592,-0.194885676901,0.21727371177
1589274133126078814,15382,1589274133125802472,,0.500974951437,-0.194838356065,0.217257685257
1589274133128946789,15383,1589274133128819186,,0.500974893124,-0.194795099368,0.217241823658
1589274133131897892,15384,1589274133131776687,,0.500974686187,-0.194747041492,0.217221378438
1589274133134894281,15385,1589274133134765357,,0.500974845479,-0.194701710376,0.217203301688
1589274133137889159,15386,1589274133137761945,,0.500973918306,-0.194661118578,0.217187762892
1589274133140836741,15387,1589274133140679060,,0.500973977306,-0.19462259289,0.217174244801
1589274133143833259,15388,1589274133143737194,,0.500973633138,-0.194593588945,0.217162489481
1589274133146901350,15389,1589274133146795202,,0.500970718267,-0.194559069208,0.217148323242
1589274133152884128,15390,1589274133152767875,,0.500968175108,-0.194525317089,0.217135327556
1589274133155929106,15391,1589274133155796046,,0.500966386158,-0.194502685622,0.217127546059
1589274133161962151,15392,1589274133161809223,,0.500961570697,-0.194443601186,0.217107843876
1589274133167889477,15393,1589274133167767319,,0.50095903224,-0.194417265037,0.217097428869
1589274133170929658,15394,1589274133170784966,,0.500957668639,-0.194390350027,0.217088134913
1589274133176919586,15395,1589274133176793310,,0.500956268234,-0.194363033286,0.217080484412
1589274133179867579,15396,1589274133179761407,,0.500956146439,-0.194332145855,0.217070619162
1589274133182870296,15397,1589274133182778353,,0.500953513269,-0.194304900708,0.217057594961
1589274133185895843,15398,1589274133185816989,,0.500951392706,-0.194275005193,0.217044376373
1589274133188965406,15399,1589274133188832651,,0.500951519648,-0.19423982357,0.217031481929
1589274133191897891,15400,1589274133191760643,,0.500949644075,-0.194202973183,0.217016408037
1589274133194817745,15401,1589274133194711426,,0.50094926842,-0.194164974191,0.217003456179
1589274133197872171,15402,1589274133197736329,,0.500948191541,-0.194128529556,0.216989091182
1589274133200926822,15403,1589274133200781143,,0.50094679605,-0.194086244511,0.216973283807
1589274133206988973,15404,1589274133206807488,,0.500945628221,-0.194044910034,0.21695757962
1589274133212936104,15405,1589274133212781128,,0.500945245453,-0.194001517708,0.216942117158
1589274133215947558,15406,1589274133215777326,,0.500945878239,-0.193955833425,0.216925957308
1589274133221903967,15407,1589274133221767683,,0.500945559767,-0.193868667393,0.216895925627
1589274133224878552,15408,1589274133224760235,,0.500945061701,-0.193828610215,0.216880437017
1589274133230873194,15409,1589274133230730352,,0.500946892714,-0.193790300719,0.21686770088
1589274133233882577,15410,1589274133233762264,,0.500946954701,-0.19374757221,0.21685162425
1589274133236892961,15411,1589274133236758938,,0.500945851684,-0.193707424937,0.216837334603
1589274133239961287,15412,1589274133239848210,,0.500944970186,-0.193678303079,0.216826397278
1589274133242922716,15413,1589274133242785298,,0.500942908367,-0.193645063477,0.216813281588
1589274133245849540,15414,1589274133245754362,,0.500939633525,-0.193613202855,0.216798383607
1589274133248875822,15415,1589274133248762870,,0.5009369156,-0.1935882166,0.216787052705
1589274133254916672,15416,1589274133254811882,,0.500932206222,-0.193550611234,0.216767698826
1589274133258012557,15417,1589274133257832663,,0.500931492273,-0.193526497607,0.21675818993
1589274133263900053,15418,1589274133263782971,,0.500929420054,-0.193513644455,0.21675051941
1589274133266898833,15419,1589274133266732770,,0.500926619431,-0.193494102487,0.21674058871
1589274133269884504,15420,1589274133269733744,,0.500923990359,-0.19346973535,0.216729975277
1589274133272857542,15421,1589274133272727431,,0.500923333873,-0.193443529859,0.216723158924
1589274133275865569,15422,1589274133275733808,,0.500922921532,-0.193418688008,0.21671647981
1589274133282010210,15423,1589274133281863727,,0.500920468685,-0.193368749123,0.216696926294
1589274133284972143,15424,1589274133284799654,,0.500920347722,-0.193340862924,0.216685226253
1589274133288096111,15425,1589274133287984967,,0.500919856179,-0.193310081058,0.216672837608
1589274133291245913,15426,1589274133291164593,,0.500918619846,-0.193277737119,0.216661507146
1589274133296978511,15427,1589274133296776614,,0.500918683303,-0.193244542437,0.216650975171
1589274133299927294,15428,1589274133299782125,,0.500917686129,-0.19320925521,0.216638141496
1589274133302908977,15429,1589274133302783686,,0.500917431395,-0.19317344042,0.216625973407
1589274133305885234,15430,1589274133305788227,,0.500916409754,-0.19313426419,0.216610666034
1589274133308868291,15431,1589274133308743525,,0.500916440601,-0.193099200785,0.216597738102
1589274133314800926,15432,1589274133314705909,,0.500916758556,-0.193013759506,0.216570251532
1589274133317883038,15433,1589274133317766658,,0.500917907266,-0.192967847745,0.216556589708
1589274133323943653,15434,1589274133323820683,,0.500918811576,-0.192920117705,0.216543835226
1589274133327002916,15435,1589274133326843617,,0.500917212762,-0.192875990937,0.21652689052
1589274133329848719,15436,1589274133329744499,,0.500918017271,-0.192831676755,0.216517372379
1589274133333028205,15437,1589274133332818134,,0.500917777174,-0.192791773503,0.216504734444
1589274133335931319,15438,1589274133335765637,,0.500917250883,-0.192753296406,0.216490631993
1589274133339234762,15439,1589274133339113769,,0.500916400121,-0.192717125887,0.216477845398
1589274133341902373,15440,1589274133341776546,,0.500914275604,-0.192681627479,0.216463291442
1589274133344948574,15441,1589274133344812435,,0.500913089598,-0.192651687496,0.21645169812
1589274133347945115,15442,1589274133347797249,,0.500912482161,-0.192625965618,0.216442764233
1589274133350916587,15443,1589274133350778977,,0.500909746813,-0.192606785959,0.216432507512
1589274133353859307,15444,1589274133353743284,,0.500907737748,-0.192583825941,0.21642232742
1589274133357012354,15445,1589274133356836812,,0.500906072659,-0.192558873622,0.216413444644
1589274133359841723,15446,1589274133359759522,,0.500903383632,-0.192540898847,0.216406932688
1589274133362913283,15447,1589274133362743974,,0.500900548555,-0.192516653568,0.216400337261
1589274133365828316,15448,1589274133365748592,,0.500897619569,-0.192490912356,0.216391172441
1589274133368851302,15449,1589274133368756221,,0.500896250291,-0.192464599198,0.216381732572
1589274133375005204,15450,1589274133374848161,,0.500894034862,-0.192412561551,0.216360913541
1589274133377884696,15451,1589274133377793888,,0.500893504146,-0.19238544421,0.216349159621
1589274133380892949,15452,1589274133380784498,,0.500892588961,-0.192357736758,0.216337293004
1589274133383876782,15453,1589274133383801810,,0.500892389821,-0.192328082091,0.216325422678
1589274133387284810,15454,1589274133387197024,,0.500891793847,-0.19229715985,0.216314006257
1589274133390270724,15455,1589274133390102038,,0.50088939561,-0.192269349982,0.216299544364
1589274133392909167,15456,1589274133392800745,,0.500887732069,-0.192236332466,0.216285231173
1589274133395924154,15457,1589274133395837703,,0.500889075811,-0.192206914073,0.216278288781
1589274133401885730,15458,1589274133401739367,,0.50088774736,-0.192134859837,0.216251219289
1589274133404936326,15459,1589274133404772493,,0.500889187813,-0.192100594307,0.21624203182
1589274133407904936,15460,1589274133407774889,,0.500890318906,-0.192059141942,0.216230910363
1589274133410897074,15461,1589274133410765963,,0.50089052809,-0.192017601045,0.216216840848
1589274133413958734,15462,1589274133413801643,,0.500890090936,-0.191977182688,0.216204822766
1589274133416960820,15463,1589274133416812428,,0.500891948952,-0.191934935288,0.216195624131
1589274133419879836,15464,1589274133419774500,,0.500891405048,-0.191896503181,0.216182286394
1589274133422980554,15465,1589274133422853158,,0.50089186161,-0.191862036308,0.216170780054
1589274133425852266,15466,1589274133425769666,,0.5008927795,-0.191826685541,0.216158295242
1589274133428917326,15467,1589274133428789361,,0.500891928464,-0.191795572429,0.216144987958
1589274133434893436,15468,1589274133434795299,,0.500889032284,-0.191741721179,0.216120988432
1589274133437944767,15469,1589274133437820670,,0.500888171974,-0.191717704883,0.216111758984
1589274133440933521,15470,1589274133440818167,,0.500887121594,-0.1917025392,0.216104608176
1589274133443991093,15471,1589274133443849635,,0.500885832181,-0.191682035202,0.216097474526
1589274133446941011,15472,1589274133446810824,,0.500884516612,-0.191661067323,0.216089042275
1589274133449861787,15473,1589274133449796228,,0.500883778291,-0.191646265103,0.216084294268
1589274133452956518,15474,1589274133452855134,,0.500882163487,-0.191626335414,0.216077776041
1589274133455900915,15475,1589274133455789784,,0.500880388399,-0.191603619316,0.216068331081
1589274133459268349,15476,1589274133459186061,,0.50087920522,-0.191579394106,0.216059953136
1589274133464842844,15477,1589274133464760739,,0.50087872693,-0.191557537554,0.21605181753
1589274133467868497,15478,1589274133467747505,,0.500878221132,-0.191539992124,0.21604500673
1589274133470907446,15479,1589274133470768086,,0.500876969034,-0.191517357129,0.216034730384
1589274133473934658,15480,1589274133473768221,,0.500876583918,-0.191490871379,0.216024749719
1589274133476963914,15481,1589274133476794243,,0.500876362201,-0.191470532054,0.216016496294
1589274133479982278,15482,1589274133479860706,,0.500875119854,-0.191443177386,0.216005871932
1589274133482976359,15483,1589274133482812513,,0.500873888627,-0.191410875232,0.215992768905
1589274133486006713,15484,1589274133485882195,,0.500872976327,-0.191389913947,0.215984669345
1589274133489081034,15485,1589274133488971707,,0.500873694848,-0.191361530468,0.215978755806
1589274133494845239,15486,1589274133494754315,,0.500873117569,-0.191310974262,0.215960856431
1589274133497978096,15487,1589274133497864542,,0.500873627411,-0.19127949414,0.215951339106
1589274133503981372,15488,1589274133503801651,,0.500873156363,-0.191248274827,0.215941753199
1589274133506916918,15489,1589274133506793247,,0.50087435802,-0.191213750219,0.215933798378
1589274133509942007,15490,1589274133509840383,,0.500873573142,-0.19118143912,0.215925221134
1589274133512944176,15491,1589274133512817934,,0.500872990356,-0.191151192568,0.215915489736
1589274133515895045,15492,1589274133515801642,,0.500872378387,-0.191124999479,0.215905172059
1589274133519072081,15493,1589274133518970623,,0.50087213326,-0.191091411379,0.21589375795
1589274133521918602,15494,1589274133521820365,,0.500871790401,-0.191057053944,0.215880329269
1589274133524950608,15495,1589274133524848826,,0.500871143877,-0.191030342655,0.215868925443
1589274133527878454,15496,1589274133527798812,,0.500871080098,-0.191000317124,0.215857559838
1589274133530956321,15497,1589274133530860665,,0.500869065884,-0.190971040127,0.215845202664
1589274133533875291,15498,1589274133533765486,,0.50086675094,-0.190945109266,0.215835254445
1589274133536861149,15499,1589274133536789275,,0.500865669189,-0.190920871958,0.215830539837
1589274133540017168,15500,1589274133539836423,,0.500863656784,-0.190900341935,0.215825832376
1589274133542932294,15501,1589274133542829216,,0.500862832882,-0.190880222646,0.215820221888
1589274133546141055,15502,1589274133546076947,,0.500860526862,-0.190863161194,0.215813748974
1589274133549016566,15503,1589274133548826252,,0.500859849532,-0.190844514789,0.215808733144
1589274133552388262,15504,1589274133552301561,,0.500858431302,-0.190826211996,0.215802193036
1589274133557956717,15505,1589274133557816973,,0.500857611891,-0.190807160739,0.215795994943
1589274133564192327,15506,1589274133564096845,,0.500856689196,-0.190784789024,0.215789106951
1589274133566891146,15507,1589274133566823467,,0.500855479679,-0.190767544328,0.215784002078
1589274133569946149,15508,1589274133569823714,,0.500853107851,-0.190745418421,0.215774500923
1589274133572907918,15509,1589274133572835411,,0.500852234253,-0.190720140047,0.21576739271
1589274133575928379,15510,1589274133575790474,,0.500850720427,-0.190699828366,0.215760061925
1589274133578936955,15511,1589274133578867963,,0.500850064035,-0.190672893513,0.215750472246
1589274133584925608,15512,1589274133584813948,,0.500848398055,-0.190645578952,0.215739973968
1589274133591290823,15513,1589274133591158503,,0.500848828842,-0.190622663408,0.215732053498
1589274133593996116,15514,1589274133593867396,,0.500848280328,-0.190598395542,0.215720915204
1589274133597019393,15515,1589274133596889861,,0.500848327296,-0.19057025287,0.215709169201
1589274133599918717,15516,1589274133599803414,,0.500847998314,-0.19054702083,0.215701172748
1589274133602954027,15517,1589274133602808339,,0.500848721207,-0.190517994303,0.215693489069
1589274133606039069,15518,1589274133605964166,,0.50084876768,-0.190485649823,0.215685633967
1589274133609908466,15519,1589274133609820559,,0.500849842312,-0.190451002038,0.215677193234
1589274133614921722,15520,1589274133614844871,,0.500849631176,-0.190422686576,0.215669680353
1589274133617913568,15521,1589274133617826962,,0.500852304479,-0.190393411488,0.215663840398
1589274133620917525,15522,1589274133620815964,,0.500851678295,-0.190362626283,0.215653084638
1589274133623814632,15523,1589274133623729493,,0.500853305658,-0.190329255607,0.215644567509
1589274133626904758,15524,1589274133626760322,,0.500853988437,-0.190302290639,0.215636191588
1589274133629981338,15525,1589274133629830642,,0.500853594017,-0.190270397724,0.215625077699
1589274133632941748,15526,1589274133632833933,,0.500852693905,-0.190238434548,0.21561446475
1589274133635872476,15527,1589274133635807572,,0.500852922482,-0.190208859716,0.215605633181
1589274133638878275,15528,1589274133638761295,,0.500851571276,-0.19018457323,0.215597311114
1589274133641894069,15529,1589274133641825934,,0.500851297498,-0.190160269072,0.215589054516
1589274133644956006,15530,1589274133644842096,,0.500850625657,-0.190139379085,0.215580487534
1589274133647957817,15531,1589274133647809955,,0.500849676098,-0.190120331498,0.215573378285
1589274133650912898,15532,1589274133650836510,,0.500848921183,-0.190099699247,0.215565413387
1589274133653970993,15533,1589274133653858803,,0.500847021504,-0.190078988195,0.215559239953
1589274133656968813,15534,1589274133656872007,,0.500846753418,-0.190058050221,0.215555387996
1589274133660006252,15535,1589274133659871620,,0.500845269744,-0.190036775862,0.215547692889
1589274133662941563,15536,1589274133662857908,,0.500844767968,-0.190022868117,0.215541992955
1589274133665862180,15537,1589274133665778414,,0.50084424349,-0.190000867339,0.215535427096
1589274133668938092,15538,1589274133668828996,,0.500844020157,-0.189975360548,0.215525241904
1589274133674904582,15539,1589274133674851262,,0.500842851259,-0.189928040629,0.215509530874
1589274133678002732,15540,1589274133677876434,,0.500843173699,-0.18989919241,0.215500393159
1589274133680995684,15541,1589274133680845310,,0.500842307759,-0.189868884471,0.215488923307
1589274133684015542,15542,1589274133683868678,,0.500842724079,-0.189841231629,0.215477271319
1589274133687214395,15543,1589274133687123968,,0.500843635351,-0.18981210784,0.215468656375
1589274133690234875,15544,1589274133690134895,,0.500843857215,-0.189784931642,0.215457338832
1589274133692875101,15545,1589274133692786425,,0.500844256106,-0.189753128761,0.215447938948
1589274133695857757,15546,1589274133695752050,,0.500844548013,-0.189717457688,0.215436023336
1589274133698950830,15547,1589274133698794247,,0.500845907718,-0.189680485441,0.215427077784
1589274133701853620,15548,1589274133701775407,,0.500847649227,-0.18964198083,0.215416623962
1589274133704907539,15549,1589274133704798828,,0.500848493316,-0.189601367287,0.215407062109
1589274133707914612,15550,1589274133707844226,,0.500850121558,-0.189559406676,0.215396814536
1589274133710913223,15551,1589274133710810127,,0.500851623523,-0.189516328002,0.215383979977
1589274133714087550,15552,1589274133713902715,,0.50085331451,-0.189473108319,0.215373086656
1589274133716933406,15553,1589274133716810462,,0.500855627087,-0.189425461903,0.21536264676
1589274133719930054,15554,1589274133719783762,,0.500856813795,-0.189386091497,0.215350289518
1589274133722973433,15555,1589274133722839371,,0.500856931926,-0.189345411962,0.215337689926
1589274133725928059,15556,1589274133725843135,,0.500858072193,-0.189308221754,0.215326879746
1589274133728891064,15557,1589274133728741476,,0.500858619474,-0.189274850511,0.215316201969
1589274133734979524,15558,1589274133734772063,,0.500857380388,-0.189217979104,0.215296982493
1589274133737997431,15559,1589274133737823859,,0.500856155705,-0.189195103208,0.215289669852
1589274133740931221,15560,1589274133740783622,,0.500854571205,-0.189176798875,0.215282439559
1589274133743844039,15561,1589274133743764304,,0.500854099991,-0.189157616237,0.21527772177
1589274133746895819,15562,1589274133746787639,,0.500854444415,-0.189138458754,0.215273884791
1589274133749954627,15563,1589274133749841891,,0.500854361935,-0.189116685802,0.215266830495
1589274133753019791,15564,1589274133752860762,,0.50085458272,-0.189093865471,0.215262429169
1589274133755907205,15565,1589274133755823966,,0.500855087116,-0.189070960382,0.215257384507
1589274133761958809,15566,1589274133761838502,,0.500856590774,-0.189017167167,0.215242285353
1589274133764874679,15567,1589274133764789532,,0.500857404218,-0.188989252939,0.215233972575
1589274133767878069,15568,1589274133767780133,,0.500857879752,-0.188958662247,0.215222251686
1589274133770893580,15569,1589274133770782974,,0.500858992645,-0.188925457503,0.215212494207
1589274133773901860,15570,1589274133773825657,,0.500861011195,-0.188891230816,0.215203094087
1589274133776879094,15571,1589274133776741353,,0.500861544034,-0.188858022072,0.21519192997
1589274133779933741,15572,1589274133779779987,,0.500863255808,-0.188824906911,0.215181763662
1589274133782893302,15573,1589274133782777820,,0.50086504228,-0.188791010854,0.215170342718
1589274133786283477,15574,1589274133786068872,,0.500867208391,-0.188753745238,0.215162287982
1589274133789012369,15575,1589274133788902651,,0.500870079668,-0.188714201222,0.215151955072
1589274133792751854,15576,1589274133792658263,,0.500872451071,-0.188671080979,0.215141600418
1589274133794902825,15577,1589274133794803333,,0.500875110584,-0.18862923258,0.215130689512
1589274133797963782,15578,1589274133797854727,,0.500877902753,-0.188587890176,0.21512282427
1589274133800965066,15579,1589274133800827756,,0.500881334068,-0.188536295661,0.215111680513
1589274133803869537,15580,1589274133803771678,,0.500884507269,-0.188483857835,0.21509973328
1589274133806972672,15581,1589274133806816556,,0.500887319039,-0.18843741714,0.215089479144
1589274133809942361,15582,1589274133809808005,,0.500889214469,-0.188390680925,0.215077571712
1589274133812854440,15583,1589274133812755310,,0.500891480126,-0.188338477009,0.215065602832
1589274133815894272,15584,1589274133815755556,,0.500892340825,-0.188299812634,0.215054347179
1589274133821879389,15585,1589274133821791519,,0.500893233216,-0.188229831307,0.215034382359
1589274133824850292,15586,1589274133824764276,,0.500893418374,-0.188204231827,0.215026820637
1589274133828040723,15587,1589274133827894386,,0.500892850165,-0.188184255928,0.215020559222
1589274133830878706,15588,1589274133830795472,,0.500892332058,-0.188163975586,0.215012836435
1589274133833919131,15589,1589274133833797889,,0.500890794533,-0.188147795027,0.215006167769
1589274133837067028,15590,1589274133836902363,,0.500889746006,-0.188132674268,0.215003342086
1589274133839976711,15591,1589274133839842975,,0.500888535051,-0.188118601117,0.214999916171
1589274133843031516,15592,1589274133842872024,,0.500888565491,-0.188105559473,0.215001274193
1589274133846177271,15593,1589274133846069923,,0.500888082239,-0.188086867919,0.214998528709
1589274133848977353,15594,1589274133848862135,,0.500887886464,-0.18806236174,0.214992806041
1589274133854985533,15595,1589274133854841403,,0.500890701128,-0.188013146701,0.214981735241
1589274133857909597,15596,1589274133857812482,,0.500892896375,-0.187981864653,0.214973763993
1589274133860935917,15597,1589274133860851627,,0.500894192937,-0.187949094099,0.214964385144
1589274133863992405,15598,1589274133863847946,,0.500893644085,-0.187920026886,0.214951979014
1589274133867035908,15599,1589274133866836915,,0.50089637854,-0.187887528563,0.214942636121
1589274133869948876,15600,1589274133869850490,,0.500897767483,-0.187858100839,0.214933243862
1589274133872985326,15601,1589274133872865273,,0.500899715575,-0.187826912254,0.214923685282
1589274133875959470,15602,1589274133875873440,,0.500900785391,-0.187798622087,0.214913834525
1589274133881946613,15603,1589274133881846810,,0.500904837355,-0.18773100687,0.214898367237
1589274133884971906,15604,1589274133884850372,,0.500907100071,-0.187695144744,0.214891152268
1589274133888088138,15605,1589274133888006012,,0.500909220238,-0.18765712907,0.214883991495
1589274133891267357,15606,1589274133891181013,,0.500911291848,-0.187621677194,0.214877095422
1589274133897000797,15607,1589274133896832939,,0.50091432073,-0.187580189908,0.214866562999
1589274133899950303,15608,1589274133899844686,,0.500916430229,-0.187539018238,0.214857632622
1589274133902917229,15609,1589274133902834595,,0.500919398406,-0.187498214608,0.214851876932
1589274133905987725,15610,1589274133905869424,,0.500922370451,-0.187452700449,0.214843567422
1589274133908995109,15611,1589274133908885918,,0.500923724913,-0.187408026411,0.214833571137
1589274133914917765,15612,1589274133914822528,,0.500928070471,-0.187317986382,0.214810015065
1589274133918039787,15613,1589274133917821038,,0.500929668921,-0.18727720127,0.214797831321
1589274133920902846,15614,1589274133920806475,,0.500931109488,-0.187238013823,0.214786219681
1589274133923968170,15615,1589274133923836921,,0.50093227712,-0.187199129036,0.214774683215
1589274133926986112,15616,1589274133926815751,,0.500932520243,-0.187168344045,0.2147641303
1589274133929957975,15617,1589274133929796622,,0.500932727365,-0.187141138411,0.214758083152
1589274133932863960,15618,1589274133932787425,,0.500931674962,-0.187122847767,0.214753121668
1589274133935973077,15619,1589274133935883093,,0.500931414945,-0.18711275774,0.214752205392
1589274133939391517,15620,1589274133939294107,,0.500930438482,-0.187100940499,0.214750194139
1589274133941955744,15621,1589274133941815438,,0.500929786879,-0.18709203198,0.214747348865
1589274133944956231,15622,1589274133944874074,,0.500928566217,-0.187086586742,0.214746977101
1589274133947984843,15623,1589274133947882098,,0.500927460514,-0.187080354256,0.214746353256
1589274133950945272,15624,1589274133950839656,,0.500925353046,-0.187073027395,0.214743549061
1589274133953914709,15625,1589274133953821615,,0.500924662996,-0.187065179329,0.214741003712
1589274133956918607,15626,1589274133956781602,,0.500924168415,-0.187053832354,0.214736796073
1589274133960032224,15627,1589274133959857742,,0.500924212581,-0.187037525716,0.214731348478
1589274133962954694,15628,1589274133962850140,,0.500923644691,-0.187021916633,0.21472268824
1589274133965956971,15629,1589274133965868126,,0.500923818166,-0.187001790938,0.214716111324
1589274133968948413,15630,1589274133968816137,,0.500925563756,-0.186978883417,0.214710116803
1589274133972859928,15631,1589274133972757497,,0.50092697772,-0.186955299671,0.214702276058
1589274133977994980,15632,1589274133977891437,,0.500928692615,-0.1869350279,0.214694786413
1589274133981045058,15633,1589274133980899488,,0.500931916672,-0.186913088573,0.214688338364
1589274133984054909,15634,1589274133983925753,,0.500932459987,-0.186893046295,0.214680527261
1589274133987480424,15635,1589274133987285664,,0.500934272609,-0.186869827995,0.214675450589
1589274133990325952,15636,1589274133990226824,,0.500935960325,-0.186845869401,0.214670258573
1589274133992971724,15637,1589274133992883011,,0.500937297804,-0.186820190573,0.214664469138
1589274133996125103,15638,1589274133995949694,,0.500939311527,-0.186793240044,0.214658336438
1589274133998996642,15639,1589274133998869728,,0.500942796698,-0.186761236142,0.21465289311
1589274134001991218,15640,1589274134001877084,,0.50094493099,-0.186726986887,0.214644216778
1589274134005094306,15641,1589274134004884644,,0.50094611464,-0.186695839951,0.214635570953
1589274134007989723,15642,1589274134007908431,,0.500947486238,-0.18666689298,0.214626897286
1589274134011083532,15643,1589274134010930717,,0.500949121674,-0.186636256194,0.21462021579
1589274134014038950,15644,1589274134013863662,,0.500950115688,-0.18660148373,0.214609003801
1589274134017107670,15645,1589274134016921709,,0.500950301919,-0.186571101577,0.214599768835
1589274134019968175,15646,1589274134019855986,,0.500950666382,-0.186539907383,0.214591009299
1589274134023009517,15647,1589274134022877830,,0.500951237944,-0.186510981163,0.214583492951
1589274134026258015,15648,1589274134026133908,,0.500951455329,-0.186480618706,0.214576595079
1589274134029022759,15649,1589274134028910842,,0.500952490817,-0.186451196131,0.214568961765
1589274134035000197,15650,1589274134034877796,,0.500952137566,-0.186397158558,0.214555071545
1589274134038011155,15651,1589274134037888654,,0.500952623843,-0.186363993912,0.214547848539
1589274134041022868,15652,1589274134040879984,,0.500953142318,-0.18633283136,0.214540121154
1589274134043999114,15653,1589274134043866947,,0.500952195146,-0.186305438011,0.214533107854
1589274134047012184,15654,1589274134046907564,,0.500951413392,-0.186278253665,0.214526463508
1589274134050092797,15655,1589274134049901046,,0.500950414356,-0.186252627276,0.214520053676
1589274134053028458,15656,1589274134052928047,,0.500949365322,-0.186228126667,0.214513216557
1589274134056132905,15657,1589274134055947531,,0.500948583919,-0.186210582539,0.214508149434
1589274134058971913,15658,1589274134058879700,,0.500946791607,-0.186195307845,0.214502045171
1589274134062059779,15659,1589274134061918358,,0.500944654251,-0.18618379546,0.214497384722
1589274134065064292,15660,1589274134064861440,,0.500942385276,-0.186175408683,0.214492962935
1589274134067993060,15661,1589274134067882027,,0.500938819401,-0.186170601605,0.214488726513
1589274134070996067,15662,1589274134070859231,,0.500936320072,-0.186168527697,0.214486510321
1589274134077042808,15663,1589274134076879126,,0.500933920487,-0.186165304653,0.214485387218
1589274134080005877,15664,1589274134079875985,,0.500931987716,-0.186162326239,0.214485629773
1589274134083027226,15665,1589274134082928142,,0.500930099879,-0.186159459969,0.21448391243
1589274134085999588,15666,1589274134085882978,,0.500927975668,-0.186157425092,0.214481589527
1589274134089244803,15667,1589274134089077491,,0.500926569412,-0.186154967021,0.214480241887
1589274134092750994,15668,1589274134092663069,,0.500924721499,-0.186150448776,0.21447752148
1589274134094922071,15669,1589274134094821148,,0.500923745846,-0.186144825812,0.214475506038
1589274134097959222,15670,1589274134097863798,,0.500921622538,-0.186140893323,0.214471821975
1589274134100956773,15671,1589274134100799372,,0.500920921507,-0.186131666949,0.214467896453
1589274134103963649,15672,1589274134103808856,,0.500920020459,-0.186123891786,0.214464152518
1589274134107036724,15673,1589274134106842392,,0.50092003287,-0.186115684911,0.214459304793
1589274134109953215,15674,1589274134109845967,,0.500920715894,-0.186106819762,0.214455429461
1589274134115984770,15675,1589274134115860133,,0.500920981569,-0.186096993733,0.214450166819
1589274134118964525,15676,1589274134118844551,,0.500922650972,-0.186086025664,0.214446056796
1589274134122053220,15677,1589274134121919665,,0.500923416963,-0.186073467476,0.214441160318
1589274134128038632,15678,1589274134127898879,,0.500925846849,-0.186058686396,0.214437932815
1589274134131043822,15679,1589274134130911329,,0.500927442562,-0.186041630204,0.214433373208
1589274134133923868,15680,1589274134133813321,,0.50092898081,-0.186024179475,0.214427979664
1589274134139920115,15681,1589274134139825180,,0.50093061819,-0.186007145382,0.21442386841
1589274134142974206,15682,1589274134142842687,,0.500932398092,-0.185989010571,0.214418804541
1589274134145912359,15683,1589274134145816236,,0.50093361954,-0.185971175696,0.214414481784
1589274134154979943,15684,1589274134154871099,,0.500936704562,-0.185935447269,0.214405098455
1589274134157968591,15685,1589274134157866689,,0.500938452186,-0.18591843013,0.214401735306
1589274134164062151,15686,1589274134163940609,,0.500938343874,-0.185904376292,0.214396610982
1589274134166971902,15687,1589274134166871952,,0.500938916045,-0.185889492064,0.214390967011
1589274134169972894,15688,1589274134169872647,,0.500938835547,-0.185875212923,0.214384579218
1589274134176031618,15689,1589274134175883402,,0.50093901045,-0.185861846879,0.214380882621
1589274134179248646,15690,1589274134179154156,,0.500939895644,-0.185848361101,0.21437771324
1589274134181923421,15691,1589274134181831382,,0.500939824327,-0.185835307216,0.214373841942
1589274134188179294,15692,1589274134188074246,,0.500940836892,-0.185820979042,0.214371460219
1589274134191257631,15693,1589274134191171635,,0.500941837983,-0.18580652671,0.214368801466
1589274134193980371,15694,1589274134193858737,,0.500941703923,-0.185794814887,0.214365549984
1589274134200012895,15695,1589274134199884833,,0.500941701376,-0.185783201106,0.214362997041
1589274134202952161,15696,1589274134202824232,,0.500941451902,-0.185771040074,0.214359236308
1589274134206094235,15697,1589274134206006226,,0.500941690099,-0.185760124543,0.214355929464
1589274134215025045,15698,1589274134214884974,,0.500940238747,-0.185743530807,0.214349954315
1589274134218064170,15699,1589274134217897692,,0.50093893382,-0.185736578439,0.214347741997
1589274134224033206,15700,1589274134223901980,,0.50093798167,-0.185731641501,0.214344862714
1589274134227054303,15701,1589274134226934433,,0.500936872139,-0.185727157413,0.214343484271
1589274134229965899,15702,1589274134229867243,,0.50093506399,-0.185723793327,0.214340809367
1589274134236006259,15703,1589274134235896244,,0.500934173298,-0.185719630523,0.21433960927
1589274134239016617,15704,1589274134238893502,,0.500933048242,-0.18571788392,0.214337157975
1589274134242066464,15705,1589274134241929495,,0.500932302367,-0.185716776681,0.214337999625
1589274134248145858,15706,1589274134247986442,,0.500930868118,-0.18571472173,0.214336463303
1589274134251049352,15707,1589274134250937645,,0.500930828559,-0.185713965378,0.214336856528
1589274134254149271,15708,1589274134253970962,,0.500929952692,-0.185713430121,0.214336540354
1589274134260021723,15709,1589274134259882611,,0.500929516057,-0.18571199974,0.214336223634
1589274134263076698,15710,1589274134262897434,,0.50092886657,-0.185713773266,0.214335914865
1589274134269036882,15711,1589274134268912271,,0.500928636854,-0.185712269995,0.214335445051
1589274134275005504,15712,1589274134274869829,,0.500927005943,-0.185713738253,0.214334644897
1589274134280953921,15713,1589274134280874132,,0.500926835901,-0.185714779146,0.214335209256
1589274134284067171,15714,1589274134283952230,,0.500925480674,-0.185716597512,0.214334308388
1589274134287340419,15715,1589274134287216422,,0.500924690348,-0.185718327827,0.214333728686
1589274134292941583,15716,1589274134292825608,,0.500924243302,-0.185721968798,0.214334830287
1589274134295957976,15717,1589274134295847022,,0.500923516592,-0.185723497673,0.21433484764
1589274134299029203,15718,1589274134298856440,,0.500922438815,-0.185725765362,0.21433485244
1589274134305004851,15719,1589274134304925773,,0.500921202718,-0.18572939332,0.214335167088
1589274134308002973,15720,1589274134307904421,,0.500919841642,-0.185733007667,0.214334770934
1589274134310955080,15721,1589274134310872543,,0.500918129748,-0.185737042636,0.214335214511
1589274134317171969,15722,1589274134316987147,,0.500916592033,-0.185740933045,0.214335451592
1589274134320084682,15723,1589274134319970129,,0.500914183635,-0.185745176822,0.214335771001
1589274134323006756,15724,1589274134322877839,,0.500911513974,-0.185752191111,0.214337063508
1589274134329071347,15725,1589274134328967703,,0.500908741683,-0.185756754538,0.214337857195
1589274134335076311,15726,1589274134334942392,,0.500902891442,-0.185771798289,0.214338231794
1589274134341041837,15727,1589274134340935202,,0.500900119296,-0.185778292198,0.214337586758
1589274134343997663,15728,1589274134343903076,,0.50089756623,-0.185786504671,0.214337778481
1589274134347062327,15729,1589274134346905518,,0.500895805836,-0.185792617434,0.214337420296
1589274134353010900,15730,1589274134352896626,,0.500894148751,-0.185798598053,0.214338057663
1589274134356034013,15731,1589274134355927308,,0.500891783383,-0.185803844007,0.214336299396
1589274134359470625,15732,1589274134359361146,,0.500890635049,-0.185808091327,0.214337559758
1589274134365026479,15733,1589274134364853948,,0.500889331193,-0.185814135575,0.21433831528
1589274134368044664,15734,1589274134367857988,,0.500887980734,-0.185817781604,0.214338459714
1589274134371020176,15735,1589274134370865534,,0.500886945944,-0.185821776101,0.214338628378
1589274134377068691,15736,1589274134376908005,,0.500885464876,-0.185827028368,0.214339153101
1589274134380136538,15737,1589274134379996645,,0.500884457828,-0.185830509035,0.214338858449
1589274134383001205,15738,1589274134382891712,,0.500883843531,-0.185834221933,0.214339663733
1589274134389232872,15739,1589274134389117329,,0.500883397317,-0.185837346038,0.214340377859
1589274134395021329,15740,1589274134394881839,,0.500882562471,-0.185842885507,0.214339769661
1589274134401208922,15741,1589274134400973440,,0.500882181844,-0.185845207792,0.214339333346
1589274134404090246,15742,1589274134403951688,,0.50088169827,-0.185848240609,0.214339458259
1589274134409998611,15743,1589274134409895003,,0.500881284875,-0.185848797734,0.214338922488
1589274134413035504,15744,1589274134412922698,,0.500881691684,-0.185850737005,0.214340039495
1589274134416060785,15745,1589274134415950025,,0.500881648702,-0.185851222875,0.214340726185
1589274134422082136,15746,1589274134421983443,,0.500881425871,-0.185852507636,0.214340027409
1589274134425091666,15747,1589274134424952146,,0.50088141187,-0.185852054561,0.214339678125
1589274134431050615,15748,1589274134430933159,,0.500881823626,-0.185852119105,0.214340358644
1589274134433934914,15749,1589274134433861943,,0.500882076447,-0.185851473755,0.21434020781
1589274134436969658,15750,1589274134436894742,,0.500882022408,-0.185852946378,0.214340044924
1589274134440042431,15751,1589274134439882527,,0.500882439563,-0.185851818179,0.21433920967
1589274134446024728,15752,1589274134445918983,,0.500882704885,-0.185849336022,0.214339237258
1589274134449021032,15753,1589274134448901266,,0.500882820069,-0.185848769178,0.214338827513
1589274134455080866,15754,1589274134454936322,,0.500883256399,-0.185848138261,0.214338693888
1589274134458056961,15755,1589274134457923114,,0.500884110046,-0.18584672088,0.214338215034
1589274134461048614,15756,1589274134460943350,,0.50088508751,-0.185846235161,0.214338557744
1589274134464130089,15757,1589274134463935958,,0.500886245895,-0.185842003804,0.214337901967
1589274134470071706,15758,1589274134469959364,,0.500886858851,-0.185841679484,0.214336857669
1589274134473184837,15759,1589274134473014039,,0.500888116391,-0.185838512288,0.214336257583
1589274134479148974,15760,1589274134479039479,,0.500889076248,-0.185835502801,0.214335108244
1589274134482089968,15761,1589274134481928580,,0.500890487363,-0.185832155848,0.21433370379
1589274134485154215,15762,1589274134485033966,,0.500892255521,-0.185827597971,0.214331999047
1589274134488307843,15763,1589274134488200006,,0.500894344744,-0.18582450935,0.214331927802
1589274134494119273,15764,1589274134494017477,,0.500896874612,-0.185819099198,0.21433046552
