%time,field.header.seq,field.header.stamp,field.header.frame_id,field.vector.x,field.vector.y,field.vector.z
1589284648579710394,499,1589284648579625374,,-0.0820332422597,-0.032078079345,0.924667405791
1589284648585456421,500,1589284648585379759,,-0.0821344773033,-0.0315524209673,0.924409699712
1589284648588495966,501,1589284648588416680,,-0.0822328070815,-0.0291988064441,0.92379844965
1589284648591524123,502,1589284648591428227,,-0.0823177166893,-0.0289161923875,0.923865233767
1589284648594492515,503,1589284648594389668,,-0.0825194282653,-0.0285176649506,0.923795590403
1589284648597499726,504,1589284648597415726,,-0.0826154418264,-0.0284267151632,0.923891306353
1589284648600690688,505,1589284648600544829,,-0.0828361091373,-0.0283152436841,0.923881791875
1589284648606424153,506,1589284648606337377,,-0.0828623585443,-0.0283602736855,0.924079327075
1589284648609451219,507,1589284648609313817,,-0.0829662107671,-0.0283384237923,0.924230083033
1589284648612696917,508,1589284648612608170,,-0.0830497548024,-0.0283449257357,0.924410002435
1589284648618726970,509,1589284648618656753,,-0.0831164382983,-0.0284641640745,0.92471091955
1589284648624807704,510,1589284648624727559,,-0.0831837260972,-0.0286341830993,0.924763170927
1589284648630696494,511,1589284648630613403,,-0.083259109858,-0.028664157377,0.924909457731
1589284648636833563,512,1589284648636703445,,-0.0832792236357,-0.02888443888,0.925176051248
1589284648642690500,513,1589284648642599289,,-0.083414073918,-0.0290401922767,0.925272757178
1589284648648834122,514,1589284648648745279,,-0.0834813775319,-0.0291369737535,0.925391197375
1589284648654887512,515,1589284648654727128,,-0.0835188214235,-0.0292183775342,0.925465512753
1589284648660639985,516,1589284648660534807,,-0.083689627816,-0.0295684947397,0.925615717664
1589284648666740538,517,1589284648666621010,,-0.0836988316647,-0.0296883328258,0.925854138581
1589284648672711722,518,1589284648672612261,,-0.0839180549799,-0.0304475383835,0.926050150601
1589284648678674132,519,1589284648678562925,,-0.0840332578367,-0.0313679653494,0.926350968133
1589284648684728804,520,1589284648684579969,,-0.0843573528528,-0.0336397883739,0.926882021981
1589284648690905260,521,1589284648690739803,,-0.0845835225302,-0.036088320045,0.92735566989
1589284648696883132,522,1589284648696771980,,-0.0851531426831,-0.0425762926397,0.928856244066
1589284648703028624,523,1589284648702851152,,-0.0853746738254,-0.0430932906701,0.929143121361
1589284648708944189,524,1589284648708802684,,-0.085614159827,-0.046338013525,0.929813155535
1589284648714869948,525,1589284648714782252,,-0.0858125448853,-0.0499972001804,0.930650012097
1589284648720591820,526,1589284648720488352,,-0.0860628451714,-0.0541003194928,0.931387563024
1589284648726479197,527,1589284648726415325,,-0.0866751338125,-0.0595485801635,0.932367997359
1589284648729728528,528,1589284648729655521,,-0.0869650123262,-0.0600988290457,0.932465476055
1589284648732731392,529,1589284648732625488,,-0.0875328812485,-0.0658203180391,0.933430256009
1589284648738737856,530,1589284648738662191,,-0.0877496145271,-0.0713111517267,0.93448547863
1589284648744626884,531,1589284648744549084,,-0.0881139433055,-0.0772843878378,0.935401603634
1589284648750784211,532,1589284648750685432,,-0.0882833798505,-0.0835930019979,0.936609048436
1589284648756884622,533,1589284648756798609,,-0.088702363523,-0.0903608255996,0.9377724284
1589284648762707622,534,1589284648762582110,,-0.0888531496694,-0.0905804936387,0.937682591099
1589284648768628751,535,1589284648768526488,,-0.0891537195672,-0.0978599289558,0.938804520884
1589284648774620453,536,1589284648774556470,,-0.0893437224112,-0.105320230942,0.940169940971
1589284648780742828,537,1589284648780644676,,-0.0896637366902,-0.113781161623,0.941405233672
1589284648786943379,538,1589284648786804811,,-0.0897956498924,-0.122194541072,0.943005352162
1589284648792975348,539,1589284648792848465,,-0.0900544430487,-0.131458683479,0.944599439846
1589284648799032813,540,1589284648798934714,,-0.0902049352949,-0.14060115462,0.946283224669
1589284648804645708,541,1589284648804551095,,-0.0903873857862,-0.150605312846,0.948156403254
1589284648810931967,542,1589284648810782190,,-0.0905081912654,-0.160650795916,0.949963302638
1589284648816821534,543,1589284648816737666,,-0.0907090452392,-0.171283087641,0.951829532562
1589284648822786059,544,1589284648822671726,,-0.0907512858483,-0.17140919686,0.951824058066
1589284648828816461,545,1589284648828730933,,-0.0908958598676,-0.182358112797,0.953793903121
1589284648834891195,546,1589284648834749755,,-0.0909745635567,-0.193639990086,0.955884662236
1589284648840603999,547,1589284648840507744,,-0.0911131998906,-0.205225330479,0.957845783091
1589284648846501487,548,1589284648846393855,,-0.0911345486115,-0.217083549339,0.960187983831
1589284648849512137,549,1589284648849426920,,-0.0912520349339,-0.21728345368,0.959973742909
1589284648852429757,550,1589284648852353138,,-0.0912729184605,-0.229660981827,0.96234232602
1589284648855499675,551,1589284648855421000,,-0.0914063221963,-0.229658513885,0.962033744321
1589284648859075140,552,1589284648858970306,,-0.0914166055744,-0.242470572761,0.964432390462
1589284648864935431,553,1589284648864771809,,-0.0915476554012,-0.255651806691,0.966628959585
1589284648870702260,554,1589284648870600642,,-0.0916774554975,-0.269155027574,0.969119823997
1589284648876885603,555,1589284648876795202,,-0.0917349983175,-0.281804962081,0.971251459431
1589284648882869578,556,1589284648882743636,,-0.0918303635006,-0.283289914595,0.971339537108
1589284648888606927,557,1589284648888494760,,-0.0919969177473,-0.297786707749,0.973656430193
1589284648891613922,558,1589284648891545019,,-0.0920785002143,-0.312564613594,0.97632632388
1589284648897697198,559,1589284648897628700,,-0.0921607733573,-0.327659497401,0.979166549805
1589284648903699500,560,1589284648903596534,,-0.0923735020298,-0.343289137115,0.981649226981
1589284648909481131,561,1589284648909401260,,-0.0925162331873,-0.343633469481,0.981147762984
1589284648913159983,562,1589284648912978167,,-0.0926825698185,-0.359526257087,0.983902439561
1589284648918786080,563,1589284648918695364,,-0.0927571886362,-0.375562099786,0.98685438594
1589284648924741726,564,1589284648924670030,,-0.0929132052056,-0.392307734199,0.989635724166
1589284648930810591,565,1589284648930713500,,-0.0930432613171,-0.409296062859,0.99260297232
1589284648936935381,566,1589284648936841895,,-0.0930632449781,-0.424385292158,0.995486843938
1589284648942909468,567,1589284648942733101,,-0.0932198908669,-0.426899267662,0.995448363764
1589284648948854584,568,1589284648948732712,,-0.0932776582052,-0.444267178577,0.998692418588
1589284648954890379,569,1589284648954800900,,-0.0934707106831,-0.462526805938,1.00184687748
1589284648960603512,570,1589284648960500522,,-0.0934814437319,-0.480890467908,1.00544084961
1589284648966648624,571,1589284648966571215,,-0.0936115370605,-0.499694364764,1.00879653975
1589284648972539697,572,1589284648972471243,,-0.0936962733833,-0.518624294135,1.01240943674
1589284648975952470,573,1589284648975859165,,-0.0938464103804,-0.51894914681,1.01204732068
1589284648982021275,574,1589284648981898332,,-0.0938927120567,-0.538209121817,1.01586376752
1589284648987991047,575,1589284648987869961,,-0.0939845957041,-0.557859544392,1.01961526667
1589284648993921941,576,1589284648993813385,,-0.0940270924738,-0.5777941765,1.02346319642
1589284648999819012,577,1589284648999711102,,-0.0940962043748,-0.598237157828,1.02741366168
1589284649005707306,578,1589284649005608001,,-0.0941835956575,-0.61886347762,1.03137762951
1589284649012273991,579,1589284649012163641,,-0.0942351425447,-0.639712114063,1.03551097708
1589284649017572087,580,1589284649017448516,,-0.094324887432,-0.660954112669,1.03962911268
1589284649023829403,581,1589284649023751558,,-0.0944402214219,-0.682685188809,1.04386105061
1589284649029916442,582,1589284649029769597,,-0.0945655926309,-0.682998922795,1.04383126891
1589284649035830666,583,1589284649035724105,,-0.094582029836,-0.70477942261,1.04823467818
1589284649041689318,584,1589284649041593161,,-0.0947188957889,-0.727033138375,1.05259489976
1589284649047826505,585,1589284649047725462,,-0.0948110066124,-0.749603280501,1.05702374987
1589284649053758839,586,1589284649053618698,,-0.0950245471827,-0.772592885401,1.0615609886
1589284649059633646,587,1589284649059533965,,-0.0951217070429,-0.795812764975,1.06618553818
1589284649065745642,588,1589284649065680465,,-0.0953118455477,-0.819517773224,1.07085943686
1589284649072014078,589,1589284649071880532,,-0.0954230913414,-0.843232500319,1.07556871932
1589284649077972508,590,1589284649077814077,,-0.095465456282,-0.867147873855,1.08037482159
1589284649084100571,591,1589284649083907650,,-0.0956663773013,-0.891621401576,1.08524631626
1589284649089778958,592,1589284649089689219,,-0.0959445972946,-0.892403866189,1.08526378241
1589284649096023915,593,1589284649095916411,,-0.095976912911,-0.916914493806,1.09027405083
1589284649101986556,594,1589284649101836369,,-0.0960628586036,-0.94167873649,1.09527108632
1589284649107838824,595,1589284649107740050,,-0.0962618140725,-0.967046993299,1.10025141337
1589284649113674565,596,1589284649113516408,,-0.0964247471709,-0.992751369654,1.10535923953
1589284649116489539,597,1589284649116414338,,-0.0965230682332,-0.993116385461,1.10534578613
1589284649119617460,598,1589284649119539034,,-0.0965869631018,-1.01885703945,1.1105662153
1589284649122520288,599,1589284649122443259,,-0.0967525850347,-1.01982980527,1.11068781266
1589284649125618667,600,1589284649125529170,,-0.0969295237552,-1.04620537646,1.11593828184
1589284649128687569,601,1589284649128592419,,-0.0969118056321,-1.04664346961,1.11603021499
1589284649131775786,602,1589284649131667744,,-0.0970093381608,-1.07272468261,1.12120474365
1589284649137719030,603,1589284649137648008,,-0.0970569992788,-1.09906940854,1.12642419455
1589284649143544042,604,1589284649143467920,,-0.0971051462555,-1.12538789694,1.13173867919
1589284649146463498,605,1589284649146400863,,-0.0971303523451,-1.12553487589,1.13170294215
1589284649149488497,606,1589284649149387358,,-0.0972374292724,-1.12595623861,1.13170419802
1589284649152689294,607,1589284649152629278,,-0.097266120307,-1.15238186869,1.13702327017
1589284649158664000,608,1589284649158599386,,-0.0973528410596,-1.17912750767,1.1422554759
1589284649164748349,609,1589284649164670285,,-0.0972992990417,-1.20609342285,1.14776922625
1589284649170495051,610,1589284649170392039,,-0.0973253780978,-1.23326940606,1.15321725073
1589284649173542363,611,1589284649173476757,,-0.0973504944166,-1.23317669443,1.15327693065
1589284649176494616,612,1589284649176433651,,-0.0973760578927,-1.23307772149,1.15330129653
1589284649179677616,613,1589284649179588974,,-0.0974072599729,-1.26033614352,1.15868243912
1589284649182513530,614,1589284649182428299,,-0.0974602738346,-1.26030893409,1.15867888838
1589284649185975191,615,1589284649185862851,,-0.0974364826494,-1.287854663,1.164214157
1589284649191764604,616,1589284649191689065,,-0.0974945706404,-1.31540925733,1.16978665197
1589284649197477457,617,1589284649197413792,,-0.0975061863536,-1.34333283848,1.17548403444
1589284649200454222,618,1589284649200393799,,-0.0975810647126,-1.34317852632,1.17540428158
1589284649206711467,619,1589284649206617419,,-0.0978194964499,-1.37104823405,1.18064274493
1589284649212903782,620,1589284649212819610,,-0.0978866106104,-1.39916124689,1.18620486623
1589284649218620871,621,1589284649218533907,,-0.0981942074343,-1.4273560052,1.19133546927
1589284649224664587,622,1589284649224546961,,-0.0983319819891,-1.45599240915,1.19692872377
1589284649227759452,623,1589284649227664912,,-0.0985063334366,-1.45579492183,1.19656055832
1589284649233873823,624,1589284649233798690,,-0.0986196084099,-1.48467863423,1.20224224594
1589284649239678622,625,1589284649239595279,,-0.0988139296668,-1.51346088307,1.20762978572
1589284649245742198,626,1589284649245672156,,-0.0988836890579,-1.54257029702,1.21336957565
1589284649251939880,627,1589284649251867148,,-0.0991053808915,-1.57176929313,1.21876195747
1589284649257920510,628,1589284649257844747,,-0.0991840109124,-1.60123477448,1.22455408075
1589284649263817404,629,1589284649263745791,,-0.0995099354641,-1.63046012074,1.22984027899
1589284649269766434,630,1589284649269671730,,-0.0996354767112,-1.62989190474,1.22958633146
1589284649275882926,631,1589284649275783401,,-0.0997609698879,-1.65944288726,1.23533679178
1589284649281768027,632,1589284649281667634,,-0.0998952215731,-1.68881174273,1.24100658419
1589284649287738437,633,1589284649287650253,,-0.100051963344,-1.71614623342,1.24646807293
1589284649293867301,634,1589284649293755068,,-0.100171674427,-1.74554049294,1.25250739393
1589284649299914132,635,1589284649299812207,,-0.100360828459,-1.77529753994,1.25869484672
1589284649305950604,636,1589284649305848276,,-0.100602587069,-1.80444269471,1.26416820527
1589284649312222893,637,1589284649312129052,,-0.100723423064,-1.83457507597,1.27004808301
1589284649317874989,638,1589284649317710354,,-0.100622505085,-1.86370455926,1.27563660885
1589284649323934430,639,1589284649323844568,,-0.10047842495,-1.89371947548,1.28155080201
1589284649329948036,640,1589284649329852391,,-0.100376293417,-1.89122466636,1.28124392469
1589284649335832272,641,1589284649335747715,,-0.100350523902,-1.92131121094,1.28745758434
1589284649341712829,642,1589284649341547006,,-0.100404414334,-1.95083994254,1.29361660446
1589284649347913068,643,1589284649347823269,,-0.100355146831,-1.98132537776,1.29995410289
1589284649353737641,644,1589284649353538497,,-0.100298431895,-2.0110903406,1.30607271511
1589284649357026684,645,1589284649356931500,,-0.100310831705,-2.04175280879,1.31232287692
1589284649363073280,646,1589284649362898585,,-0.100222706679,-2.03995621343,1.31212896266
1589284649368970268,647,1589284649368859879,,-0.100109909097,-2.06875515372,1.31786458147
1589284649374935524,648,1589284649374852267,,-0.100072609348,-2.09853938133,1.3237763944
1589284649380824679,649,1589284649380729870,,-0.100110016992,-2.12949228508,1.32992113473
1589284649386900945,650,1589284649386798895,,-0.100256852643,-2.15957175877,1.33597122193
1589284649392859171,651,1589284649392770935,,-0.100323002556,-2.19091783869,1.34214278547
1589284649399046575,652,1589284649398927542,,-0.100494626349,-2.22145889287,1.3481966707
1589284649404969113,653,1589284649404853339,,-0.100697597783,-2.25305285234,1.35440402862
1589284649410986140,654,1589284649410887203,,-0.100847077964,-2.28459299789,1.36085002311
1589284649417042913,655,1589284649416955505,,-0.101288421978,-2.30358059061,1.36503721866
1589284649423104044,656,1589284649422980280,,-0.101531914647,-2.31340086895,1.36737206127
1589284649428978057,657,1589284649428889363,,-0.101737919142,-2.3452687135,1.37372079913
1589284649434709975,658,1589284649434595153,,-0.101882587144,-2.37689770927,1.38019678052
1589284649437786442,659,1589284649437698127,,-0.102271319873,-2.40729034917,1.38658400422
1589284649444097491,660,1589284649444011602,,-0.102805584212,-2.43738034319,1.3925742596
1589284649449992088,661,1589284649449843847,,-0.103072643798,-2.43589240959,1.39227308037
1589284649456011047,662,1589284649455859916,,-0.103343945133,-2.46741336815,1.3983799285
1589284649461912170,663,1589284649461816550,,-0.103800999355,-2.4971825312,1.40481804183
1589284649467995843,664,1589284649467901414,,-0.104299715893,-2.52675349466,1.41087269178
1589284649473893264,665,1589284649473829803,,-0.104549434298,-2.55810280614,1.41721877167
1589284649479890884,666,1589284649479800911,,-0.104794745211,-2.58971171169,1.42380235504
1589284649485809984,667,1589284649485744478,,-0.105264087969,-2.61955688877,1.43005411131
1589284649491918390,668,1589284649491814126,,-0.105731568546,-2.64944059125,1.43627311756
1589284649497689354,669,1589284649497604184,,-0.106006169105,-2.68101666966,1.44260341339
1589284649503851265,670,1589284649503781161,,-0.106252836944,-2.712810559,1.44924429258
1589284649509898136,671,1589284649509811985,,-0.106447743195,-2.71106272993,1.44898041069
1589284649516379427,672,1589284649516254595,,-0.106705733773,-2.74274772204,1.45530777416
1589284649521713800,673,1589284649521646561,,-0.106983400109,-2.77434249489,1.46168506397
1589284649527853893,674,1589284649527757715,,-0.107339049121,-2.80603797248,1.46791425728
1589284649533789073,675,1589284649533720100,,-0.107564887941,-2.83791236006,1.47441766119
1589284649540049171,676,1589284649539923527,,-0.107819823834,-2.86963824497,1.4806031353
1589284649545885751,677,1589284649545812089,,-0.10806576391,-2.9015704819,1.48696295681
1589284649551840114,678,1589284649551763049,,-0.108275596356,-2.93333638227,1.49333048113
1589284649557858184,679,1589284649557748176,,-0.108501142191,-2.96528437697,1.49966028688
1589284649566959107,680,1589284649566870650,,-0.108863550852,-2.9956266463,1.50591556873
1589284649572975584,681,1589284649572881190,,-0.109099074628,-3.02757105374,1.51252029493
1589284649579036862,682,1589284649578915195,,-0.109233871889,-3.05940547521,1.51910631271
1589284649584966632,683,1589284649584831174,,-0.109556883848,-3.09128795372,1.52569561317
1589284649590965520,684,1589284649590867541,,-0.109796673826,-3.12299774092,1.53200037649
1589284649596978230,685,1589284649596887833,,-0.109922615658,-3.13967158584,1.53530629212
1589284649602924929,686,1589284649602838699,,-0.110160141131,-3.1535714475,1.53799793643
1589284649608940199,687,1589284649608797299,,-0.110268871379,-3.18549123154,1.54438561587
1589284649615142203,688,1589284649615065059,,-0.110440390174,-3.21732360493,1.5506238737
1589284649620867743,689,1589284649620776935,,-0.110596781417,-3.24909386702,1.55686959837
1589284649626913888,690,1589284649626725996,,-0.110863075126,-3.28103294028,1.56309405918
1589284649629946183,691,1589284649629877293,,-0.111120409399,-3.29686784825,1.56607296883
1589284649636059707,692,1589284649635936098,,-0.111358902804,-3.31135809906,1.56871940427
1589284649642003123,693,1589284649641889264,,-0.111492765366,-3.34289277266,1.57516541805
1589284649647994031,694,1589284649647819369,,-0.111614373194,-3.37465210025,1.58145555747
1589284649653929708,695,1589284649653851796,,-0.111837787076,-3.40626470493,1.58757432511
1589284649659656437,696,1589284649659552499,,-0.112096314225,-3.43795472526,1.59355996472
1589284649662537651,697,1589284649662467967,,-0.112383363306,-3.43522339512,1.59281395555
1589284649665686641,698,1589284649665584757,,-0.112562558273,-3.46670269531,1.59918973109
1589284649668706421,699,1589284649668627020,,-0.112974262001,-3.46409046145,1.59860542591
1589284649671702725,700,1589284649671628135,,-0.113287749069,-3.49592226178,1.60457404347
1589284649677708805,701,1589284649677621142,,-0.113708438348,-3.52617465101,1.6100890414
1589284649686766218,702,1589284649686680573,,-0.114163220018,-3.55538794106,1.61503086174
1589284649692551817,703,1589284649692412657,,-0.114264315183,-3.5869032708,1.62114100898
1589284649695471373,704,1589284649695399363,,-0.11468778169,-3.58441344487,1.62010281797
1589284649698492347,705,1589284649698421314,,-0.114925740629,-3.61596005819,1.6261484894
1589284649701524271,706,1589284649701466348,,-0.115307060613,-3.61364100784,1.6255379879
1589284649704586620,707,1589284649704513427,,-0.115399900538,-3.64483787518,1.631637907
1589284649707689030,708,1589284649707596599,,-0.115627125428,-3.64216506366,1.63082136044
1589284649710630050,709,1589284649710560270,,-0.115811125505,-3.67348656687,1.63698886001
1589284649713847457,710,1589284649713714527,,-0.116078845098,-3.67010371956,1.6360973241
1589284649719603061,711,1589284649719411993,,-0.116328058245,-3.7009966978,1.64208803267
1589284649724549692,712,1589284649724411466,,-0.11668653025,-3.7299377711,1.64771257547
1589284649728815265,713,1589284649728710981,,-0.116925920424,-3.7282372862,1.64712189349
1589284649731834371,714,1589284649731748594,,-0.117128939422,-3.75708815156,1.65265669089
1589284649737794713,715,1589284649737711503,,-0.117268451923,-3.78765330441,1.65846265403
1589284649746951922,716,1589284649746873995,,-0.117565331609,-3.81654877173,1.66405228791
1589284649752853650,717,1589284649752729072,,-0.117855387872,-3.84518617776,1.66950003943
1589284649758992631,718,1589284649758862070,,-0.118061925579,-3.87546918317,1.67539401469
1589284649764890919,719,1589284649764819603,,-0.118344301771,-3.90392936176,1.68079305609
1589284649770941810,720,1589284649770853350,,-0.118457530673,-3.93402756728,1.68666473563
1589284649777049094,721,1589284649776913992,,-0.118771089075,-3.96220258757,1.69185733251
1589284649782519528,722,1589284649782436383,,-0.118868332732,-3.96033530088,1.69138636845
1589284649786030234,723,1589284649785928542,,-0.119123391162,-3.9882532544,1.6965045761
1589284649792128684,724,1589284649792024166,,-0.119212045227,-4.0177374698,1.70229981084
1589284649797850485,725,1589284649797762319,,-0.119237127698,-4.04692743949,1.70811367244
1589284649804094305,726,1589284649803953644,,-0.119479971806,-4.07420677566,1.71314249215
1589284649810018497,727,1589284649809929391,,-0.119880955811,-4.07047196348,1.71194461837
1589284649816280744,728,1589284649816185219,,-0.120081824702,-4.09962328929,1.71761759362
1589284649822130358,729,1589284649822010382,,-0.120241426371,-4.1285056674,1.72335332618
1589284649827921341,730,1589284649827801903,,-0.120309171215,-4.15730366326,1.72914360797
1589284649833898692,731,1589284649833816331,,-0.120441062905,-4.18414707493,1.73400027228
1589284649839872970,732,1589284649839797799,,-0.120610441544,-4.21266648367,1.73938753325
1589284649845810550,733,1589284649845741022,,-0.120876648364,-4.23957483614,1.74446117759
1589284649852211257,734,1589284649852092652,,-0.121156506497,-4.26816568914,1.74980643273
1589284649857792120,735,1589284649857733552,,-0.121566576311,-4.2946471254,1.75471933828
1589284649867035404,736,1589284649866872777,,-0.122006037298,-4.31886802789,1.75899595469
1589284649872848650,737,1589284649872773005,,-0.122193109939,-4.3466337456,1.76437946955
1589284649878839800,738,1589284649878752667,,-0.122576815597,-4.37240362682,1.76891475796
1589284649884971713,739,1589284649884857240,,-0.122768645613,-4.40025936234,1.77425247236
1589284649890967693,740,1589284649890854346,,-0.123019777596,-4.42581993283,1.77883309638
1589284649897040819,741,1589284649896793048,,-0.123277464117,-4.42419528224,1.7780181174
1589284649902834795,742,1589284649902745141,,-0.123543425734,-4.44923091111,1.78261661323
1589284649908823127,743,1589284649908736566,,-0.123765786508,-4.47668446406,1.78794517403
1589284649915470517,744,1589284649915325384,,-0.123947315493,-4.50158827606,1.79266164369
1589284649920918776,745,1589284649920786582,,-0.124052820614,-4.52844046003,1.79781294962
1589284649926839045,746,1589284649926742333,,-0.124372222057,-4.55362542045,1.80237037632
1589284649929873437,747,1589284649929804648,,-0.124538076791,-4.55179208941,1.80177945915
1589284649935969985,748,1589284649935889900,,-0.124876823034,-4.57675986909,1.80630599506
1589284649941737627,749,1589284649941660344,,-0.124964969454,-4.6029923005,1.81123401248
1589284649944757880,750,1589284649944651280,,-0.125177478029,-4.62928377435,1.81608646757
1589284649947819273,751,1589284649947732965,,-0.12521756246,-4.62740156256,1.81553005135
1589284649953809684,752,1589284649953732664,,-0.125488426488,-4.65159781815,1.81947671705
1589284649959746409,753,1589284649959677748,,-0.12562192175,-4.67761830972,1.82455972416
1589284649962751526,754,1589284649962676621,,-0.12602010398,-4.67424861734,1.82320560982
1589284649965715633,755,1589284649965646293,,-0.126142976214,-4.70041828468,1.82831233661
1589284649968761909,756,1589284649968683350,,-0.126530734861,-4.69696241434,1.8271923871
1589284649974798292,757,1589284649974723129,,-0.126591281735,-4.72280286162,1.83217964776
1589284649980839358,758,1589284649980755575,,-0.126805735369,-4.74597246774,1.83637237849
1589284649986909769,759,1589284649986826960,,-0.126913201078,-4.77093290687,1.84105514402
1589284649992829961,760,1589284649992747276,,-0.127275388759,-4.79370507456,1.84509216198
1589284649998973539,761,1589284649998889568,,-0.127368866471,-4.81815807171,1.84988924126
1589284650005019688,762,1589284650004915719,,-0.127547063968,-4.84265182002,1.85459082261
1589284650011183700,763,1589284650011081359,,-0.127728946909,-4.86473402976,1.85836473776
1589284650017078050,764,1589284650016986177,,-0.127906402812,-4.86822302654,1.85846011362
1589284650023046533,765,1589284650022963111,,-0.128176166519,-4.8848297388,1.86072002485
1589284650029090289,766,1589284650028953868,,-0.12836045581,-4.90875506572,1.86508568684
1589284650035096934,767,1589284650034938319,,-0.128456734742,-4.93237025793,1.86954642054
1589284650041071513,768,1589284650040984402,,-0.128631861958,-4.95588268207,1.87370565478
1589284650046975414,769,1589284650046891934,,-0.128864591821,-4.97937544803,1.87781298149
1589284650053208619,770,1589284650053040926,,-0.129105810026,-5.00255429664,1.88197447903
1589284650059139462,771,1589284650058966352,,-0.129326011473,-5.0254343579,1.88609116524
1589284650065088876,772,1589284650064981057,,-0.129537409459,-5.04827420681,1.89012232925
1589284650071062362,773,1589284650070942152,,-0.129651739161,-5.07090615385,1.89428960059
1589284650077246330,774,1589284650077154354,,-0.129888794753,-5.09283242945,1.89808057591
1589284650083121694,775,1589284650082944979,,-0.130146809689,-5.09119942646,1.89728192415
1589284650088946734,776,1589284650088852417,,-0.13034038667,-5.1129711756,1.90109015664
1589284650094948777,777,1589284650094848506,,-0.130585711018,-5.13452378527,1.90513112941
1589284650101116142,778,1589284650100954199,,-0.13079283466,-5.15569624689,1.90899574599
1589284650107138243,779,1589284650107015758,,-0.13096807482,-5.17702164087,1.91306994088
1589284650113250387,780,1589284650113102214,,-0.131116035675,-5.19808364563,1.91711976543
1589284650118997062,781,1589284650118908834,,-0.131337445999,-5.21827075377,1.92081511703
1589284650124996170,782,1589284650124837071,,-0.131477672164,-5.23769665075,1.92445873723
1589284650130901582,783,1589284650130818931,,-0.131689660598,-5.25761779175,1.92797888355
1589284650137411298,784,1589284650137306689,,-0.131786225504,-5.27680291893,1.93172632749
1589284650143231241,785,1589284650143148343,,-0.132008244339,-5.27362710232,1.93068038265
1589284650149135796,786,1589284650148989482,,-0.132238142718,-5.29216178872,1.9339255386
1589284650155142351,787,1589284650155011099,,-0.132394941488,-5.31045884704,1.93739490095
1589284650161226235,788,1589284650161051976,,-0.132669147658,-5.32860509903,1.94072702135
1589284650167216903,789,1589284650167062511,,-0.132985725704,-5.34662666428,1.9438764413
1589284650173061351,790,1589284650172938576,,-0.133298655118,-5.3642749057,1.94684799599
1589284650179057163,791,1589284650178918123,,-0.133974170584,-5.37898030305,1.94913451917
1589284650185012276,792,1589284650184920134,,-0.134733380379,-5.39325097465,1.95151204341
1589284650191054043,793,1589284650190910759,,-0.135011127628,-5.40989477873,1.95460540984
1589284650197112578,794,1589284650196998880,,-0.135383126319,-5.42643380884,1.95802525681
1589284650203075362,795,1589284650202933936,,-0.136007640633,-5.41864005095,1.95643943399
1589284650209094527,796,1589284650208984058,,-0.136187765617,-5.43377628158,1.95983771722
1589284650215490325,797,1589284650215326854,,-0.136431181338,-5.44806611681,1.96332403586
1589284650221043183,798,1589284650220959252,,-0.136631252536,-5.46214542707,1.96570935845
1589284650227124976,799,1589284650227022849,,-0.136869194706,-5.46959168525,1.96708183171
1589284650232941588,800,1589284650232852403,,-0.137184409837,-5.47488644792,1.96722676564
1589284650238986488,801,1589284650238897941,,-0.137105945937,-5.48596251825,1.96955200529
1589284650245081939,802,1589284650244982254,,-0.137044068132,-5.49629652668,1.97077199428
1589284650251017213,803,1589284650250913935,,-0.137205977446,-5.49894089765,1.97015095103
1589284650257350961,804,1589284650257269493,,-0.137297725409,-5.48038224138,1.96518538587
1589284650263145925,805,1589284650263035797,,-0.137612184559,-5.49410543083,1.96725800736
1589284650268974365,806,1589284650268879509,,-0.137895451461,-5.50466419502,1.96917123083
1589284650275143962,807,1589284650275004447,,-0.138417604416,-5.50868411817,1.96984377302
1589284650280977010,808,1589284650280861696,,-0.13930626322,-5.51408521994,1.97046805646
1589284650287030488,809,1589284650286928696,,-0.139741377378,-5.52514335663,1.97311807453
1589284650292989853,810,1589284650292899013,,-0.140120935125,-5.53620538954,1.97545314587
1589284650299310206,811,1589284650299186180,,-0.140369269432,-5.5467888041,1.97841526878
1589284650305120822,812,1589284650305026072,,-0.1410791863,-5.5512828229,1.97918756544
1589284650310989394,813,1589284650310916410,,-0.141294016187,-5.56062142761,1.98172870755
1589284650317323416,814,1589284650317235321,,-0.141611884041,-5.54293374715,1.97800445045
1589284650323219856,815,1589284650323096927,,-0.141719864106,-5.55439961623,1.9797891328
1589284650329544843,816,1589284650329366984,,-0.141624744458,-5.55358627546,1.97941072921
1589284650335380391,817,1589284650335222486,,-0.141222329603,-5.55671626132,1.97992051067
1589284650341216599,818,1589284650341026903,,-0.14073345084,-5.55098525665,1.97866360893
1589284650347126172,819,1589284650347027221,,-0.140316706499,-5.5546373723,1.97937972136
1589284650353307168,820,1589284650353138723,,-0.139639325012,-5.5476934266,1.97746328351
1589284650359418810,821,1589284650359279035,,-0.139305706925,-5.55060210376,1.9782554327
1589284650365078909,822,1589284650364922059,,-0.138979988377,-5.55366707767,1.97878586944
1589284650371294339,823,1589284650371127257,,-0.138833362698,-5.55672000801,1.9794250626
1589284650377185026,824,1589284650377068642,,-0.138713396242,-5.54748584791,1.97742814946
1589284650383101251,825,1589284650382976514,,-0.138671433905,-5.55163794879,1.97820524928
1589284650389029411,826,1589284650388922013,,-0.138502114611,-5.55509337319,1.97862673418
1589284650394920998,827,1589284650394792830,,-0.138638268231,-5.55170787373,1.97733506157
1589284650401189118,828,1589284650401032094,,-0.13889385035,-5.55595109768,1.97764930544
1589284650406977096,829,1589284650406882844,,-0.138998123105,-5.56002757523,1.97822568336
1589284650413208592,830,1589284650413043538,,-0.139155260641,-5.56358419806,1.97877180105
1589284650418988071,831,1589284650418892166,,-0.139419444508,-5.56702040354,1.97892268654
1589284650425051427,832,1589284650424931822,,-0.139546636516,-5.56976385332,1.97923856003
1589284650431020580,833,1589284650430942043,,-0.139650453604,-5.5638664271,1.97773116209
1589284650437160357,834,1589284650437055540,,-0.139768874811,-5.55524306008,1.975876264
1589284650443099087,835,1589284650443024158,,-0.139579290214,-5.54618432187,1.97385895917
1589284650449124132,836,1589284650449028713,,-0.13946614784,-5.54608180526,1.97377368201
1589284650455181774,837,1589284650455083189,,-0.138835446838,-5.53429613923,1.97158596184
1589284650461089969,838,1589284650460969408,,-0.138432390879,-5.5325396372,1.97063367357
1589284650467161073,839,1589284650467047210,,-0.137877842573,-5.5197298894,1.96808893462
1589284650473164391,840,1589284650473044741,,-0.137655611364,-5.51774892855,1.96735059532
1589284650479295000,841,1589284650479125169,,-0.137312463351,-5.50568692018,1.96480645078
1589284650485067451,842,1589284650484969601,,-0.137541751542,-5.50407078468,1.96420131946
1589284650491349590,843,1589284650491214158,,-0.137652246011,-5.5028984066,1.96341608549
1589284650497070630,844,1589284650496992924,,-0.137793435028,-5.49371226859,1.96152189475
1589284650503094828,845,1589284650502977981,,-0.137899358291,-5.48601777503,1.95964588122
1589284650509236168,846,1589284650509126162,,-0.138075958056,-5.47853175986,1.95837597282
1589284650515624161,847,1589284650515466390,,-0.138302812572,-5.47769517327,1.95803688167
1589284650521217191,848,1589284650521115871,,-0.138399809494,-5.46912281,1.95661067995
1589284650527072926,849,1589284650526935467,,-0.13854001693,-5.46733373993,1.95609515495
1589284650533108164,850,1589284650533001447,,-0.138384528265,-5.45604326968,1.95373065838
1589284650538942789,851,1589284650538817335,,-0.138243371396,-5.45244664172,1.95264287086
1589284650544953740,852,1589284650544862646,,-0.138031820834,-5.43787800665,1.94944646473
1589284650551128644,853,1589284650550982811,,-0.137571057188,-5.43203099665,1.94833660328
1589284650556627931,854,1589284650556540538,,-0.137226602562,-5.41048664603,1.94336513761
1589284650560114735,855,1589284650560024857,,-0.136753379525,-5.4039244362,1.94217267708
1589284650566052760,856,1589284650565969619,,-0.136157846886,-5.38703225863,1.93913652112
1589284650572139848,857,1589284650572033398,,-0.135962021353,-5.38127708842,1.93827365011
1589284650578077612,858,1589284650577986202,,-0.135710884908,-5.36722886678,1.93574856499
1589284650586800887,859,1589284650586733914,,-0.135766022857,-5.34846767061,1.93230669687
1589284650589614149,860,1589284650589523518,,-0.135846971641,-5.34223355543,1.93112141701
1589284650592878189,861,1589284650592796881,,-0.136165549365,-5.33379642062,1.92940574352
1589284650595874230,862,1589284650595797116,,-0.13633788264,-5.32798378266,1.92787018024
1589284650598843388,863,1589284650598686038,,-0.136745335872,-5.31842633987,1.92537152435
1589284650601824149,864,1589284650601702207,,-0.136795878608,-5.31166004272,1.92352831599
1589284650605198625,865,1589284650605061127,,-0.136658615121,-5.30713990527,1.9227217357
1589284650611037892,866,1589284650610947738,,-0.136498822428,-5.2937631024,1.91925174107
1589284650617294504,867,1589284650617167289,,-0.135889331763,-5.27832996871,1.91552843561
1589284650623043414,868,1589284650622984326,,-0.135523476376,-5.26818917561,1.91353687543
1589284650628805039,869,1589284650628712186,,-0.135026250733,-5.26031100466,1.9115780156
1589284650632121456,870,1589284650632039807,,-0.134351354217,-5.24258450739,1.90745024122
1589284650638118886,871,1589284650638003639,,-0.133915173722,-5.22523801596,1.9037274532
1589284650644024395,872,1589284650643943362,,-0.133670527127,-5.21757763893,1.90192908855
1589284650649821088,873,1589284650649744888,,-0.133492050654,-5.20953375073,1.9003094643
1589284650655734480,874,1589284650655647781,,-0.133498768165,-5.19624299903,1.8973742101
1589284650658774588,875,1589284650658686033,,-0.133546219838,-5.18477874082,1.89503866458
1589284650661963200,876,1589284650661857673,,-0.133688601104,-5.17955385652,1.89376366147
1589284650664804793,877,1589284650664684429,,-0.13375813486,-5.17463083782,1.89235543434
1589284650667863703,878,1589284650667773663,,-0.133884969426,-5.16332581395,1.89034302713
1589284650674271831,879,1589284650674127373,,-0.133907645566,-5.15170415573,1.88736906648
1589284650680214022,880,1589284650680127067,,-0.134115243611,-5.14495404154,1.88542149133
1589284650686184663,881,1589284650686071002,,-0.133915852125,-5.13774291403,1.88394609804
1589284650692220752,882,1589284650692083569,,-0.133515252865,-5.12168814136,1.87979959146
1589284650698113719,883,1589284650697980963,,-0.133026452814,-5.10371817531,1.87579874653
1589284650704113122,884,1589284650704041224,,-0.132612209543,-5.09313437557,1.87367023372
1589284650709664876,885,1589284650709570750,,-0.132070836103,-5.08341479174,1.87194721809
1589284650712902924,886,1589284650712818881,,-0.131265210496,-5.06305586594,1.8673721894
1589284650716116872,887,1589284650715991966,,-0.130821546963,-5.04599099543,1.8634034605
1589284650721816591,888,1589284650721729121,,-0.130594761932,-5.03593865988,1.86125064363
1589284650725651079,889,1589284650725594701,,-0.130374535646,-5.0268308751,1.85914647092
1589284650730637731,890,1589284650730549952,,-0.130565685094,-5.01164892661,1.85551475783
1589284650733623868,891,1589284650733550599,,-0.130717149186,-5.00666708673,1.85427525657
1589284650736690422,892,1589284650736571312,,-0.131077421392,-4.99788583878,1.85223302864
1589284650739858546,893,1589284650739773510,,-0.131243394863,-4.99176376118,1.85096339568
1589284650743229836,894,1589284650743079907,,-0.131602901482,-4.98387023114,1.84891404019
1589284650749101312,895,1589284650749026835,,-0.131738101239,-4.97650752043,1.84707983737
1589284650755168640,896,1589284650755075663,,-0.131981684737,-4.96284911626,1.84386602883
1589284650761125941,897,1589284650761032842,,-0.131978829332,-4.95302477355,1.84168674655
1589284650767229507,898,1589284650767131515,,-0.131684535923,-4.93478709489,1.83790614435
1589284650773203042,899,1589284650773083374,,-0.131476955826,-4.92269562986,1.83498763835
1589284650779143692,900,1589284650779062681,,-0.130720364951,-4.90078446466,1.83051794205
1589284650785236141,901,1589284650785100642,,-0.130318536098,-4.88691507089,1.82766979822
1589284650791293297,902,1589284650791189572,,-0.129526371264,-4.86352827851,1.82297461378
1589284650796741578,903,1589284650796611599,,-0.129221175886,-4.85436745843,1.82147728881
1589284650799908454,904,1589284650799831997,,-0.128609399914,-4.83202616939,1.81735037997
1589284650802786073,905,1589284650802706618,,-0.128417764729,-4.82420617518,1.8156826514
1589284650805932406,906,1589284650805856563,,-0.128041520546,-4.80485279571,1.81206651037
1589284650808797234,907,1589284650808728512,,-0.128133479531,-4.7989602743,1.81066419471
1589284650812221354,908,1589284650812151455,,-0.128443795598,-4.78348257878,1.80756711297
1589284650817917647,909,1589284650817851882,,-0.128787512566,-4.7733994719,1.80532520392
1589284650820732533,910,1589284650820671837,,-0.129471020817,-4.76572711594,1.80312129353
1589284650823860909,911,1589284650823803677,,-0.129710804626,-4.7556575891,1.80097844094
1589284650826667955,912,1589284650826596957,,-0.13018997139,-4.74708879593,1.79858760588
1589284650829711958,913,1589284650829608878,,-0.130355364496,-4.74233851,1.79776730119
1589284650832611410,914,1589284650832549309,,-0.130521849227,-4.72474496423,1.79417798515
1589284650835983070,915,1589284650835902940,,-0.130523942656,-4.71858976013,1.79309245068
1589284650841647016,916,1589284650841586925,,-0.130265564671,-4.69768107632,1.78941120283
1589284650844857281,917,1589284650844774435,,-0.130463489179,-4.6838145624,1.78683179878
1589284650848003164,918,1589284650847945271,,-0.130007929448,-4.66763808402,1.78400973656
1589284650850802416,919,1589284650850732044,,-0.1297824058,-4.65229285815,1.78146680525
1589284650853875047,920,1589284650853800088,,-0.129434806385,-4.63651125316,1.77847381139
1589284650857054435,921,1589284650856978795,,-0.129301710442,-4.62854023036,1.77728259318
1589284650862851552,922,1589284650862788678,,-0.129296769481,-4.60737057834,1.77330305326
1589284650865840841,923,1589284650865753803,,-0.129279559045,-4.59325191587,1.7705160088
1589284650868886626,924,1589284650868796559,,-0.129269879073,-4.58726782387,1.76940598189
1589284650871846890,925,1589284650871777349,,-0.129487353094,-4.56902330097,1.76598740076
1589284650875194177,926,1589284650875116081,,-0.129741383406,-4.56424075853,1.76502202749
1589284650881189651,927,1589284650881050327,,-0.130028061011,-4.54735649116,1.76233938313
1589284650886909319,928,1589284650886835683,,-0.130406713982,-4.5354573885,1.75991813983
1589284650889984290,929,1589284650889804545,,-0.130672804827,-4.53119737816,1.75936022692
1589284650896048915,930,1589284650895979185,,-0.130840945939,-4.51791798582,1.75663187264
1589284650902075348,931,1589284650901991360,,-0.131085265636,-4.50027959368,1.75325511949
1589284650907907517,932,1589284650907840240,,-0.131099968622,-4.48567881236,1.75087051061
1589284650911071518,933,1589284650910981121,,-0.131157718151,-4.47076817793,1.74802531801
1589284650917007597,934,1589284650916927422,,-0.131043767091,-4.45532991248,1.74497678141
1589284650922903063,935,1589284650922825947,,-0.130947232323,-4.44841658416,1.7439678079
1589284650925840140,936,1589284650925751699,,-0.130748914126,-4.43202043408,1.74115005272
1589284650928866840,937,1589284650928793604,,-0.130472752717,-4.42453671821,1.74020211656
1589284650931822080,938,1589284650931763036,,-0.130393263361,-4.40750572699,1.7370075192
1589284650934850982,939,1589284650934782708,,-0.13017471823,-4.40116725664,1.73613414633
1589284650937792098,940,1589284650937730689,,-0.12984368475,-4.38370165852,1.7331637529
1589284650940828630,941,1589284650940738082,,-0.12957914587,-4.37531549712,1.73191701706
1589284650946907990,942,1589284650946781554,,-0.129201104939,-4.34454724887,1.72635699151
1589284650949959376,943,1589284650949795451,,-0.129089605104,-4.33839478935,1.72553052516
1589284650956175838,944,1589284650956016686,,-0.129261771065,-4.32269261645,1.72262141766
1589284650962106547,945,1589284650962000108,,-0.129264124467,-4.30780052359,1.71977005146
1589284650967780623,946,1589284650967688935,,-0.129355498963,-4.28928141349,1.71571925745
1589284650970839539,947,1589284650970787864,,-0.129361626739,-4.27512628902,1.7128529324
1589284650973762792,948,1589284650973702704,,-0.129473293208,-4.27193176548,1.71232444107
1589284650976721074,949,1589284650976567522,,-0.129542181685,-4.26808782919,1.71161387272
1589284650980135867,950,1589284650979975210,,-0.129462797565,-4.2538013756,1.70887167558
1589284650985704980,951,1589284650985627838,,-0.129668326582,-4.23859589427,1.70586682649
1589284650988859333,952,1589284650988778682,,-0.129716797474,-4.23463526817,1.70533174554
1589284650991758187,953,1589284650991643575,,-0.129491185885,-4.21350598575,1.70122575025
1589284650994786958,954,1589284650994711911,,-0.129364237248,-4.20788149334,1.70006854995
1589284650998052776,955,1589284650997979193,,-0.129251848212,-4.19044194512,1.69649522381
1589284651007049120,956,1589284651006964149,,-0.128412974454,-4.15777889361,1.68960060582
1589284651013448928,957,1589284651013352073,,-0.127539271032,-4.13033670829,1.68463594792
1589284651018924449,958,1589284651018842403,,-0.127217659601,-4.11048561273,1.68086483883
1589284651021900643,959,1589284651021846072,,-0.126879193215,-4.10237503544,1.67924951048
1589284651024912661,960,1589284651024838736,,-0.126420139433,-4.08239428889,1.67568635096
1589284651027940038,961,1589284651027869449,,-0.126153035924,-4.07448612881,1.6742280911
1589284651031675296,962,1589284651031599237,,-0.125793422636,-4.05502373239,1.67049069697
1589284651037065836,963,1589284651036983270,,-0.12536884685,-4.0481488973,1.66960160862
1589284651042930714,964,1589284651042859547,,-0.125220562171,-4.02933824584,1.66588658135
1589284651048951686,965,1589284651048889533,,-0.125014404935,-4.01095678483,1.66264094809
1589284651054955169,966,1589284651054877090,,-0.124718369956,-3.99297461603,1.65976402228
1589284651057805939,967,1589284651057680138,,-0.124760279132,-3.97565932091,1.65626833025
1589284651060926880,968,1589284651060850286,,-0.124781700253,-3.97110092743,1.65535914345
1589284651067082449,969,1589284651066995479,,-0.124619779354,-3.95010486755,1.65184402252
1589284651072941253,970,1589284651072874954,,-0.124705374891,-3.9336880241,1.64839668754
1589284651076005778,971,1589284651075948068,,-0.124680372252,-3.9261184058,1.64664266811
1589284651082031097,972,1589284651081970724,,-0.124472891439,-3.90906992547,1.64321837973
1589284651088054500,973,1589284651087974038,,-0.124128113807,-3.88621410631,1.63894061298
1589284651093970966,974,1589284651093893620,,-0.123946363492,-3.86783936144,1.63523835106
1589284651097172542,975,1589284651097025132,,-0.123637530411,-3.86183147339,1.63421327724
1589284651102989903,976,1589284651102910887,,-0.123249516248,-3.84234512305,1.63072600524
1589284651108980889,977,1589284651108886842,,-0.122864612694,-3.82267000622,1.6270875364
1589284651115377514,978,1589284651115272334,,-0.12239111051,-3.80237289766,1.62350317012
1589284651121209250,979,1589284651121140161,,-0.121869779442,-3.78163907299,1.61963713303
1589284651127104855,980,1589284651127010310,,-0.121484634003,-3.76107618983,1.615998212
1589284651133079756,981,1589284651132949682,,-0.120986599382,-3.74044191888,1.61224914216
1589284651138865930,982,1589284651138787563,,-0.120604563445,-3.71924680254,1.60832607103
1589284651141825534,983,1589284651141749602,,-0.120129054332,-3.71253988011,1.60733582443
1589284651145034483,984,1589284651144939799,,-0.119832335625,-3.69193694151,1.60348734778
1589284651151483618,985,1589284651151331348,,-0.119601052327,-3.67227920717,1.59962158576
1589284651157409205,986,1589284651157202475,,-0.119332977021,-3.66628470084,1.59875611868
1589284651162911523,987,1589284651162819159,,-0.119133849563,-3.64697049353,1.59509080858
1589284651165972459,988,1589284651165843028,,-0.119114918806,-3.62816523923,1.59143956218
1589284651168950822,989,1589284651168778004,,-0.11897147494,-3.62393016717,1.59083784138
1589284651171929241,990,1589284651171843383,,-0.119017274515,-3.60612855726,1.58726449883
1589284651175043725,991,1589284651174961590,,-0.118871943714,-3.60264694955,1.58702878537
1589284651181205589,992,1589284651181044056,,-0.118894473007,-3.58506119217,1.58387215452
1589284651187120629,993,1589284651186862308,,-0.118794765863,-3.56762315438,1.5806101977
1589284651192884683,994,1589284651192800693,,-0.118850502635,-3.55044300963,1.57739172057
1589284651196061976,995,1589284651195976022,,-0.11882893238,-3.54748901537,1.57720375183
1589284651202128235,996,1589284651202038414,,-0.118820143292,-3.52968807765,1.57377409818
1589284651208223006,997,1589284651208082396,,-0.118656696038,-3.51148854847,1.5704507584
1589284651214344916,998,1589284651214230367,,-0.11860087391,-3.49320374241,1.56693856974
1589284651220147608,999,1589284651220044795,,-0.118312533311,-3.47444610261,1.56334806619
1589284651226200016,1000,1589284651226063882,,-0.118074723501,-3.45512785877,1.55970163028
1589284651229177828,1001,1589284651229102871,,-0.117897945221,-3.44999747658,1.55892725727
1589284651232301403,1002,1589284651232203950,,-0.117594904813,-3.43033337633,1.55532096074
1589284651238243287,1003,1589284651238113777,,-0.117365084634,-3.4103572241,1.55138076505
1589284651244612059,1004,1589284651244509859,,-0.11695841331,-3.39029261012,1.54783264538
1589284651249978821,1005,1589284651249883174,,-0.116608954277,-3.38450743561,1.54688331167
1589284651252989412,1006,1589284651252888572,,-0.116337913528,-3.3642336079,1.54315837388
1589284651256287300,1007,1589284651256162176,,-0.116045639983,-3.35822431365,1.5420233616
1589284651261862761,1008,1589284651261715540,,-0.115646674237,-3.33790016471,1.53837128417
1589284651265175650,1009,1589284651265059845,,-0.115454748663,-3.31803146469,1.53469494468
1589284651271306330,1010,1589284651271182930,,-0.115166876908,-3.29824801521,1.53126464781
1589284651277003589,1011,1589284651276859999,,-0.114959382197,-3.29311442443,1.5307207336
1589284651283067849,1012,1589284651282970533,,-0.114893936123,-3.27452891925,1.52717328617
1589284651288960045,1013,1589284651288889974,,-0.114659324961,-3.25568060805,1.52372915692
1589284651292045764,1014,1589284651291952064,,-0.11455100069,-3.23778923237,1.52040200187
1589284651294849710,1015,1589284651294783108,,-0.114438320976,-3.23458191428,1.52021307591
1589284651298153900,1016,1589284651298062414,,-0.11435357176,-3.21746951219,1.51693772719
1589284651304445793,1017,1589284651304357825,,-0.114261951586,-3.20106161438,1.51394324815
1589284651310208799,1018,1589284651309950806,,-0.114345300239,-3.19975471242,1.51373258225
1589284651316380745,1019,1589284651316261062,,-0.1143829933,-3.18347924517,1.51044893481
1589284651322023625,1020,1589284651321859848,,-0.114284048072,-3.16688969093,1.50729336094
1589284651325140914,1021,1589284651325035789,,-0.114227741717,-3.15123863007,1.50433764477
1589284651331263206,1022,1589284651331115512,,-0.114232586203,-3.13530781264,1.5011988329
1589284651337390725,1023,1589284651337288914,,-0.114123562298,-3.11856439117,1.4980016349
1589284651343402986,1024,1589284651343192441,,-0.113896749092,-3.11584588573,1.49756300723
1589284651349358145,1025,1589284651349176880,,-0.113631212771,-3.09958438022,1.49442267539
1589284651355479646,1026,1589284651355286215,,-0.113368393925,-3.08285910251,1.49113689565
1589284651361406773,1027,1589284651361242988,,-0.113115283241,-3.06641941166,1.48793385733
1589284651367294000,1028,1589284651367173131,,-0.112819863139,-3.05003257627,1.48481739077
1589284651373244270,1029,1589284651373085059,,-0.112414888129,-3.03341176799,1.48173102847
1589284651379286548,1030,1589284651379128722,,-0.112077058606,-3.01653310606,1.47848986525
1589284651385099483,1031,1589284651385017110,,-0.111731610473,-2.99999553283,1.47540016913
1589284651391328315,1032,1589284651391212859,,-0.111420552081,-2.98377954535,1.47233012786
1589284651397534375,1033,1589284651397240406,,-0.111147789613,-2.9808939935,1.47183274855
1589284651403105220,1034,1589284651402992054,,-0.11091876415,-2.96454176269,1.46880659262
1589284651409063145,1035,1589284651408982325,,-0.110642718333,-2.94817562444,1.46576882905
1589284651415668084,1036,1589284651415520377,,-0.110468384998,-2.93285421674,1.46286519488
1589284651421173175,1037,1589284651421044477,,-0.110282612945,-2.91766347198,1.45986559595
1589284651427095758,1038,1589284651427021758,,-0.110154865328,-2.90240118732,1.45684072999
1589284651430261109,1039,1589284651430019746,,-0.11002087152,-2.89947004601,1.45643867396
1589284651436046919,1040,1589284651435947907,,-0.109721252658,-2.8848961698,1.45372738415
1589284651439003191,1041,1589284651438920660,,-0.109604524722,-2.87094938996,1.45114550677
1589284651445072781,1042,1589284651444975735,,-0.109496401323,-2.857554316,1.44859781862
1589284651450969018,1043,1589284651450903264,,-0.109435593615,-2.84422265905,1.44605345064
1589284651454063185,1044,1589284651453962860,,-0.109372360582,-2.84255151762,1.44590885121
1589284651457345547,1045,1589284651457142176,,-0.109313599535,-2.84117535586,1.44580934979
1589284651463111912,1046,1589284651463017326,,-0.109338887363,-2.82886621427,1.4435099435
1589284651469116189,1047,1589284651469013735,,-0.109147726843,-2.81556289786,1.44131327954
1589284651475048251,1048,1589284651474924682,,-0.109127956435,-2.80388462723,1.43911038021
1589284651477956654,1049,1589284651477836262,,-0.109019668426,-2.7922376784,1.43687633746
1589284651480963714,1050,1589284651480862634,,-0.108865048601,-2.7907867943,1.43683029323
1589284651487241718,1051,1589284651487132522,,-0.108561990547,-2.77675169741,1.4341199184
1589284651492942071,1052,1589284651492870326,,-0.108421829255,-2.76330161577,1.43135120158
1589284651496066949,1053,1589284651495927914,,-0.108294772206,-2.7613880382,1.43110234704
1589284651498929162,1054,1589284651498846589,,-0.107949958436,-2.74794873874,1.42886021062
1589284651502051294,1055,1589284651501959536,,-0.107847290974,-2.74611370839,1.42855818463
1589284651505032700,1056,1589284651504918381,,-0.107668217227,-2.7347962652,1.4266514668
1589284651508013487,1057,1589284651507942429,,-0.107539443566,-2.73278176332,1.42631091073
1589284651511114312,1058,1589284651510975888,,-0.107379895797,-2.7218405288,1.42433436812
1589284651520013037,1059,1589284651519856599,,-0.10715578056,-2.70788012895,1.42170976956
1589284651523016491,1060,1589284651522896612,,-0.1070424988,-2.70597514618,1.42135110221
1589284651529053550,1061,1589284651528927370,,-0.107055599207,-2.69602976653,1.41924079382
1589284651531957843,1062,1589284651531888266,,-0.106913511718,-2.68611805588,1.41719568436
1589284651535032921,1063,1589284651534938487,,-0.106851031025,-2.6846335172,1.4169865367
1589284651538020405,1064,1589284651537879676,,-0.106953559677,-2.6754175864,1.41490534107
1589284651541009686,1065,1589284651540893553,,-0.106904699678,-2.67404411326,1.4146754682
1589284651544230592,1066,1589284651544169217,,-0.107124645443,-2.66444229413,1.4124190208
1589284651549882206,1067,1589284651549812183,,-0.10712720988,-2.66342585143,1.41216763063
1589284651553141128,1068,1589284651553070849,,-0.107254755966,-2.65544695532,1.41043896713
1589284651559075153,1069,1589284651559005634,,-0.10723560122,-2.64779479496,1.40900617507
1589284651565109216,1070,1589284651565021991,,-0.107331831898,-2.64006210344,1.40742542797
1589284651571420100,1071,1589284651571327886,,-0.107340835372,-2.63346205207,1.40622001381
1589284651577210596,1072,1589284651577059590,,-0.1072187324,-2.63252472693,1.40620101879
1589284651583020517,1073,1589284651582962860,,-0.107263368091,-2.62630381093,1.40488047044
1589284651589007945,1074,1589284651588937192,,-0.107219901014,-2.62059767419,1.40388254854
1589284651592080946,1075,1589284651591953035,,-0.107172208658,-2.61513593965,1.40287372418
1589284651595037948,1076,1589284651594965919,,-0.107179167198,-2.61453568702,1.40279657026
1589284651601206438,1077,1589284651601093501,,-0.107127790043,-2.60945632352,1.40190341709
1589284651607049787,1078,1589284651606980965,,-0.107034973442,-2.60478956438,1.40111178119
1589284651613264177,1079,1589284651613172372,,-0.107095747391,-2.60046833188,1.40021580273
1589284651619171171,1080,1589284651619018589,,-0.10704550882,-2.59669229715,1.39955562857
1589284651625078231,1081,1589284651624997507,,-0.107016099614,-2.59332245095,1.39906716715
1589284651628310321,1082,1589284651628236523,,-0.107047298912,-2.59296244304,1.39887679418
1589284651634176380,1083,1589284651634076736,,-0.107155219242,-2.58958875513,1.39842177602
1589284651640153096,1084,1589284651640041784,,-0.107288700115,-2.58707936892,1.39804513501
1589284651646229610,1085,1589284651646133479,,-0.107379777088,-2.58505460706,1.39791683147
1589284651652262369,1086,1589284651652199539,,-0.107478161911,-2.58320033691,1.39767668161
1589284651658168548,1087,1589284651658051371,,-0.107728787624,-2.58208934862,1.39754891724
1589284651664538203,1088,1589284651664420006,,-0.107942551069,-2.58129812819,1.39761373754
1589284651670591068,1089,1589284651670450863,,-0.1082545068,-2.58075864905,1.39756155094
1589284651676146105,1090,1589284651676079798,,-0.108746589625,-2.57939593261,1.39795642012
1589284651681793116,1091,1589284651681718694,,-0.109035257739,-2.5778874188,1.39835133078
1589284651685335952,1092,1589284651685200901,,-0.10935527576,-2.57608723853,1.39869382651
1589284651691277312,1093,1589284651691192953,,-0.109685335575,-2.57376497403,1.39914717635
1589284651697628617,1094,1589284651697537592,,-0.110423630411,-2.57067059535,1.39946137363
1589284651703372537,1095,1589284651703238275,,-0.111045298453,-2.5695662056,1.39922781431
1589284651709256340,1096,1589284651709150451,,-0.111323293273,-2.56633105259,1.39966022273
1589284651715695000,1097,1589284651715625045,,-0.111534332748,-2.56276076844,1.40032301296
1589284651721297227,1098,1589284651721203248,,-0.112088002587,-2.55802120275,1.40108570411
1589284651727286944,1099,1589284651727173856,,-0.112423660814,-2.55344338288,1.40200695513
1589284651730000934,1100,1589284651729860154,,-0.112945248638,-2.55228902892,1.40239715037
1589284651735932952,1101,1589284651735863771,,-0.113283784405,-2.54724893245,1.40326411964
1589284651738961347,1102,1589284651738872356,,-0.113625468779,-2.5410485975,1.4045191821
1589284651742229503,1103,1589284651742153736,,-0.113673681993,-2.54054017957,1.40483977579
1589284651748013404,1104,1589284651747942972,,-0.113875466321,-2.53392439374,1.4063877036
1589284651751333304,1105,1589284651751252478,,-0.113905911989,-2.52743781375,1.40784067925
1589284651757315409,1106,1589284651757095895,,-0.114022769014,-2.52626618678,1.40804136506
1589284651763065056,1107,1589284651762985138,,-0.114053928998,-2.51936371761,1.4094370011
1589284651769059510,1108,1589284651768974973,,-0.113936163563,-2.51130976279,1.41105161904
1589284651772012781,1109,1589284651771921699,,-0.113875273265,-2.50341189876,1.41264019259
1589284651774962446,1110,1589284651774869830,,-0.113726799381,-2.50203654477,1.41279585902
1589284651777958341,1111,1589284651777894163,,-0.11360905505,-2.4936910316,1.414506933
1589284651780912888,1112,1589284651780848645,,-0.113504124308,-2.49309471753,1.41461688296
1589284651786936133,1113,1589284651786875158,,-0.113209922305,-2.48360203122,1.41649839942
1589284651790152255,1114,1589284651789927637,,-0.112876953547,-2.48239724707,1.41680616331
1589284651796114957,1115,1589284651796026942,,-0.112753715791,-2.47337187695,1.41862132549
1589284651799167631,1116,1589284651799063016,,-0.112703188412,-2.46374313997,1.42053580993
1589284651805168700,1117,1589284651805068343,,-0.112493559149,-2.45377188766,1.42250237474
1589284651811295990,1118,1589284651811218474,,-0.112319326317,-2.44355535788,1.42465847758
1589284651817480464,1119,1589284651817385557,,-0.112128766816,-2.43250306235,1.42693556269
1589284651823234247,1120,1589284651823151142,,-0.112003577239,-2.43210518778,1.4270708666
1589284651829280554,1121,1589284651829128451,,-0.111945990258,-2.42118071975,1.42936184696
1589284651832224418,1122,1589284651832123798,,-0.111876955336,-2.40983238112,1.43158343487
1589284651838270778,1123,1589284651838193864,,-0.111749897179,-2.3980451582,1.43412371002
1589284651847206918,1124,1589284651847132181,,-0.111584395335,-2.38564305319,1.43680154805
1589284651853354542,1125,1589284651853210619,,-0.111526879495,-2.3733317292,1.4394853078
1589284651859283543,1126,1589284651859205194,,-0.111431720427,-2.3604688261,1.4421737991
1589284651865280236,1127,1589284651865148675,,-0.11132802659,-2.3472775219,1.44493427229
1589284651871676091,1128,1589284651871614427,,-0.111225629529,-2.33368775679,1.44789352161
1589284651877034797,1129,1589284651876757240,,-0.111161146371,-2.33361262916,1.44806011011
1589284651883021615,1130,1589284651882895324,,-0.11103634552,-2.31956202494,1.45118089026
1589284651885933496,1131,1589284651885858317,,-0.11092747957,-2.30512783025,1.45423752536
1589284651888985666,1132,1589284651888886079,,-0.110806918576,-2.3049838044,1.45454479019
1589284651891797663,1133,1589284651891702679,,-0.110700392645,-2.2901330042,1.4576196133
1589284651895244650,1134,1589284651895150204,,-0.110554309601,-2.29001531893,1.4579673305
1589284651900912512,1135,1589284651900723919,,-0.110383679961,-2.27486283086,1.46132389203
1589284651904315971,1136,1589284651904258643,,-0.110309530256,-2.25932071796,1.46464999808
1589284651910449722,1137,1589284651910214239,,-0.110131657149,-2.25906379252,1.46507501308
1589284651916601668,1138,1589284651916504396,,-0.109943845416,-2.24305894393,1.46858374708
1589284651922244667,1139,1589284651922139065,,-0.109763674795,-2.22654903036,1.4723061918
1589284651928316227,1140,1589284651928213525,,-0.109555295784,-2.20956179872,1.47607086782
1589284651934293689,1141,1589284651934197126,,-0.109311218089,-2.1922157543,1.47991085582
1589284651940357658,1142,1589284651940210250,,-0.10908571744,-2.17446117569,1.48371854873
1589284651946403821,1143,1589284651946289131,,-0.108817032404,-2.15621543121,1.48781547293
1589284651952308622,1144,1589284651952196470,,-0.10849346706,-2.13759762171,1.49184097444
1589284651958017158,1145,1589284651957900599,,-0.108092109684,-2.11842048251,1.4960219443
1589284651961132150,1146,1589284651960925164,,-0.107720519561,-2.11749767616,1.49662426696
1589284651967214631,1147,1589284651967118771,,-0.106929016406,-2.09662047079,1.50154811404
1589284651973100432,1148,1589284651973014078,,-0.106558211275,-2.07642204038,1.50578342976
1589284651976429291,1149,1589284651976287839,,-0.106075119176,-2.07480452578,1.5065157078
1589284651982351454,1150,1589284651982218151,,-0.105289458691,-2.05232185267,1.51152770393
1589284651988407734,1151,1589284651988343794,,-0.10486952653,-2.03109211451,1.51590634568
1589284651994316504,1152,1589284651994166657,,-0.10410152136,-2.00812299272,1.52095802644
1589284652000121358,1153,1589284651999911474,,-0.103809621207,-1.98646050789,1.525427594
1589284652002867289,1154,1589284652002756416,,-0.103392234575,-1.98470478809,1.52600167741
1589284652006330238,1155,1589284652006255164,,-0.102734848827,-1.96088754326,1.53099167725
1589284652012626766,1156,1589284652012552675,,-0.102372813973,-1.93838017737,1.53563817323
1589284652017980619,1157,1589284652017906351,,-0.101696433051,-1.91441959037,1.54076902276
1589284652021275951,1158,1589284652021178118,,-0.101421609781,-1.91305266675,1.541049953
1589284652027158510,1159,1589284652027079010,,-0.100813163703,-1.8889887456,1.54599417734
1589284652030091079,1160,1589284652029938481,,-0.100676428156,-1.88794068898,1.54602605293
