%time,field.header.seq,field.header.stamp,field.header.frame_id,field.wrench.force.x,field.wrench.force.y,field.wrench.force.z,field.wrench.torque.x,field.wrench.torque.y,field.wrench.torque.z
1589284648579393960,499,1589284648579304228,,-0.128326289892,-0.126228093304,0.928291112294,0.244414902678,0.00331092127598,0.0285089429026
1589284648585256582,500,1589284648585160897,,-0.128317858612,-0.12623036133,0.928291969382,0.244415110472,0.00331261823953,0.0285069642323
1589284648588290585,501,1589284648588197255,,-0.128846733608,-0.126404006403,0.951551017982,0.245181884088,0.00267259089549,0.0285196780053
1589284648591287642,502,1589284648591198756,,-0.128850516138,-0.126403563379,0.951550564645,0.246101160725,0.00267295662889,0.0285408983026
1589284648594276074,503,1589284648594170907,,-0.12884807084,-0.12640678866,0.951550467312,0.246101197878,0.00267425920021,0.0285404559184
1589284648597276687,504,1589284648597193852,,-0.128851324376,-0.126407405818,0.951549944764,0.246101077591,0.00267511822105,0.0285414126216
1589284648600353320,505,1589284648600273122,,-0.1288538232,-0.126409555728,0.951549320785,0.246100998739,0.00267520448599,0.0285420844395
1589284648606287329,506,1589284648606141938,,-0.128858600714,-0.12641068739,0.95154852349,0.246100848084,0.0026754545704,0.0285433599762
1589284648609196343,507,1589284648609116951,,-0.128863631893,-0.126410308648,0.951547892469,0.246102561034,0.00332921192564,0.0285450103488
1589284648612489852,508,1589284648612410414,,-0.128318195406,-0.126250427262,0.928289194015,0.245333946526,0.00333078640007,0.0285298353537
1589284648618375243,509,1589284648618277136,,-0.128876769454,-0.126404966473,0.951546822897,0.246102164726,0.00332944862426,0.0285483993338
1589284648624469629,510,1589284648624392110,,-0.0623963280276,-0.126677024737,0.975748944065,0.246879089113,0.00397213281198,0.0281007341881
1589284648630351568,511,1589284648630271493,,-0.062401011296,-0.126680313051,0.975748217659,0.246878917763,0.0039732282342,0.0281020846913
1589284648636459236,512,1589284648636368577,,-0.106005458307,-0.126277768354,0.928566311298,0.245331433034,0.00333176339135,0.028673447108
1589284648642341475,513,1589284648642255728,,-0.106008160358,-0.126281259986,0.928565527986,0.245331308512,0.00333306785279,0.028674360905
1589284648648494310,514,1589284648648385303,,-0.0832789134355,-0.126150016122,0.905502694589,0.244557483342,0.00333419210721,0.028800544699
1589284648654475135,515,1589284648654371110,,-0.0832782024185,-0.126150778626,0.905502653752,0.244557463825,0.00333558543327,0.0288005490918
1589284648660347296,516,1589284648660217531,,-0.0832783958785,-0.126149438437,0.905502822668,0.24455739152,0.00333785322612,0.028800900318
1589284648666426539,517,1589284648666290691,,-0.0837870334472,-0.126318085674,0.928869153413,0.245328978479,0.00333837603759,0.028818678584
1589284648672358478,518,1589284648672260339,,-0.0832813669573,-0.126148501469,0.905502679948,0.244559100977,0.00398459654437,0.0288024215482
1589284648678406989,519,1589284648678305991,,-0.127786802301,-0.126084827275,0.904929879492,0.244536404036,0.00334107588706,0.0302908146288
1589284648684342635,520,1589284648684234697,,-0.105484890065,-0.126114318416,0.905202759975,0.244546696281,0.00334103880459,0.0295455942173
1589284648690444700,521,1589284648690325908,,-0.127792375275,-0.126082804299,0.904929374366,0.242707530662,0.00334199689262,0.0302515468568
1589284648696567600,522,1589284648696376034,,-0.12803253401,-0.000114315665232,0.927893881161,0.244386182285,0.00266482987692,0.0302947122768
1589284648702595541,523,1589284648702435878,,-0.127470976145,-0.000110654435604,0.904517091249,0.243626604985,0.00266953875762,0.0293943450035
1589284648708516953,524,1589284648708371170,,-0.149681808454,-7.42555014781e-05,0.904276142022,0.241777262566,0.00332615913279,0.0309811485133
1589284648714609419,525,1589284648714536261,,-0.149685595241,-8.03506984719e-05,0.904275514678,0.241777144611,0.00332507602974,0.0309821852826
1589284648720286415,526,1589284648720178410,,-0.150051055964,-0.126074130367,0.904675527315,0.241801563748,0.00332546810215,0.0292133491007
1589284648726282003,527,1589284648726212997,,-0.105528697074,-0.126131178274,0.905195304876,0.24182432817,0.00397089428079,0.027726701848
1589284648729377754,528,1589284648729296454,,-0.128041512398,-0.0001347553687,0.927892639519,0.241661798631,0.00332849649839,0.0293526952139
1589284648732345874,529,1589284648732269822,,-0.12747070238,-0.000112658964387,0.904517129582,0.240890312015,0.00332809799135,0.0293341855373
1589284648738440054,530,1589284648738320929,,-0.127473887882,-0.000107434862908,0.904516681289,0.241787399156,0.00332648597373,0.0302391617904
1589284648744341955,531,1589284648744268146,,-0.10605594181,-0.126280211674,0.928560214416,0.242594349369,0.00332620589844,0.0277411398418
1589284648750480076,532,1589284648750390812,,-0.106055975284,-0.126279760265,0.928560271982,0.242594357373,0.003325907675,0.0277411056073
1589284648756436538,533,1589284648756351298,,-0.106052351886,-0.126279725197,0.928560690592,0.242594421638,0.00332743134462,0.0277403608838
1589284648762358076,534,1589284648762280646,,-0.106049380614,-0.126277011637,0.928561398968,0.242594478766,0.00332860742257,0.0277397201897
1589284648768319611,535,1589284648768222727,,-0.105699359217,-0.000166140249334,0.928171502119,0.243514172366,0.00332730794902,0.0277575699577
1589284648774353318,536,1589284648774269070,,-0.127451611064,-0.00010539422153,0.90451982073,0.241835825865,0.00267811512099,0.0266873114061
1589284648780449046,537,1589284648780323343,,-0.105149030593,-0.000155598679172,0.904790080018,0.241848712345,0.00333126998462,0.0259397972352
1589284648786545048,538,1589284648786366020,,-0.105148243113,-0.000154286393215,0.904790171758,0.241848727186,0.00333187543805,0.0259395811094
1589284648792555572,539,1589284648792433783,,-0.104952092815,-0.125930892243,0.881944417129,0.24199984939,0.00333166888929,0.0259418460341
1589284648798620523,540,1589284648798515745,,-0.10494782415,-0.125933549701,0.881944545636,0.241999928178,0.00333321975378,0.0259409118234
1589284648804391962,541,1589284648804270233,,-0.105488301786,-0.126107389087,0.905203327774,0.242755463809,0.0033321709105,0.0268521658056
1589284648810494312,542,1589284648810393059,,-0.105487037139,-0.126105425507,0.905203748701,0.242755486095,0.00333275852118,0.0268518913989
1589284648816449253,543,1589284648816352369,,-0.0827767077575,-0.12596577994,0.882238828461,0.242023500384,0.00333565262287,0.0243153394752
1589284648822404887,544,1589284648822319310,,-0.0827803086407,-0.12596648326,0.882238390178,0.24202338526,0.00333620303916,0.024316409827
1589284648828447381,545,1589284648828367892,,-0.0824510609738,-0.000190742222461,0.881798390563,0.242025198256,0.00397952234807,0.0243179076333
1589284648834485846,546,1589284648834392236,,-0.104957792547,-0.125929080516,0.881943997528,0.241999593633,0.00333479021553,0.0259438307467
1589284648840323429,547,1589284648840235279,,-0.104962747413,-0.125931531658,0.881943057857,0.241986630229,0.00333468930143,0.0268387591511
1589284648846248763,548,1589284648846170603,,-0.104626546102,-0.00014224006991,0.881505886241,0.24107965802,0.00333655127963,0.0259281002524
1589284648849297800,549,1589284648849185401,,-0.104652431949,-0.000142847651727,0.881502813348,0.241078907308,0.0033357451275,0.0259351831268
1589284648852223786,550,1589284648852151342,,-0.105203768647,-0.000150574515706,0.904783717876,0.241845213766,0.00268121641763,0.0259540811543
1589284648855267067,551,1589284648855188885,,-0.127509027313,-0.000102416687674,0.904511728962,0.241834103255,0.00268077419034,0.0267026499617
1589284648858693571,552,1589284648858534258,,-0.127514815336,-0.000103107796519,0.904510912926,0.242753421098,0.00267810584095,0.0267241563396
1589284648864506693,553,1589284648864385927,,-0.127520268712,-0.000104953572949,0.904510143899,0.242753262695,0.00267780089124,0.0267256257413
1589284648870339948,554,1589284648870270057,,-0.105229390113,-0.000155138633847,0.9047807376,0.242763985304,0.0026787745189,0.0259807988744
1589284648876494571,555,1589284648876391680,,-0.128091897713,-0.000114681094116,0.927885688066,0.243524882232,0.00267657464201,0.0267436655753
1589284648882412478,556,1589284648882308366,,-0.1280943377,-0.00011434987403,0.92788535127,0.243524803306,0.00267737730964,0.0267443039088
1589284648888337085,557,1589284648888247894,,-0.127878930699,-0.126078307388,0.904917773501,0.243651650309,0.0033307275376,0.0276407445922
1589284648891378944,558,1589284648891269694,,-0.106111241011,-0.126279738774,0.928553961036,0.244434123201,0.0033291931956,0.0269120027288
1589284648897480178,559,1589284648897380364,,-0.106109540489,-0.126278155543,0.928554370675,0.245353631403,0.00332848202165,0.0269315727248
1589284648903348081,560,1589284648903274204,,-0.0843823030608,-0.126478370927,0.952129457491,0.246122041252,0.00397119568387,0.0270898987959
1589284648909282739,561,1589284648909173271,,-0.12843288304,-0.126245801189,0.928273962587,0.246239965318,0.00332586008791,0.0285795602155
1589284648912661550,562,1589284648912544646,,-0.106622430136,-0.126442592272,0.95181939715,0.247019305673,0.00332484204005,0.0278483860251
1589284648918480242,563,1589284648918317460,,-0.0843660042649,-0.126481728678,0.952130455788,0.247964332269,0.0039689414121,0.0262405450396
1589284648924433189,564,1589284648924346953,,-0.107038615249,-0.253031693788,0.952979787726,0.248850396754,0.0039668521088,0.027886131695
1589284648930418056,565,1589284648930299011,,-0.129415344257,-0.25300950781,0.952685252943,0.248825488259,0.00332103741839,0.029514711734
1589284648936626306,566,1589284648936443720,,-0.128872244869,-0.252720821212,0.929480842004,0.249883495679,0.00331799411911,0.0304230028203
1589284648942457867,567,1589284648942341203,,-0.128865876562,-0.252721224539,0.929481615283,0.251700035906,0.00331360855616,0.0313562328945
1589284648948502367,568,1589284648948332668,,-0.129401570594,-0.253013838731,0.9526859737,0.252456275402,0.00331371949737,0.0322573196964
1589284648954523797,569,1589284648954401896,,-0.129400068302,-0.253013653042,0.952686227068,0.252430158818,0.00265730994295,0.0340370189702
1589284648960444183,570,1589284648960250437,,-0.129400216644,-0.253012861778,0.952686417062,0.252430150079,0.0026574137836,0.0340370756719
1589284648966528468,571,1589284648966287590,,-0.107527157782,-0.253311068455,0.976197612602,0.252293209824,0.00395763075968,0.0332868017793
1589284648972358704,572,1589284648972228132,,-0.151782076323,-0.126528724374,0.974531778013,0.253180466801,0.00395560411969,0.0356828320519
1589284648975587160,573,1589284648975469086,,-0.129388730002,-0.253012145162,0.952688167501,0.252410436163,0.00395807945384,0.0358066639381
1589284648981566340,574,1589284648981478896,,-0.12938957971,-0.25301292648,0.952687844597,0.252410323825,0.00395958592803,0.0358072892762
1589284648987564938,575,1589284648987412090,,-0.152245315225,-0.25327334831,0.97562184811,0.253157099822,0.00395807844954,0.0374539371243
1589284648993512491,576,1589284648993415833,,-0.130453162873,-0.253560327731,0.999113431761,0.25394701769,0.00395890015778,0.0358407558629
1589284648999512554,577,1589284648999414580,,-0.152239723877,-0.253272179405,0.97562302407,0.253157254457,0.00395925939029,0.0374527670829
1589284649005307144,578,1589284649005213921,,-0.152235069942,-0.253276543663,0.975622617302,0.253157388228,0.00395994150755,0.0374517907479
1589284649011894021,579,1589284649011753856,,-0.174658324625,-0.253265034915,0.975367361325,0.253157267519,0.00331717511223,0.0373125520718
1589284649017326362,580,1589284649017234465,,-0.152234775953,-0.253279508195,0.975621893563,0.254076290283,0.00331589394548,0.0365866651852
1589284649023578735,581,1589284649023491830,,-0.174659887117,-0.253263802511,0.975367401536,0.254066423919,0.00331549669163,0.0373336501034
1589284649029459423,582,1589284649029362457,,-0.174659097316,-0.253263991393,0.975367493921,0.254066486649,0.00331483806266,0.0373332816931
1589284649035335938,583,1589284649035232195,,-0.152234779823,-0.253277043438,0.975622532828,0.254064620097,0.00331563884526,0.0374726455309
1589284649041508193,584,1589284649041294156,,-0.17465701773,-0.253267657087,0.975366914469,0.25405494134,0.00331535993571,0.0382190332066
1589284649047496185,585,1589284649047401561,,-0.174653183376,-0.253269005214,0.97536725101,0.254043504098,0.00331502199235,0.0391137625837
1589284649053407689,586,1589284649053317435,,-0.152231014078,-0.253283946008,0.975621328451,0.254053045579,0.00331577901512,0.0383675457229
1589284649059322081,587,1589284649059247683,,-0.175253118976,-0.380556106378,0.977035636533,0.254974145942,0.00331343338348,0.0382399030724
1589284649065400841,588,1589284649065330428,,-0.175250485474,-0.380556081124,0.977036118743,0.254962634395,0.00331305124035,0.0391350189995
1589284649071709020,589,1589284649071466932,,-0.175249425371,-0.380557264899,0.977035847811,0.255871807646,0.00331181130073,0.0391557797998
1589284649077499568,590,1589284649077405350,,-0.152792549939,-0.380560385915,0.977305037909,0.255881391117,0.00331108052269,0.0384095926811
1589284649083711792,591,1589284649083568730,,-0.176459607178,-0.508908116629,1.00217834046,0.257560939946,0.00395418507858,0.0391953512451
1589284649089456651,592,1589284649089350071,,-0.176457941527,-0.508909293518,1.00217803611,0.259377904111,0.00394979650597,0.0401230042371
1589284649095591800,593,1589284649095491144,,-0.176463459138,-0.508908587174,1.00217742327,0.259377752154,0.00394906954511,0.0401240581163
1589284649101534228,594,1589284649101424727,,-0.17700469039,-0.509306797871,1.02535792363,0.260149068133,0.00394795759952,0.0401428246769
1589284649107499680,595,1589284649107364693,,-0.177001253288,-0.509306332299,1.02535874822,0.260149188113,0.00394813885453,0.0401420292997
1589284649113390893,596,1589284649113319024,,-0.1549824226,-0.509685958766,1.04875450282,0.260029578456,0.00394725289345,0.0385048507455
1589284649116293333,597,1589284649116215522,,-0.132607435988,-0.637987626809,1.02816408501,0.259273208773,0.00460350416198,0.0377430914115
1589284649119416715,598,1589284649119317796,,-0.133103018533,-0.638395713943,1.05120631885,0.260041378987,0.00460058539755,0.0377612531304
1589284649122316488,599,1589284649122231951,,-0.155109447233,-0.637981224775,1.02783757263,0.259261326636,0.00394315607828,0.0384880607584
1589284649125364455,600,1589284649125289172,,-0.132631831853,-0.637982232633,1.0281642854,0.261089812395,0.00459276470882,0.0386727959861
1589284649128375873,601,1589284649128300798,,-0.13263881722,-0.637977727166,1.02816617993,0.261089791096,0.00459068698902,0.0386731864723
1589284649131428274,602,1589284649131324799,,-0.132148955691,-0.637553682795,1.00503856752,0.261239262786,0.00459006169693,0.0377894789922
1589284649137441901,603,1589284649137332422,,-0.177716837605,-0.637977455448,1.02752582799,0.262908202784,0.00393035170263,0.0393199613039
1589284649143380597,604,1589284649143239425,,-0.177715348441,-0.637977605424,1.02752599243,0.26290817597,0.00393114336079,0.0393200614522
1589284649146287823,605,1589284649146183877,,-0.155774609459,-0.767275717391,1.03010815281,0.263839483798,0.00392939789024,0.0376951230974
1589284649149266726,606,1589284649149198539,,-0.177714778442,-0.637977219613,1.02752633056,0.264748680203,0.00392730696044,0.0384638267254
1589284649152508494,607,1589284649152426707,,-0.155126415582,-0.637973620354,1.02783973188,0.264760703066,0.00458345111434,0.0377161739196
1589284649158404519,608,1589284649158296050,,-0.178406416766,-0.76728064368,1.02977979602,0.263817661804,0.00392893020131,0.039338930818
1589284649164414158,609,1589284649164332380,,-0.178410453425,-0.767282097493,1.02977801345,0.266577189642,0.00392430536184,0.0385049283174
1589284649170268174,610,1589284649170198951,,-0.155775184753,-0.767270790851,1.03011173533,0.26657334117,0.00327811785301,0.038653441823
1589284649173393001,611,1589284649173261463,,-0.155943901392,-0.896721528748,1.00932943258,0.265801672878,0.00328020739803,0.0386366964846
1589284649176320914,612,1589284649176239385,,-0.155281494883,-0.766846953892,1.00703822649,0.265813715692,0.00328178178966,0.0377397893385
1589284649179458359,613,1589284649179386906,,-0.156414176656,-0.89713423396,1.03236426702,0.266573366856,0.00328009947724,0.0386530965662
1589284649182299199,614,1589284649182226021,,-0.156411820177,-0.897136288566,1.03236283858,0.265676156453,0.00328285360069,0.0377357017813
1589284649185627169,615,1589284649185502067,,-0.179580538035,-0.89754318364,1.05496687612,0.266434368238,0.00328124847799,0.0385009204098
1589284649191523868,616,1589284649191395105,,-0.179578425447,-0.897544594627,1.05496603529,0.266434355019,0.0032818811574,0.0385009579661
1589284649197297659,617,1589284649197220970,,-0.179580536797,-0.897543828426,1.05496632776,0.267355484319,0.00328112389467,0.0376348037681
1589284649200260834,618,1589284649200193724,,-0.156884811604,-0.897543239359,1.05530970406,0.269184009341,0.00392463598753,0.0378155080655
1589284649206421905,619,1589284649206322049,,-0.134397362758,-1.02750054843,1.03488500599,0.270253109888,0.00327690273812,0.0370902980621
1589284649212597120,620,1589284649212518086,,-0.134393122924,-1.02749960226,1.03488649602,0.270253158279,0.00327764701002,0.0370898797052
1589284649218324719,621,1589284649218248743,,-0.157473354773,-1.02788747369,1.05743900263,0.272864472605,0.00391946123067,0.037001593281
1589284649224351384,622,1589284649224281410,,-0.135841949474,-1.15900657178,1.08273107942,0.273643297704,0.00391808286785,0.0362722109736
1589284649227451971,623,1589284649227268975,,-0.135832772896,-1.15900858984,1.08273007046,0.274526406288,0.00326902131805,0.0380757004275
1589284649233490003,624,1589284649233401927,,-0.157927933386,-1.02827931785,1.08036286037,0.275447902723,0.00326612926535,0.0379432109126
1589284649239390750,625,1589284649239295204,,-0.158375334199,-1.02866805097,1.10329849065,0.275311424538,0.00391426993681,0.0370489274396
1589284649245471835,626,1589284649245394022,,-0.13526191987,-1.02829588182,1.08072082962,0.276380408044,0.0032663413802,0.0363256028972
1589284649251642068,627,1589284649251539837,,-0.157898191941,-1.02829305506,1.08035413251,0.276384699757,0.003912287975,0.0361798491039
1589284649257550152,628,1589284649257435935,,-0.157899706415,-1.02829599915,1.08035110894,0.276382957783,0.00326428486214,0.0361788540045
1589284649263506094,629,1589284649263437232,,-0.181267979408,-1.15901372171,1.08197812628,0.277304848872,0.00326289308293,0.0360551145487
1589284649269425301,630,1589284649269329245,,-0.158468214506,-1.15902487012,1.0823372619,0.279131752859,0.00326120171663,0.0362337709332
1589284649275596977,631,1589284649275502035,,-0.158911212361,-1.15938670038,1.10525784238,0.280835172544,0.00325964811359,0.034480915541
1589284649281503887,632,1589284649281385039,,-0.159471140821,-1.29041606597,1.10711169092,0.284488398254,0.00259728200791,0.0354572328224
1589284649287435971,633,1589284649287348191,,-0.15938741478,-1.29041824848,1.10712120395,0.284501525836,0.00261365651617,0.0345551941262
1589284649293523910,634,1589284649293411682,,-0.136124726202,-1.15938900519,1.10564990151,0.284512072847,0.00261673655871,0.0338104912521
1589284649299559177,635,1589284649299453043,,-0.136134533544,-1.15935663712,1.10568263434,0.284511772445,0.00261773010111,0.0338129421093
1589284649305610617,636,1589284649305513815,,-0.159846554822,-1.29066282038,1.13024085209,0.286182439059,0.00261319828124,0.0345934879898
1589284649311855155,637,1589284649311752497,,-0.136677704468,-1.29034124679,1.10760046989,0.286341055098,0.00260955636285,0.0338496415886
1589284649317507181,638,1589284649317387406,,-0.137168650622,-1.29066851595,1.13062064608,0.28618058465,0.00259789832995,0.0347443302735
1589284649323680820,639,1589284649323484159,,-0.160026312161,-1.42163198666,1.10895028588,0.28450347529,0.00325478123233,0.0345554398532
1589284649329541797,640,1589284649329398954,,-0.159941356179,-1.2906759717,1.13021242225,0.286184254735,0.00324980347323,0.0345951925864
1589284649335600185,641,1589284649335495492,,-0.159952723876,-1.29068804225,1.13019702905,0.286185818987,0.00389635500239,0.0345977387171
1589284649341375495,642,1589284649341288712,,-0.159980362357,-1.29069416036,1.13018613016,0.28618548261,0.00389274947903,0.0346009268777
1589284649347667135,643,1589284649347563906,,-0.137775631391,-1.42199608642,1.13228906947,0.288023105916,0.00324064597092,0.0338961485521
1589284649353379704,644,1589284649353277065,,-0.137800539846,-1.42197974065,1.13230656611,0.28802281359,0.00323824404554,0.0338988619509
1589284649356717982,645,1589284649356424857,,-0.137798244651,-1.42196674256,1.13232316857,0.288009594023,0.00323957729255,0.0347990219771
1589284649362579421,646,1589284649362469477,,-0.1609840699,-1.4222542106,1.15486629721,0.288780090312,0.0032455029431,0.0346636604728
1589284649368569222,647,1589284649368444840,,-0.138586007621,-1.55378195901,1.1568452534,0.289708945832,0.00260499575253,0.0339325709268
1589284649374554652,648,1589284649374434544,,-0.138578602993,-1.55379704988,1.15682587132,0.289708930516,0.00260597076595,0.0339326268202
1589284649380539897,649,1589284649380409081,,-0.161373304115,-1.55378214527,1.15643256,0.289697944681,0.00260915675507,0.0346798688206
1589284649386576350,650,1589284649386463354,,-0.161368995643,-1.5538087245,1.15639744853,0.290604200716,0.00260800647896,0.0356002152804
1589284649392564890,651,1589284649392481333,,-0.161383700552,-1.55382158757,1.15637811259,0.290591370346,0.00260454097452,0.036490226293
1589284649398662920,652,1589284649398528390,,-0.161394206287,-1.55383187544,1.15636282244,0.292434825943,0.00325728353235,0.0356404589003
1589284649404603414,653,1589284649404443787,,-0.161391712525,-1.55383324533,1.15636132973,0.292434843218,0.00325758777843,0.0356402893478
1589284649410556800,654,1589284649410466704,,-0.16189999987,-1.68552232056,1.15782057154,0.292419862593,0.00260033556414,0.0365328148968
1589284649416617098,655,1589284649416453252,,-0.185310793746,-1.68577450471,1.18034378613,0.294993007148,0.00259222569993,0.038233933071
1589284649422612719,656,1589284649422518856,,-0.139585652485,-1.68581413474,1.18112350729,0.294096293237,0.00324493266197,0.0367221358805
1589284649428595704,657,1589284649428503074,,-0.162946466941,-1.81761371813,1.18208207416,0.294098360307,0.00324080210047,0.0365795457168
1589284649434396381,658,1589284649434316459,,-0.1629744118,-1.81761274743,1.1820797143,0.295004696754,0.00323549801326,0.0374916363984
1589284649437482925,659,1589284649437386084,,-0.163423380916,-1.8178552876,1.20501831056,0.297586863273,0.00257238121047,0.0384417478823
1589284649443620153,660,1589284649443532176,,-0.163413619963,-1.81785329334,1.20502264278,0.296669193114,0.00323383594646,0.0384221828685
1589284649449576470,661,1589284649449469083,,-0.16340814626,-1.81785698325,1.20501781858,0.298494946639,0.00323143952993,0.0393631949411
1589284649455596907,662,1589284649455494180,,-0.163412215935,-1.81785102771,1.20502625101,0.298495200201,0.00322975850751,0.0393614100768
1589284649461533933,663,1589284649461408068,,-0.163437522111,-1.81784921807,1.20502554895,0.300310435374,0.00322589083629,0.0402979895626
1589284649467642662,664,1589284649467547521,,-0.163896946345,-1.9497962069,1.20627243843,0.302139174967,0.00322488435854,0.0403379722284
1589284649473574709,665,1589284649473444465,,-0.141429927559,-1.950056231,1.22971373341,0.302921482379,0.00322425558472,0.0396080332975
1589284649479549531,666,1589284649479449658,,-0.164772557595,-1.95024842096,1.2522749088,0.3027466243,0.0032242447529,0.0412460145266
1589284649485512986,667,1589284649485410984,,-0.164801794224,-1.95023784942,1.25228752517,0.304575022589,0.00321847888225,0.0412888053827
1589284649491571264,668,1589284649491472447,,-0.142350216953,-2.08228663044,1.25386595603,0.30642630715,0.00386237192718,0.0405815368037
1589284649497370841,669,1589284649497301287,,-0.14236122775,-2.08227480324,1.25388434711,0.306426209691,0.00386162457257,0.0405823438213
1589284649503584801,670,1589284649503392307,,-0.165324818795,-2.21417316725,1.23159220514,0.306567265202,0.00321102528989,0.0404438966348
1589284649509531035,671,1589284649509409258,,-0.165319277068,-2.21418356368,1.23157425802,0.306567368566,0.00321100696583,0.0404431145773
1589284649516024592,672,1589284649515861303,,-0.165313295119,-2.2141955527,1.23155350632,0.308383334303,0.00320743665495,0.0413739641081
1589284649521389618,673,1589284649521316763,,-0.142787158916,-2.21443817097,1.25489923399,0.307348499747,0.00385971715636,0.0397112598281
1589284649527491653,674,1589284649527406355,,-0.166148288881,-2.21461596373,1.27743991977,0.310852627938,0.00320504349183,0.0405343867411
1589284649533538213,675,1589284649533406789,,-0.16615218752,-2.21461571835,1.2774398381,0.310852653889,0.00320440738824,0.0405342380165
1589284649539668624,676,1589284649539537087,,-0.143191862724,-2.21464196525,1.2778583282,0.31266671169,0.00320109836748,0.0416068274019
1589284649545554262,677,1589284649545446574,,-0.166567558032,-2.21480823416,1.30052348365,0.314376239345,0.003198605051,0.0397143312948
1589284649551507643,678,1589284649551424430,,-0.166554187935,-2.21479913692,1.30054068856,0.314376279999,0.00320054088387,0.0397138535175
1589284649557488842,679,1589284649557413408,,-0.143577427724,-2.34682339162,1.27889015171,0.313615795279,0.00320320604193,0.0389468124315
1589284649566615391,680,1589284649566505066,,-0.166538490438,-2.34679997917,1.27846440465,0.315443770645,0.0031996428839,0.0397340935926
1589284649572619224,681,1589284649572465620,,-0.166538898587,-2.34679722429,1.27846940843,0.315443518299,0.00320073770877,0.0397360087102
1589284649578675173,682,1589284649578526060,,-0.16611795743,-2.34661138011,1.25549924533,0.314673211354,0.00254266247697,0.0397202322035
1589284649584526376,683,1589284649584434201,,-0.166113618272,-2.34660704441,1.25550792313,0.315582444607,0.00254258710826,0.0397414564625
1589284649590592924,684,1589284649590514188,,-0.166964216565,-2.47906759134,1.27939020048,0.317245915576,0.00319760998865,0.0415619470762
1589284649596599137,685,1589284649596466317,,-0.166946162751,-2.47906797506,1.2793918129,0.317246182671,0.00319882831299,0.0415598145101
1589284649602594112,686,1589284649602465696,,-0.167779532278,-2.61157354566,1.30331122822,0.318004984234,0.00319737412823,0.0424680487524
1589284649608589791,687,1589284649608464404,,-0.166914625874,-2.61123975456,1.25726203765,0.318306866531,0.00319849561977,0.0415806850838
1589284649614840201,688,1589284649614753687,,-0.166919841584,-2.61124218346,1.25725630053,0.318307149058,0.00319676997192,0.0415786549438
1589284649620557808,689,1589284649620464525,,-0.166914270482,-2.61124505226,1.25725108183,0.319216959604,0.00319430009052,0.0415954315319
1589284649626537685,690,1589284649626434009,,-0.145581479448,-2.74413351959,1.32752847369,0.32336622327,0.00449456439464,0.0418259388376
1589284649629582568,691,1589284649629499310,,-0.169009285887,-2.74426362574,1.3500918241,0.324122152453,0.00383340435488,0.0425891811185
1589284649635659088,692,1589284649635559085,,-0.168989152154,-2.74426335428,1.35009489614,0.324122541259,0.0038343105247,0.0425861404489
1589284649641582412,693,1589284649641498598,,-0.168969397492,-2.74426283003,1.35009843426,0.325031856747,0.00383540344873,0.0426063515631
1589284649647552313,694,1589284649647447004,,-0.190811577326,-2.61153861209,1.30291350618,0.325299805194,0.00383500509267,0.0442674492671
1589284649653589143,695,1589284649653497714,,-0.168526131349,-2.7441054539,1.32710741256,0.326997223164,0.0031819843993,0.0435479912112
1589284649659384098,696,1589284649659285346,,-0.191220979015,-2.61170687381,1.32589663158,0.326986552574,0.00318109030849,0.0442986846971
1589284649662373662,697,1589284649662286226,,-0.168522386196,-2.74410452768,1.32710980332,0.326999664635,0.00383018686357,0.0435430999559
1589284649665405459,698,1589284649665323070,,-0.192068556771,-2.7442288822,1.3496880735,0.327755250167,0.00317808215548,0.0443131987948
1589284649668495766,699,1589284649668380863,,-0.192046991615,-2.74423138412,1.34968605519,0.327755151508,0.00318088903023,0.0443137271121
1589284649671543473,700,1589284649671372380,,-0.19117607177,-2.61171273829,1.32589155566,0.328804773696,0.0038306730488,0.0452267084847
1589284649677467487,701,1589284649677362940,,-0.191953021138,-2.744243068,1.34967566681,0.329560889024,0.00383403368432,0.0461317250683
1589284649686469217,702,1589284649686372168,,-0.192344366785,-2.8766345564,1.35044895889,0.329549224358,0.00383159042903,0.0470258683536
1589284649692402362,703,1589284649692254428,,-0.214098032001,-2.61168768428,1.32548831642,0.32877026891,0.00383263192927,0.0477584343016
1589284649695316091,704,1589284649695234089,,-0.192319212218,-2.87664648876,1.35042712368,0.330469318964,0.00382999134023,0.0470406419199
1589284649698325421,705,1589284649698253810,,-0.191487139314,-2.74409201154,1.32667504562,0.330597838428,0.0038285306437,0.0479354655256
1589284649701372742,706,1589284649701311588,,-0.192772125858,-2.87678873794,1.37343945117,0.332134551595,0.00382240463461,0.047969065604
1589284649704409885,707,1589284649704289406,,-0.192770225084,-2.87678685826,1.37344365511,0.332134486556,0.00382289729035,0.0479694766667
1589284649707441660,708,1589284649707332492,,-0.214548407773,-2.61184376221,1.34849409161,0.331366551713,0.00317132330469,0.0478084733512
1589284649710496209,709,1589284649710330415,,-0.214560797984,-2.61183687914,1.34850545171,0.330457169434,0.00317179647064,0.0477889908132
1589284649713583678,710,1589284649713457841,,-0.214086702318,-2.47953728405,1.34765035338,0.330469721717,0.00317767820603,0.0468877790677
1589284649719314617,711,1589284649719248187,,-0.213652712778,-2.47935355156,1.32467965557,0.329702933425,0.00383127620446,0.0468722361633
1589284649724232064,712,1589284649724131125,,-0.190217153858,-2.34715482346,1.32412290603,0.328819772944,0.003836062386,0.0443178915511
1589284649728541052,713,1589284649728411385,,-0.167141051101,-2.34718794151,1.32452336059,0.327911297333,0.00383867298074,0.0435451488812
1589284649731558456,714,1589284649731467069,,-0.188902617147,-2.21459102606,1.27706995772,0.32274146088,0.00385026419981,0.0414992223321
1589284649737486448,715,1589284649737390645,,-0.188900542539,-2.21459972793,1.2770551744,0.322741607223,0.00384963904017,0.0414981421946
1589284649746594009,716,1589284649746456786,,-0.164994803771,-2.21422379279,1.23154544384,0.312991404999,0.00322140364813,0.039648645882
1589284649752516148,717,1589284649752451086,,-0.142498081498,-2.08255118479,1.27677366097,0.313619404968,0.0032196214134,0.0389163801252
1589284649758583780,718,1589284649758482212,,-0.14252295194,-2.08255113913,1.27677095946,0.313619106724,0.00321743063297,0.038918964708
1589284649764531534,719,1589284649764455133,,-0.165923137295,-2.21462540639,1.2774528137,0.313596149993,0.00386494069763,0.0405655820465
1589284649770548381,720,1589284649770462358,,-0.165940511536,-2.34663813651,1.25547270101,0.31278701844,0.00321492858838,0.0432365928515
1589284649776648179,721,1589284649776483656,,-0.165957162295,-2.34663980423,1.25546738291,0.312786615623,0.00321422442061,0.0432395592058
1589284649782407392,722,1589284649782281935,,-0.189035881631,-2.34660820898,1.25506276244,0.314614307246,0.00320998379542,0.0440338294901
1589284649785644082,723,1589284649785509785,,-0.189037153467,-2.34661387812,1.25505197115,0.316419358023,0.00385524477274,0.0458589075684
1589284649791737575,724,1589284649791629697,,-0.189462145604,-2.34680230773,1.27801748517,0.317185732741,0.00320534360947,0.0458769808419
1589284649797493795,725,1589284649797415969,,-0.189882945951,-2.34699573671,1.30108075425,0.317948001844,0.00451422108696,0.0467974769553
1589284649803765840,726,1589284649803511056,,-0.212852288991,-2.34697177057,1.30067306372,0.317016273959,0.00385656622822,0.0475266958889
1589284649809614507,727,1589284649809484795,,-0.21284403728,-2.34697622893,1.30066636926,0.317016260168,0.00385754609232,0.0475267083559
1589284649815936386,728,1589284649815852466,,-0.212381910401,-2.21479500678,1.2996743503,0.312462873044,0.00321811362515,0.0456334529955
1589284649821659029,729,1589284649821571492,,-0.1659447789,-2.08276083858,1.29938592195,0.303417090039,0.00323819649414,0.0385673231081
1589284649827587892,730,1589284649827449073,,-0.165944998024,-2.0827676081,1.29937504318,0.303416877159,0.00323897366146,0.0385689325778
1589284649833592245,731,1589284649833501846,,-0.141310015808,-1.95009308235,1.22966907915,0.296594279117,0.00325254543718,0.034102065284
1589284649839562234,732,1589284649839474862,,-0.139996487932,-1.81765968623,1.1824578572,0.289608599963,0.002610314945,0.0303825009769
1589284649845547404,733,1589284649845442626,,-0.116204431041,-1.6855853618,1.15858407803,0.284312118738,0.00327421126969,0.02774579037
1589284649851731472,734,1589284649851636865,,-0.0929447134238,-1.68534639007,1.13607272004,0.280832145816,0.00262302840353,0.0251383269673
1589284649857532120,735,1589284649857439778,,-0.114909319304,-1.5533095122,1.11119580038,0.27915841878,0.00328330397384,0.0240653169986
1589284649866648600,736,1589284649866526906,,-0.114905119104,-1.55329962232,1.11121005936,0.277341087499,0.00263281471056,0.0231413300324
1589284649872552799,737,1589284649872472441,,-0.0929371288812,-1.68534323249,1.13607802474,0.276283115733,0.00329298593325,0.0232634581891
1589284649878567360,738,1589284649878456436,,-0.092940382941,-1.68534624068,1.13607329595,0.276283193838,0.00329185922471,0.023262690035
1589284649884762534,739,1589284649884562518,,-0.116230996583,-1.81718132291,1.13702619384,0.276243887587,0.00328746612647,0.0257935422983
1589284649890610983,740,1589284649890524095,,-0.116649546918,-1.81742958662,1.15994626853,0.276985295835,0.00328575662614,0.0275939947279
1589284649896557134,741,1589284649896451255,,-0.117478214199,-1.9496334444,1.18414084078,0.279569730747,0.00328268459722,0.0285347234567
1589284649902581965,742,1589284649902446592,,-0.140880570718,-1.94984095345,1.20666048092,0.283971860932,0.00327674333317,0.0302653368119
1589284649908532637,743,1589284649908430775,,-0.140904704607,-1.94983213628,1.20667191055,0.285782430433,0.00261288891052,0.0320927740166
1589284649914990890,744,1589284649914839633,,-0.141332453585,-1.95006895991,1.22970475471,0.287492235995,0.00326829751982,0.0303407488824
1589284649920629342,745,1589284649920478108,,-0.117891553497,-2.08171109893,1.18529373692,0.285976755444,0.00327136865248,0.028669111685
1589284649926537611,746,1589284649926442426,,-0.0723744101692,-2.08200735989,1.20904674613,0.285888213888,0.00392027194811,0.0253824296436
1589284649929571039,747,1589284649929451708,,-0.0949973815814,-1.94988986511,1.20749958374,0.28316783256,0.00327931457793,0.0233977740841
1589284649935639988,748,1589284649935527508,,-0.0711799595026,-1.94946021386,1.16205679296,0.278010084766,0.00263181018795,0.0207691343016
1589284649941557358,749,1589284649941380232,,-0.0711648017137,-1.9494661099,1.16204783011,0.278010126106,0.00263341568499,0.0207683774083
1589284649944454739,750,1589284649944388793,,-0.0703553557833,-1.81722744475,1.13788456891,0.276337845629,0.00329559126368,0.019846080031
1589284649947515695,751,1589284649947418548,,-0.0703472544956,-1.81722826782,1.13788375532,0.27452275566,0.00330156781026,0.0189141756283
1589284649953563051,752,1589284649953473543,,-0.0703362276615,-1.81723885446,1.13786752968,0.273601368888,0.002647539608,0.0188939852827
1589284649959500037,753,1589284649959400764,,-0.0703504551031,-1.81723720236,1.13786928864,0.272677015583,0.00264791538732,0.0197750136727
1589284649962562071,754,1589284649962390733,,-0.0707739655367,-1.81748050903,1.16079634182,0.275275225569,0.00264207572202,0.0198255773419
1589284649965461066,755,1589284649965386398,,-0.0937491718072,-1.81743529772,1.16039737527,0.277062443272,0.00198103383726,0.0223882441413
1589284649968487212,756,1589284649968402375,,-0.0937399583256,-1.81743400195,1.16040014905,0.277062391548,0.00198278629136,0.0223887290985
1589284649974551825,757,1589284649974452543,,-0.116632074735,-1.81739239341,1.16000629848,0.27978739824,0.00262987632412,0.0240787437112
1589284649980587317,758,1589284649980453905,,-0.117877130334,-2.08168501876,1.18534097431,0.283253395595,0.00262354235217,0.0268256035258
1589284649986671522,759,1589284649986507443,,-0.118280602672,-2.08190107911,1.20827969248,0.286745317845,0.00327514543434,0.028684477383
1589284649992492412,760,1589284649992407534,,-0.11909733168,-2.2142817219,1.23235968128,0.291146881016,0.00260872032384,0.030554207724
1589284649998656615,761,1589284649998493426,,-0.142961432145,-2.34666841177,1.25588471997,0.295546987058,0.00325943160854,0.0331889822709
1589284650004638136,762,1589284650004522840,,-0.142955019579,-2.34666515475,1.25589153577,0.295546909739,0.00326064932497,0.0331895511733
1589284650010803284,763,1589284650010698876,,-0.119860575236,-2.34668273661,1.25633822523,0.294664008529,0.0026092083575,0.0306284646825
1589284650016654280,764,1589284650016573455,,-0.119041310956,-2.21425540778,1.23241237328,0.289358513208,0.00262032508069,0.0278457861188
1589284650022688986,765,1589284650022602052,,-0.119055034809,-2.21424725417,1.23242569694,0.289358687458,0.00261782263048,0.0278442107236
1589284650028609551,766,1589284650028521428,,-0.0949343019027,-1.94986693316,1.20754157469,0.285885479181,0.00196747857697,0.0252375364029
1589284650034671109,767,1589284650034570981,,-0.0945107833763,-1.94963687617,1.1846052567,0.283321188766,0.00263193362478,0.0225109462886
1589284650040760488,768,1589284650040570939,,-0.0718637004596,-2.08176143581,1.18616644985,0.282421780065,0.00197860362684,0.0217428120193
1589284650046597430,769,1589284650046501639,,-0.0719337896967,-1.94990944547,1.20794691036,0.283204757751,0.00197591782283,0.0208689936327
1589284650052754585,770,1589284650052612092,,-0.0719289751239,-1.94991159258,1.20794373112,0.283235429584,0.00263412213169,0.0190822609864
1589284650058664308,771,1589284650058519119,,-0.0715229521994,-1.94968644826,1.18499797444,0.284279743164,0.00197425955487,0.0200038111221
1589284650064703323,772,1589284650064583316,,-0.0722978549253,-2.08197893036,1.20910028116,0.286863514735,0.00196918522485,0.020943662283
1589284650070689801,773,1589284650070580342,,-0.0965531188585,-2.21449816557,1.25576570458,0.290194689465,0.00261689005762,0.0235394752006
1589284650076835504,774,1589284650076587855,,-0.0969078227814,-2.34671271756,1.25676312438,0.290178873868,0.00196001692039,0.0244367335863
1589284650082622394,775,1589284650082516796,,-0.097282655828,-2.47899249611,1.25769488872,0.292885994556,0.00195178579622,0.0271701296104
1589284650088582664,776,1589284650088494027,,-0.121050560819,-2.61146540058,1.28110879753,0.295458693584,0.00194652488729,0.0288586877794
1589284650094609859,777,1589284650094500847,,-0.144997522975,-2.61176991231,1.32674106786,0.297866437619,0.00194013642861,0.0323408298133
1589284650100677857,778,1589284650100533938,,-0.121875522521,-2.61181793517,1.32713548006,0.300618238269,0.00259496174018,0.0316469386356
1589284650106733728,779,1589284650106607863,,-0.0984755007053,-2.6116843847,1.30457537225,0.301713829253,0.00259229832351,0.0300236364121
1589284650112869303,780,1589284650112772427,,-0.0977064654951,-2.47917961727,1.28064388912,0.300997364141,0.002595274477,0.0264381694499
1589284650118634176,781,1589284650118524131,,-0.0976784075307,-2.47917392146,1.28065705586,0.300997452438,0.00259815828405,0.0264368809113
1589284650124599218,782,1589284650124501864,,-0.0752972341235,-2.61170280132,1.3050451794,0.299986330639,0.00326694422794,0.0229845202936
1589284650130534859,783,1589284650130457635,,-0.0519414021544,-2.47941128084,1.30461714895,0.299101586152,0.00261417770531,0.0213264207161
1589284650136805311,784,1589284650136623983,,-0.0514982076544,-2.47923805881,1.28153668405,0.293824323723,0.00262915394932,0.0167636401524
1589284650142721536,785,1589284650142626715,,-0.0514623810192,-2.47924748898,1.28151987964,0.29382431901,0.00263300650511,0.0167631180819
1589284650148709156,786,1589284650148591846,,-0.0510761480568,-2.34699064181,1.28056017547,0.291991684223,0.00133771800563,0.0167246047166
1589284650154712160,787,1589284650154622730,,-0.0509248583159,-2.47909527597,1.25850724959,0.292134234021,0.00199129462776,0.0167279623108
1589284650160739201,788,1589284650160605232,,-0.0287454931455,-2.47949913373,1.30496126217,0.294575996108,0.00134154358817,0.0178075923915
1589284650166754667,789,1589284650166651979,,-0.0750139780461,-2.6117438124,1.30497941656,0.297258478705,0.00198486159827,0.0220330697989
1589284650172678442,790,1589284650172549498,,-0.0750143929296,-2.61176300101,1.30494098855,0.297258640129,0.00198344646552,0.0220310192994
1589284650178639968,791,1589284650178561190,,-0.122255974883,-2.87665582056,1.32859665038,0.303391581982,0.00131685899782,0.029906840518
1589284650184647845,792,1589284650184567836,,-0.122381959044,-2.87666568165,1.32856369996,0.303391631593,0.00130326528682,0.0299069327018
1589284650190610094,793,1589284650190533773,,-0.123655574645,-3.00939432236,1.37527749514,0.307651618001,0.00193464534552,0.0317880775172
1589284650196685231,794,1589284650196568597,,-0.100782187151,-2.87714283238,1.39809926336,0.310236558651,0.00192087005134,0.0328798542099
1589284650202658330,795,1589284650202564041,,-0.100514767443,-2.8769624314,1.3750442857,0.308587683493,0.0025703027716,0.0301656915956
1589284650208625261,796,1589284650208529521,,-0.100181014143,-2.87679616604,1.35207105034,0.307842958761,0.0012594409543,0.0283740661426
1589284650215039568,797,1589284650214919458,,-0.0766976131035,-2.87670153556,1.32946714859,0.305298888712,0.00126222008603,0.0248946603297
1589284650220683997,798,1589284650220576532,,-0.052537978531,-2.74401436306,1.28307191159,0.302904269135,0.00126389493818,0.0214147881432
1589284650226750308,799,1589284650226632885,,-0.0529570071129,-2.74417196958,1.30615554634,0.300036528216,0.00127110147303,0.0195775615842
1589284650232627305,800,1589284650232483614,,-0.0295172505152,-2.61181282601,1.30583813612,0.300064248382,0.0012813109725,0.0179242796287
1589284650238624829,801,1589284650238537882,,-0.0520431504572,-2.6115785905,1.28238067748,0.299292980747,0.000631981938466,0.0177665067567
1589284650244716994,802,1589284650244578986,,-0.0519363720566,-2.61156979591,1.28240291648,0.299293420299,0.000640575721235,0.0177587926438
1589284650250632510,803,1589284650250555240,,-0.0519743356132,-2.74395878434,1.2832137205,0.299265821355,0.0013243286338,0.019539276357
1589284650256881729,804,1589284650256680022,,-0.0517567412431,-2.74397998433,1.28317718165,0.299266367565,0.00134326170867,0.019529615734
1589284650262739693,805,1589284650262628918,,-0.0753888792148,-2.87653603934,1.30656183694,0.300917325433,0.00134812572515,0.0220844805991
1589284650268658513,806,1589284650268517999,,-0.0771979695318,-3.14190229393,1.37691711608,0.308627514653,0.00198566512115,0.027605379568
1589284650274762006,807,1589284650274671551,,-0.101006040578,-3.27454318235,1.40013424192,0.311185071926,0.00198725291447,0.0310961053656
1589284650280614825,808,1589284650280511483,,-0.101166003894,-3.27457812727,1.40004096252,0.311185040448,0.00197170334083,0.0310974101761
1589284650286689767,809,1589284650286594242,,-0.125526516232,-3.40731918934,1.44623297738,0.318119233068,0.00326603363442,0.0373619429572
1589284650292679615,810,1589284650292542299,,-0.125724193136,-3.40732781385,1.44619548658,0.318118964029,0.00324877912788,0.0373657378365
1589284650298864211,811,1589284650298708726,,-0.148739160545,-3.27474955885,1.4452339123,0.319948894068,0.00323425882426,0.0372755037737
1589284650304662132,812,1589284650304543232,,-0.12554082205,-3.14229607094,1.44501840353,0.319065897635,0.00254765335835,0.0347233665437
1589284650310680659,813,1589284650310585497,,-0.101436678465,-3.00957048138,1.39878934269,0.313934800676,0.00189065888041,0.0302886364823
1589284650316838632,814,1589284650316610083,,-0.0543275203173,-2.87693228965,1.3528012276,0.306999258046,0.00123299427103,0.0241823282792
1589284650322830757,815,1589284650322645974,,-0.0308077298012,-2.87686080166,1.33016680584,0.303523070758,0.00124622496687,0.0215679774745
1589284650329024924,816,1589284650328904486,,-0.0308330987662,-2.87683283288,1.33022670675,0.303523079976,0.00124400866677,0.0215679756919
1589284650334842343,817,1589284650334674998,,-0.029939857363,-2.74430056525,1.30640953318,0.300034520045,0.00126732523172,0.0197154007754
1589284650340766066,818,1589284650340641653,,-0.0527702435357,-2.74422611946,1.30604933335,0.300036774443,0.00128839911941,0.0195726566948
1589284650346740400,819,1589284650346639035,,-0.0526344578965,-2.74423551112,1.3060350791,0.299112360307,0.00130404333327,0.0204440854997
1589284650352804971,820,1589284650352666675,,-0.0523934855024,-2.74422581086,1.30606515004,0.300009207211,0.00197504441257,0.0213489053264
1589284650358883341,821,1589284650358771872,,-0.0534261592457,-2.87694833191,1.35280300898,0.306054310976,0.00263275010135,0.0259462033217
1589284650364697644,822,1589284650364563544,,-0.0533499128153,-2.87692635272,1.35285275914,0.306054235001,0.00264134235574,0.0259462262271
1589284650370870957,823,1589284650370774464,,-0.0770563623829,-3.00949134988,1.37610530114,0.30765895063,0.00198387195727,0.0311965515365
1589284650376686807,824,1589284650376577687,,-0.100911862459,-3.14206053187,1.39946133129,0.311128551998,0.00263777171375,0.034705719224
1589284650382693192,825,1589284650382603272,,-0.124793974473,-3.27461660858,1.4227558974,0.314572035229,0.00328402090321,0.0391097000013
1589284650388698046,826,1589284650388584082,,-0.149172894824,-3.40735955575,1.46894952908,0.316989753011,0.00261527349286,0.0416970536788
1589284650394568047,827,1589284650394479881,,-0.149708269829,-3.5398607762,1.46956371369,0.320634351419,0.00259089729903,0.0426787638014
1589284650400748214,828,1589284650400658336,,-0.149827840219,-3.53984806463,1.46958214714,0.320634631656,0.00257969415982,0.0426773370693
1589284650406638186,829,1589284650406545507,,-0.126108906471,-3.27482919315,1.46887169614,0.322514313499,0.00256501816091,0.0392775136656
1589284650412827659,830,1589284650412722427,,-0.125841164117,-3.27469368535,1.44584453365,0.321770939754,0.00189378014183,0.037468704976
1589284650418663217,831,1589284650418560039,,-0.125972079133,-3.27470125628,1.44581598563,0.32088855358,0.00188320520323,0.035664668479
1589284650424709171,832,1589284650424575538,,-0.0791721093823,-3.00985806583,1.44533130197,0.318286409952,0.000572124092002,0.0260478754782
1589284650430708821,833,1589284650430577402,,-0.0793078978491,-3.0098497301,1.44534121624,0.318286077753,0.000559937092429,0.0260521991806
1589284650436655648,834,1589284650436561794,,-0.0785266897361,-3.00954863117,1.39934094502,0.315841694563,-9.81246557427e-05,0.0251132591868
1589284650442749093,835,1589284650442642212,,-0.0786278238888,-2.87726140764,1.42164960948,0.315716456519,0.000560435169294,0.0242225247166
1589284650448728702,836,1589284650448643254,,-0.0782168030723,-2.87709318948,1.39867682878,0.314947569868,0.000562840644369,0.0242100604469
1589284650454754090,837,1589284650454654738,,-0.0792778893879,-3.00981419479,1.4454168606,0.319165573819,0.000568615291626,0.0278800899734
1589284650460704374,838,1589284650460604624,,-0.079184983598,-3.00979992712,1.44545166259,0.319166018731,0.000576258943333,0.0278748392738
1589284650466780607,839,1589284650466660550,,-0.102174822573,-3.00980155099,1.4449437926,0.320060721602,0.0012506940794,0.0295411608861
1589284650472765119,840,1589284650472614847,,-0.125146073816,-3.00976379491,1.44452379715,0.324600679111,0.0018971799263,0.0321752213627
1589284650478841822,841,1589284650478719709,,-0.1265351047,-3.27503682442,1.49183159027,0.329703873361,0.0025585228111,0.0385553318775
1589284650484657423,842,1589284650484553847,,-0.126461648828,-3.27507184253,1.4917609411,0.329703870616,0.00256487709551,0.0385549331556
1589284650490977362,843,1589284650490846721,,-0.151164540309,-3.40794327417,1.56099342107,0.332865626751,0.00322247322094,0.0429558837451
1589284650496876160,844,1589284650496560256,,-0.151262109832,-3.40798926899,1.56088354959,0.332865211803,0.00321332010375,0.0429597846724
1589284650502700807,845,1589284650502594540,,-0.150902905369,-3.40785891983,1.53783981681,0.331189239193,0.0025502482168,0.0420198393921
1589284650508841222,846,1589284650508725650,,-0.127194883732,-3.27527305752,1.5146190148,0.327748841119,0.00188012414619,0.0367254401055
1589284650515140668,847,1589284650515025257,,-0.1272997683,-3.27527893051,1.51459750301,0.325962742082,0.00253540401481,0.0340014458777
1589284650520794591,848,1589284650520681009,,-0.127539333826,-3.27522858206,1.51468622273,0.325961880128,0.00251700811528,0.0340110745877
1589284650526704213,849,1589284650526573044,,-0.150480141004,-3.14272075053,1.51362297664,0.324146840116,0.00184921958359,0.0329434483087
1589284650532746916,850,1589284650532628495,,-0.0800477583008,-3.01013188098,1.46805988785,0.319961398657,0.000537997136754,0.0261234320177
1589284650538586838,851,1589284650538485831,,-0.0801113084772,-3.01011101299,1.4680992087,0.319961611574,0.000530385313404,0.0261209797343
1589284650544663815,852,1589284650544566734,,-0.0792582270499,-2.87748530539,1.44450517629,0.317407506051,0.000547098872355,0.023383054101
1589284650550683625,853,1589284650550597234,,-0.0791872892365,-2.87747523329,1.44452913043,0.317407460655,0.000555333571695,0.0233834761921
1589284650556466804,854,1589284650556378105,,-0.0789379459003,-2.87742593919,1.44464096536,0.317407828223,0.000580929247053,0.023377864262
1589284650559739449,855,1589284650559640962,,-0.0792417320221,-2.87759804049,1.46762295902,0.319066716211,0.000589690445239,0.025205924766
1589284650565717781,856,1589284650565594734,,-0.102902595578,-3.01011633158,1.49104003087,0.319798556583,0.00127420614393,0.0277711030156
1589284650571761078,857,1589284650571658464,,-0.102782855539,-3.01012346595,1.49103388689,0.319798161009,0.00128880383416,0.02777498436
1589284650577731109,858,1589284650577598144,,-0.126054024739,-3.14254201842,1.49125966873,0.322464982467,0.00194557305025,0.0330578906464
1589284650586680561,859,1589284650586570625,,-0.104189857952,-3.40772831675,1.51583339415,0.32504521583,0.00193020765867,0.0341693912205
1589284650589450694,860,1589284650589373335,,-0.104285068129,-3.40773611153,1.51580932339,0.325044788061,0.00192288693642,0.0341738729464
1589284650592585342,861,1589284650592485556,,-0.1049953977,-3.40784022687,1.53887900293,0.325798621097,0.00189778425751,0.0350910501775
1589284650595630173,862,1589284650595508419,,-0.10512305224,-3.40782106931,1.53891271179,0.326722164908,0.00188506998667,0.0342183287772
1589284650598541276,863,1589284650598415776,,-0.127994757804,-3.40764585519,1.51544469057,0.325943257427,0.00252746410473,0.0349554356964
1589284650601539908,864,1589284650601450798,,-0.128101771572,-3.40762705585,1.51547792031,0.325956028681,0.00185724227957,0.0340505778696
1589284650604724351,865,1589284650604603676,,-0.128200378551,-3.40761801158,1.51548991837,0.325957310417,0.002509794473,0.034055374595
1589284650610684159,866,1589284650610581756,,-0.151048153108,-3.27508574118,1.51444683189,0.325972445076,0.00184482624981,0.0330171679155
1589284650616922760,867,1589284650616625005,,-0.104273111977,-3.27498316305,1.4924028231,0.323427578099,0.00186065361256,0.0296620595582
1589284650622691969,868,1589284650622611320,,-0.0340731898792,-3.14251835558,1.46992030555,0.320936252367,0.00188264337536,0.0228879807093
1589284650628555876,869,1589284650628448186,,-0.0562755118296,-3.00985659582,1.44584724694,0.317449466102,0.00125094374716,0.0208758653776
1589284650631737811,870,1589284650631644194,,-0.032258223531,-2.87737017477,1.42247910021,0.312184090654,0.000627662245579,0.0164420669407
1589284650637708528,871,1589284650637590760,,-0.0320552835817,-2.87743566437,1.42235120923,0.312184205007,0.00064748038661,0.0164391269954
1589284650643703182,872,1589284650643620895,,-0.0319933906956,-2.8774443556,1.42233502015,0.309479873996,1.55594306142e-06,0.0137016676253
1589284650649526585,873,1589284650649451514,,-0.0319309504667,-2.87746341115,1.42229787248,0.307650220135,1.2070842125e-05,0.0136673843016
1589284650655536010,874,1589284650655455862,,-0.0319363841514,-2.87749372684,1.42223641689,0.307650112943,1.23914038385e-05,0.0136697966772
1589284650658435451,875,1589284650658368701,,-0.0553191923035,-2.74524738761,1.44402342926,0.310219735671,-1.62348723097e-05,0.0153637865181
1589284650661704830,876,1589284650661599050,,-0.0319770370573,-2.74513182108,1.42143609832,0.312183798974,0.000626704146858,0.0164476406449
1589284650664548770,877,1589284650664438432,,-0.032095975161,-2.74512044717,1.42145538324,0.312183861857,0.000612945972593,0.0164469655638
1589284650667555142,878,1589284650667472339,,-0.0327663005113,-2.74529314035,1.4444376638,0.31293669002,0.000588366556134,0.0173646183908
1589284650673795759,879,1589284650673660746,,-0.0329536679808,-2.74529265319,1.44443432721,0.312001663521,0.000568788263102,0.0182384696342
1589284650679825012,880,1589284650679719229,,-0.0805915768951,-3.01026011097,1.49121333244,0.313426004568,-0.000101823750833,0.025131841849
1589284650685817161,881,1589284650685636543,,-0.0806773690097,-3.01024358976,1.49124204382,0.313425694911,-0.000108610083113,0.0251356749602
1589284650691796651,882,1589284650691682927,,-0.128117629545,-3.27519398822,1.51471222094,0.316850638483,0.00119104895432,0.0311748527421
1589284650697722040,883,1589284650697585713,,-0.12803062447,-3.27515513155,1.5148035923,0.316850384001,0.00120137297576,0.0311770429984
1589284650703808750,884,1589284650703702338,,-0.0820639580668,-3.27537685507,1.53871141825,0.319473629102,0.00186090873351,0.0297321542428
1589284650709499853,885,1589284650709390582,,-0.081892879486,-3.27535245692,1.53877246657,0.319473349463,0.00187904622426,0.0297340181822
1589284650712716231,886,1589284650712632011,,-0.10434660361,-3.27516255871,1.51535465124,0.318734380803,0.00125931687006,0.0277898954129
1589284650715851083,887,1589284650715784633,,-0.0805876794522,-3.14281794731,1.51499535417,0.317856332468,0.00128653471337,0.0252235143508
1589284650721581383,888,1589284650721488458,,-0.0574262279924,-3.14288327405,1.51538029043,0.317003555065,0.00129969954434,0.0217718456106
1589284650725372001,889,1589284650725301886,,-0.0562572088264,-3.01019467983,1.46848425688,0.315492950886,0.00130491058681,0.0199573423211
1589284650730485847,890,1589284650730391209,,-0.0566209572843,-3.01039002802,1.49151114374,0.314449187382,0.000654581764785,0.0190356325685
1589284650733521473,891,1589284650733386414,,-0.0328845600121,-2.87788338922,1.46809939222,0.311880981371,0.000658265916976,0.0164535834767
1589284650736456928,892,1589284650736393428,,-0.0100637719154,-2.87796805394,1.4684508293,0.311013666588,-1.84776413257e-05,0.0139009229021
1589284650739592845,893,1589284650739515027,,-0.0102344921889,-2.87792943506,1.46852533484,0.309182463275,-0.000679998736848,0.0138687660407
1589284650742727566,894,1589284650742636019,,-0.0101012067069,-2.87774482813,1.44556696717,0.308462429711,-5.69899173568e-05,0.0111749315172
1589284650748716702,895,1589284650748656703,,-0.0102505676031,-2.87771852106,1.44561828508,0.306632767207,-6.85069078053e-05,0.0111405490114
1589284650754760060,896,1589284650754674985,,-0.010471205973,-2.87769022984,1.44567302033,0.306632715224,-9.11684959944e-05,0.0111418173038
1589284650760777568,897,1589284650760678603,,-0.0105217729107,-2.87769429597,1.4456645593,0.306616658082,-9.63383363902e-05,0.012043718592
1589284650766872696,898,1589284650766769608,,-0.010530738435,-2.87769105291,1.44567094953,0.306616545243,-9.5821492842e-05,0.0120465950815
1589284650772728686,899,1589284650772645672,,-0.03359788187,-2.7454331373,1.46748253372,0.309170466424,-9.74466748453e-05,0.0146241164091
1589284650778781086,900,1589284650778688271,,-0.0575618206068,-3.01028941967,1.49167817982,0.314431318578,-9.32082695675e-05,0.0199545820971
1589284650784856548,901,1589284650784757877,,-0.0574490140988,-3.01026955618,1.49172261342,0.314431259341,-8.06405820383e-05,0.0199555702315
1589284650790982596,902,1589284650790837679,,-0.0809390637365,-3.14282042291,1.51497148636,0.316068510493,0.000606324509162,0.0225210115535
1589284650796641934,903,1589284650796400579,,-0.105164754808,-3.2755141578,1.56124750535,0.318469712,0.00127285193091,0.0260117039985
1589284650799661974,904,1589284650799564926,,-0.0825009700995,-3.40817139627,1.58543071189,0.320148533745,0.00129367230351,0.0261911860097
1589284650802524609,905,1589284650802467783,,-0.105568523409,-3.40812273178,1.58502356034,0.320121478105,0.00130368433479,0.0278438794493
1589284650805676277,906,1589284650805562263,,-0.105421334756,-3.40812693457,1.58502431997,0.321057006945,0.00196770390861,0.026964464791
1589284650808549218,907,1589284650808490121,,-0.105131931806,-3.2756862582,1.58434077208,0.319240883786,0.00131945854535,0.0260345071632
1589284650811960619,908,1589284650811888843,,-0.10483865064,-3.27560059808,1.56108807431,0.318468672201,0.00130851372172,0.0260226627465
1589284650817669435,909,1589284650817597519,,-0.104957029057,-3.27560049439,1.56108033739,0.318468559566,0.00129785784523,0.0260245747559
1589284650820588461,910,1589284650820517482,,-0.0581984231797,-3.14308270323,1.53827777943,0.316878906356,0.000623009825629,0.0200201402195
1589284650823735709,911,1589284650823638932,,-0.0580021076061,-3.01066031335,1.53759677938,0.315984511128,0.000614269780496,0.0191017431868
1589284650826513814,912,1589284650826444149,,-0.058229672988,-3.01062752875,1.53765237005,0.315984685523,0.000589663931488,0.0190996336248
1589284650829562303,913,1589284650829448690,,-0.0583269378795,-3.01062660934,1.53765048376,0.315078456429,-7.51717781069e-05,0.0181934478254
1589284650832497729,914,1589284650832397497,,-0.0584635152626,-3.01061746469,1.53766320157,0.315095361505,0.000570974799018,0.0173037177416
1589284650835641642,915,1589284650835558212,,-0.0577197239858,-2.87806438021,1.51394204854,0.314340462432,-8.67258183237e-05,0.0163981673078
1589284650841493958,916,1589284650841421127,,-0.0346217826119,-2.87811033123,1.51438094717,0.313465097541,-7.55006372794e-05,0.0138425104414
1589284650844582793,917,1589284650844516661,,-0.0341531410958,-2.87793959007,1.49139082952,0.311818321083,-6.52983547375e-05,0.0120194232805
1589284650847746122,918,1589284650847677516,,-0.0340242492377,-2.8779196316,1.49143228878,0.311818315295,-5.10467809421e-05,0.0120196424196
1589284650850546108,919,1589284650850477328,,-0.0108823290388,-2.87797210341,1.4918601533,0.311833117154,0.000620550551736,0.0112745194032
1589284650853579788,920,1589284650853513601,,-0.0106975408123,-2.87801816528,1.49177262778,0.310929375091,0.000641160979465,0.0103631743707
1589284650856829881,921,1589284650856586138,,-0.0332175458338,-2.87784274207,1.46817157315,0.309248586241,-4.05732473142e-06,0.0101883703072
1589284650862639033,922,1589284650862505889,,-0.0328815773225,-2.74547832629,1.46741421472,0.31014238424,-1.48440079386e-06,0.011096669342
1589284650865565334,923,1589284650865488164,,-0.0335602513099,-2.87799784685,1.49129186631,0.310898515818,2.89949539374e-07,0.0120016673745
1589284650868606360,924,1589284650868519752,,-0.033537109698,-2.87798851333,1.49131039925,0.310898547755,2.4379336152e-06,0.0120008397956
1589284650871631605,925,1589284650871516812,,-0.0333093211436,-2.74566416129,1.49048827772,0.310866650783,-4.6896827085e-06,0.0137945782568
1589284650874825536,926,1589284650874683090,,-0.0336519222224,-2.87803263781,1.49122265652,0.310850962567,-1.1200450748e-05,0.0146853833611
1589284650880770527,927,1589284650880619337,,-0.0573511874338,-2.87813440973,1.51382291906,0.311591950336,0.000624020729128,0.0163570631964
1589284650886677166,928,1589284650886545186,,-0.0577720659157,-3.01050653033,1.51457183443,0.312449982564,0.000609697964036,0.0199514117168
1589284650889604637,929,1589284650889499947,,-0.10407896113,-3.01039037378,1.51375780361,0.31241081477,0.00125869313165,0.0223457916097
