%time,field.header.seq,field.header.stamp,field.header.frame_id,field.vector.x,field.vector.y,field.vector.z
1589284648579237912,499,1589284648579125563,,0.499179667577,-0.200320780793,0.219246674058
1589284648585152718,500,1589284648585022093,,0.499178655227,-0.20031552421,0.219244096997
1589284648588145740,501,1589284648588049291,,0.499177671929,-0.200291988064,0.219237984496
1589284648591179577,502,1589284648591064726,,0.499176822833,-0.200289161924,0.219238652338
1589284648594111206,503,1589284648594012200,,0.499174805717,-0.20028517665,0.219237955904
1589284648597160285,504,1589284648597053959,,0.499173845582,-0.200284267152,0.219238913064
1589284648600243435,505,1589284648600103433,,0.499171638909,-0.200283152437,0.219238817919
1589284648606167306,506,1589284648606020607,,0.499171376415,-0.200283602737,0.219240793271
1589284648609153738,507,1589284648608994633,,0.499170337892,-0.200283384238,0.21924230083
1589284648612408858,508,1589284648612281809,,0.499169502452,-0.200283449257,0.219244100024
1589284648618232610,509,1589284648618055436,,0.499168835617,-0.200284641641,0.219247109195
1589284648624296557,510,1589284648624137689,,0.499168162739,-0.200286341831,0.219247631709
1589284648630193484,511,1589284648630066164,,0.499167408901,-0.200286641574,0.219249094577
1589284648636282236,512,1589284648636159528,,0.499167207764,-0.200288844389,0.219251760512
1589284648642256309,513,1589284648642073403,,0.499165859261,-0.200290401923,0.219252727572
1589284648648293219,514,1589284648648083126,,0.499165186225,-0.200291369738,0.219253911974
1589284648654230674,515,1589284648654097152,,0.499164811786,-0.200292183775,0.219254655128
1589284648660146163,516,1589284648660034563,,0.499163103722,-0.200295684947,0.219256157177
1589284648666262873,517,1589284648666092957,,0.499163011683,-0.200296883328,0.219258541386
1589284648672235466,518,1589284648672079954,,0.49916081945,-0.200302011741,0.219260008777
1589284648678211481,519,1589284648678094384,,0.499159667422,-0.200303847103,0.219261543171
1589284648684235158,520,1589284648684046552,,0.499156426471,-0.2003143243,0.219264405503
1589284648690177101,521,1589284648690059924,,0.499154164775,-0.200321729738,0.219265726006
1589284648696346365,522,1589284648696092732,,0.499148468573,-0.200364724162,0.219276354688
1589284648702286782,523,1589284648702167642,,0.499146253262,-0.200369894142,0.219279223461
1589284648708295177,524,1589284648708124187,,0.499143858402,-0.200375684206,0.21928059237
1589284648714538921,525,1589284648714368667,,0.499141874551,-0.200380880742,0.219282681869
1589284648720198913,526,1589284648720064850,,0.499139371548,-0.20038581227,0.219282837445
1589284648726137250,527,1589284648726028044,,0.499133248662,-0.200399524842,0.219284487782
1589284648729181670,528,1589284648729070876,,0.499130349877,-0.20040502733,0.219285462569
1589284648732131232,529,1589284648732053923,,0.499124671188,-0.200416835909,0.219286029106
1589284648738261710,530,1589284648738130012,,0.499122503855,-0.200421735883,0.219286579659
1589284648744145586,531,1589284648744062867,,0.499118860567,-0.200426892179,0.219284825696
1589284648750176031,532,1589284648750077130,,0.499117166201,-0.200430869029,0.219285078286
1589284648756248322,533,1589284648756116167,,0.499112976365,-0.200434939345,0.219283990502
1589284648762191846,534,1589284648762068421,,0.499111468503,-0.200437136025,0.219283092129
1589284648768165849,535,1589284648768064559,,0.499108462804,-0.200441858549,0.219280697061
1589284648774218101,536,1589284648774082025,,0.499106562776,-0.200443960668,0.219279851081
1589284648780211924,537,1589284648780113970,,0.499103362633,-0.200451674958,0.219276825005
1589284648786216866,538,1589284648786090304,,0.499102043501,-0.200454554691,0.219276575378
1589284648792280971,539,1589284648792116975,,0.49909945557,-0.20046161819,0.21927540067
1589284648798361700,540,1589284648798183341,,0.499097950647,-0.200463176409,0.219274265219
1589284648804237803,541,1589284648804076290,,0.499096126142,-0.200469098335,0.219274173074
1589284648810252393,542,1589284648810136925,,0.499094918087,-0.200471215857,0.219272574606
1589284648816187584,543,1589284648816090730,,0.499092909548,-0.200475019429,0.219270733036
1589284648822239388,544,1589284648822093688,,0.499092487142,-0.200476280522,0.219270678291
1589284648828265929,545,1589284648828145629,,0.499091041401,-0.20047910402,0.21926904361
1589284648834295400,546,1589284648834148934,,0.499090254364,-0.200481146637,0.21926779597
1589284648840233992,547,1589284648840074444,,0.499088868001,-0.20048214931,0.219264437032
1589284648846236154,548,1589284648846037066,,0.499088654514,-0.200481842213,0.219264081182
1589284648849160762,549,1589284648849049471,,0.499087479651,-0.200483841257,0.219261938773
1589284648852119263,550,1589284648852035517,,0.499087270815,-0.200484724811,0.219261046259
1589284648855186732,551,1589284648855054773,,0.499085936778,-0.200484700132,0.219257960442
1589284648858294886,552,1589284648858153202,,0.499085833944,-0.200485962759,0.219256575311
1589284648864225621,553,1589284648864107994,,0.499084523446,-0.200486987203,0.219252383423
1589284648870136091,554,1589284648870065165,,0.499083225445,-0.20048733797,0.219250355779
1589284648876287628,555,1589284648876129920,,0.499082650017,-0.200489426341,0.219246789938
1589284648882246900,556,1589284648882077196,,0.499081696365,-0.200490148331,0.219244845208
1589284648888239874,557,1589284648888098840,,0.499080030823,-0.200492757246,0.219239542336
1589284648891244699,558,1589284648891074196,,0.499079214998,-0.20049439343,0.219237012698
1589284648897418707,559,1589284648897146198,,0.499078392266,-0.200495452262,0.219235436956
1589284648903221813,560,1589284648903084328,,0.49907626498,-0.200498148331,0.219229543662
1589284648909250392,561,1589284648909044066,,0.499074837668,-0.200501591655,0.219224529022
1589284648912485731,562,1589284648912289070,,0.499073174302,-0.200503245767,0.219220621035
1589284648918254165,563,1589284648918121854,,0.499072428114,-0.200502693958,0.219217958451
1589284648924265830,564,1589284648924151694,,0.499070867948,-0.200505640629,0.219212869899
1589284648930218708,565,1589284648930107446,,0.499069567387,-0.200507451915,0.219208927981
1589284648936307578,566,1589284648936155733,,0.49906936755,-0.200509106458,0.219207919147
1589284648942204845,567,1589284648942086159,,0.499067801091,-0.200511886816,0.219203062465
1589284648948253256,568,1589284648948087344,,0.499067223418,-0.200510480876,0.219200486004
1589284648954254333,569,1589284648954115017,,0.499065292893,-0.200514541515,0.219196323466
1589284648960219742,570,1589284648960090002,,0.499065185563,-0.200516229291,0.219195873418
1589284648966236765,571,1589284648966099023,,0.499063884629,-0.200518943648,0.219192365397
1589284648972221935,572,1589284648972087891,,0.499063037266,-0.200519580063,0.219190761792
1589284648975277761,573,1589284648975165701,,0.499061535896,-0.20052282859,0.219187140631
1589284648981337468,574,1589284648981195614,,0.499061072879,-0.200523464755,0.219186912382
1589284648987214348,575,1589284648987117855,,0.499060154043,-0.200524742304,0.219185382039
1589284648993322136,576,1589284648993175351,,0.499059729075,-0.200525636529,0.219184170917
1589284648999308874,577,1589284648999116584,,0.499059037956,-0.20052842655,0.219183347611
1589284649005217406,578,1589284649005078636,,0.499058164043,-0.200529900032,0.219182029346
1589284649011662669,579,1589284649011514416,,0.499057648575,-0.200530484583,0.219181782459
1589284649017323770,580,1589284649017101519,,0.499056751126,-0.200531928525,0.219180768606
1589284649023342374,581,1589284649023146165,,0.499055597786,-0.200535226928,0.219180285514
1589284649029343064,582,1589284649029127607,,0.499054344074,-0.200538364268,0.219179987697
1589284649035192553,583,1589284649035053342,,0.499054179702,-0.200539158551,0.219180619647
1589284649041263069,584,1589284649041122616,,0.499052811042,-0.200541724634,0.219180227648
1589284649047386417,585,1589284649047193864,,0.499051889934,-0.200544532661,0.21917993747
1589284649053252480,586,1589284649053143193,,0.499049754528,-0.200548651069,0.219180154329
1589284649059236133,587,1589284649059104357,,0.49904878293,-0.200552226087,0.219180675069
1589284649065219556,588,1589284649065106827,,0.499046881545,-0.200557844399,0.219181127702
1589284649071280665,589,1589284649071172177,,0.499045769087,-0.20056079008,0.219181380209
1589284649077267897,590,1589284649077141554,,0.499045345437,-0.200563010609,0.21918205459
1589284649083310130,591,1589284649083186289,,0.499043336227,-0.200568119296,0.219182844219
1589284649089279261,592,1589284649089122496,,0.499040554027,-0.200575943942,0.21918301888
1589284649095334581,593,1589284649095184286,,0.499040230871,-0.200578768498,0.21918466522
1589284649101319081,594,1589284649101189625,,0.499039371414,-0.200581512356,0.219185655861
1589284649107248927,595,1589284649107116830,,0.499037381859,-0.200587717807,0.219185963708
1589284649113311612,596,1589284649113196920,,0.499035752528,-0.200594744225,0.219187038501
1589284649116182070,597,1589284649116082621,,0.499034769318,-0.200598394383,0.219186903967
1589284649119294552,598,1589284649119192873,,0.499034130369,-0.200603281687,0.219188604412
1589284649122195021,599,1589284649122108893,,0.49903247415,-0.200613009346,0.219189820385
1589284649125352375,600,1589284649125117469,,0.499030704762,-0.200621782286,0.219191328523
1589284649128221063,601,1589284649128124730,,0.499030881944,-0.200626163218,0.219192247854
1589284649131206772,602,1589284649131133948,,0.499029906618,-0.200629567407,0.219192511553
1589284649137231278,603,1589284649137129537,,0.499029430007,-0.200633219937,0.219192747116
1589284649143209834,604,1589284649143119475,,0.499028948537,-0.200634261689,0.219193463336
1589284649146170858,605,1589284649146060184,,0.499028696477,-0.200635731479,0.219193105966
1589284649149175935,606,1589284649149079906,,0.499027625707,-0.200639945106,0.219193118524
1589284649152331858,607,1589284649152160196,,0.499027338797,-0.200639748271,0.219193418619
1589284649158220832,608,1589284649158115420,,0.499026471589,-0.200640479924,0.219192395728
1589284649164261219,609,1589284649164134416,,0.49902700701,-0.200641181142,0.219193741645
1589284649170193869,610,1589284649170078735,,0.499026746219,-0.200641788254,0.219193991346
1589284649173249198,611,1589284649173130779,,0.499026495056,-0.200640861137,0.219194588145
1589284649176275475,612,1589284649176123244,,0.499026239421,-0.200639871408,0.219194831804
1589284649179375989,613,1589284649179160429,,0.4990259274,-0.200639146528,0.21919398141
1589284649182193269,614,1589284649182110338,,0.499025397262,-0.200638874434,0.219193945902
1589284649185392154,615,1589284649185182559,,0.499025635174,-0.200638904651,0.219194213174
1589284649191325547,616,1589284649191137376,,0.499025054294,-0.200636943951,0.219194436795
1589284649197161514,617,1589284649197068471,,0.499024938136,-0.200636631946,0.219195501057
1589284649200154266,618,1589284649200074037,,0.499024189353,-0.200635088825,0.219194703528
1589284649206289504,619,1589284649206148442,,0.499021805036,-0.2006322353,0.219190778041
1589284649212507463,620,1589284649212362198,,0.499021133894,-0.200629850422,0.219189696253
1589284649218160490,621,1589284649218078661,,0.499018057926,-0.200626356959,0.219183914074
1589284649224192155,622,1589284649224107815,,0.49901668018,-0.200625392267,0.219182380873
1589284649227242733,623,1589284649227111426,,0.499014936666,-0.200623417394,0.219178699218
1589284649233332283,624,1589284649233170127,,0.499013803916,-0.20062307644,0.219177680479
1589284649239241828,625,1589284649239140540,,0.499011860703,-0.200619909825,0.219173358056
1589284649245240466,626,1589284649245166155,,0.499011163109,-0.200618242135,0.219172203589
1589284649251444116,627,1589284649251218356,,0.499008946191,-0.20061573582,0.219167228153
1589284649257304133,628,1589284649257206909,,0.499008159891,-0.200614198169,0.219165910892
1589284649263284488,629,1589284649263121442,,0.499004900645,-0.200608601207,0.21915920279
1589284649269306967,630,1589284649269130719,,0.499003645233,-0.200602919047,0.219156663315
1589284649275435619,631,1589284649275233764,,0.499002390301,-0.200598958693,0.219154273882
1589284649281276490,632,1589284649281166457,,0.499001047784,-0.200591595487,0.219150761454
1589284649287291268,633,1589284649287177097,,0.498999480367,-0.200562345194,0.219144857301
1589284649293341972,634,1589284649293171809,,0.498998283256,-0.200552187262,0.219144430406
1589284649299368944,635,1589284649299203052,,0.498996391715,-0.20054418995,0.219145191377
1589284649305441138,636,1589284649305271527,,0.498993974129,-0.2005286445,0.219138525563
1589284649311712566,637,1589284649311562761,,0.498992765769,-0.200521580097,0.219135646698
1589284649317314435,638,1589284649317196743,,0.498993774949,-0.200503133454,0.219129583661
1589284649323273235,639,1589284649323172185,,0.498995215751,-0.200492225795,0.219126514228
1589284649329314457,640,1589284649329184738,,0.498996237066,-0.200467277704,0.219123445455
1589284649335321584,641,1589284649335186976,,0.498996494761,-0.200455808853,0.219123115192
1589284649341238139,642,1589284649341128727,,0.498995955857,-0.20043752222,0.219121990603
1589284649347533569,643,1589284649347263120,,0.498996448532,-0.200427600745,0.219122410422
1589284649353274840,644,1589284649353115364,,0.498997015681,-0.200409310391,0.219120408548
1589284649356287467,645,1589284649356149174,,0.498996891683,-0.200398868607,0.219119496873
1589284649362322313,646,1589284649362169682,,0.498997772933,-0.200380902653,0.21911755773
1589284649368379435,647,1589284649368203657,,0.498998900909,-0.200350736722,0.219111282852
1589284649374368221,648,1589284649374155038,,0.498999273907,-0.200329372357,0.219106559653
1589284649380439793,649,1589284649380209639,,0.49899889983,-0.200318680946,0.219103962966
1589284649386283530,650,1589284649386182904,,0.498997431474,-0.200298278868,0.219100224475
1589284649392450364,651,1589284649392258289,,0.498996769974,-0.200289603864,0.21909751295
1589284649398354557,652,1589284649398250434,,0.498995053737,-0.200271976929,0.219093444307
1589284649404308621,653,1589284649404194747,,0.498993024022,-0.200264014619,0.219090737505
1589284649410327011,654,1589284649410226151,,0.49899152922,-0.200254686923,0.21909025162
1589284649416361932,655,1589284649416208053,,0.49898711578,-0.200236230889,0.219090457183
1589284649422381633,656,1589284649422278916,,0.498984680854,-0.200217246344,0.219090368144
1589284649428362903,657,1589284649428221772,,0.498982620809,-0.200209652397,0.219088601044
1589284649434350803,658,1589284649434179102,,0.498981174129,-0.200198953824,0.219087963151
1589284649437316378,659,1589284649437169552,,0.498977286801,-0.200175212439,0.219086301832
1589284649443440696,660,1589284649443204879,,0.498971944158,-0.200147802152,0.21908054234
1589284649449413558,661,1589284649449200270,,0.498969273562,-0.200132922816,0.219077530548
1589284649455384520,662,1589284649455215922,,0.498966560549,-0.200119216458,0.21907281584
1589284649461339987,663,1589284649461170661,,0.498961990006,-0.200087423077,0.219071299971
1589284649467459744,664,1589284649467243237,,0.498957002841,-0.200053115193,0.219065842967
1589284649473445392,665,1589284649473207762,,0.498954505657,-0.200036094761,0.219063201057
1589284649479316070,666,1589284649479200333,,0.498952052548,-0.200021210629,0.219062842253
1589284649485275522,667,1589284649485199053,,0.49894735912,-0.199988265871,0.21905908051
1589284649491341969,668,1589284649491226549,,0.498942684315,-0.199955319235,0.21905491384
1589284649497235769,669,1589284649497118275,,0.498939938309,-0.199938945338,0.219051789862
1589284649503369202,670,1589284649503169746,,0.498937471631,-0.19992443455,0.219051708718
1589284649509339710,671,1589284649509176281,,0.498935522568,-0.199906956259,0.219049069899
1589284649515683385,672,1589284649515571775,,0.498932942662,-0.199891077419,0.219045797781
1589284649521219960,673,1589284649521131473,,0.498930165999,-0.199874053128,0.219042976275
1589284649527279336,674,1589284649527175737,,0.498926609509,-0.199857828345,0.219038632297
1589284649533364430,675,1589284649533190371,,0.498924351121,-0.19984322074,0.21903699604
1589284649539438556,676,1589284649539268198,,0.498921801762,-0.199826991698,0.219032153203
1589284649545320312,677,1589284649545226938,,0.498919342361,-0.199812725169,0.219029033638
1589284649551284143,678,1589284649551197064,,0.498917244036,-0.199796729561,0.219025977959
1589284649557290655,679,1589284649557206660,,0.498914988578,-0.199782524368,0.219022538989
1589284649566334686,680,1589284649566252321,,0.498911364491,-0.199752266463,0.219018355687
1589284649572417211,681,1589284649572214890,,0.498909009254,-0.199738069435,0.219017674729
1589284649578371214,682,1589284649578233762,,0.498907661281,-0.199722846882,0.219016821553
1589284649584331653,683,1589284649584210687,,0.498904431162,-0.199708213953,0.219016023015
1589284649590458895,684,1589284649590283641,,0.498902033262,-0.199691997763,0.219012407836
1589284649596416093,685,1589284649596246552,,0.498900773843,-0.199678110588,0.219009341867
1589284649602416568,686,1589284649602204077,,0.498898398589,-0.199664598893,0.219005756248
1589284649608439146,687,1589284649608234064,,0.498897311286,-0.199650873275,0.219003048351
1589284649614699731,688,1589284649614520768,,0.498895596098,-0.199636520252,0.218998895578
1589284649620360699,689,1589284649620237467,,0.498894032186,-0.199621826912,0.218994873632
1589284649626406493,690,1589284649626238071,,0.498891369249,-0.199609136443,0.218990702
1589284649629320983,691,1589284649629212393,,0.498888795906,-0.199594164029,0.218985826798
1589284649635544344,692,1589284649635290378,,0.498886410972,-0.19958065542,0.218980608929
1589284649641523587,693,1589284649641244279,,0.498885072346,-0.199564651834,0.218978799002
1589284649647289874,694,1589284649647173692,,0.498883856268,-0.199551310636,0.218975513501
1589284649653334803,695,1589284649653218468,,0.498881622129,-0.199536951479,0.218970604137
1589284649659254551,696,1589284649659141770,,0.498879036858,-0.19952384903,0.218964460003
1589284649662286376,697,1589284649662167085,,0.498876166367,-0.199496535728,0.218956999911
1589284649665337103,698,1589284649665168299,,0.498874374417,-0.199481841768,0.218954860274
1589284649668351154,699,1589284649668210855,,0.49887025738,-0.199455719429,0.218949017222
1589284649671369980,700,1589284649671198947,,0.498867122509,-0.199445099155,0.218942915742
1589284649677311884,701,1589284649677202783,,0.498862915617,-0.199419266302,0.218932394372
1589284649686307698,702,1589284649686198328,,0.4988583678,-0.199383656691,0.218916264073
1589284649692326100,703,1589284649692158951,,0.498857356848,-0.199371714258,0.2189119464
1589284649695243228,704,1589284649695137629,,0.498853122183,-0.199346815999,0.21890156449
1589284649698256559,705,1589284649698154682,,0.498850742594,-0.199335865582,0.218896737894
1589284649701278724,706,1589284649701219167,,0.498846929394,-0.199312675079,0.218890632879
1589284649704275958,707,1589284649704160733,,0.498846000995,-0.199298938625,0.218886491045
1589284649707383919,708,1589284649707187148,,0.498843728746,-0.19927221051,0.218878325579
1589284649710311864,709,1589284649710234394,,0.498841888745,-0.199260463926,0.218875008252
1589284649713404609,710,1589284649713311931,,0.498839211549,-0.199226635453,0.218866092892
1589284649719283592,711,1589284649719150940,,0.498836719418,-0.199211379059,0.218861162743
1589284649724105801,712,1589284649723959182,,0.498833134697,-0.199177410825,0.218852732378
1589284649728345411,713,1589284649728233865,,0.498830740796,-0.199160405976,0.218846825558
1589284649731436896,714,1589284649731226011,,0.498828710606,-0.199126374479,0.218837665502
1589284649737332769,715,1589284649737207426,,0.498827315481,-0.199110356117,0.218831391155
1589284649746322470,716,1589284649746192239,,0.498824346684,-0.199078542437,0.218823133823
1589284649752348030,717,1589284649752258270,,0.498821446121,-0.199045080792,0.218813644197
1589284649758329436,718,1589284649758215101,,0.498819380744,-0.199029038729,0.218808809526
1589284649764393906,719,1589284649764231065,,0.498816556982,-0.198995762753,0.218799224388
1589284649770305108,720,1589284649770208405,,0.498815424693,-0.198979891998,0.218794570621
1589284649776353401,721,1589284649776224758,,0.498812289109,-0.198945844761,0.218783337102
1589284649782351836,722,1589284649782174931,,0.498811316673,-0.198927171894,0.218778627462
1589284649785378628,723,1589284649785261129,,0.498808766088,-0.198891639602,0.218766867173
1589284649791376438,724,1589284649791280524,,0.498807879548,-0.198872885602,0.218762100289
1589284649797385398,725,1589284649797223318,,0.498807628723,-0.198852334701,0.218757748786
1589284649803368897,726,1589284649803217658,,0.498805200282,-0.198813852717,0.218745781914
1589284649809448465,727,1589284649809276204,,0.498801190442,-0.198776504595,0.218733803176
1589284649815747588,728,1589284649815581224,,0.498799181753,-0.198757947272,0.218728518812
1589284649821398954,729,1589284649821275565,,0.498797585736,-0.198737934561,0.218724108839
1589284649827386944,730,1589284649827243340,,0.498796908288,-0.198718341253,0.218720497004
1589284649833430464,731,1589284649833258546,,0.498795589371,-0.198680494272,0.218707807427
1589284649839391629,732,1589284649839263470,,0.498793895585,-0.198660728183,0.218700688002
1589284649845388972,733,1589284649845242026,,0.498791233516,-0.198626201007,0.218690702305
1589284649851481713,734,1589284649851310382,,0.498788434935,-0.198609876673,0.218683708284
1589284649857316546,735,1589284649857234121,,0.498784334237,-0.198573864167,0.218672671965
1589284649866341991,736,1589284649866236660,,0.498779939627,-0.198516680279,0.218655559547
1589284649872360282,737,1589284649872259084,,0.498778068901,-0.198496406254,0.218649808455
1589284649878430728,738,1589284649878261343,,0.498774231844,-0.198457663127,0.218635872951
1589284649884454355,739,1589284649884300103,,0.498772313544,-0.19844129515,0.218630265029
1589284649890428859,740,1589284649890300409,,0.498769802224,-0.198403519266,0.218617394951
1589284649896419095,741,1589284649896216869,,0.498767225359,-0.198387272761,0.218609245162
1589284649902373497,742,1589284649902217566,,0.498764565743,-0.198345818129,0.218596867936
1589284649908338593,743,1589284649908247037,,0.498762342135,-0.198330140119,0.218592110836
1589284649914732704,744,1589284649914579915,,0.498760526845,-0.198290588578,0.2185815576
1589284649920457677,745,1589284649920285073,,0.498759471794,-0.198272170918,0.21857568276
1589284649926400927,746,1589284649926265051,,0.498756277779,-0.198238757244,0.218564204371
1589284649929365977,747,1589284649929223565,,0.498754619232,-0.198220423934,0.2185582952
1589284649935486866,748,1589284649935251692,,0.49875123177,-0.198186540519,0.218546848316
1589284649941406487,749,1589284649941210539,,0.498750350305,-0.198167031306,0.218539761785
1589284649944437015,750,1589284649944203046,,0.49874822522,-0.198149865599,0.218532270247
1589284649947341592,751,1589284649947225676,,0.498747824375,-0.198131043481,0.218526706085
1589284649953415398,752,1589284649953296856,,0.498745115735,-0.198094703842,0.218510512303
1589284649959375253,753,1589284649959212449,,0.498743780782,-0.198078409754,0.218506042573
1589284649962317030,754,1589284649962227534,,0.49873979896,-0.19804471283,0.21849250143
1589284649965294487,755,1589284649965216509,,0.498738570238,-0.198031738402,0.218488634477
1589284649968331809,756,1589284649968238074,,0.498734692651,-0.197997179699,0.218477434982
1589284649974438729,757,1589284649974280946,,0.498734087183,-0.197982765451,0.218472743845
1589284649980413244,758,1589284649980282244,,0.498731942646,-0.197943519418,0.218460482733
1589284649986418592,759,1589284649986277559,,0.498730867989,-0.197924082349,0.218453502096
1589284649992284703,760,1589284649992188134,,0.498727246112,-0.19788468697,0.218440448865
1589284649998396968,761,1589284649998243656,,0.498726311335,-0.197864047821,0.218435385833
1589284650004388647,762,1589284650004270523,,0.49872452936,-0.197845787407,0.218429762068
1589284650010545858,763,1589284650010452683,,0.498722710531,-0.197805405877,0.218415260493
1589284650016424723,764,1589284650016302269,,0.498720935972,-0.197785296119,0.218405214307
1589284650022449252,765,1589284650022320611,,0.498718238335,-0.197747176407,0.218386976052
1589284650028433047,766,1589284650028289626,,0.498716395442,-0.197729282734,0.218379203284
1589284650034459139,767,1589284650034307151,,0.498715432653,-0.197710349635,0.218372793617
1589284650040474229,768,1589284650040318183,,0.49871368138,-0.197692472825,0.218363785749
1589284650046394342,769,1589284650046268748,,0.498711354082,-0.1976765052,0.218354679959
1589284650052423426,770,1589284650052284670,,0.4987089419,-0.197659525709,0.218346541339
1589284650058396218,771,1589284650058254466,,0.498706739885,-0.197641706933,0.218338384323
1589284650064447519,772,1589284650064304298,,0.498704625905,-0.197625655648,0.218329806009
1589284650070416443,773,1589284650070320832,,0.498703482608,-0.197609715721,0.218323026842
1589284650076470317,774,1589284650076272036,,0.498701112052,-0.197588929953,0.218312926891
1589284650082389180,775,1589284650082273180,,0.498698531903,-0.197572599923,0.218304940373
1589284650088419935,776,1589284650088288743,,0.498696596133,-0.197552499999,0.218295459215
1589284650094410578,777,1589284650094278107,,0.49869414289,-0.197532459755,0.218288755675
1589284650100467164,778,1589284650100294911,,0.498692071653,-0.197510888801,0.218280742726
1589284650106492657,779,1589284650106343357,,0.498690319252,-0.197493137369,0.218275283601
1589284650112639623,780,1589284650112524090,,0.498688839643,-0.197475061394,0.218270042642
1589284650118433431,781,1589284650118318977,,0.49868662554,-0.19745056468,0.218261722599
1589284650124383675,782,1589284650124270518,,0.498685223278,-0.197420802683,0.218253354607
1589284650130340747,783,1589284650130245301,,0.498683103394,-0.197398358276,0.218244224907
1589284650136446443,784,1589284650136309491,,0.498682137745,-0.197370936921,0.218237844821
1589284650142406907,785,1589284650142307959,,0.498679917557,-0.197339178755,0.218227385373
1589284650148436480,786,1589284650148341890,,0.498677618573,-0.197307653941,0.218216462597
1589284650154512147,787,1589284650154355601,,0.498676050585,-0.197276171266,0.218208265569
1589284650160456538,788,1589284650160342066,,0.498673308523,-0.197245616136,0.218199183243
1589284650166521839,789,1589284650166346370,,0.498670142743,-0.197216266643,0.218188764413
1589284650172438113,790,1589284650172310436,,0.498667013449,-0.197185653023,0.218177060753
1589284650178472148,791,1589284650178330859,,0.498660258294,-0.197128096388,0.218159003863
1589284650184496551,792,1589284650184343719,,0.498652666196,-0.19706869394,0.218142357273
1589284650190425140,793,1589284650190310847,,0.498649888724,-0.197035539985,0.218133372538
1589284650196458970,794,1589284650196308327,,0.498646168737,-0.197003870883,0.218128159127
1589284650202411821,795,1589284650202293892,,0.498639923594,-0.196925933304,0.218112300899
1589284650208512322,796,1589284650208291948,,0.498638122344,-0.196882783924,0.218107381394
1589284650214794297,797,1589284650214682035,,0.498635688187,-0.196833733128,0.218103854751
1589284650220501344,798,1589284650220354373,,0.498633687475,-0.196785154137,0.218089833558
1589284650226476993,799,1589284650226360581,,0.498631308053,-0.196672835892,0.218066202125
1589284650232402451,800,1589284650232261697,,0.498628155902,-0.196541607862,0.218030816333
1589284650238415668,801,1589284650238314677,,0.498628940541,-0.196470811669,0.21801775735
1589284650244448958,802,1589284650244329722,,0.498629559319,-0.1963952269,0.21799417227
1589284650250475206,803,1589284650250351591,,0.498627940226,-0.196245390765,0.217952705868
1589284650256541279,804,1589284650256305823,,0.498627022746,-0.196093017371,0.21790969285
1589284650262490351,805,1589284650262358254,,0.498623878154,-0.196023413911,0.217889051994
1589284650268487919,806,1589284650268306537,,0.498621045485,-0.195958049358,0.21787399379
1589284650274624326,807,1589284650274386396,,0.498615823956,-0.195829978397,0.217847065173
1589284650280438080,808,1589284650280305549,,0.498606937368,-0.195718412917,0.217820192708
1589284650286491740,809,1589284650286349260,,0.498602586226,-0.195666122846,0.217814118601
1589284650292465804,810,1589284650292334784,,0.498598790649,-0.195616587839,0.217805438247
1589284650298579212,811,1589284650298422317,,0.498596307306,-0.195564993462,0.217803573772
1589284650304410248,812,1589284650304300419,,0.498589208137,-0.195455242325,0.217780358474
1589284650310479665,813,1589284650310376514,,0.498587059838,-0.195396684296,0.217775381079
1589284650316471385,814,1589284650316378759,,0.49858388116,-0.195274807217,0.217749138454
1589284650322569515,815,1589284650322393764,,0.498582801359,-0.195185279073,0.21772614791
1589284650328619072,816,1589284650328424990,,0.498583752555,-0.195030724906,0.217693079722
1589284650334510306,817,1589284650334380013,,0.498587776704,-0.194918379399,0.217669448464
1589284650340588941,818,1589284650340397500,,0.498592665492,-0.194720208087,0.217628707193
1589284650346551041,819,1589284650346385955,,0.498596832935,-0.194618660443,0.217608254558
1589284650352536835,820,1589284650352395421,,0.49860360675,-0.19441395267,0.217562036516
1589284650358625775,821,1589284650358465418,,0.498606942931,-0.194310579285,0.217543465977
1589284650364487046,822,1589284650364343501,,0.498610200116,-0.194211584357,0.21752284141
1589284650370649147,823,1589284650370544780,,0.498611666373,-0.19411529146,0.217503868902
1589284650376484248,824,1589284650376357416,,0.498612866038,-0.194022949859,0.217483899771
1589284650382593758,825,1589284650382383041,,0.498613285661,-0.193940477763,0.217466872148
1589284650388499080,826,1589284650388355718,,0.498614978854,-0.193853874271,0.21744685545
1589284650394378692,827,1589284650394296820,,0.498613617318,-0.19370170283,0.217410275434
1589284650400525767,828,1589284650400395471,,0.498611061497,-0.193628665476,0.217390323954
1589284650406562638,829,1589284650406351728,,0.498610018769,-0.193556812712,0.217373564226
1589284650412624633,830,1589284650412523721,,0.498608447394,-0.1934826183,0.217357073274
1589284650418450047,831,1589284650418343429,,0.498605805555,-0.193410081092,0.217337202277
1589284650424441252,832,1589284650424321140,,0.498604533635,-0.19333348182,0.217319554258
1589284650430487730,833,1589284650430386354,,0.498603495464,-0.193173343029,0.217284247373
1589284650436490639,834,1589284650436366612,,0.498602311252,-0.193087109359,0.217265698392
1589284650442505496,835,1589284650442366099,,0.498604207098,-0.192898230069,0.217225866962
1589284650448588757,836,1589284650448402888,,0.498605338522,-0.192801788624,0.217205930934
1589284650454512582,837,1589284650454346687,,0.498611645532,-0.192591393951,0.21716554613
1589284650460451693,838,1589284650460366651,,0.498615676091,-0.192484171445,0.21713809175
1589284650466548376,839,1589284650466389709,,0.498621221574,-0.192269298894,0.217095289346
1589284650472578081,840,1589284650472362243,,0.498623443886,-0.192165598131,0.217071127722
1589284650478588219,841,1589284650478431571,,0.498626875366,-0.191963971938,0.217029485055
1589284650484437560,842,1589284650484324061,,0.498624582485,-0.191869690263,0.217007809678
1589284650490735724,843,1589284650490614035,,0.49862347754,-0.19178273231,0.216984910504
1589284650496503722,844,1589284650496359923,,0.49862206565,-0.191618522879,0.216951498986
1589284650502503086,845,1589284650502385054,,0.498621006417,-0.191541577943,0.216932738851
1589284650508587335,846,1589284650508381508,,0.498619240419,-0.191397255448,0.216906147298
1589284650514884458,847,1589284650514703333,,0.498616971874,-0.191322312139,0.216889440898
1589284650520551987,848,1589284650520355028,,0.498616001905,-0.191172894767,0.216862440133
1589284650526535664,849,1589284650526352428,,0.498614599831,-0.191094192439,0.216845122557
1589284650532569868,850,1589284650532375839,,0.498616154717,-0.190923356235,0.216809891291
1589284650538492708,851,1589284650538309556,,0.498617566286,-0.190832336193,0.216788002664
1589284650544468686,852,1589284650544380005,,0.498619681792,-0.190634471033,0.216745602841
1589284650550484781,853,1589284650550357818,,0.498624289428,-0.190526693891,0.216724642818
1589284650556434010,854,1589284650556269296,,0.498627733974,-0.190311250385,0.216674928161
1589284650559524451,855,1589284650559378609,,0.498632466205,-0.19019918942,0.216653715782
1589284650565467601,856,1589284650565364281,,0.498638421531,-0.189986692957,0.216614639285
1589284650571549695,857,1589284650571397403,,0.498640379786,-0.18988842634,0.216597867592
1589284650577488880,858,1589284650577365060,,0.498642891151,-0.189710084169,0.21656504475
1589284650586563293,859,1589284650586368805,,0.498642339771,-0.189487461986,0.216523624025
1589284650589430914,860,1589284650589263217,,0.498641530284,-0.189425120834,0.216511771226
1589284650592509292,861,1589284650592342164,,0.498638344506,-0.189308583359,0.216488181266
1589284650595443178,862,1589284650595324755,,0.498636621174,-0.189250456979,0.216472825633
1589284650598421634,863,1589284650598280843,,0.498632546641,-0.189125554462,0.216441973456
1589284650601409807,864,1589284650601305653,,0.498632041214,-0.189057891491,0.216423541373
1589284650604472000,865,1589284650604357903,,0.498633413849,-0.188986193593,0.216410176265
1589284650610473654,866,1589284650610350972,,0.498635011776,-0.188828753715,0.216370741949
1589284650616479626,867,1589284650616356586,,0.498641106682,-0.188653567889,0.216329337997
1589284650622524732,868,1589284650622370663,,0.498644765236,-0.188552159958,0.216309422395
1589284650628432759,869,1589284650628286419,,0.498649737493,-0.188455333383,0.216286224823
1589284650631499775,870,1589284650631387708,,0.498656486458,-0.188262825006,0.216241898399
1589284650637438824,871,1589284650637344897,,0.498660848263,-0.188076909559,0.216202180412
1589284650643532546,872,1589284650643444694,,0.498663294729,-0.187990639109,0.216182263429
1589284650649453087,873,1589284650649312995,,0.498665079493,-0.187910200227,0.216166067187
1589284650655411533,874,1589284650655313252,,0.498665012318,-0.187770400434,0.21613533619
1589284650658372324,875,1589284650658273092,,0.498664537802,-0.187651630097,0.216111155184
1589284650661434848,876,1589284650661354757,,0.498663113989,-0.187599381254,0.216098405152
1589284650664477579,877,1589284650664303823,,0.498662418651,-0.187548777514,0.216084048171
1589284650667407821,878,1589284650667307919,,0.498661150306,-0.187435727275,0.216063924098
1589284650673473091,879,1589284650673365624,,0.498660923544,-0.187320880588,0.216034458471
1589284650679546668,880,1589284650679418514,,0.498658847564,-0.187257481595,0.216015803149
1589284650685548380,881,1589284650685378038,,0.498660841479,-0.187192193087,0.21600241377
1589284650691579449,882,1589284650691408501,,0.498664847471,-0.187041176669,0.215962854966
1589284650697471880,883,1589284650697335304,,0.498669735472,-0.186873704336,0.215925291982
1589284650703607701,884,1589284650703497251,,0.498673877905,-0.186782776716,0.215906988929
1589284650709392498,885,1589284650709283517,,0.498679291639,-0.186685580877,0.215889758773
1589284650712619772,886,1589284650712495376,,0.498687347895,-0.186499571628,0.215847524488
1589284650715753566,887,1589284650715635538,,0.49869178453,-0.186328922923,0.215807837199
1589284650721402628,888,1589284650721302951,,0.498694052381,-0.186248635339,0.215790356184
1589284650725253774,889,1589284650725149120,,0.498696254644,-0.186180434705,0.2157738899
1589284650730393079,890,1589284650730281676,,0.498694343149,-0.186054119099,0.215742673545
1589284650733372202,891,1589284650733278874,,0.498692828508,-0.1860043007,0.215730278532
1589284650736409313,892,1589284650736300137,,0.498689225786,-0.185916488221,0.215709856253
1589284650739450656,893,1589284650739328569,,0.498687566051,-0.185883382758,0.215702782986
1589284650742483707,894,1589284650742397239,,0.498683970985,-0.185804447457,0.215682289431
1589284650748474589,895,1589284650748384594,,0.498682618988,-0.185761531406,0.215670089614
1589284650754570833,896,1589284650754440614,,0.498680183153,-0.185658238011,0.215644609658
1589284650760541022,897,1589284650760413222,,0.498680211707,-0.18559584821,0.21562998756
1589284650766506039,898,1589284650766416323,,0.498683154641,-0.185451870949,0.215599861444
1589284650772545691,899,1589284650772407262,,0.498685230442,-0.18537188418,0.21557886196
1589284650778613523,900,1589284650778446815,,0.49869279635,-0.185196210754,0.215542852642
1589284650784499915,901,1589284650784397504,,0.498696814639,-0.185103446902,0.215523557221
1589284650790745239,902,1589284650790623210,,0.498704736287,-0.184917981972,0.215486285975
1589284650796442477,903,1589284650796290422,,0.498707788241,-0.184826373771,0.215471312725
1589284650799512638,904,1589284650799399039,,0.498713906001,-0.184653817351,0.215440214931
1589284650802422319,905,1589284650802319953,,0.498715822353,-0.184575617409,0.215423537645
1589284650805493799,906,1589284650805369630,,0.498719584795,-0.184435373658,0.215398034244
1589284650808421645,907,1589284650808340443,,0.498718665205,-0.184376448444,0.215384011087
1589284650811825616,908,1589284650811711561,,0.498715562044,-0.184277374722,0.215364180917
1589284650817518662,909,1589284650817413606,,0.498712124874,-0.184234639215,0.215353380938
1589284650820486826,910,1589284650820421624,,0.498705289792,-0.184157915655,0.215331341834
1589284650823622989,911,1589284650823544935,,0.498702891954,-0.184117686931,0.215322006617
1589284650826468598,912,1589284650826347941,,0.498698100286,-0.184031998999,0.215298098267
1589284650829446076,913,1589284650829338157,,0.498696446355,-0.18398449614,0.21528989522
1589284650832382675,914,1589284650832302811,,0.498694781508,-0.183871376381,0.215266565199
1589284650835444196,915,1589284650835329211,,0.498694760573,-0.18380982434,0.215255709855
1589284650841423384,916,1589284650841315323,,0.498697344353,-0.183665880041,0.215231925884
1589284650844433980,917,1589284650844345153,,0.498695365108,-0.18359466148,0.215219621159
1589284650847550021,918,1589284650847403668,,0.498699920706,-0.183432896696,0.215191400537
1589284650850401689,919,1589284650850319452,,0.498702175942,-0.183349171762,0.215179916689
1589284650853502547,920,1589284650853372669,,0.498705651936,-0.183191355712,0.21514998675
1589284650856483728,921,1589284650856406750,,0.498706982896,-0.183111645484,0.215138074568
1589284650862437584,922,1589284650862337454,,0.498707032305,-0.182971933252,0.215112676026
1589284650865476351,923,1589284650865342926,,0.49870720441,-0.182904963603,0.215099648977
1589284650868523988,924,1589284650868354947,,0.498707301209,-0.182845122683,0.215088548708
1589284650871465289,925,1589284650871343429,,0.498705126469,-0.182739102344,0.215069647875
1589284650874588224,926,1589284650874450256,,0.498702586166,-0.18269127692,0.215059994142
1589284650880530725,927,1589284650880413765,,0.49869971939,-0.182601041781,0.215048889205
1589284650886469126,928,1589284650886393210,,0.49869593286,-0.182562815165,0.215040829654
1589284650889523849,929,1589284650889376689,,0.498693271952,-0.182520215062,0.215035250525
1589284650895567318,930,1589284650895437315,,0.498691590541,-0.182470316154,0.215024545986
1589284650901492175,931,1589284650901373913,,0.498689147344,-0.182378931079,0.215007778223
1589284650907542059,932,1589284650907372103,,0.498689000314,-0.182319998664,0.215001347214
1589284650910479988,933,1589284650910374831,,0.498688422818,-0.182260016483,0.214990720121
1589284650916490180,934,1589284650916389663,,0.498689562329,-0.182196778462,0.214978463681
1589284650922498316,935,1589284650922419570,,0.498690527677,-0.182127645178,0.214968373946
1589284650925427916,936,1589284650925344875,,0.498692510859,-0.182056819973,0.214958823654
1589284650928497008,937,1589284650928382916,,0.498695272473,-0.181981982815,0.214949344292
1589284650931514223,938,1589284650931371620,,0.498696067366,-0.181906771541,0.214936418046
1589284650934419258,939,1589284650934357185,,0.498698252818,-0.181843386838,0.214927684318
1589284650937409834,940,1589284650937349942,,0.498701563152,-0.181765762003,0.214917386613
1589284650940447204,941,1589284650940349411,,0.498704208541,-0.181681900389,0.214904919254
1589284650946474607,942,1589284650946362797,,0.498707988951,-0.181473151209,0.214869105659
1589284650949551951,943,1589284650949418483,,0.498709103949,-0.181411626614,0.214860840996
1589284650955507325,944,1589284650955422642,,0.498707382289,-0.181355409472,0.214851910838
1589284650961572594,945,1589284650961441730,,0.498707358755,-0.181309133024,0.214843926072
1589284650967402900,946,1589284650967311298,,0.49870644501,-0.181228394382,0.214824308624
1589284650970432665,947,1589284650970369367,,0.498706383733,-0.181193071135,0.214816890973
1589284650973419288,948,1589284650973318613,,0.498705267068,-0.1811611259,0.21481160606
1589284650976408798,949,1589284650976300876,,0.498704578183,-0.181122686537,0.214804500376
1589284650979551806,950,1589284650979430029,,0.498705372024,-0.181087792572,0.214798672519
1589284650985450044,951,1589284650985361824,,0.498703316734,-0.181045417408,0.214790559958
1589284650988416392,952,1589284650988345240,,0.498702832025,-0.181005811147,0.214785209148
1589284650991466880,953,1589284650991333671,,0.498705088141,-0.180905873024,0.214766420136
1589284650994495044,954,1589284650994363102,,0.498706357628,-0.1808496281,0.214754848133
1589284650997515968,955,1589284650997398111,,0.498707481518,-0.180788227814,0.214741713911
1589284651006639693,956,1589284651006445415,,0.498715870255,-0.180576197896,0.21469568785
1589284651012829003,957,1589284651012708966,,0.49872460729,-0.180417946413,0.214669275345
1589284651018433599,958,1589284651018361184,,0.498727823404,-0.180337139432,0.214655105049
1589284651021471625,959,1589284651021379517,,0.498731208068,-0.180256033659,0.214638951766
1589284651024463458,960,1589284651024385110,,0.498735798606,-0.180175427065,0.214627160345
1589284651027467715,961,1589284651027404743,,0.498738469641,-0.180096345464,0.214612577746
1589284651031235884,962,1589284651031150892,,0.498742065774,-0.180022382017,0.214599335908
1589284651036501943,963,1589284651036406124,,0.498746311532,-0.179953633666,0.214590445025
1589284651042503941,964,1589284651042397948,,0.498747794378,-0.179887609521,0.214577711226
1589284651048516663,965,1589284651048389537,,0.498749855951,-0.17982726079,0.214569948069
1589284651054564390,966,1589284651054419334,,0.4987528163,-0.179772249604,0.214566140911
1589284651057445614,967,1589284651057345858,,0.498752397209,-0.179725212335,0.214556407128
1589284651060468720,968,1589284651060358350,,0.498752182997,-0.179679628401,0.21454731526
1589284651066580904,969,1589284651066435776,,0.498753802206,-0.179597048676,0.214537640225
1589284651072559033,970,1589284651072394408,,0.498752946251,-0.17956148576,0.214528887979
1589284651075559317,971,1589284651075444477,,0.498753196277,-0.179485789577,0.214511347785
1589284651081624123,972,1589284651081478867,,0.498755271086,-0.179445093835,0.214503062713
1589284651087614248,973,1589284651087474762,,0.498758718862,-0.17934746659,0.214486471235
1589284651093540014,974,1589284651093406489,,0.498760536365,-0.179295749752,0.214475854738
1589284651096483494,975,1589284651096404456,,0.498763624696,-0.179235670872,0.214465604
1589284651102559400,976,1589284651102426370,,0.498767504838,-0.179173894862,0.214457348779
1589284651108544082,977,1589284651108409360,,0.498771353873,-0.179111244726,0.214447784297
1589284651114948442,978,1589284651114774445,,0.498776088895,-0.1790433443,0.214438954766
1589284651120593787,979,1589284651120494126,,0.498781302206,-0.178972001861,0.214427493557
1589284651126479364,980,1589284651126393883,,0.49878515366,-0.178903248938,0.214418479528
1589284651132525216,981,1589284651132433073,,0.498790134006,-0.178834616618,0.214408530907
1589284651138568112,982,1589284651138403623,,0.498793954366,-0.178761164131,0.214396999931
1589284651141562092,983,1589284651141381553,,0.498798709457,-0.178694094907,0.214387097465
1589284651144501878,984,1589284651144409746,,0.498801676644,-0.178627305715,0.214376460738
1589284651150830433,985,1589284651150720899,,0.498803989477,-0.178570662738,0.214365789991
1589284651156527444,986,1589284651156424916,,0.49880667023,-0.178510717675,0.21435713532
1589284651162560231,987,1589284651162429587,,0.498808661504,-0.178458156214,0.214348598342
1589284651165569787,988,1589284651165476796,,0.498808850812,-0.178411282022,0.214340321548
1589284651168497759,989,1589284651168391953,,0.498810285251,-0.178368931301,0.21433430434
1589284651171600430,990,1589284651171463868,,0.498809827255,-0.178332642201,0.214326916314
1589284651174504703,991,1589284651174374792,,0.498811280563,-0.178297826124,0.214324559179
1589284651180533044,992,1589284651180388879,,0.49881105527,-0.178264194521,0.214321438065
1589284651186505146,993,1589284651186371039,,0.498812052341,-0.178232488824,0.214317353433
1589284651192565466,994,1589284651192407935,,0.498811494974,-0.178203759914,0.214313783169
1589284651195565909,995,1589284651195423126,,0.498811710676,-0.178174219971,0.214311903482
1589284651201524156,996,1589284651201425000,,0.498811798567,-0.178139629544,0.214306290735
1589284651207581959,997,1589284651207473890,,0.49881343304,-0.178101347581,0.214301800003
1589284651213757237,998,1589284651213602473,,0.498813991261,-0.178062454593,0.214295469131
1589284651219562284,999,1589284651219439299,,0.498816874667,-0.178019021786,0.214288392814
1589284651225575587,1000,1589284651225447982,,0.498819252765,-0.177970117628,0.214280784111
1589284651228503794,1001,1589284651228396222,,0.498821020548,-0.177918813806,0.214273040381
1589284651231583077,1002,1589284651231496780,,0.498824050952,-0.177866531345,0.214265849124
1589284651237567786,1003,1589284651237469545,,0.498826349154,-0.177811153595,0.214255323921
1589284651244168636,1004,1589284651244073991,,0.498830415867,-0.177754860821,0.214248713398
1589284651249537518,1005,1589284651249378557,,0.498833910457,-0.177697009076,0.214239220061
1589284651252605521,1006,1589284651252476032,,0.498836620865,-0.177638537517,0.214230824026
1589284651255654135,1007,1589284651255473415,,0.4988395436,-0.177578444575,0.214219473904
1589284651261511716,1008,1589284651261386794,,0.498843533258,-0.177519326304,0.214211777773
1589284651264540499,1009,1589284651264456795,,0.498845452513,-0.177464561561,0.21420379883
1589284651270641142,1010,1589284651270562116,,0.498848331231,-0.177410390287,0.214198228505
1589284651276525722,1011,1589284651276416291,,0.498850406178,-0.177359054379,0.214192789363
1589284651282548106,1012,1589284651282442903,,0.498851060639,-0.177316544823,0.214185983988
1589284651288675389,1013,1589284651288455241,,0.49885340675,-0.177271030175,0.214180136388
1589284651291704676,1014,1589284651291481866,,0.498854489993,-0.177234647928,0.21417537114
1589284651294480287,1015,1589284651294405073,,0.49885561679,-0.177202574748,0.21417348188
1589284651297642432,1016,1589284651297491944,,0.498856464282,-0.177173484737,0.214169135195
1589284651303987763,1017,1589284651303895431,,0.498857380484,-0.177150881104,0.214167485473
1589284651309580298,1018,1589284651309428710,,0.498856546998,-0.177137812084,0.214165378814
1589284651316017280,1019,1589284651315825669,,0.498856170067,-0.177115912299,0.214160713318
1589284651321633677,1020,1589284651321453571,,0.498857159519,-0.17709018877,0.214157191982
1589284651324523904,1021,1589284651324415787,,0.498857722583,-0.177073104254,0.214155520038
1589284651330613979,1022,1589284651330457260,,0.498857674138,-0.177052412577,0.214151855219
1589284651336629120,1023,1589284651336502326,,0.498858764377,-0.177022720957,0.214147431758
1589284651342680072,1024,1589284651342499207,,0.498861032509,-0.176995535902,0.214143045481
1589284651348761857,1025,1589284651348524855,,0.498863687872,-0.176969724596,0.214139002913
1589284651354647957,1026,1589284651354495967,,0.498866316061,-0.176938271145,0.21413330498
1589284651360689800,1027,1589284651360491228,,0.498868847168,-0.176908602924,0.214128220335
1589284651366601920,1028,1589284651366436818,,0.498871801369,-0.176878325763,0.214123773908
1589284651372750937,1029,1589284651372468273,,0.498875851119,-0.176844503881,0.214119387525
1589284651378574690,1030,1589284651378432227,,0.498879229414,-0.176806830329,0.214113198506
1589284651384573836,1031,1589284651384458158,,0.498882683895,-0.176771225744,0.214108255774
1589284651390815590,1032,1589284651390644291,,0.498885794479,-0.176737425661,0.21410322732
1589284651396660905,1033,1589284651396566614,,0.498888522104,-0.176708570143,0.214098253527
1589284651402698205,1034,1589284651402490451,,0.498890812359,-0.176671926188,0.214093367638
1589284651408610007,1035,1589284651408488355,,0.498893572817,-0.176633590982,0.214088055238
1589284651414895139,1036,1589284651414777102,,0.49889531615,-0.176604079517,0.214083759419
1589284651420616395,1037,1589284651420453796,,0.498897173871,-0.176574179071,0.21407816483
1589284651426608940,1038,1589284651426542036,,0.498898451347,-0.176541794913,0.214071963908
1589284651429643013,1039,1589284651429499002,,0.498899791285,-0.1765124835,0.214067943348
1589284651435591182,1040,1589284651435505859,,0.498902787473,-0.176485141752,0.214064509852
1589284651438575986,1041,1589284651438450070,,0.498903954753,-0.176462155269,0.214061987342
1589284651444595750,1042,1589284651444493373,,0.498905035987,-0.17644269546,0.214059408646
1589284651450583596,1043,1589284651450468218,,0.498905644064,-0.176421804085,0.214056450005
1589284651453631683,1044,1589284651453488925,,0.498906276394,-0.17640509267,0.214055004011
1589284651456601297,1045,1589284651456504982,,0.498906864005,-0.176391331053,0.214054008997
1589284651462739543,1046,1589284651462513317,,0.498906611126,-0.176378523075,0.214053071621
1589284651468653432,1047,1589284651468517425,,0.498908522732,-0.176353554905,0.214052717981
1589284651474591414,1048,1589284651474429514,,0.498908720436,-0.176342541388,0.214051842825
1589284651477498501,1049,1589284651477404284,,0.498909803316,-0.176329467254,0.214050181469
1589284651480549896,1050,1589284651480436728,,0.498911349514,-0.176314958413,0.214049721026
1589284651486631984,1051,1589284651486505079,,0.498914380095,-0.176275550254,0.21404280584
1589284651492656444,1052,1589284651492446650,,0.498915781707,-0.17623946032,0.214034800848
1589284651495630657,1053,1589284651495492451,,0.498917052278,-0.176220324544,0.214032312303
1589284651498569010,1054,1589284651498442721,,0.498920500416,-0.17618173044,0.214029050717
1589284651501598835,1055,1589284651501462576,,0.49892152709,-0.176163380136,0.214026030457
1589284651504524378,1056,1589284651504426462,,0.498923317828,-0.176143311859,0.214025584509
1589284651507555843,1057,1589284651507467436,,0.498924605564,-0.17612316684,0.214022178949
1589284651510606967,1058,1589284651510496409,,0.498926201042,-0.176104086486,0.214020479921
1589284651519569589,1059,1589284651519450026,,0.498928442194,-0.176051958205,0.214011729079
1589284651522568801,1060,1589284651522469307,,0.498929575012,-0.176032908377,0.214008142405
1589284651528625244,1061,1589284651528479552,,0.498929444008,-0.176017991224,0.21400394665
1589284651531585685,1062,1589284651531482262,,0.498930864883,-0.1760003882,0.213999798372
1589284651534593738,1063,1589284651534506495,,0.49893148969,-0.175985542813,0.213997706895
1589284651537502136,1064,1589284651537401632,,0.498930464403,-0.175971790849,0.213992576408
1589284651540582075,1065,1589284651540472292,,0.498930953003,-0.175958056118,0.213990277679
1589284651543846380,1066,1589284651543777532,,0.498928753546,-0.175937253661,0.213982756352
1589284651549484559,1067,1589284651549398539,,0.498928727901,-0.175927089234,0.21398024245
1589284651552676356,1068,1589284651552519266,,0.49892745244,-0.175919238834,0.213977343527
1589284651558592092,1069,1589284651558483535,,0.498927643988,-0.175911292356,0.213976730632
1589284651564625570,1070,1589284651564502136,,0.498926681681,-0.17589909017,0.213973948107
1589284651570965723,1071,1589284651570866807,,0.498926591646,-0.17589467633,0.2139742113
1589284651576578742,1072,1589284651576436733,,0.498927812676,-0.175885303079,0.21397402135
1589284651582675537,1073,1589284651582455811,,0.498927366319,-0.175881054175,0.213972407917
1589284651588512100,1074,1589284651588426329,,0.49892780099,-0.175878237577,0.213973277653
1589284651591590316,1075,1589284651591451301,,0.498928277913,-0.175874059744,0.213973277311
1589284651594577124,1076,1589284651594469710,,0.498928208328,-0.175868057218,0.213972505772
1589284651600639268,1077,1589284651600469815,,0.4989287221,-0.175863807354,0.213972882995
1589284651606598456,1078,1589284651606485069,,0.498929650266,-0.175859696604,0.213973478004
1589284651612800801,1079,1589284651612672051,,0.498929042526,-0.175854962285,0.21397221382
1589284651618644118,1080,1589284651618526837,,0.498929544912,-0.175851508491,0.21397247339
1589284651624628791,1081,1589284651624499980,,0.498929839004,-0.175847851796,0.213973597129
1589284651627676449,1082,1589284651627523730,,0.498929527011,-0.175844251717,0.213971693399
1589284651633708163,1083,1589284651633515238,,0.498928447808,-0.175836197768,0.213972279804
1589284651639580273,1084,1589284651639482372,,0.498927112999,-0.175832333227,0.213972759258
1589284651645675511,1085,1589284651645565719,,0.498926202229,-0.175828765828,0.213974812266
1589284651651583690,1086,1589284651651483736,,0.498925218381,-0.175822258026,0.213974817747
1589284651657611544,1087,1589284651657514653,,0.498922712124,-0.175818440781,0.213974998631
1589284651663880061,1088,1589284651663783566,,0.498920574489,-0.175812981282,0.213976137375
1589284651669651611,1089,1589284651669531222,,0.498917454932,-0.17580758649,0.213975615509
1589284651675635674,1090,1589284651675509973,,0.498912534104,-0.175796422969,0.213979071473
1589284651681585915,1091,1589284651681453441,,0.498909647423,-0.175788706738,0.213981546798
1589284651684654025,1092,1589284651684547814,,0.498906447242,-0.175782945969,0.213982523548
1589284651690938047,1093,1589284651690793906,,0.498903146644,-0.175776803203,0.213983641071
1589284651696636602,1094,1589284651696518811,,0.498895763696,-0.175767416728,0.213982471582
1589284651702608681,1095,1589284651702495340,,0.498889547015,-0.17575670082,0.21398007039
1589284651708606101,1096,1589284651708496134,,0.498886767067,-0.175751006455,0.213979063042
1589284651715121345,1097,1589284651714946313,,0.498884656673,-0.175746698944,0.213979411878
1589284651720695866,1098,1589284651720555516,,0.498879119974,-0.175735402952,0.213979818856
1589284651726801940,1099,1589284651726675932,,0.498875763392,-0.175730394789,0.213980877359
1589284651729591444,1100,1589284651729470918,,0.498870547514,-0.175718851249,0.213984779312
1589284651735625291,1101,1589284651735503399,,0.498867162156,-0.175713856596,0.213984367742
1589284651738558656,1102,1589284651738469933,,0.498863745312,-0.17570186161,0.213986916694
1589284651741771104,1103,1589284651741578210,,0.49886326318,-0.17569677743,0.213990122631
1589284651747561579,1104,1589284651747474127,,0.498861245337,-0.175685195637,0.213994686696
1589284651750915442,1105,1589284651750837428,,0.49886094088,-0.175679439129,0.213997394594
1589284651756612769,1106,1589284651756443021,,0.49885977231,-0.175667722859,0.213999401452
1589284651762638774,1107,1589284651762483218,,0.49885946071,-0.175662306088,0.214000636229
1589284651768635087,1108,1589284651768479677,,0.498860638364,-0.175649838369,0.214003168042
1589284651771571832,1109,1589284651771486325,,0.498861247267,-0.175643360629,0.214004553598
1589284651774616572,1110,1589284651774462743,,0.498862732006,-0.175629607089,0.214006110262
1589284651777612396,1111,1589284651777514517,,0.49886390945,-0.175623046974,0.214007841998
1589284651780562200,1112,1589284651780477352,,0.498864958757,-0.175617083833,0.214008941498
1589284651786597880,1113,1589284651786468287,,0.498867900777,-0.175603411032,0.21401150585
1589284651789637110,1114,1589284651789521309,,0.498871230465,-0.175591363191,0.214014583489
1589284651795579754,1115,1589284651795498197,,0.498872462842,-0.175586687414,0.214015619526
1589284651798569606,1116,1589284651798491346,,0.498872968116,-0.175580266537,0.214016791072
1589284651804625563,1117,1589284651804553104,,0.498875064409,-0.17557467367,0.214017632789
1589284651810842759,1118,1589284651810747057,,0.498876806737,-0.175570845681,0.214019526355
1589284651816633394,1119,1589284651816540824,,0.498878712332,-0.17556284207,0.214021793338
1589284651822642682,1120,1589284651822503743,,0.498879964228,-0.175558863325,0.214023146377
1589284651828592281,1121,1589284651828478078,,0.498880540097,-0.175556284306,0.214024723048
1589284651831636507,1122,1589284651831512550,,0.498881230447,-0.175553577075,0.214024783696
1589284651837704024,1123,1589284651837557548,,0.498882501028,-0.175550555576,0.214027216301
1589284651846644611,1124,1589284651846550497,,0.498884156047,-0.175545423812,0.214030216824
1589284651852691607,1125,1589284651852564417,,0.498884731205,-0.175545202299,0.214032476077
1589284651858712168,1126,1589284651858580549,,0.498885682796,-0.175543431229,0.214033989397
1589284651864665269,1127,1589284651864510078,,0.498886719734,-0.175542306083,0.21403543655
1589284651871061493,1128,1589284651870991093,,0.498887743705,-0.175541089873,0.214038092755
1589284651876535191,1129,1589284651876439070,,0.498888388536,-0.175540338597,0.21403975864
1589284651882658008,1130,1589284651882472541,,0.498889636545,-0.175538371065,0.21404325874
1589284651885678886,1131,1589284651885472766,,0.498890725204,-0.175536388134,0.214045353287
1589284651888594131,1132,1589284651888483332,,0.498891930814,-0.175534947875,0.214048425936
1589284651891558993,1133,1589284651891455332,,0.498892996074,-0.175532582748,0.214049945592
1589284651894602768,1134,1589284651894520774,,0.498894456904,-0.175531405896,0.214053422764
1589284651900646056,1135,1589284651900463958,,0.4988961632,-0.175529771021,0.214057010378
1589284651903778524,1136,1589284651903600022,,0.498896904697,-0.17552795022,0.214059551373
1589284651909768045,1137,1589284651909575210,,0.498898683429,-0.175525380965,0.214063801523
1589284651916097041,1138,1589284651915888273,,0.498900561546,-0.175522606243,0.21406743411
1589284651921698421,1139,1589284651921544584,,0.498902363252,-0.175518417344,0.21407247651
1589284651927722144,1140,1589284651927571215,,0.498904447042,-0.1755130547,0.214077221336
1589284651933710588,1141,1589284651933600559,,0.498906887819,-0.175507666256,0.214082006816
1589284651939747068,1142,1589284651939575416,,0.498909142826,-0.175501717618,0.214085764315
1589284651945709520,1143,1589284651945590960,,0.498911829676,-0.175494345222,0.214091716547
1589284651951693322,1144,1589284651951579573,,0.498915065329,-0.175486702762,0.214096264435
1589284651957609501,1145,1589284651957507833,,0.498919078903,-0.175476880214,0.214101684365
1589284651960637625,1146,1589284651960527107,,0.498922794804,-0.17546765215,0.214107707592
1589284651966733651,1147,1589284651966592762,,0.498930709836,-0.175444204708,0.21411988114
1589284651972719087,1148,1589284651972584643,,0.498934417887,-0.175430883282,0.214124501722
1589284651975803798,1149,1589284651975578611,,0.498939248808,-0.175414708136,0.214131824502
1589284651981661307,1150,1589284651981512287,,0.498947105413,-0.17538184499,0.214143551747
1589284651987841515,1151,1589284651987730148,,0.498951304735,-0.175364774285,0.214148292829
1589284651993731421,1152,1589284651993564632,,0.498958984786,-0.175333535163,0.214159119217
1589284651999710930,1153,1589284651999560320,,0.498961903788,-0.175318550108,0.214163486934
1589284652002638419,1154,1589284652002483147,,0.498966077654,-0.17530099291,0.214169227768
1589284652005704474,1155,1589284652005584910,,0.498972651512,-0.175267610176,0.214178169824
1589284652012089138,1156,1589284652011985817,,0.49897627186,-0.175250438332,0.214183054421
