%time,field.header.seq,field.header.stamp,field.header.frame_id,field.vector.x,field.vector.y,field.vector.z
1588858573604172776,749,1588858573604069331,,-0.0700669927162,-0.065495188841,0.625051114185
1588858573607284327,750,1588858573607193365,,-0.0700527718276,-0.065396346443,0.624983962596
1588858573613253061,751,1588858573613143178,,-0.0699586121799,-0.0661311743156,0.625165978731
1588858573616399594,752,1588858573616271338,,-0.0699437634794,-0.065943836024,0.625196257198
1588858573619277988,753,1588858573619171733,,-0.069949374087,-0.0669099089078,0.625371647341
1588858573625146434,754,1588858573625072134,,-0.0699328451197,-0.0683430788195,0.625678749806
1588858573628296839,755,1588858573628181904,,-0.069912473243,-0.0679991764292,0.625607732423
1588858573631270980,756,1588858573631189932,,-0.0699006404053,-0.0693370178326,0.62591289455
1588858573637356059,757,1588858573637273847,,-0.0698289274133,-0.0709618357517,0.626302987988
1588858573640251792,758,1588858573640160125,,-0.0698151273845,-0.0708242056818,0.626316461336
1588858573643454125,759,1588858573643368875,,-0.0698269590391,-0.0725950474665,0.626684524512
1588858573649369815,760,1588858573649224591,,-0.0698158070134,-0.0725340486672,0.626549256368
1588858573652245738,761,1588858573652142514,,-0.0697560721297,-0.074299029614,0.627049796077
1588858573658425407,762,1588858573658303251,,-0.0697515698595,-0.0764335833904,0.627513293707
1588858573661345954,763,1588858573661262164,,-0.0697096117084,-0.0762452862517,0.627465815754
1588858573664221656,764,1588858573664126254,,-0.0698033872499,-0.078754876971,0.627853536826
1588858573667269895,765,1588858573667178197,,-0.0696907653335,-0.0785950456205,0.627858513384
1588858573673593362,766,1588858573673499511,,-0.0696599991832,-0.0809280773876,0.628392443564
1588858573676259262,767,1588858573676169776,,-0.0696761513587,-0.0806952069974,0.628228832122
1588858573682405771,768,1588858573682277979,,-0.0696973446953,-0.0833352613072,0.628712740064
1588858573685312633,769,1588858573685243902,,-0.0696679190098,-0.0861831926442,0.629344840292
1588858573688360958,770,1588858573688292875,,-0.0697407247399,-0.0858050127758,0.629027236236
1588858573691463781,771,1588858573691317699,,-0.0697918096509,-0.0884615865296,0.629576502261
1588858573700354365,772,1588858573700247905,,-0.0699155858278,-0.090663159615,0.629654003424
1588858573706379466,773,1588858573706270062,,-0.0700144030575,-0.0937953436221,0.630293313068
1588858573709265127,774,1588858573709116895,,-0.070021152819,-0.0932422781761,0.630061384785
1588858573712423556,775,1588858573712292578,,-0.0700613357508,-0.0967623436492,0.630814417442
1588858573718240499,776,1588858573718146161,,-0.0700309819799,-0.100492172693,0.631622704939
1588858573721427588,777,1588858573721336860,,-0.0699293178828,-0.0999726384593,0.631538700661
1588858573724144667,778,1588858573724070775,,-0.0700540487622,-0.104153445118,0.632359869257
1588858573730367047,779,1588858573730271520,,-0.0700001863828,-0.108296304538,0.633384974855
1588858573733177754,780,1588858573733083808,,-0.0700165792602,-0.108143888683,0.633259148016
1588858573736149456,781,1588858573736061831,,-0.0699745966622,-0.107843767282,0.633205963189
1588858573742167949,782,1588858573742075661,,-0.0700323919194,-0.112298611252,0.634303160967
1588858573745522211,783,1588858573745396526,,-0.0700102656384,-0.117140405716,0.63540378833
1588858573748379354,784,1588858573748294513,,-0.0699671906386,-0.116869780543,0.635462284064
1588858573754580407,785,1588858573754434632,,-0.0699788573997,-0.121752332529,0.636540225283
1588858573763479668,786,1588858573763384728,,-0.0700008517169,-0.131736663882,0.63904277669
1588858573766513228,787,1588858573766412781,,-0.0700272293665,-0.132137785183,0.639107438644
1588858573769493380,788,1588858573769330171,,-0.0700377283392,-0.13202071716,0.63901996439
1588858573772617072,789,1588858573772435593,,-0.0700555576587,-0.137691614205,0.640331600546
1588858573778477968,790,1588858573778368061,,-0.0700679422541,-0.143334625689,0.641796292963
1588858573781422205,791,1588858573781341443,,-0.0700576110119,-0.143344305216,0.641796902534
1588858573787491403,792,1588858573787332942,,-0.0701470941027,-0.149306593911,0.643156125632
1588858573790493788,793,1588858573790433927,,-0.0701644035003,-0.155420769306,0.644658906258
1588858573793315353,794,1588858573793253869,,-0.0701928157027,-0.155589257272,0.644565653646
1588858573796388181,795,1588858573796278181,,-0.0702478450082,-0.155587514967,0.644475619979
1588858573802356046,796,1588858573802286202,,-0.0701997865233,-0.161858202532,0.646222493846
1588858573805011282,797,1588858573804914920,,-0.0703172527845,-0.168373585164,0.64763616119
1588858573811100310,798,1588858573811016533,,-0.0702789160003,-0.175084852474,0.649393075317
1588858573814043644,799,1588858573813938089,,-0.0702343695012,-0.17518737725,0.649423567212
1588858573820170797,800,1588858573820057628,,-0.070340251963,-0.18198987104,0.651025789344
1588858573826422876,801,1588858573826329671,,-0.070340108254,-0.189192417948,0.652866432919
1588858573829541738,802,1588858573829389923,,-0.0703766288104,-0.189179756454,0.652822015819
1588858573835524457,803,1588858573835431084,,-0.0704507530218,-0.196489690685,0.654479776888
1588858573838421787,804,1588858573838332037,,-0.0704481204153,-0.203939283798,0.656362070073
1588858573841422528,805,1588858573841361751,,-0.070427945416,-0.204058670346,0.656423871666
1588858573844093086,806,1588858573843983217,,-0.0704480298771,-0.211613370627,0.65830937209
1588858573850125061,807,1588858573850055979,,-0.0705323214648,-0.218460915777,0.659940532644
1588858573853270776,808,1588858573853123594,,-0.0704475981173,-0.219429091654,0.660329264236
1588858573859463899,809,1588858573859330495,,-0.0705704707264,-0.227375771928,0.662197109175
1588858573862425095,810,1588858573862278220,,-0.0705790669539,-0.227437150609,0.662173229565
1588858573865276433,811,1588858573865198309,,-0.0705809022449,-0.23561196809,0.664148693561
1588858573871306328,812,1588858573871232013,,-0.0705627166284,-0.244017235064,0.66637123236
1588858573874323818,813,1588858573874215481,,-0.0705257804416,-0.243978290226,0.666344353255
1588858573877246971,814,1588858573877137035,,-0.0705165599586,-0.252528400133,0.668526662558
1588858573883257471,815,1588858573883142789,,-0.0705893312005,-0.252462609191,0.668409228453
1588858573886350328,816,1588858573886263103,,-0.0705450809382,-0.261141699895,0.670588499977
1588858573889348672,817,1588858573889233535,,-0.0706463463641,-0.261247906519,0.670470095646
1588858573895469921,818,1588858573895382685,,-0.0706433752437,-0.269871437806,0.672707647182
1588858573898500944,819,1588858573898379061,,-0.0706591471708,-0.279031255337,0.674986737978
1588858573901450355,820,1588858573901346493,,-0.0706145738767,-0.279102413936,0.675059975822
1588858573907175014,821,1588858573907035477,,-0.0706809842638,-0.288093016206,0.677296643279
1588858573910114226,822,1588858573910052078,,-0.0706686538319,-0.295873405339,0.679309576034
1588858573913392692,823,1588858573913278320,,-0.0706300122356,-0.297477583814,0.679690867143
1588858573919477021,824,1588858573919366679,,-0.070749878914,-0.306907329122,0.681954925056
1588858573922404775,825,1588858573922299731,,-0.070663128806,-0.306776595291,0.682084493173
1588858573925449993,826,1588858573925342839,,-0.0707443537468,-0.316543010104,0.684412964929
1588858573931509958,827,1588858573931417351,,-0.0707326671892,-0.326135935547,0.68689315764
1588858573934361205,828,1588858573934299051,,-0.0707687383104,-0.326075915458,0.686887351609
1588858573937318722,829,1588858573937229893,,-0.0708063970938,-0.335941987431,0.689322531089
1588858573944404691,830,1588858573944319441,,-0.0708224121002,-0.346104858548,0.691825672203
1588858573949405125,831,1588858573949342943,,-0.0709148817562,-0.345776968877,0.691782937124
1588858573952418216,832,1588858573952330482,,-0.0709213468085,-0.355970195341,0.694265399435
1588858573955426431,833,1588858573955336757,,-0.0709789496087,-0.355853650772,0.694257429939
1588858573958437900,834,1588858573958323255,,-0.0710538677813,-0.366014590321,0.696799049777
1588858573961420260,835,1588858573961307670,,-0.071096519084,-0.36580801518,0.696666757894
1588858573967444053,836,1588858573967345221,,-0.0711837845492,-0.376133133835,0.699165941262
1588858573976393034,837,1588858573976314977,,-0.0712537861576,-0.386072171707,0.701523935805
1588858573979425897,838,1588858573979321551,,-0.0711620425934,-0.39643923131,0.704084089214
1588858573982474531,839,1588858573982360337,,-0.0712014492077,-0.395666939957,0.703741587387
1588858573988418508,840,1588858573988327637,,-0.0712345361603,-0.405909855229,0.706051900318
1588858573991382960,841,1588858573991296866,,-0.0712441632362,-0.416315124397,0.708439051756
1588858573994470133,842,1588858573994351526,,-0.0712456690131,-0.415347680068,0.708201952685
1588858574000473217,843,1588858574000360205,,-0.0712720676394,-0.425799913281,0.710718086548
1588858574003429524,844,1588858574003349200,,-0.0712526072714,-0.424767141886,0.710491537891
1588858574006397050,845,1588858574006337444,,-0.0712803158748,-0.435258484093,0.713245271706
1588858574012415006,846,1588858574012314121,,-0.0713320710117,-0.445897625839,0.715801194683
1588858574015404074,847,1588858574015329635,,-0.0713462768713,-0.444956128971,0.71565073721
1588858574018401079,848,1588858574018307552,,-0.0713676374532,-0.455847539856,0.718374878595
1588858574024382487,849,1588858574024265361,,-0.0714162246844,-0.4669502398,0.721219954922
1588858574027410893,850,1588858574027339109,,-0.0713442561261,-0.465772527504,0.721078479589
1588858574030331242,851,1588858574030276479,,-0.0714171363213,-0.477186943292,0.724049932676
1588858574036357124,852,1588858574036273594,,-0.0714027790472,-0.476398295515,0.724000355731
1588858574039449731,853,1588858574039312502,,-0.0713934483358,-0.488011092857,0.727051723865
1588858574045038762,854,1588858574044956361,,-0.0714586189237,-0.499818035028,0.730138669788
1588858574048394524,855,1588858574048319966,,-0.0715259849095,-0.499191262617,0.730030858914
1588858574051279707,856,1588858574051198622,,-0.0715167577229,-0.511207724292,0.733130791461
1588858574054447933,857,1588858574054333428,,-0.0715702535993,-0.510813165611,0.733090412788
1588858574060478213,858,1588858574060364493,,-0.071647748711,-0.522912951284,0.736038837995
1588858574063452693,859,1588858574063350107,,-0.071548399354,-0.5324493685,0.738702676561
1588858574069533673,860,1588858574069438326,,-0.0716605147324,-0.534812549809,0.73912424667
1588858574072652983,861,1588858574072563846,,-0.0716532305467,-0.547207557227,0.742280099547
1588858574075586440,862,1588858574075438162,,-0.0717816396343,-0.546865479889,0.742123019262
1588858574078413033,863,1588858574078324907,,-0.0718206469558,-0.559654447709,0.745274414598
1588858574084407768,864,1588858574084308038,,-0.0718882087518,-0.572613695916,0.748415975716
1588858574087360892,865,1588858574087270100,,-0.071898589624,-0.572344706152,0.748291230926
1588858574093285504,866,1588858574093229019,,-0.0719775699377,-0.585512052541,0.75160156628
1588858574096369258,867,1588858574096230765,,-0.0720286644528,-0.585149034567,0.751392337644
1588858574099024756,868,1588858574098956270,,-0.0720603827396,-0.598625499214,0.754718303468
1588858574105390854,869,1588858574105308646,,-0.0721566935986,-0.612086511973,0.757860984506
1588858574108424616,870,1588858574108283240,,-0.0721600452445,-0.611810086978,0.757822529939
1588858574111569823,871,1588858574111472936,,-0.072201260767,-0.625498333887,0.761175201374
1588858574120435861,872,1588858574120274977,,-0.0722870807638,-0.639359122101,0.764568593147
1588858574123040660,873,1588858574122935505,,-0.0723181787685,-0.639313552903,0.764414554909
1588858574128982509,874,1588858574128878230,,-0.0723045636641,-0.65341897413,0.767790338939
1588858574131969527,875,1588858574131909065,,-0.0724050860895,-0.667529180636,0.771227415532
1588858574135059419,876,1588858574134970623,,-0.0723465710039,-0.667451426384,0.771274476818
1588858574140982857,877,1588858574140909542,,-0.0724420679129,-0.681948975165,0.774635220865
1588858574144267280,878,1588858574144170994,,-0.0724676375899,-0.696250243248,0.778073657518
1588858574147432542,879,1588858574147343976,,-0.0724686411133,-0.696358579554,0.778019614335
1588858574153300719,880,1588858574153228241,,-0.0725297026146,-0.710976992308,0.78166796426
1588858574156408028,881,1588858574156295092,,-0.0725564132907,-0.710986918425,0.781474490522
1588858574159101229,882,1588858574159038286,,-0.0725739334991,-0.725834861971,0.785091805388
1588858574165272287,883,1588858574165182693,,-0.0725213935862,-0.740759028045,0.788811585132
1588858574168249294,884,1588858574168124486,,-0.0726400975716,-0.740740629108,0.788633232669
1588858574174618862,885,1588858574174540040,,-0.0726207445909,-0.7557919513,0.792296020512
1588858574180389276,886,1588858574180306916,,-0.0725997446044,-0.770949908793,0.795927044309
1588858574183393021,887,1588858574183249932,,-0.0726198793322,-0.771004216586,0.795924415849
1588858574189325955,888,1588858574189249682,,-0.0726930603375,-0.786341690232,0.799411565757
1588858574192131175,889,1588858574191977841,,-0.0727360936763,-0.801744259087,0.803135114898
1588858574198111925,890,1588858574198026643,,-0.0727393378808,-0.817243051746,0.806928351399
1588858574201254210,891,1588858574201179314,,-0.0727496695463,-0.817233372632,0.806927742455
1588858574204143511,892,1588858574204074265,,-0.0727737038843,-0.832912441137,0.810724042871
1588858574207375928,893,1588858574207232065,,-0.0727955253826,-0.83300493344,0.810465713004
1588858574213256030,894,1588858574213160088,,-0.0727678703954,-0.848748842384,0.814296134553
1588858574216205242,895,1588858574216122596,,-0.0728087074447,-0.848697447435,0.814137033884
1588858574222168022,896,1588858574222070519,,-0.0728504665609,-0.864502727463,0.81783263266
1588858574225114147,897,1588858574225000313,,-0.0728294647919,-0.880532060621,0.821626632853
1588858574228141646,898,1588858574228080764,,-0.0727819559002,-0.880352033795,0.821472324132
1588858574234059287,899,1588858574233977225,,-0.0728045328396,-0.896387446257,0.825158572312
1588858574240234063,900,1588858574240099387,,-0.0726863064766,-0.912169544399,0.828690664668
1588858574246282776,901,1588858574246182650,,-0.0726282807606,-0.928269425036,0.832508583835
1588858574249337039,902,1588858574249138216,,-0.0725078787366,-0.927949177419,0.832187866837
1588858574252210844,903,1588858574252092633,,-0.0724751436088,-0.944235986125,0.835723859309
1588858574258079882,904,1588858574258019966,,-0.0723829167098,-0.960372957833,0.839370329694
1588858574261084613,905,1588858574260995911,,-0.072307865229,-0.960065768685,0.838800775061
1588858574264045794,906,1588858574263955980,,-0.0721874916058,-0.976306503008,0.842587100224
1588858574273788078,907,1588858574273688585,,-0.0720465101105,-0.992128608673,0.845750918609
1588858574276405344,908,1588858574276288857,,-0.0719272944359,-0.99155132124,0.845393639183
1588858574282443081,909,1588858574282362273,,-0.0719457630797,-1.00787445897,0.849199503129
1588858574285272922,910,1588858574285210173,,-0.0719379480938,-1.02428723764,0.853061535849
1588858574288314028,911,1588858574288242590,,-0.0719066276612,-1.02371110581,0.852658476637
1588858574294469606,912,1588858574294363763,,-0.0718966311115,-1.04009516196,0.856536324515
1588858574297372061,913,1588858574297233259,,-0.0719516925778,-1.05657085278,0.860427788144
1588858574300340737,914,1588858574300269259,,-0.071933021139,-1.05578878112,0.86000784994
1588858574306307185,915,1588858574306234390,,-0.0719816918072,-1.07228430622,0.863844601014
1588858574309306653,916,1588858574309218192,,-0.0721791239693,-1.07115018766,0.863206905115
1588858574312279539,917,1588858574312219095,,-0.0721903642378,-1.08788464552,0.867160170776
1588858574318371068,918,1588858574318284311,,-0.0722288744726,-1.104529667,0.871076777701
1588858574321304774,919,1588858574321215875,,-0.0722466187437,-1.10362127661,0.870628823982
1588858574324317743,920,1588858574324228942,,-0.0722233926832,-1.12046910109,0.874563269221
1588858574330602432,921,1588858574330483503,,-0.0722399886386,-1.13750315876,0.878543168783
1588858574333413769,922,1588858574333320108,,-0.0721466992897,-1.1369107296,0.878139199676
1588858574336487061,923,1588858574336372029,,-0.0721041061004,-1.13624541917,0.877763868241
1588858574342424591,924,1588858574342332295,,-0.0721049676199,-1.15337859281,0.881823659525
1588858574345448157,925,1588858574345336797,,-0.0720954356525,-1.17073068541,0.885911062656
1588858574348452239,926,1588858574348356231,,-0.0720160584534,-1.16991574666,0.885515695514
1588858574354138779,927,1588858574353978100,,-0.0719532582708,-1.18732933438,0.889775698845
1588858574363240608,928,1588858574363128982,,-0.0717908155347,-1.20387622024,0.893519203703
1588858574366437083,929,1588858574366348826,,-0.0717607143219,-1.22122057155,0.897646103674
1588858574369468935,930,1588858574369343216,,-0.0716615904699,-1.22042159014,0.897311201243
1588858574375504042,931,1588858574375411255,,-0.0715523552942,-1.23756377822,0.901400257955
1588858574378491276,932,1588858574378404270,,-0.0713207011386,-1.25475646881,0.905662292834
1588858574381405650,933,1588858574381310735,,-0.0712419583162,-1.25355472921,0.905067814163
1588858574387147827,934,1588858574387060650,,-0.0711068585117,-1.27067929728,0.909162132298
1588858574390202892,935,1588858574389999967,,-0.0709986180647,-1.26960199298,0.908672874911
1588858574393395812,936,1588858574393328008,,-0.0708947417677,-1.28662220976,0.912594297968
1588858574399152786,937,1588858574399084960,,-0.0707316164267,-1.30343998396,0.916647547034
1588858574402000883,938,1588858574401933110,,-0.0706285879394,-1.30203940906,0.916150381003
1588858574405164021,939,1588858574405079998,,-0.0704472261068,-1.31914724769,0.920310677613
1588858574411346069,940,1588858574411216914,,-0.0703187653646,-1.33650810045,0.924492772553
1588858574414414885,941,1588858574414297556,,-0.0701441708263,-1.33491138515,0.923950407372
1588858574417386013,942,1588858574417273773,,-0.0699488235008,-1.35225555425,0.928246914907
1588858574423220740,943,1588858574423103723,,-0.0698448354872,-1.35040481731,0.927401181053
1588858574426443863,944,1588858574426337186,,-0.0695633844041,-1.36741467772,0.931311867353
1588858574429684422,945,1588858574429551295,,-0.0694274829264,-1.3654553231,0.930523516975
1588858574435544574,946,1588858574435457756,,-0.069377805575,-1.38278321882,0.934705537151
1588858574438295542,947,1588858574438178549,,-0.0693106135597,-1.4000940754,0.938832192578
1588858574441426217,948,1588858574441344533,,-0.0691865314341,-1.3986592209,0.938216483759
1588858574447286973,949,1588858574447208556,,-0.0690135542748,-1.41579141743,0.942247618366
1588858574450332855,950,1588858574450214981,,-0.0688764801005,-1.41400111384,0.941514104281
1588858574456177324,951,1588858574456081178,,-0.0686926113252,-1.43144699201,0.945728500822
1588858574459266114,952,1588858574459178942,,-0.0685449819113,-1.44880236081,0.949955238635
1588858574462395070,953,1588858574462251096,,-0.0683323037008,-1.44719210857,0.949406332945
1588858574465541881,954,1588858574465411370,,-0.0680426418197,-1.46474118103,0.953621373628
1588858574471955814,955,1588858574471810253,,-0.0677767551296,-1.48198124883,0.957921223747
1588858574474909273,956,1588858574474813409,,-0.0674835949578,-1.47992829457,0.957371721
1588858574480574693,957,1588858574480492863,,-0.0672491689051,-1.49725853239,0.961635591632
1588858574483576994,958,1588858574483467676,,-0.0671073927562,-1.5071561267,0.963860935579
1588858574486564424,959,1588858574486445041,,-0.0668746462708,-1.512304582,0.965212147319
1588858574492133432,960,1588858574492039271,,-0.0667894002773,-1.52952357411,0.969458010867
1588858574495401281,961,1588858574495298385,,-0.0666567633393,-1.52671305368,0.968871613841
1588858574498392328,962,1588858574498315381,,-0.0664966453803,-1.54342612405,0.973383199812
1588858574504371114,963,1588858574504268968,,-0.0662454037077,-1.56001134769,0.978088550278
1588858574507508188,964,1588858574507425461,,-0.0660603469222,-1.5569517021,0.977514779224
1588858574510607680,965,1588858574510526314,,-0.0659564216869,-1.57406029936,0.981606339237
1588858574516459809,966,1588858574516361210,,-0.0657941652252,-1.57117979841,0.980848332489
1588858574519390109,967,1588858574519263139,,-0.0655345922903,-1.58862727677,0.985166028789
1588858574522584332,968,1588858574522426861,,-0.0653219149147,-1.58572524449,0.984399195714
1588858574528383844,969,1588858574528294483,,-0.0650794050415,-1.60279377065,0.988551358625
1588858574531476470,970,1588858574531376501,,-0.0648829970786,-1.62034309411,0.992755426785
1588858574534225436,971,1588858574534145167,,-0.0647770607226,-1.61811447226,0.992097700581
1588858574540351901,972,1588858574540263548,,-0.0646793598216,-1.63596411031,0.996476729161
1588858574543387397,973,1588858574543261438,,-0.0645966561782,-1.63348465111,0.99555832988
1588858574546468916,974,1588858574546366754,,-0.0645201474,-1.65149656572,0.999760901967
1588858574552580947,975,1588858574552435309,,-0.0643119400943,-1.66963708682,1.00426658288
1588858574555592068,976,1588858574555460637,,-0.0641538175473,-1.66769934614,1.00344601741
1588858574558466408,977,1588858574558361637,,-0.0639918432165,-1.68570620585,1.00771050687
1588858574564622885,978,1588858574564503262,,-0.0638782869995,-1.70395221254,1.01196939473
1588858574567575538,979,1588858574567478730,,-0.0636726286608,-1.70169345265,1.01113678092
1588858574570309715,980,1588858574570230201,,-0.0635596512885,-1.71098354994,1.01316165766
1588858574576480049,981,1588858574576407642,,-0.0633310498431,-1.71717485207,1.01454159441
1588858574579688016,982,1588858574579465659,,-0.0631567751168,-1.7351420782,1.01865368315
1588858574585207523,983,1588858574585124398,,-0.0629959136518,-1.75367334484,1.02298139987
1588858574588309795,984,1588858574588228696,,-0.0628496678871,-1.75143700492,1.02206495836
1588858574591172857,985,1588858574591093139,,-0.0627715033245,-1.76975715671,1.02640263943
1588858574594213660,986,1588858574594106826,,-0.0625184355471,-1.7670895638,1.02550148397
1588858574600305016,987,1588858574600213467,,-0.0623511092399,-1.78513753019,1.02966148975
1588858574603428920,988,1588858574603213096,,-0.0622011681575,-1.78288931175,1.02876976993
1588858574609573256,989,1588858574609407354,,-0.062009403556,-1.80099022349,1.03307738504
1588858574612368600,990,1588858574612266556,,-0.0618922616489,-1.81946002169,1.03727068044
1588858574615284783,991,1588858574615213739,,-0.0616592675734,-1.81683226292,1.03634212224
1588858574618594446,992,1588858574618466607,,-0.0614515773352,-1.83488357124,1.04069521427
1588858574624366298,993,1588858574624245915,,-0.0612315769785,-1.8534185211,1.04499666622
1588858574627303986,994,1588858574627165959,,-0.0609941790682,-1.85090956221,1.04415509143
1588858574633360475,995,1588858574633246219,,-0.0608636278215,-1.86920458728,1.0482536845
1588858574636325785,996,1588858574636214649,,-0.0606965979547,-1.86667544982,1.0474783825
1588858574639292546,997,1588858574639211307,,-0.06042393859,-1.88491794466,1.05184775553
1588858574645359303,998,1588858574645188055,,-0.0602126499786,-1.9032178523,1.05627594968
1588858574648334359,999,1588858574648179338,,-0.0600346497779,-1.90078460514,1.0552941652
1588858574651280836,1000,1588858574651207575,,-0.0598940408793,-1.91915462191,1.05951004175
1588858574657522047,1001,1588858574657423076,,-0.0597162279791,-1.93734059797,1.0637542948
1588858574660563396,1002,1588858574660477575,,-0.0594257488091,-1.93429992214,1.06294495708
1588858574663551292,1003,1588858574663451291,,-0.0591793130235,-1.93195548017,1.06219510514
1588858574669505763,1004,1588858574669395910,,-0.0589313704221,-1.95058566407,1.06657939475
1588858574672746718,1005,1588858574672620497,,-0.058739683914,-1.96904176076,1.07082678536
1588858574675871593,1006,1588858574675760219,,-0.0584207993719,-1.96607179565,1.0700544143
1588858574681508240,1007,1588858574681408081,,-0.0581423673427,-1.98452713236,1.07444475613
1588858574684497979,1008,1588858574684414905,,-0.05788525842,-2.00288348886,1.07890261006
1588858574687572087,1009,1588858574687472248,,-0.0577760187099,-2.00024280326,1.07783105296
1588858574693617608,1010,1588858574693542705,,-0.0575829295189,-2.01870207533,1.08225951397
1588858574696612748,1011,1588858574696448792,,-0.0574246149456,-2.01564217137,1.08134099976
1588858574699508639,1012,1588858574699428519,,-0.05718925424,-2.03378677304,1.08576351039
1588858574705855172,1013,1588858574705687273,,-0.056919447662,-2.05213621429,1.09031692198
1588858574708633377,1014,1588858574708548712,,-0.0567101218336,-2.04938777187,1.08961941121
1588858574711736443,1015,1588858574711594839,,-0.0565494719212,-2.06763691472,1.09408902891
1588858574720942949,1016,1588858574720863957,,-0.0562309982837,-2.08302438716,1.09754907035
1588858574723939730,1017,1588858574723805837,,-0.0559877228126,-2.10091911197,1.10203246944
1588858574729974922,1018,1588858574729833712,,-0.0557855487226,-2.09796731986,1.10110876108
1588858574732881472,1019,1588858574732740500,,-0.0556104699978,-2.11617567158,1.10543658379
1588858574735889412,1020,1588858574735751310,,-0.0554321246588,-2.11292543092,1.10473988774
1588858574741829232,1021,1588858574741719900,,-0.0551514298728,-2.13103875883,1.10913636941
1588858574744867049,1022,1588858574744711147,,-0.054880969599,-2.14932181657,1.11381731477
1588858574747511828,1023,1588858574747406742,,-0.0546521023352,-2.14659899613,1.11316924259
1588858574753671995,1024,1588858574753572995,,-0.0545378781505,-2.16475421195,1.11752114584
1588858574756415259,1025,1588858574756300463,,-0.0542730310563,-2.16128759659,1.11661301757
1588858574759380231,1026,1588858574759292163,,-0.0539997839958,-2.17967203393,1.12121075425
1588858574765317328,1027,1588858574765242569,,-0.0537980602423,-2.19770162681,1.12559689793
1588858574768403867,1028,1588858574768287698,,-0.0535653370501,-2.19421931089,1.12477655547
1588858574774802554,1029,1588858574774660004,,-0.053516588482,-2.21208272906,1.12900871392
1588858574777425123,1030,1588858574777356676,,-0.0533798697396,-2.23003986709,1.13335521659
1588858574780433923,1031,1588858574780290992,,-0.0531196975298,-2.22626854316,1.13252254447
1588858574786475921,1032,1588858574786399061,,-0.053134215541,-2.24475919841,1.13683175416
1588858574789374572,1033,1588858574789286919,,-0.0530774019358,-2.24167085407,1.13580510136
1588858574792360623,1034,1588858574792245411,,-0.0529687629942,-2.25981424283,1.14012556092
1588858574798515201,1035,1588858574798380772,,-0.0528489530331,-2.2774576815,1.14429950372
1588858574801500843,1036,1588858574801400175,,-0.0526492267518,-2.27384712289,1.14328919354
1588858574804134606,1037,1588858574804052403,,-0.0524418178571,-2.2920886066,1.14753473073
1588858574810412739,1038,1588858574810292021,,-0.0523278982869,-2.29874886663,1.14904375318
1588858574813227291,1039,1588858574813136268,,-0.0522134079504,-2.30669908006,1.15072950266
1588858574819413186,1040,1588858574819320918,,-0.0518755841649,-2.32465504785,1.15532470907
1588858574822577555,1041,1588858574822467495,,-0.0517348710337,-2.32084641763,1.15417520251
1588858574825476376,1042,1588858574825403301,,-0.0515349152348,-2.33886031076,1.15860017684
1588858574828556218,1043,1588858574828485419,,-0.0511995373585,-2.33509977159,1.15788284502
1588858574834545508,1044,1588858574834461280,,-0.0509844620401,-2.35302729061,1.1623986758
1588858574837534415,1045,1588858574837440406,,-0.0507314775944,-2.37065222531,1.16685310408
1588858574843398701,1046,1588858574843260430,,-0.050395937318,-2.36673113507,1.16590484835
1588858574846545913,1047,1588858574846427631,,-0.0500581694637,-2.38453991492,1.17027690126
1588858574849472797,1048,1588858574849369260,,-0.0496677949347,-2.38024588417,1.16918254533
1588858574852428393,1049,1588858574852341659,,-0.0494344055316,-2.39792502418,1.17325118979
1588858574858455052,1050,1588858574858348580,,-0.0490459356313,-2.41585648101,1.17785406904
1588858574861420749,1051,1588858574861341162,,-0.0486859558128,-2.41164435337,1.17686456804
1588858574867412303,1052,1588858574867302095,,-0.0483815955297,-2.42881981403,1.18118514587
1588858574870569210,1053,1588858574870500527,,-0.0481104326505,-2.42466121375,1.18013964205
1588858574873532675,1054,1588858574873442599,,-0.0477629093551,-2.44172630508,1.18462038121
1588858574879555411,1055,1588858574879436083,,-0.0475168183287,-2.45916980694,1.18915804514
1588858574882562624,1056,1588858574882465277,,-0.0471636343126,-2.45477135075,1.18831189202
1588858574885554382,1057,1588858574885452609,,-0.046775333747,-2.47176898167,1.19281772488
1588858574891396357,1058,1588858574891224659,,-0.0463069202504,-2.48914224378,1.19760184371
1588858574894381967,1059,1588858574894284959,,-0.0459176184566,-2.48479551269,1.19669439261
1588858574897553439,1060,1588858574897451061,,-0.0454627822505,-2.50208469392,1.20126541733
1588858574903582130,1061,1588858574903431352,,-0.0449383924216,-2.49767613306,1.20047672026
1588858574906555531,1062,1588858574906442150,,-0.0446177143341,-2.51455242489,1.20479712833
1588858574909499711,1063,1588858574909385710,,-0.0441065130892,-2.51000259742,1.2038306415
1588858574915711539,1064,1588858574915557463,,-0.0436797650881,-2.52773625601,1.2083819107
1588858574918573484,1065,1588858574918428485,,-0.0432517572143,-2.54473194153,1.21287978978
1588858574921581311,1066,1588858574921481060,,-0.0428268919585,-2.53997344922,1.21162145213
1588858574927524066,1067,1588858574927409453,,-0.04246900327,-2.55698852304,1.21590003872
1588858574930415112,1068,1588858574930342327,,-0.0420186457066,-2.57420151563,1.22047508404
1588858574933545713,1069,1588858574933431970,,-0.0416418936585,-2.56945321074,1.21942947798
1588858574939643109,1070,1588858574939561929,,-0.041184572801,-2.58578958417,1.2237422914
1588858574942583140,1071,1588858574942468275,,-0.040719508717,-2.58117883418,1.22272556354
1588858574946330381,1072,1588858574946226949,,-0.0404427181344,-2.59819123552,1.22725316959
1588858574951668362,1073,1588858574951538085,,-0.0399051046738,-2.61457734735,1.2318974401
1588858574954484154,1074,1588858574954362736,,-0.0394690351994,-2.60981579861,1.23074495438
1588858574957568366,1075,1588858574957480605,,-0.0390263246584,-2.62626483638,1.23525356009
1588858574963472475,1076,1588858574963407880,,-0.0385369504817,-2.62107219402,1.23428175756
1588858574966384242,1077,1588858574966275639,,-0.038126979538,-2.63806841444,1.23895489551
1588858574972719938,1078,1588858574972624366,,-0.0376419104125,-2.65425109919,1.24327578662
1588858574975781408,1079,1588858574975699237,,-0.0370887312094,-2.64909619702,1.24241273789
1588858574978376038,1080,1588858574978297692,,-0.036718465877,-2.6654040761,1.24663660636
1588858574981342837,1081,1588858574981272806,,-0.0361858618137,-2.66003356335,1.24580584826
1588858574987432716,1082,1588858574987349425,,-0.0357726679215,-2.67625117449,1.25000677646
1588858574990668984,1083,1588858574990580916,,-0.035394025274,-2.69242803788,1.25422263102
1588858574996450247,1084,1588858574996392035,,-0.0350493336856,-2.68695915794,1.25276125964
1588858574999469179,1085,1588858574999398263,,-0.0345584916316,-2.70308276818,1.25715428883
1588858575002366645,1086,1588858575002258053,,-0.0340472015335,-2.69757641323,1.25605304119
1588858575005464334,1087,1588858575005399182,,-0.0335941480696,-2.71354892215,1.26035094134
1588858575011344496,1088,1588858575011270280,,-0.0330667083639,-2.72954580845,1.26477887611
1588858575014322738,1089,1588858575014249790,,-0.0328198539805,-2.72412416501,1.26356173097
1588858575020402788,1090,1588858575020254682,,-0.0323541023554,-2.74000953603,1.26812232191
1588858575023382010,1091,1588858575023248340,,-0.0319429419091,-2.73452562597,1.26702752454
1588858575026323722,1092,1588858575026254975,,-0.0314631137659,-2.7498922217,1.27132779104
1588858575032388942,1093,1588858575032248000,,-0.0310584700689,-2.7658514497,1.27587850659
1588858575035318663,1094,1588858575035241561,,-0.0305829215829,-2.76035052669,1.27510838691
1588858575038332489,1095,1588858575038258995,,-0.0301619079731,-2.77638326979,1.27953727549
1588858575044482500,1096,1588858575044390180,,-0.0297592688725,-2.79206711427,1.28388995803
1588858575047339481,1097,1588858575047241421,,-0.0292750530607,-2.78657653273,1.28291030669
1588858575050669505,1098,1588858575050578773,,-0.0286933299541,-2.80217504261,1.28728517306
1588858575056388492,1099,1588858575056275878,,-0.0282273282763,-2.79664056829,1.28637111402
1588858575059347485,1100,1588858575059265140,,-0.0279097025551,-2.81271007735,1.2905064671
1588858575062291868,1101,1588858575062210675,,-0.0274532697785,-2.80731989869,1.28939563974
1588858575068442762,1102,1588858575068364008,,-0.0269819656026,-2.82309112132,1.29369973047
1588858575071919377,1103,1588858575071820812,,-0.0265714972973,-2.83873598868,1.29782540546
1588858575074689237,1104,1588858575074612114,,-0.0261263320759,-2.83368596422,1.29680292737
1588858575080440393,1105,1588858575080356901,,-0.0257410951719,-2.84973124126,1.30090054783
1588858575083435528,1106,1588858575083328581,,-0.0251504064294,-2.84416358642,1.29987016431
1588858575086384487,1107,1588858575086290376,,-0.0245560087524,-2.85986507499,1.30414923648
1588858575092345825,1108,1588858575092222172,,-0.0240887943528,-2.87596587163,1.30838939502
1588858575095468470,1109,1588858575095345585,,-0.0235147896847,-2.87036260728,1.30704795409
1588858575098507357,1110,1588858575098417009,,-0.022835508991,-2.88595351814,1.31161546864
1588858575104555735,1111,1588858575104413509,,-0.0224444739915,-2.90167035117,1.31558537803
1588858575107712348,1112,1588858575107620205,,-0.0217987018262,-2.89624864599,1.31461452154
1588858575110621168,1113,1588858575110536648,,-0.0211404876858,-2.91152948458,1.31903602275
1588858575116759947,1114,1588858575116582193,,-0.0206395405909,-2.90586283209,1.3179906763
1588858575119649312,1115,1588858575119545116,,-0.0200104990999,-2.9208077067,1.32226349401
1588858575122678440,1116,1588858575122557971,,-0.0194280708712,-2.91538710033,1.32136988944
1588858575128610534,1117,1588858575128499019,,-0.0188260115869,-2.93028585529,1.32558182488
1588858575131695104,1118,1588858575131578392,,-0.0181906900205,-2.94530094126,1.32974674193
1588858575134796340,1119,1588858575134667449,,-0.0178046236412,-2.93980105605,1.32861522829
1588858575140811683,1120,1588858575140657788,,-0.017143394472,-2.95481890388,1.33293742053
1588858575143711090,1121,1588858575143615711,,-0.0165224501221,-2.94858259099,1.33189565183
1588858575149592668,1122,1588858575149437626,,-0.0159749825516,-2.96400722338,1.33613833642
1588858575152628141,1123,1588858575152537767,,-0.0154404402918,-2.97907834506,1.34037381925
1588858575155650507,1124,1588858575155502175,,-0.0148773147399,-2.97344534965,1.33933459182
1588858575161752278,1125,1588858575161632279,,-0.0142900094777,-2.98856280196,1.34350000648
1588858575164710662,1126,1588858575164560547,,-0.0138278711999,-3.00357598968,1.34743500656
1588858575167782042,1127,1588858575167641148,,-0.0131911354612,-2.99802702892,1.34656012208
1588858575173676288,1128,1588858575173548659,,-0.0126799198297,-3.01299701466,1.35069396839
1588858575176500674,1129,1588858575176382044,,-0.0121254486958,-3.00758760003,1.34966416113
1588858575179605582,1130,1588858575179512361,,-0.0114623596759,-3.02274794136,1.35392670315
1588858575185530930,1131,1588858575185439073,,-0.0109653715273,-3.03781621664,1.3579802686
1588858575188366069,1132,1588858575188278611,,-0.0104669046481,-3.03268589451,1.35693865515
1588858575191631063,1133,1588858575191483201,,-0.00984288233927,-3.04739292029,1.36124987652
1588858575200430375,1134,1588858575200340192,,-0.00884687025014,-3.05725191727,1.36440995252
1588858575203695660,1135,1588858575203560564,,-0.00810835468386,-3.05192598934,1.3636782949
1588858575209589272,1136,1588858575209473192,,-0.0076851816176,-3.06670298818,1.36758677211
1588858575212414108,1137,1588858575212314327,,-0.00713605006641,-3.08115635221,1.37188556621
1588858575215619658,1138,1588858575215536855,,-0.00638277877,-3.07582380207,1.37110643562
1588858575221476017,1139,1588858575221373712,,-0.00582636393141,-3.09019960341,1.37528895744
1588858575224469917,1140,1588858575224310368,,-0.0053134660821,-3.10485565077,1.37920414164
1588858575230518350,1141,1588858575230445376,,-0.00486260214502,-3.10028119975,1.37846438857
1588858575233502095,1142,1588858575233315447,,-0.00420186685086,-3.11418320437,1.38263363847
1588858575236394590,1143,1588858575236300084,,-0.00365539423487,-3.10777121115,1.38175810315
1588858575239449526,1144,1588858575239312746,,-0.00327380927214,-3.12302699489,1.38581720642
1588858575245483758,1145,1588858575245392926,,-0.00273162280663,-3.13675453242,1.3896794225
1588858575248442830,1146,1588858575248332002,,-0.00208025572291,-3.13070021108,1.38872947437
1588858575254541432,1147,1588858575254452041,,-0.00141096641982,-3.14532254365,1.39297039708
1588858575260585522,1148,1588858575260483802,,-0.000151795210727,-3.1538521837,1.39616884905
1588858575263509339,1149,1588858575263315075,,0.00044320823045,-3.14850038693,1.39533108164
1588858575269405429,1150,1588858575269318517,,0.000863302868775,-3.16306114385,1.39919613575
1588858575272565847,1151,1588858575272473816,,0.0016040526844,-3.17700513066,1.40339531435
1588858575278554296,1152,1588858575278437328,,0.00220596303552,-3.19084242143,1.40751341869
1588858575281526024,1153,1588858575281404779,,0.00283009586395,-3.18537496019,1.40680905893
1588858575284271300,1154,1588858575284199173,,0.00342132124202,-3.19945499637,1.41076781703
1588858575290553511,1155,1588858575290344564,,0.0039045325773,-3.19471070221,1.40995867917
1588858575293493904,1156,1588858575293427667,,0.00441992176767,-3.20911962317,1.41365953895
1588858575296306596,1157,1588858575296223565,,0.00515568333657,-3.20226970685,1.41275298415
1588858575302350268,1158,1588858575302252453,,0.00558476304023,-3.21704540468,1.41683435351
1588858575305431161,1159,1588858575305341879,,0.00615507734106,-3.23097238701,1.42091217958
1588858575308451072,1160,1588858575308365860,,0.00673671355926,-3.22470767186,1.41976960057
1588858575314404695,1161,1588858575314314173,,0.00724300056372,-3.23777009536,1.42361375948
1588858575320418853,1162,1588858575320327331,,0.00830004946724,-3.2460499786,1.42640040438
1588858575326376691,1163,1588858575326282831,,0.00884203833013,-3.25954470441,1.43043595828
1588858575329415864,1164,1588858575329324138,,0.00951148648097,-3.25414318113,1.42960576571
1588858575332298730,1165,1588858575332224360,,0.00984556833299,-3.26745266679,1.43322821136
1588858575338395733,1166,1588858575338275968,,0.0105588725182,-3.28027354087,1.43682166877
1588858575341533031,1167,1588858575341467640,,0.0111340312617,-3.27422095229,1.43591081408
1588858575344632022,1168,1588858575344489048,,0.0115913209125,-3.2879634488,1.43986836006
1588858575350930895,1169,1588858575350779626,,0.0120514007582,-3.30156072829,1.44364692579
1588858575353544599,1170,1588858575353459087,,0.0126537742634,-3.29590910546,1.44276470554
1588858575356536434,1171,1588858575356445131,,0.0132730598492,-3.2895688127,1.44170875166
1588858575362553853,1172,1588858575362463207,,0.0136135472033,-3.30367692574,1.44553775118
1588858575365553526,1173,1588858575365452554,,0.0143328681039,-3.31683612796,1.44947988368
1588858575368436812,1174,1588858575368327575,,0.0148996026736,-3.31048796581,1.44815781843
1588858575375069096,1175,1588858575374905202,,0.0153818676607,-3.32349778922,1.45185934334
1588858575383589062,1176,1588858575383360483,,0.0165037672986,-3.33094049957,1.45467075163
1588858575386447815,1177,1588858575386381710,,0.0168816802321,-3.3441895967,1.45817035344
1588858575389658262,1178,1588858575389532834,,0.0174697059453,-3.33866862901,1.45719395515
1588858575392588057,1179,1588858575392462068,,0.0180227409762,-3.35105207558,1.46078232512
1588858575398438592,1180,1588858575398334229,,0.0185866463136,-3.36366183708,1.46446757376
1588858575401396520,1181,1588858575401290322,,0.0192520678,-3.35779053365,1.46352927639
1588858575407626823,1182,1588858575407523458,,0.0197495708995,-3.37055830081,1.46695173919
1588858575410839353,1183,1588858575410731697,,0.020399152232,-3.38350143033,1.4706425107
1588858575413505072,1184,1588858575413396382,,0.0210621571367,-3.37769220649,1.46976769723
1588858575419426428,1185,1588858575419308940,,0.0216443218873,-3.38884119432,1.47299387896
1588858575422642067,1186,1588858575422531720,,0.0221973923325,-3.38413339879,1.4724121366
1588858575425635612,1187,1588858575425553303,,0.0228915496058,-3.3960717344,1.47603415204
1588858575431872383,1188,1588858575431754922,,0.0235443494044,-3.4070895057,1.47950390159
1588858575434706015,1189,1588858575434580076,,0.0242006213877,-3.40095409685,1.47870603619
1588858575443849884,1190,1588858575443760731,,0.0253422515472,-3.42501758504,1.48565038204
1588858575446660107,1191,1588858575446515742,,0.026074200614,-3.41905820367,1.48481090743
1588858575449685921,1192,1588858575449553237,,0.0266353091604,-3.41343207801,1.48385323317
1588858575455574565,1193,1588858575455501411,,0.0272168076606,-3.42492710935,1.48729394568
1588858575458466007,1194,1588858575458380363,,0.027850349462,-3.43617011999,1.49074854074
1588858575461475903,1195,1588858575461403753,,0.0286312633598,-3.43059298705,1.49005567354
1588858575467461758,1196,1588858575467339793,,0.0289911075036,-3.44349470164,1.49353193324
1588858575473789943,1197,1588858575473683936,,0.0302006645971,-3.44954317668,1.49614447643
1588858575479548772,1198,1588858575479475723,,0.0307140561064,-3.46153766578,1.49962207512
1588858575482600596,1199,1588858575482509054,,0.0311698144412,-3.4568951408,1.49886779863
1588858575485317440,1200,1588858575485243506,,0.0319117262002,-3.4676538872,1.50233396026
1588858575491399386,1201,1588858575491301035,,0.0324919092967,-3.47861815394,1.50559285775
1588858575494376598,1202,1588858575494301175,,0.0330685385766,-3.47296915814,1.50464966163
1588858575503438351,1203,1588858575503328409,,0.0340642787819,-3.48092949052,1.50757885416
1588858575506399475,1204,1588858575506312789,,0.0346710570351,-3.49218655253,1.51105046527
1588858575509420127,1205,1588858575509286307,,0.0351271993927,-3.48564752207,1.51013500342
1588858575515851541,1206,1588858575515687248,,0.0355383827816,-3.4976594865,1.51337173561
1588858575518383635,1207,1588858575518315329,,0.0361513350731,-3.50854630652,1.51683217529
1588858575521352328,1208,1588858575521281120,,0.0368091100402,-3.50191222047,1.51577724917
1588858575527579399,1209,1588858575527473221,,0.0373439637977,-3.51387900149,1.51912155793
1588858575530757040,1210,1588858575530607205,,0.037728351783,-3.52597466428,1.52235038479
1588858575533542292,1211,1588858575533461172,,0.0384601529418,-3.51969204521,1.52149649725
1588858575539614544,1212,1588858575539486749,,0.0389348945575,-3.53059053433,1.52481474832
1588858575542585889,1213,1588858575542492915,,0.0393403901598,-3.52661046081,1.52427317256
1588858575545536477,1214,1588858575545440088,,0.039934156737,-3.53616851534,1.52748208419
1588858575551512892,1215,1588858575551429294,,0.040333339315,-3.54610343594,1.53055294851
1588858575554283206,1216,1588858575554211815,,0.0408835002835,-3.54085655861,1.529763022
1588858575560505089,1217,1588858575560392990,,0.0414797262573,-3.55163834669,1.53318678435
1588858575563507489,1218,1588858575563373512,,0.0419342618264,-3.54669081075,1.53213530795
1588858575566465613,1219,1588858575566385604,,0.0424835778106,-3.55771832918,1.53537296479
1588858575572719813,1220,1588858575572642621,,0.0431728927161,-3.56809821818,1.53832523389
1588858575575579587,1221,1588858575575476855,,0.0437515140249,-3.56254514302,1.53775952935
1588858575578410844,1222,1588858575578319721,,0.0443115496125,-3.57293735735,1.54067679304
1588858575584428538,1223,1588858575584345697,,0.0450151492296,-3.58233127053,1.543826391
1588858575587473724,1224,1588858575587380782,,0.0456172722045,-3.57643745884,1.5428861876
1588858575593444648,1225,1588858575593351869,,0.046157355323,-3.58621484864,1.54580026152
1588858575596426187,1226,1588858575596346587,,0.0467954972096,-3.57978889911,1.54485009706
1588858575599517453,1227,1588858575599423253,,0.0476904720045,-3.58878990315,1.54807734434
1588858575602537329,1228,1588858575602404119,,0.048260079604,-3.58282788386,1.54721527835
1588858575608731278,1229,1588858575608608363,,0.0489138201431,-3.59172353301,1.55008976988
1588858575611682289,1230,1588858575611602055,,0.0498745764687,-3.5997841055,1.5532914813
1588858575614744428,1231,1588858575614633488,,0.0504297767733,-3.59317317926,1.55217147008
1588858575620847893,1232,1588858575620721708,,0.0511360113592,-3.6012275474,1.55514714764
1588858575623672956,1233,1588858575623583267,,0.0519374880486,-3.59443348275,1.55431410545
1588858575626492670,1234,1588858575626407636,,0.0526760969402,-3.60252874959,1.55715168478
1588858575632522903,1235,1588858575632444336,,0.0532454354642,-3.60993137518,1.55961147
1588858575635741465,1236,1588858575635619282,,0.0539912104279,-3.60338123714,1.55886585477
1588858575641643102,1237,1588858575641570641,,0.0546284583619,-3.6112234907,1.56148964949
1588858575644391587,1238,1588858575644323212,,0.0554953699047,-3.61888673823,1.56425781688
1588858575647530949,1239,1588858575647425025,,0.056013115048,-3.6128040624,1.56329156751
1588858575656556726,1240,1588858575656461695,,0.0573718538079,-3.61388103878,1.56525069625
1588858575659799320,1241,1588858575659708638,,0.0578275327501,-3.6222976733,1.56761322978
1588858575665646012,1242,1588858575665560328,,0.0585945637608,-3.63018395838,1.57038717431
1588858575668547028,1243,1588858575668458148,,0.0591417802622,-3.6245244427,1.56933214557
1588858575674840176,1244,1588858575674759263,,0.0597965228184,-3.63282678718,1.57202276747
1588858575677737212,1245,1588858575677642946,,0.0605990781013,-3.64070623669,1.57472367861
1588858575680562080,1246,1588858575680424178,,0.0609614681819,-3.63630053761,1.57389116095
1588858575683663911,1247,1588858575683424096,,0.0614899575506,-3.63235279142,1.57318445664
1588858575689486235,1248,1588858575689388522,,0.062170853707,-3.63985240777,1.57592139971
1588858575692685971,1249,1588858575692591832,,0.0627978404273,-3.6483766584,1.57875193827
1588858575695721363,1250,1588858575695627020,,0.0632321196392,-3.64373193433,1.57786829814
1588858575701477966,1251,1588858575701391690,,0.0638970556179,-3.651948954,1.58045711825
1588858575704765716,1252,1588858575704691995,,0.0646789460914,-3.6596828846,1.58308449057
1588858575707509764,1253,1588858575707434562,,0.0652961048295,-3.65409577962,1.58207618442
1588858575713459129,1254,1588858575713378397,,0.0660335166354,-3.66307068861,1.58484760319
1588858575716448899,1255,1588858575716334631,,0.0667003388315,-3.65850222185,1.58413153705
1588858575719449565,1256,1588858575719365405,,0.0673255987183,-3.6666412935,1.58660068988
1588858575725349439,1257,1588858575725275674,,0.0679165493765,-3.67446124258,1.58919613901
1588858575728415282,1258,1588858575728284549,,0.0686664001325,-3.66913532513,1.58855265192
1588858575731456832,1259,1588858575731339106,,0.0693552068584,-3.67663403668,1.5910917896
1588858575737550392,1260,1588858575737469876,,0.0700901087855,-3.68377419215,1.59364627815
1588858575740384092,1261,1588858575740301199,,0.0709008698222,-3.67803416168,1.59306074711
1588858575746384165,1262,1588858575746299894,,0.0715539132557,-3.68515081314,1.59531839246
1588858575749436864,1263,1588858575749336409,,0.0724991058683,-3.67917470316,1.59478763756
1588858575752747880,1264,1588858575752570576,,0.0732392732817,-3.68583107485,1.59733672058
1588858575755867643,1265,1588858575755689397,,0.0739645000306,-3.67994030511,1.59631853335
1588858575761716500,1266,1588858575761617632,,0.0748521433925,-3.68663428185,1.59871628517
1588858575764418976,1267,1588858575764324380,,0.0757146482189,-3.69320058583,1.60098450799
1588858575774099454,1268,1588858575773945664,,0.0771405231327,-3.69409700562,1.6022309348
1588858575776781883,1269,1588858575776607889,,0.0778271822332,-3.68810487613,1.60118637066
1588858575779586730,1270,1588858575779496758,,0.0786806561215,-3.69410906051,1.60366985165
1588858575785576007,1271,1588858575785501237,,0.0793236775025,-3.7006033358,1.6059837903
1588858575788400842,1272,1588858575788325364,,0.0799882796565,-3.69487889841,1.60509211214
1588858575794429390,1273,1588858575794315351,,0.0807562586597,-3.70115440176,1.60746862162
1588858575797655401,1274,1588858575797564819,,0.081221691603,-3.70737010687,1.60921022482
1588858575800519000,1275,1588858575800442508,,0.0818969965212,-3.70267805966,1.60855032126
1588858575803904297,1276,1588858575803692737,,0.0825401430195,-3.69736905282,1.60760168841
1588858575809643815,1277,1588858575809553946,,0.0832707824996,-3.70325741776,1.60970694403
1588858575812577613,1278,1588858575812489870,,0.0838664383787,-3.7104624942,1.61177173644
1588858575818610710,1279,1588858575818523807,,0.0844331537659,-3.71627844367,1.61369126922
1588858575821618923,1280,1588858575821520253,,0.0852912021655,-3.70995016789,1.61279853651
1588858575824647840,1281,1588858575824521506,,0.0859281053252,-3.71612116746,1.6148632959
1588858575830649721,1282,1588858575830371395,,0.0863995696591,-3.71101957681,1.61397693847
1588858575833312000,1283,1588858575833240916,,0.086962263127,-3.71665180839,1.61574659766
1588858575836380172,1284,1588858575836299688,,0.0876190057236,-3.71120534304,1.61493886792
1588858575842380048,1285,1588858575842295248,,0.0881395423331,-3.71728906397,1.61658899636
1588858575845670602,1286,1588858575845561178,,0.088714108798,-3.72299311431,1.61833022432
1588858575848719205,1287,1588858575848607682,,0.0892765351075,-3.71767970904,1.61746048174
1588858575854782416,1288,1588858575854628307,,0.0899709186205,-3.72326886494,1.61940388561
1588858575860744963,1289,1588858575860640395,,0.0911243029834,-3.72271028976,1.62006189376
1588858575866889595,1290,1588858575866804290,,0.0918506460456,-3.7280204994,1.62193846446
1588858575869830474,1291,1588858575869714333,,0.092337230746,-3.7230520949,1.62077261861
1588858575872924739,1292,1588858575872800380,,0.0931028961751,-3.72789347028,1.62280791913
1588858575878511354,1293,1588858575878416136,,0.0936870577519,-3.73281628132,1.62454699561
1588858575881691840,1294,1588858575881593557,,0.0943390661019,-3.72770567818,1.62360496966
1588858575884803369,1295,1588858575884677144,,0.0948733538539,-3.73223579122,1.62512550852
1588858575893724540,1296,1588858575893610327,,0.0959083981021,-3.73288698714,1.62587964517
1588858575896873407,1297,1588858575896773350,,0.0964381894072,-3.72677310705,1.62478180881
1588858575902800395,1298,1588858575902716375,,0.0970193703865,-3.73221632369,1.62638987117
1588858575905766329,1299,1588858575905629635,,0.0974246911038,-3.73708572369,1.62796364806
1588858575908826148,1300,1588858575908675535,,0.0980037054411,-3.73117536797,1.62692233995
1588858575914692965,1301,1588858575914607036,,0.098721191267,-3.73535385517,1.6284030711
1588858575920830837,1302,1588858575920698172,,0.0994456583516,-3.73635024356,1.62919804909
1588858575926726778,1303,1588858575926632177,,0.0999872579776,-3.74030333885,1.63061348581
1588858575929766687,1304,1588858575929623895,,0.100674117522,-3.73479786939,1.62993298834
1588858575936114081,1305,1588858575935920947,,0.101049089935,-3.73965447049,1.63159919607
1588858575938898640,1306,1588858575938743042,,0.10156457925,-3.74380029905,1.63308407091
1588858575941731007,1307,1588858575941621340,,0.10221565451,-3.73786640226,1.63223204246
1588858575947943814,1308,1588858575947836467,,0.102890378646,-3.74178158278,1.63401338536
1588858575951599302,1309,1588858575951481340,,0.103169691723,-3.7467126401,1.63548341724
1588858575956671719,1310,1588858575956583969,,0.10374427401,-3.74185695521,1.63479350372
1588858575960075042,1311,1588858575959966211,,0.104436853192,-3.74523552595,1.63626074279
1588858575962771483,1312,1588858575962602510,,0.104792215161,-3.74086504464,1.63555994766
1588858575965681552,1313,1588858575965571108,,0.105331306576,-3.74488736632,1.63706957312
1588858575972088293,1314,1588858575971959047,,0.105871112446,-3.7478202356,1.6382811109
1588858575974930327,1315,1588858575974838345,,0.106518559199,-3.74250833765,1.63749286949
1588858575977768935,1316,1588858575977648270,,0.10704162865,-3.74546280817,1.63853597543
1588858575983817678,1317,1588858575983714687,,0.107621333955,-3.74081143502,1.63794638742
1588858575986906604,1318,1588858575986755439,,0.108341371582,-3.74411586972,1.6392874712
1588858575989834198,1319,1588858575989736241,,0.109049034188,-3.73902134898,1.63868994214
1588858575995646049,1320,1588858575995559082,,0.109665771733,-3.74191856302,1.63990074396
1588858575998625351,1321,1588858575998497140,,0.110374904336,-3.74486149911,1.64120414916
1588858576001532105,1322,1588858576001449575,,0.111094697579,-3.73930237068,1.64053082385
1588858576007579232,1323,1588858576007492136,,0.111744155832,-3.74145144228,1.64180986265
1588858576013859001,1324,1588858576013722218,,0.113134525157,-3.73838790032,1.64232147485
1588858576019929636,1325,1588858576019813469,,0.113859709212,-3.74015735102,1.6434339773
1588858576022715033,1326,1588858576022634350,,0.114485148062,-3.73458102827,1.64261349144
1588858576028872468,1327,1588858576028744850,,0.115170894161,-3.73646612341,1.64391228635
1588858576031760926,1328,1588858576031623963,,0.115896337683,-3.73771056449,1.64504715906
1588858576034683706,1329,1588858576034558622,,0.116393855438,-3.73220773235,1.64415466284
1588858576044033550,1330,1588858576043897963,,0.117462748705,-3.72894083563,1.64435611992
1588858576046720176,1331,1588858576046621881,,0.117982580036,-3.73035063036,1.64523944312
1588858576052777932,1332,1588858576052664675,,0.118709872337,-3.73116850376,1.64644992842
1588858576055820372,1333,1588858576055709299,,0.119187127462,-3.72650271682,1.64576624373
1588858576058689371,1334,1588858576058587654,,0.119642767598,-3.7277959038,1.64694526539
1588858576064606376,1335,1588858576064505838,,0.120200893699,-3.72870072941,1.64771809535
1588858576067681979,1336,1588858576067593150,,0.120838981122,-3.72408492198,1.64714133672
1588858576076559795,1337,1588858576076473197,,0.121648181197,-3.72166029316,1.64775327969
1588858576079586484,1338,1588858576079495801,,0.121999647585,-3.72408224858,1.64883281128
1588858576082600361,1339,1588858576082501005,,0.122354952293,-3.72006984934,1.64844863268
1588858576088576913,1340,1588858576088477620,,0.122821231632,-3.72140735675,1.64944830012
1588858576091667493,1341,1588858576091605511,,0.123221352375,-3.72224065489,1.65012374429
1588858576094603432,1342,1588858576094498831,,0.12362498334,-3.71831158947,1.64920847806
1588858576100578073,1343,1588858576100507787,,0.124138389658,-3.72053418982,1.6500650864
1588858576103829028,1344,1588858576103697737,,0.124546738924,-3.71730322202,1.64928163982
1588858576106551337,1345,1588858576106467149,,0.124921361406,-3.71935682012,1.64983436108
1588858576112752260,1346,1588858576112653707,,0.125407735298,-3.72064120787,1.65047870799
1588858576115591917,1347,1588858576115508067,,0.125734258033,-3.71703310176,1.64928125654
1588858576118552696,1348,1588858576118464471,,0.126268875848,-3.71818618908,1.64984201359
1588858576124793263,1349,1588858576124682336,,0.126835523172,-3.71914883945,1.65042877453
1588858576127744641,1350,1588858576127652896,,0.127382301316,-3.71432625991,1.64956654238
1588858576136541238,1351,1588858576136457378,,0.128620287817,-3.71027255345,1.6492361332
1588858576139611633,1352,1588858576139500328,,0.129110506691,-3.71104275895,1.64976096398
1588858576142533667,1353,1588858576142438914,,0.12981410115,-3.70589233713,1.6491850934
1588858576148606639,1354,1588858576148509795,,0.130380800618,-3.70606681523,1.65008944916
1588858576151610177,1355,1588858576151539244,,0.130852447417,-3.70592193122,1.65083664304
1588858576160654788,1356,1588858576160581151,,0.13188330852,-3.70115379627,1.65116087148
1588858576163886910,1357,1588858576163699646,,0.132330128,-3.69674310693,1.65069083529
1588858576166543987,1358,1588858576166433381,,0.132961052344,-3.6959542499,1.65125670562
1588858576172798467,1359,1588858576172707140,,0.133428303647,-3.69580513084,1.65174754116
1588858576175815839,1360,1588858576175742292,,0.133790830785,-3.69180216149,1.65112936994
1588858576181583902,1361,1588858576181503325,,0.134449102871,-3.69079113874,1.65175380661
1588858576184653872,1362,1588858576184513284,,0.134907273441,-3.69010252025,1.65220453335
1588858576187666993,1363,1588858576187550432,,0.135247706026,-3.68637492362,1.65157116704
1588858576196563374,1364,1588858576196422593,,0.136079198505,-3.68150077068,1.65131861658
1588858576199548324,1365,1588858576199488192,,0.136296629781,-3.68253467926,1.65174914004
1588858576205476833,1366,1588858576205407577,,0.136689666814,-3.68254492632,1.65195748569
1588858576208563725,1367,1588858576208496864,,0.137256190996,-3.67789004104,1.65129322094
1588858576211590828,1368,1588858576211515799,,0.137864557151,-3.67763708616,1.65184049819
1588858576217903362,1369,1588858576217852133,,0.138295974564,-3.67732418586,1.65191456322
1588858576220669440,1370,1588858576220577617,,0.138609207957,-3.67428655929,1.65122266885
1588858576223732206,1371,1588858576223430878,,0.138919915437,-3.6715388629,1.65058916554
1588858576229726335,1372,1588858576229663958,,0.139446801439,-3.67071714323,1.65105470092
1588858576232810763,1373,1588858576232689716,,0.139893397848,-3.66972247098,1.65126460063
1588858576235628148,1374,1588858576235534566,,0.14033587188,-3.66589981144,1.65069801466
1588858576241762723,1375,1588858576241676309,,0.140861096603,-3.66474801827,1.65083140391
1588858576244628479,1376,1588858576244516321,,0.141376482216,-3.66301592026,1.65083846143
1588858576247770774,1377,1588858576247691710,,0.142063399499,-3.65845794207,1.6503259672
1588858576253801328,1378,1588858576253700149,,0.142579075074,-3.65733591737,1.65047331514
1588858576256882474,1379,1588858576256735034,,0.143040182925,-3.65322598886,1.64996014815
1588858576259766168,1380,1588858576259668296,,0.143457740674,-3.65156333132,1.6500614467
1588858576265744620,1381,1588858576265674643,,0.143944245971,-3.64927172974,1.65015985075
1588858576268790299,1382,1588858576268684498,,0.144356721609,-3.64453944237,1.64963022203
1588858576272026169,1383,1588858576271953616,,0.144779511516,-3.64193891159,1.6496477399
1588858576278050527,1384,1588858576277915739,,0.145295428842,-3.63932504225,1.64969182342
1588858576280744143,1385,1588858576280680325,,0.145838934865,-3.63445778763,1.64913809208
1588858576284033820,1386,1588858576283813640,,0.146438092803,-3.62895743957,1.64860163572
1588858576289892029,1387,1588858576289804175,,0.146958108811,-3.62598798025,1.64869727702
1588858576292753527,1388,1588858576292675717,,0.1474208872,-3.62314634174,1.6484962913
1588858576298709502,1389,1588858576298614592,,0.147978757482,-3.61968733491,1.64831357857
1588858576301764058,1390,1588858576301606713,,0.148636192337,-3.61421841908,1.64783775834
1588858576304443286,1391,1588858576304375758,,0.149083692079,-3.61133245312,1.64758181068
1588858576307446895,1392,1588858576307381024,,0.149700121506,-3.60586515102,1.64704690506
1588858576313782656,1393,1588858576313702965,,0.15020120496,-3.60282984944,1.64674195959
1588858576316806671,1394,1588858576316728542,,0.150824151214,-3.59774828258,1.64628856252
1588858576322628581,1395,1588858576322538673,,0.15129426571,-3.59473452182,1.64607160959
1588858576325775824,1396,1588858576325666927,,0.151817098662,-3.59110999833,1.64581684475
1588858576328788582,1397,1588858576328642194,,0.15236716423,-3.58639452805,1.64523255641
1588858576331750285,1398,1588858576331648198,,0.153036522059,-3.58296875352,1.64499294382
1588858576340831405,1399,1588858576340683394,,0.154135873274,-3.57473631306,1.64397773265
1588858576346725591,1400,1588858576346651839,,0.154714717025,-3.57141243701,1.64379705603
1588858576349781072,1401,1588858576349711413,,0.155218191327,-3.56666393621,1.64333442688
1588858576352484914,1402,1588858576352324903,,0.155842328923,-3.5630435474,1.64309045072
1588858576358812646,1403,1588858576358715830,,0.156385707769,-3.55927219501,1.64279339562
