%time,field.header.seq,field.header.stamp,field.header.frame_id,field.wrench.force.x,field.wrench.force.y,field.wrench.force.z,field.wrench.torque.x,field.wrench.torque.y,field.wrench.torque.z
1589275809768387245,8151,1589275809768313088,,0.184864712662,-0.24972063342,0.681169615649,0.17346074761,-0.00229469300131,-0.0445360247397
1589275809771434622,8152,1589275809771256272,,0.207560584431,-0.375987502155,0.684667547626,0.174448839447,-0.00229658442271,-0.0470274131579
1589275809777221688,8153,1589275809777159442,,0.20756022366,-0.375983994002,0.684669583497,0.174448930602,-0.00229637998042,-0.0470270849974
1589275809780157272,8154,1589275809780083382,,0.185219075572,-0.376311062267,0.706896175821,0.175190730363,-0.00229801283826,-0.0462864425978
1589275809786159137,8155,1589275809786104016,,0.184787502908,-0.250155671154,0.704220846865,0.176078848931,-0.00230056235396,-0.0454078924481
1589275809789161680,8156,1589275809789112225,,0.206892326904,-0.250744171064,0.728022865015,0.177831819172,-0.00230363256164,-0.0478897115548
1589275809792429323,8157,1589275809792317632,,0.206959951773,-0.250330768075,0.70496962631,0.177065651074,-0.00230169900797,-0.0478939477627
1589275809795509094,8158,1589275809795373970,,0.206897850199,-0.250740487593,0.728022564007,0.178719792213,-0.002305250343,-0.0470106629592
1589275809801292593,8159,1589275809801137531,,0.206903704946,-0.250737658485,0.72802187449,0.178719469291,-0.00230486039648,-0.0470119097128
1589275809804279273,8160,1589275809804212666,,0.184705383079,-0.250571348145,0.727287786282,0.178696101677,-0.00230410579358,-0.0462725087242
1589275809807283462,8161,1589275809807212437,,0.184707849814,-0.25056931491,0.727287860319,0.178695988594,-0.00230377735964,-0.0462729617808
1589275809813387026,8162,1589275809813300182,,0.162755917877,-0.24998489386,0.703503612144,0.177849637525,-0.00293651368798,-0.0437813972607
1589275809816287880,8163,1589275809816207344,,0.162755461155,-0.249983957094,0.703504050679,0.177849725112,-0.00293597061351,-0.0437810778839
1589275809819126095,8164,1589275809819067420,,0.184797994533,-0.250145644453,0.704221655431,0.177873139152,-0.00293460079184,-0.0445150478226
1589275809825538921,8165,1589275809825334101,,0.185244412633,-0.376301781035,0.706894477351,0.177817732687,-0.00293360161729,-0.0427659218775
1589275809828105820,8166,1589275809828036349,,0.163133449773,-0.376112688434,0.706228512477,0.17685123644,-0.00229548551888,-0.0411625792735
1589275809831418877,8167,1589275809831312044,,0.163137158752,-0.376111562258,0.706228255482,0.176824761735,-0.00165157149,-0.0402793308056
1589275809837488118,8168,1589275809837330800,,0.163138095279,-0.376111127374,0.706228270749,0.176824652118,-0.00165204908022,-0.0402797924302
1589275809840370645,8169,1589275809840279766,,0.163136129372,-0.376112225169,0.706228140223,0.175943938,-0.00229260688919,-0.0411681102336
1589275809846328786,8170,1589275809846226286,,0.16313356942,-0.37610914093,0.706230374105,0.175943975023,-0.00229364590813,-0.0411678941295
1589275809849346572,8171,1589275809849212162,,0.163132440349,-0.37610801379,0.706231235177,0.174974577989,-0.00100406872815,-0.0394147906449
1589275809852299574,8172,1589275809852221253,,0.163296234037,-0.375553816709,0.683289732637,0.174206404065,-0.00164668682114,-0.0394208408848
1589275809858328331,8173,1589275809858254279,,0.163299653338,-0.375556116027,0.683287651693,0.174206267846,-0.00164607329368,-0.0394214684748
1589275809861348097,8174,1589275809861250549,,0.118879796071,-0.375769552072,0.704983237431,0.173022918719,-0.00164514468564,-0.0353308056931
1589275809864335317,8175,1589275809864249601,,0.118875662234,-0.375767894587,0.704984817966,0.173023103054,-0.00164542732914,-0.0353298897931
1589275809870451336,8176,1589275809870351650,,0.141040141625,-0.375931023213,0.70559485395,0.1712740987,-0.00164034826274,-0.0378310213489
1589275809873358764,8177,1589275809873258554,,0.141040075985,-0.375929221198,0.705595827156,0.171274075093,-0.00164066744288,-0.0378311143822
1589275809876308421,8178,1589275809876223975,,0.141039775299,-0.375931292546,0.705594783678,0.171273948946,-0.00164172363645,-0.0378316396682
1589275809882239892,8179,1589275809882138719,,0.141036980436,-0.375931658571,0.705595147317,0.171274103394,-0.00164166628929,-0.0378309429243
1589275809885288056,8180,1589275809885198998,,0.118638852944,-0.376317470927,0.727967327888,0.172018324352,-0.00164445691399,-0.0370900780576
1589275809888290627,8181,1589275809888213780,,0.118860611066,-0.375766866091,0.704987903954,0.171251743418,-0.00164276499451,-0.0370938042759
1589275809894376181,8182,1589275809894291871,,0.141026514841,-0.375928261512,0.705599049031,0.17212822515,-0.0016458922429,-0.0360686387067
1589275809897291500,8183,1589275809897204501,,0.141018298746,-0.375928178174,0.705600735514,0.173046183207,-0.00164884159209,-0.0360610359052
1589275809903379107,8184,1589275809903284539,,0.163115038183,-0.376106080847,0.706236284071,0.17309641146,-0.00100535380111,-0.0376769286592
1589275809906377432,8185,1589275809906293380,,0.140730950717,-0.249829285804,0.702822041485,0.174978147222,-0.00165381653088,-0.0395531739732
1589275809909254208,8186,1589275809909185541,,0.140730745247,-0.249829181846,0.702822119582,0.174951196674,-0.00165467036258,-0.0386795650551
1589275809912439486,8187,1589275809912372168,,0.162749201423,-0.249979718552,0.703507004948,0.174999628581,-0.00229833727952,-0.04028753572
1589275809918364840,8188,1589275809918263396,,0.162744919235,-0.249979209401,0.703508176492,0.174999841338,-0.00229872663166,-0.0402865893274
1589275809921215747,8189,1589275809921154319,,0.162750689151,-0.249979399765,0.703506774051,0.175944242783,-0.00230053164692,-0.0411663655336
1589275809927184062,8190,1589275809927108715,,0.184788594645,-0.250144820837,0.704224414585,0.175967444075,-0.00230096653072,-0.0418991584964
1589275809930196852,8191,1589275809930130540,,0.184696027995,-0.250566551191,0.727291814743,0.177668364978,-0.00230565693772,-0.0427648670467
1589275809933198784,8192,1589275809933128113,,0.184691228212,-0.250565912112,0.727293253807,0.177696107061,-0.00230607188021,-0.0436389004655
1589275809936318366,8193,1589275809936241136,,0.18469081521,-0.250565980796,0.727293335023,0.179547612994,-0.00231080438207,-0.0445046010456
1589275809942621433,8194,1589275809942543506,,0.18468623641,-0.250564792231,0.727294907242,0.179547953546,-0.00231022405942,-0.0445032572396
1589275809945805884,8195,1589275809945696720,,0.162475903967,-0.250819515341,0.749689235617,0.180318983462,-0.00231250148729,-0.0446495051002
1589275809951486844,8196,1589275809951415496,,0.184688978256,-0.250565937591,0.727293816387,0.180493739736,-0.0016673226131,-0.0453841475222
1589275809954370467,8197,1589275809954279994,,0.184694585681,-0.250567675867,0.727291793543,0.180493424075,-0.00166683399358,-0.0453854208424
1589275809957358238,8198,1589275809957282630,,0.162619536973,-0.250410204544,0.72658976103,0.180442700288,-0.00166669800293,-0.0437644410631
1589275809960437806,8199,1589275809960342404,,0.162744386689,-0.249982325265,0.703507192513,0.178785879134,-0.00230743678559,-0.0446595054882
1589275809966371839,8200,1589275809966285877,,0.162749154534,-0.249982173256,0.703506143551,0.179702445038,-0.00231012294894,-0.0446560385486
1589275809969406567,8201,1589275809969231242,,0.162748416095,-0.2499809648,0.70350674379,0.179702497653,-0.00231013963697,-0.0446558259557
1589275809975375247,8202,1589275809975272863,,0.162749543008,-0.249981683651,0.703506227656,0.180591665665,-0.00231273949544,-0.0437659757384
1589275809978355029,8203,1589275809978285341,,0.162749111536,-0.249980100805,0.703506889914,0.179702512671,-0.00230957598703,-0.0446557946754
1589275809981414004,8204,1589275809981324873,,0.162746632564,-0.24998017855,0.703507435769,0.180591914891,-0.00231210539161,-0.0437649808519
1589275809987445391,8205,1589275809987303482,,0.162745463117,-0.249978737971,0.703508218188,0.1805920218,-0.00231183030649,-0.0437645542296
1589275809990479188,8206,1589275809990368203,,0.162570263257,-0.124988054897,0.701610666728,0.179675113358,-0.00230955267883,-0.0437690808373
1589275809993184669,8207,1589275809993091761,,0.162569940173,-0.124986760086,0.701610972252,0.179675138844,-0.00230953333858,-0.0437689772369
1589275809999438295,8208,1589275809999329353,,0.16257130394,-0.124986984008,0.701610616362,0.178730640721,-0.00230729387161,-0.0428990025129
1589275810002164460,8209,1589275810002096776,,0.162568713544,-0.124984899669,0.701611587889,0.178730807233,-0.00230726720281,-0.0428983102019
1589275810005542918,8210,1589275810005399430,,0.162571446178,-0.124984839579,0.701610965416,0.178730663502,-0.00230682805737,-0.0428989326513
1589275810011479036,8211,1589275810011367302,,0.162481950064,-0.125230459199,0.724790250258,0.179471302384,-0.00166456791819,-0.0420182439387
1589275810014328092,8212,1589275810014244755,,0.140572460432,-0.250261613877,0.725918680878,0.178568166322,-0.00166309322723,-0.0421652290512
1589275810017449224,8213,1589275810017354384,,0.162485389579,-0.125230222575,0.72478952007,0.177672944097,-0.00230481125406,-0.0429047611771
1589275810023474900,8214,1589275810023373926,,0.162617349273,-0.25040469903,0.726592148043,0.177646885242,-0.00166116704664,-0.0420288350116
1589275810026415437,8215,1589275810026297001,,0.162621856835,-0.250405219867,0.726590959703,0.17764656712,-0.00166180171032,-0.0420301545346
1589275810029161664,8216,1589275810029093315,,0.162618935004,-0.250401952157,0.726592739789,0.176738440983,-0.00230428543648,-0.0420348295527
1589275810035324460,8217,1589275810035262005,,0.184785373589,-0.250134246781,0.704229015658,0.176903196088,-0.00166064414207,-0.04276816471
1589275810038335832,8218,1589275810038249846,,0.162742368767,-0.249966668341,0.703513222611,0.175944493773,-0.00230386073251,-0.0411651066103
1589275810041922982,8219,1589275810041815001,,0.162621413933,-0.25038922044,0.72659657252,0.176712063607,-0.00166204825977,-0.0411609235688
1589275810047449730,8220,1589275810047346496,,0.185355315088,-0.375736150768,0.683981504668,0.175201887792,-0.00165881688103,-0.0419038325728
1589275810050328664,8221,1589275810050254046,,0.16326805257,-0.375526676089,0.683311383322,0.175177564629,-0.00230390960933,-0.0411710219746
1589275810053322547,8222,1589275810053247922,,0.163267683855,-0.375519589629,0.683315365871,0.175177553659,-0.00230458286529,-0.0411710309703
1589275810059475395,8223,1589275810059339185,,0.162864287988,-0.249491527962,0.680455591114,0.175095552975,-0.00230581807179,-0.038542247718
1589275810062184989,8224,1589275810062098157,,0.162757079014,-0.249931505918,0.703522312256,0.175863467429,-0.001663913383,-0.0385371967717
1589275810068306649,8225,1589275810068197634,,0.140736940806,-0.249776456555,0.702839618815,0.175841270727,-0.00166484433329,-0.0378032031099
1589275810071311505,8226,1589275810071239985,,0.184799134107,-0.250087388964,0.70424204654,0.175912835439,-0.00166500020879,-0.0401447459941
1589275810077446506,8227,1589275810077352421,,0.140737413927,-0.249766847682,0.702842938823,0.175841257465,-0.00166521313863,-0.0378032485523
1589275810080120224,8228,1589275810080066246,,0.140736693487,-0.24976214133,0.702844755545,0.175841260434,-0.00166590090284,-0.0378032044417
1589275810083130949,8229,1589275810083074855,,0.16263253663,-0.250337900923,0.726611766056,0.176630283486,-0.00166816704098,-0.0385321754048
1589275810086236528,8230,1589275810086170829,,0.162751120031,-0.249903960833,0.703533475785,0.175863657832,-0.00166705888813,-0.0385361919174
1589275810089147090,8231,1589275810089069508,,0.162754979145,-0.249896275495,0.703535312915,0.175863364483,-0.00166846608686,-0.0385374697206
1589275810095240193,8232,1589275810095118091,,0.162753854098,-0.249890333627,0.703537683708,0.176770847754,-0.0016720213413,-0.0385318282521
1589275810098134528,8233,1589275810098074428,,0.140582726855,-0.250170088961,0.725948239725,0.177568520896,-0.00167388707283,-0.0395417819532
1589275810104494706,8234,1589275810104385974,,0.162630475253,-0.250322361227,0.726617581103,0.177618412198,-0.00167255497378,-0.0411592334169
1589275810107318653,8235,1589275810107238295,,0.162630422989,-0.25032920665,0.726615234492,0.177618454448,-0.00167170414349,-0.0411590856559
1589275810110418904,8236,1589275810110318692,,0.162624216656,-0.250341221233,0.726612484264,0.177644854459,-0.0023148951742,-0.0420324192725
1589275810116382619,8237,1589275810116308643,,0.162623822905,-0.250350812612,0.726609267783,0.177646104107,-0.00166899474973,-0.0420318264737
1589275810119324027,8238,1589275810119180209,,0.16248714532,-0.125186670502,0.72479665011,0.177672529757,-0.00231336988056,-0.0429060163658
1589275810122202538,8239,1589275810122139969,,0.184689986219,-0.250521082499,0.727309012276,0.178612769178,-0.00231530259224,-0.0436349160215
1589275810128336585,8240,1589275810128263349,,0.184689263082,-0.250524436521,0.727308040608,0.179575267806,-0.00231755913687,-0.045390694326
1589275810131290377,8241,1589275810131186848,,0.184685458993,-0.250532285271,0.72730630301,0.179575542616,-0.00231667115951,-0.045389652436
1589275810134241366,8242,1589275810134176383,,0.18450465571,-0.125313501067,0.725536260103,0.17960354802,-0.00231603045791,-0.0462648906821
1589275810140350054,8243,1589275810140295548,,0.162604791917,-0.250381591322,0.726602921514,0.179552815603,-0.00231560688776,-0.0446526507562
1589275810143428399,8244,1589275810143345148,,0.184905595024,-0.377297802902,0.752854477173,0.181286984403,-0.00231841206418,-0.0462546667254
1589275810146240138,8245,1589275810146190281,,0.184924100982,-0.377296568895,0.75285055019,0.181286771863,-0.00231150263472,-0.0462558455275
1589275810152304887,8246,1589275810152236951,,0.185092784137,-0.376790981182,0.729869887947,0.181437311976,-0.00230577220115,-0.0462555155479
1589275810155414925,8247,1589275810155309588,,0.185083774031,-0.376791926964,0.72987168457,0.182371844617,-0.00231245342951,-0.0471272665097
1589275810158289398,8248,1589275810158219956,,0.18508152155,-0.376792842111,0.72987178332,0.182371819481,-0.0023136384839,-0.0471273056142
1589275810164363229,8249,1589275810164253850,,0.185565918688,-0.504223948137,0.732833296537,0.182316674613,-0.00231330215794,-0.0453740046244
1589275810167453046,8250,1589275810167341041,,0.163342880433,-0.504033776145,0.732226118209,0.182293861686,-0.00231276643719,-0.0446378581012
1589275810173429449,8251,1589275810173346909,,0.185358012108,-0.504770057032,0.755712314724,0.182122477621,-0.00166807514244,-0.0436118599813
1589275810176445154,8252,1589275810176358615,,0.185354136762,-0.504773640546,0.755710871663,0.181178034805,-0.00166833672082,-0.0427420892029
1589275810179339201,8253,1589275810179267226,,0.185353644247,-0.504769638306,0.755713665725,0.181177919954,-0.00166946821102,-0.0427425318572
1589275810182495270,8254,1589275810182329654,,0.163334497533,-0.504027891415,0.732232038948,0.180388684415,-0.00166816041194,-0.0420121229105
1589275810188423538,8255,1589275810188329943,,0.163331112074,-0.504022237245,0.732236686094,0.179444576311,-0.00166690845761,-0.0411419271348
1589275810191228378,8256,1589275810191149448,,0.16332940593,-0.504022218796,0.73223707936,0.176658704486,-0.00165953837749,-0.0393988327698
1589275810194441832,8257,1589275810194339110,,0.163324383386,-0.504019843749,0.732239834459,0.17574148485,-0.00165810748516,-0.0394036844351
1589275810200377194,8258,1589275810200274442,,0.163539205428,-0.503451866717,0.709381531952,0.174922585112,-0.00101298314734,-0.037660050636
1589275810203338127,8259,1589275810203204082,,0.163535658615,-0.50344693905,0.709385846778,0.173070644459,-0.00101007083686,-0.0367886407164
1589275810206305176,8260,1589275810206235938,,0.141586785721,-0.502668672996,0.685959573562,0.170376828873,-0.00100544115231,-0.0334471105963
1589275810212436275,8261,1589275810212290855,,0.141585735485,-0.502668281398,0.685960077298,0.170376860481,-0.00100559643668,-0.0334469449212
1589275810215371369,8262,1589275810215288926,,0.141987049986,-0.631233787528,0.689237381945,0.168499162054,-0.00100176383604,-0.0317169652737
1589275810218388471,8263,1589275810218318022,,0.119343583669,-0.50249398714,0.685385266267,0.166600222643,-0.000997617761545,-0.0292446688363
1589275810224352991,8264,1589275810224280896,,0.119341836196,-0.502497060078,0.685383317595,0.166600296486,-0.000997492146285,-0.0292442524501
1589275810227389356,8265,1589275810227318828,,0.0974985821079,-0.501714651145,0.661919909911,0.16301462449,-0.000356480529182,-0.0268028142446
1589275810233412847,8266,1589275810233278678,,0.0975054276108,-0.501715053178,0.661918596825,0.163014525895,-0.000355021717339,-0.0268034332533
1589275810236404774,8267,1589275810236323064,,0.119619717681,-0.501876676723,0.662469092502,0.162068384327,0.000281000033667,-0.0257934423363
1589275810239394866,8268,1589275810239314571,,0.119985792591,-0.630473597839,0.665860660606,0.161133483259,-0.000344211373308,-0.0249345807962
1589275810245857990,8269,1589275810245774326,,0.119993513692,-0.630473790296,0.665859087015,0.161133409416,-0.000342715500132,-0.0249350785913
1589275810248346766,8270,1589275810248261049,,0.0974722758556,-0.630912447707,0.68817527817,0.160032312277,-0.00034062333259,-0.0233480807662
1589275810251303253,8271,1589275810251208393,,0.0974714408828,-0.630914429076,0.688173579929,0.160032426566,-0.000339910412592,-0.0233473077801
1589275810257311217,8272,1589275810257223903,,0.0754871668297,-0.630185270526,0.664837411044,0.157379251506,-0.000334531579965,-0.0217638246323
1589275810260347588,8273,1589275810260259097,,0.0754764840823,-0.630186460514,0.664837495936,0.157379506106,-0.00033521770691,-0.0217619729196
1589275810263475403,8274,1589275810263388627,,0.075469731161,-0.630190333112,0.664834591758,0.157379563186,-0.000336341174473,-0.0217615427879
1589275810269283774,8275,1589275810269202940,,0.0977542593662,-0.630332151505,0.665332131706,0.158320245784,0.000291065022947,-0.02248188208
1589275810272408895,8276,1589275810272255562,,0.0974323800196,-0.630932024738,0.688162979388,0.16001007988,0.000285774305365,-0.0224660468202
1589275810275349308,8277,1589275810275244112,,0.0751086717664,-0.630796749285,0.687666732017,0.159989997597,0.000284521947567,-0.0217344637514
1589275810281402007,8278,1589275810281243282,,0.0974193177534,-0.630932014899,0.688164837681,0.160034783454,0.000284983820477,-0.023340940448
1589275810284303343,8279,1589275810284221638,,0.0975805035949,-0.760506089982,0.69128314254,0.160941923007,-0.000349308481389,-0.023333160213
1589275810287509158,8280,1589275810287398805,,0.0974056117944,-0.630934604935,0.688164403179,0.160057889179,-0.000347908715514,-0.0242076955586
1589275810293363409,8281,1589275810293250405,,0.0974012328534,-0.630939953889,0.688160118825,0.160058041809,-0.000347730755436,-0.0242066889258
1589275810296427079,8282,1589275810296212880,,0.120208030124,-0.760123270835,0.668978504459,0.16209341557,-0.000352006162117,-0.0266637381965
1589275810299330120,8283,1589275810299235471,,0.120204398409,-0.760127064774,0.668974846165,0.162093448167,-0.000352465630445,-0.0266635339657
1589275810305276333,8284,1589275810305167376,,0.119913460934,-0.630514675418,0.665834794305,0.162118579841,-0.000352742378592,-0.0275328111679
1589275810308238249,8285,1589275810308155557,,0.119880002368,-0.760678022437,0.691748353807,0.163831333999,-0.000989278926773,-0.0283901118266
1589275810314245819,8286,1589275810314170073,,0.119626251926,-0.631118974927,0.688652950687,0.164739262671,-0.000991282636999,-0.0283847366422
1589275810317267412,8287,1589275810317185339,,0.119249910619,-0.761751016525,0.737182510791,0.165416752523,-0.000992504698546,-0.0301310961562
1589275810320279428,8288,1589275810320201860,,0.119042693005,-0.632277133898,0.734190801585,0.166324737161,-0.000995069759498,-0.0301248713133
1589275810323296657,8289,1589275810323174543,,0.119050843739,-0.632279882231,0.73418711312,0.167294011031,-0.000996395045096,-0.031861080321
1589275810329251609,8290,1589275810329165023,,0.119256691108,-0.761757563661,0.737174648511,0.169145782488,-0.00100083537662,-0.032719498847
1589275810338450831,8291,1589275810338368232,,0.141741159838,-0.761906118185,0.737680166834,0.174759296472,-0.00101054870489,-0.0369292818365
1589275810341747636,8292,1589275810341639658,,0.164124546123,-0.762068691927,0.738199622769,0.17571547742,-0.00101198805721,-0.0385315891556
1589275810346356345,8293,1589275810346230144,,0.164452392442,-0.892272688173,0.740890087785,0.175742228675,-0.00101133517,-0.0394057620044
1589275810350295832,8294,1589275810350200728,,0.164453911015,-0.892269403341,0.740893706701,0.175742096395,-0.00101170594995,-0.0394063424261
1589275810353309163,8295,1589275810353233192,,0.186923559277,-0.892439418807,0.741394793581,0.175764608172,-0.00101059229343,-0.040140585428
1589275810356296811,8296,1589275810356217863,,0.186618602691,-0.892899315019,0.764128889053,0.176504269074,-0.00101235802725,-0.0392623117182
1589275810362350405,8297,1589275810362236477,,0.186619122188,-0.89289759355,0.764130773744,0.176503108292,-0.00165630999418,-0.0392622211429
1589275810365307708,8298,1589275810365226085,,0.186930878335,-1.02360787329,0.766528500114,0.176451041903,-0.00101232305412,-0.0375037521495
1589275810368255718,8299,1589275810368182410,,0.186932098468,-1.02361086642,0.76652420558,0.176450914684,-0.00101242187343,-0.0375043480293
1589275810371217741,8300,1589275810371130394,,0.16438400516,-1.02344950751,0.766052416016,0.175521403767,-0.0010111604677,-0.036775771588
1589275810377252084,8301,1589275810377173095,,0.164386912284,-1.02344785343,0.766054002032,0.174603659946,-0.00100898706249,-0.0367823794784
1589275810380437269,8302,1589275810380360859,,0.141853884712,-1.02330214277,0.765583212523,0.174580218249,-0.00165322208344,-0.0360501473425
1589275810386304568,8303,1589275810386185728,,0.14186027183,-1.02330018976,0.765584639479,0.174579885147,-0.00165343164734,-0.0360517508055
1589275810389460424,8304,1589275810389387544,,0.16440114,-1.02344022827,0.766061135923,0.174601740783,-0.00165320231887,-0.0367858574191
1589275810392271749,8305,1589275810392166280,,0.164401040883,-1.02344135326,0.766059654231,0.174601738483,-0.00165317365907,-0.0367858696238
1589275810398341709,8306,1589275810398230357,,0.142217522946,-1.02287945923,0.742858131126,0.173812332809,-0.00165187355928,-0.0360597185095
1589275810401345656,8307,1589275810401273221,,0.11996241371,-1.0223222308,0.719683046927,0.172054470105,-0.00100420932829,-0.0335906811773
1589275810404449377,8308,1589275810404352032,,0.142573553804,-1.02246552161,0.720139602279,0.172993958638,-0.00100611307366,-0.0343207080087
1589275810410337129,8309,1589275810410260499,,0.142579502782,-1.02246351628,0.720141271667,0.172993782863,-0.0010058191512,-0.0343216026086
1589275810413272534,8310,1589275810413187888,,0.119842388561,-0.891481065813,0.717212360916,0.171143921612,-0.00228657049975,-0.033599440244
1589275810416279277,8311,1589275810416184503,,0.119845518962,-0.891484346606,0.717207759852,0.171143980728,-0.00228559112248,-0.0335992057642
1589275810422312289,8312,1589275810422209472,,0.142382126547,-0.891630595357,0.717690076442,0.171140708185,-0.00164183666293,-0.0334525146378
1589275810425280448,8313,1589275810425186261,,0.119858380421,-0.891483789614,0.71720630292,0.171093320977,-0.00164044533279,-0.0318456156604
1589275810428253660,8314,1589275810428172438,,0.119999002918,-1.02232869006,0.71966777135,0.170201014754,-0.00163765824061,-0.0327241194513
1589275810434481300,8315,1589275810434374729,,0.119864015739,-0.891480513957,0.717209432743,0.171093300589,-0.00163960722286,-0.0318457683609
1589275810437632652,8316,1589275810437532812,,0.11964305243,-1.0227514665,0.742375922458,0.170968517914,-0.00163850687503,-0.0327169243179
1589275810440246121,8317,1589275810440168812,,0.119641124399,-1.02275556572,0.742370585762,0.170968500206,-0.00163871361363,-0.032717006499
1589275810446313169,8318,1589275810446194756,,0.119521173981,-0.891962358624,0.739915391742,0.170060592754,-0.00163548446809,-0.0327233518412
1589275810449534356,8319,1589275810449378623,,0.11917137431,-0.892438023735,0.762647506328,0.170854197189,-0.00163757240567,-0.0335978682873
1589275810452461807,8320,1589275810452339956,,0.119170166003,-0.892442563746,0.762642382457,0.170855397181,-0.000994621431001,-0.0335976200771
1589275810458636056,8321,1589275810458453179,,0.142047711251,-0.892115216642,0.740389077817,0.170110603951,-0.000992981628883,-0.0343367208043
1589275810461624229,8322,1589275810461524077,,0.142371895267,-0.891645345457,0.717673780851,0.17114136243,-0.00164041925759,-0.0334492369374
1589275810464630052,8323,1589275810464472020,,0.119835760298,-0.891497024234,0.717193632003,0.171146861584,-0.000998378050537,-0.0335957559096
1589275810473640178,8324,1589275810473498571,,0.119830254435,-0.891497291073,0.717194220265,0.171146899786,-0.000999273794925,-0.0335955346637
1589275810476495508,8325,1589275810476394103,,0.142030337069,-0.892115695426,0.740391834041,0.17378609754,-0.00165024210007,-0.0351870130893
1589275810479454223,8326,1589275810479371217,,0.142026760931,-0.892112415042,0.740396472638,0.173786179515,-0.00165075859407,-0.0351865839926
1589275810482438327,8327,1589275810482356536,,0.142027855789,-0.892112832962,0.740395759059,0.17378617088,-0.00165056086387,-0.0351866359181
1589275810485459541,8328,1589275810485378209,,0.142027157849,-0.892111343124,0.740397688064,0.173812540928,-0.00164984810426,-0.0360588080666
1589275810488532885,8329,1589275810488436082,,0.14170881878,-0.892580656991,0.763129575685,0.174578400973,-0.00229335185109,-0.036054093305
1589275810494541346,8330,1589275810494361051,,0.141705048827,-0.892582898381,0.763127654128,0.174578463743,-0.00229371619291,-0.036053766188
1589275810497483170,8331,1589275810497414366,,0.164167585609,-0.892738982175,0.763615543129,0.175545917819,-0.0016524370839,-0.0376637085626
1589275810503447270,8332,1589275810503341015,,0.164162773982,-0.892738469144,0.763617177332,0.17647995324,-0.0016557070412,-0.0385320104799
1589275810506442147,8333,1589275810506342450,,0.141359974887,-0.893057909453,0.78597408033,0.178170818364,-0.00230482186324,-0.0386614645212
1589275810509460763,8334,1589275810509373220,,0.141361845229,-0.893063406639,0.785967497752,0.178197168723,-0.00230477158033,-0.0395368479971
1589275810515499241,8335,1589275810515400910,,0.14135830751,-0.89306888553,0.785961908545,0.179995687431,-0.00231068166429,-0.0386507169223
1589275810518595328,8336,1589275810518445769,,0.141363093345,-0.893069309816,0.785960565672,0.180956182831,-0.00231234509467,-0.040405075302
1589275810521422861,8337,1589275810521331288,,0.16385232734,-0.89321438663,0.786453469742,0.182866387239,-0.00231554360743,-0.0428813778883
1589275810527468496,8338,1589275810527288233,,0.163851337171,-0.893198180395,0.786472081877,0.182866098329,-0.00231771635034,-0.0428824925406
1589275810530439263,8339,1589275810530342309,,0.163852399955,-0.893199286929,0.786470603764,0.183800220402,-0.00231976600377,-0.0437533583286
1589275810533393387,8340,1589275810533313124,,0.186331723328,-0.893366492315,0.786966321473,0.184796055804,-0.00167530271739,-0.0462452580808
1589275810539645059,8341,1589275810539544972,,0.186334587832,-0.893374709271,0.786956315214,0.184796080988,-0.00167412061916,-0.0462452002541
1589275810542591933,8342,1589275810542513153,,0.163843928249,-0.893217670813,0.786451489572,0.18659623745,-0.00232632199276,-0.04549894528
1589275810545929448,8343,1589275810545749787,,0.186332310581,-0.893376494682,0.786954827563,0.187552594623,-0.00232964846946,-0.0471096685965
1589275810551510219,8344,1589275810551425238,,0.208953182756,-1.02462496393,0.812578777898,0.186546854775,-0.00168023938658,-0.0487427484822
1589275810554493605,8345,1589275810554414516,,0.186027710349,-0.893837425397,0.809720132674,0.188373416981,-0.00233126262458,-0.0488721180332
1589275810557401538,8346,1589275810557305195,,0.186026721624,-0.893830385342,0.809728131163,0.188373232137,-0.00233255473374,-0.048872768839
1589275810563515652,8347,1589275810563430579,,0.186028784493,-0.893824196682,0.809734488633,0.1883726885,-0.00233441465174,-0.0488747753661
1589275810566385287,8348,1589275810566293765,,0.185410230971,-0.894732706345,0.85542360681,0.18990695857,-0.00297619188503,-0.0488686764244
1589275810569324773,8349,1589275810569238455,,0.185410077188,-0.894735479465,0.855420739581,0.189906747065,-0.00297685000346,-0.048869458254
1589275810575396543,8350,1589275810575301023,,0.208029693309,-0.894898786316,0.855929978119,0.189929893467,-0.00297603574712,-0.0496093600127
1589275810578375882,8351,1589275810578305821,,0.185420393939,-0.894739928841,0.855413849485,0.191757582535,-0.00298008622137,-0.0497386486234
1589275810581402664,8352,1589275810581318600,,0.208049965442,-0.894898221691,0.855925641154,0.191780414416,-0.0029784448675,-0.0504800581242
1589275810587553048,8353,1589275810587419024,,0.185443525955,-0.894737418196,0.855411461112,0.191785233576,-0.00233985955275,-0.0506198466323
1589275810590396133,8354,1589275810590286360,,0.185439662729,-0.894743527236,0.855405908676,0.191785331897,-0.00233997586459,-0.0506194687416
1589275810593462629,8355,1589275810593397756,,0.185760556001,-0.894290361479,0.832500437434,0.191015516907,-0.00233751405856,-0.0506248276679
1589275810599547512,8356,1589275810599323796,,0.16294252268,-0.894595887255,0.854901797802,0.191760635302,-0.00297653691531,-0.0498850994028
1589275810602447254,8357,1589275810602356783,,0.185468338302,-0.894746820107,0.855396247383,0.192727685169,-0.00297738497787,-0.0515073734628
1589275810605453749,8358,1589275810605334320,,0.185472289284,-0.89475330984,0.855388602379,0.192726363007,-0.00362484962046,-0.0515090430104
1589275810611437327,8359,1589275810611281270,,0.208094210948,-0.894910853628,0.855901677717,0.192750339775,-0.00297729508179,-0.0522502410354
1589275810614419361,8360,1589275810614337354,,0.208391941305,-1.02546166515,0.858201609773,0.193665926064,-0.0036259855669,-0.0522463341617
1589275810617390482,8361,1589275810617293757,,0.20840872298,-0.89446799355,0.832988778499,0.194775023276,-0.00362705864071,-0.0539995404464
1589275810623392860,8362,1589275810623274503,,0.208410740597,-0.894470242054,0.832985859236,0.194774962585,-0.00362667588483,-0.0539997850645
1589275810626454176,8363,1589275810626382989,,0.208410379756,-0.894471996646,0.832984065413,0.194775269525,-0.00362560356662,-0.0539987499397
1589275810635425285,8364,1589275810635328463,,0.208367863221,-1.0254584757,0.858211267178,0.196452511899,-0.00298821611011,-0.0539883200295
1589275810638462851,8365,1589275810638381339,,0.208687643815,-1.02505049733,0.835320299161,0.195683550563,-0.0029854104,-0.0539909331403
1589275810644796221,8366,1589275810644674684,,0.230942834441,-1.02562133407,0.858709982301,0.196476940535,-0.00298621910047,-0.0547223015727
1589275810647514408,8367,1589275810647431780,,0.230923128076,-1.02561803414,0.858719223232,0.195571334265,-0.0029847926161,-0.0547234202967
1589275810650371335,8368,1589275810650277288,,0.231539712491,-1.02479809651,0.813067852164,0.194972484948,-0.0023456995226,-0.0556134689012
1589275810656690611,8369,1589275810656613947,,0.231545714393,-1.02480008848,0.813063632254,0.194972566239,-0.00234413203159,-0.0556132500003
1589275810659443062,8370,1589275810659312827,,0.231545477857,-1.15621624994,0.837929700938,0.196655112583,-0.00234708476016,-0.055604283879
1589275810662377778,8371,1589275810662294630,,0.231233717127,-1.02519826355,0.835848041413,0.196681757759,-0.00298674970953,-0.0564852401325
1589275810668380652,8372,1589275810668281623,,0.231229581929,-1.02519471662,0.835853535799,0.196681577837,-0.00298833892866,-0.0564857825627
1589275810671481985,8373,1589275810671334146,,0.254602072088,-1.15600055422,0.815669592552,0.197789306459,-0.00363830380198,-0.0581027613235
1589275810674447747,8374,1589275810674342607,,0.253901897245,-1.02537134081,0.836363973293,0.198583441317,-0.0036413786492,-0.0589788825284
1589275810680525653,8375,1589275810680382231,,0.25358332703,-1.02578352855,0.859243675117,0.199324942773,-0.00364386116873,-0.0580926813524
1589275810683457783,8376,1589275810683367694,,0.275881125092,-1.0263642896,0.88255847592,0.201087122459,-0.00364707560215,-0.0605952370548
1589275810686345456,8377,1589275810686273378,,0.253277812382,-1.02619063472,0.882039688813,0.201996768124,-0.00429776889737,-0.060733469146
1589275810695596151,8378,1589275810695492561,,0.230585907076,-1.02601332163,0.881540430046,0.204767782162,-0.00430491328208,-0.0617405536821
1589275810701526749,8379,1589275810701405276,,0.230584390434,-1.02601225763,0.881542065132,0.204767772111,-0.00430532505585,-0.061740558306
1589275810704522481,8380,1589275810704417108,,0.252903727673,-0.89568630089,0.879802696538,0.203932090804,-0.00430157203693,-0.0642627521487
1589275810707522390,8381,1589275810707399291,,0.252908849386,-0.895682985253,0.879804599749,0.204847704442,-0.00430439537113,-0.0642595877429
1589275810710449266,8382,1589275810710336313,,0.23058358456,-1.02601097972,0.881543763251,0.205758212067,-0.00430787278116,-0.0643937763742
1589275810716519892,8383,1589275810716413835,,0.253270290929,-1.02617028235,0.882065526487,0.205782421275,-0.00430958271865,-0.0651365138223
1589275810719650602,8384,1589275810719573645,,0.253271542533,-1.02616861291,0.882067109286,0.206698300909,-0.00431235857266,-0.0651324455363
1589275810725463437,8385,1589275810725360895,,0.253266307618,-1.02616763578,0.882069749155,0.206727203712,-0.00431228130241,-0.0660240300377
1589275810728408791,8386,1589275810728330441,,0.230564713139,-1.02600197901,0.881559174772,0.206702656005,-0.00495294420432,-0.0652795990634
1589275810731541774,8387,1589275810731341643,,0.252954651774,-1.02656040929,0.904895898067,0.20749189306,-0.00495545923378,-0.066020591079
1589275810734412866,8388,1589275810734343023,,0.252943260995,-1.02654728249,0.904913973623,0.208436324917,-0.00496057773309,-0.0668985964379
1589275810740462285,8389,1589275810740360661,,0.252939393501,-1.0265514061,0.904910376766,0.208436361423,-0.00496097354969,-0.0668984533452
1589275810743611817,8390,1589275810743518280,,0.252632641829,-1.02695150203,0.927738219896,0.210164638138,-0.00496317408012,-0.0686571220074
1589275810749462310,8391,1589275810749347674,,0.275927691174,-1.15761375913,0.907454057759,0.211273713108,-0.00432337433282,-0.0702893403252
1589275810755527609,8392,1589275810755414931,,0.275915315043,-1.15760436992,0.907469798227,0.213095106515,-0.00433212949076,-0.0702811045219
1589275810758431177,8393,1589275810758371344,,0.27592173,-1.15760512771,0.90746688107,0.213094293464,-0.00433285965258,-0.070283524666
1589275810764481116,8394,1589275810764400347,,0.275602269629,-1.15796618913,0.930290417374,0.214831178195,-0.00497769739169,-0.0720450617292
1589275810767419601,8395,1589275810767332873,,0.27560513593,-1.15797878286,0.930273892118,0.214831845727,-0.00497450262905,-0.0720432918518
1589275810776475684,8396,1589275810776373435,,0.275605750147,-1.15797136725,0.930282940817,0.214831324872,-0.00562537362437,-0.0720427954487
1589275810779565424,8397,1589275810779475112,,0.275277906246,-1.1583277924,0.953225642076,0.215629640952,-0.00497639242531,-0.072932628145
1589275810782477112,8398,1589275810782387285,,0.275267243739,-1.15831461822,0.953244729743,0.217479311613,-0.00498470104487,-0.0738092005917
1589275810785497931,8399,1589275810785412504,,0.27525452058,-1.15832059415,0.953241142162,0.217479511884,-0.00498621800817,-0.0738085080242
1589275810788464781,8400,1589275810788388526,,0.275250883705,-1.02710346193,0.928271945226,0.21673869802,-0.00498479071155,-0.0746994234483
1589275810791435538,8401,1589275810791343502,,0.275599387843,-1.15795044242,0.930310871259,0.217654124828,-0.0049853088692,-0.0746957771113
1589275810797434733,8402,1589275810797341085,,0.298360196267,-1.15812088771,0.930815321047,0.218611231714,-0.00564147743252,-0.0763241493408
1589275810800479178,8403,1589275810800351518,,0.275599182834,-1.15795314816,0.930307564173,0.219530235967,-0.00629487712126,-0.0764706138438
1589275810803450525,8404,1589275810803337977,,0.298372034552,-1.15812849795,0.930802057571,0.222309474256,-0.00565143359324,-0.0780920226918
1589275810809503962,8405,1589275810809280988,,0.298368934577,-1.15813203935,0.930798644961,0.222309150625,-0.00565254068806,-0.0780928638603
1589275810812473016,8406,1589275810812333040,,0.298375696915,-1.1581344907,0.930793427191,0.223253181258,-0.00565296977566,-0.0789746881974
1589275810815395613,8407,1589275810815285398,,0.298702672794,-1.28932922492,0.932635172877,0.223224520018,-0.00630376959765,-0.0780873817003
1589275810821593064,8408,1589275810821491062,,0.298368855592,-1.28965842767,0.955567595683,0.225927464694,-0.00631052341308,-0.0816323716423
1589275810824456376,8409,1589275810824346889,,0.298363270441,-1.28965180987,0.955578271057,0.225927095189,-0.00631291610294,-0.0816332092853
1589275810827454679,8410,1589275810827334770,,0.32077025394,-1.29013783017,0.978913599021,0.228564462698,-0.00632031131939,-0.0832550148234
1589275810833458898,8411,1589275810833367710,,0.320769165711,-1.29014055672,0.978910362204,0.229509703473,-0.00566869197737,-0.0841466123897
1589275810836411433,8412,1589275810836292088,,0.320762167932,-1.29014025969,0.978913046668,0.229510040557,-0.00566930070662,-0.084145651977
1589275810839608057,8413,1589275810839523610,,0.343604341511,-1.29029778524,0.979420687322,0.230466968495,-0.00632391703821,-0.0857779773314
1589275810846029267,8414,1589275810845936210,,0.343606880005,-1.29028646255,0.979434713198,0.230495727581,-0.00567187448292,-0.0866671052724
1589275810848389092,8415,1589275810848318704,,0.343594816418,-1.29028285906,0.979443692409,0.230496411148,-0.00567302905688,-0.0866652116985
1589275810851663493,8416,1589275810851573754,,0.343581380072,-1.42197347693,1.00396489094,0.231289275009,-0.00567455800548,-0.0875513440477
1589275810857364357,8417,1589275810857287217,,0.343572171634,-1.42198143497,1.00395677075,0.23128958002,-0.00567486732274,-0.0875505182309
1589275810860474724,8418,1589275810860406370,,0.343241236856,-1.42227545251,1.02682412247,0.232968254204,-0.00633335416149,-0.0875444260182
1589275810863409892,8419,1589275810863308182,,0.343253715429,-1.42227076814,1.02682643953,0.233912332915,-0.00633363641203,-0.0884380271197
1589275810869314306,8420,1589275810869232262,,0.343250330428,-1.42228652809,1.02680574144,0.233912469766,-0.00633259540105,-0.0884377397047
1589275810872437117,8421,1589275810872261685,,0.34292760571,-1.42257512317,1.04978697061,0.236529007695,-0.00633868414016,-0.0893154339074
1589275810875350686,8422,1589275810875260748,,0.342926336601,-1.42258383722,1.0497755766,0.238321562164,-0.00634412218063,-0.0884173350911
1589275810881403463,8423,1589275810881246339,,0.342926639498,-1.42258821037,1.04976955144,0.238376955815,-0.00634461362799,-0.0901977434053
1589275810884365262,8424,1589275810884268461,,0.342924817815,-1.42258112979,1.04977974164,0.240225579092,-0.00635092772809,-0.0910782522326
1589275810890356775,8425,1589275810890270950,,0.342923635392,-1.42259335874,1.04976355597,0.240196459754,-0.00700537504761,-0.0901898187872
1589275810893390096,8426,1589275810893280282,,0.31970583676,-1.42274593624,1.07215650029,0.242786827843,-0.00701135598163,-0.0903160372244
1589275810896387336,8427,1589275810896289783,,0.342602500876,-1.42288559222,1.07264925905,0.243753849831,-0.00701266997873,-0.0919608858499
1589275810899455640,8428,1589275810899374278,,0.342620729324,-1.4228831215,1.07264671421,0.243754024299,-0.00700920356297,-0.0919606876729
1589275810905466041,8429,1589275810905226072,,0.342618537981,-1.42287832848,1.07265377214,0.242865621168,-0.00765255158964,-0.0928564406189
1589275810908334971,8430,1589275810908245542,,0.342345200634,-1.29157388163,1.07100486605,0.244714293669,-0.00701599863076,-0.0937382522632
1589275810914342586,8431,1589275810914262049,,0.342348350222,-1.29157966941,1.07099687949,0.244714441399,-0.00701452339717,-0.0937379770014
1589275810917500118,8432,1589275810917405990,,0.342266547557,-1.42319039473,1.09553186278,0.246367713946,-0.00701870100755,-0.0928369911402
1589275810920356205,8433,1589275810920265168,,0.365060894378,-1.42333109656,1.09603260519,0.247322895288,-0.00766923533804,-0.0944715649395
1589275810926357844,8434,1589275810926293706,,0.365062041979,-1.42334408733,1.09601535266,0.247324446857,-0.00702071589253,-0.094469368116
1589275810929354094,8435,1589275810929294171,,0.342271350321,-1.42319405404,1.0955256085,0.248216256684,-0.00702298312155,-0.0937178241979
1589275810932606873,8436,1589275810932420430,,0.342255537082,-1.42319838293,1.0955249252,0.248216382955,-0.00702525578833,-0.0937173194256
1589275810938312810,8437,1589275810938236136,,0.365057657477,-1.4233444684,1.09601631815,0.250088060937,-0.00703087525791,-0.0953563699571
1589275810941788668,8438,1589275810941727463,,0.365033412904,-1.42335727008,1.09600776815,0.251908758845,-0.00768462675222,-0.0953450274719
1589275810944846879,8439,1589275810944750155,,0.365018759358,-1.42336274127,1.09600554322,0.251908190459,-0.00768812643098,-0.0953462470505
1589275810950391900,8440,1589275810950292180,,0.364351140561,-1.42395307659,1.14191609789,0.252564207257,-0.00704342144976,-0.0962342743494
1589275810953412839,8441,1589275810953315939,,0.364547460748,-1.55542725801,1.14342028644,0.25352520708,-0.00704714221523,-0.0980106273254
1589275810956390120,8442,1589275810956306211,,0.364324085217,-1.42396859769,1.14190537537,0.253496819541,-0.00769486843777,-0.0971195396808
1589275810962506859,8443,1589275810962382411,,0.364326856153,-1.4239742197,1.14189748056,0.253496611081,-0.00769433018062,-0.0971201264349
1589275810965545657,8444,1589275810965451880,,0.36399565721,-1.42426252948,1.16482261013,0.255232285779,-0.00705446099743,-0.0989053895431
1589275810968477909,8445,1589275810968375176,,0.363991497596,-1.42427255766,1.16481164812,0.255233223016,-0.00705230376796,-0.098903124749
1589275810977467202,8446,1589275810977369595,,0.364542649274,-1.5554433814,1.14339988703,0.25537336662,-0.00769753832585,-0.0989013323337
1589275810980570279,8447,1589275810980365907,,0.364541808143,-1.55544372727,1.14339968468,0.2572217418,-0.00770301967093,-0.099782670315
1589275810983500322,8448,1589275810983412997,,0.387036052874,-1.55587502764,1.16677935994,0.258924141456,-0.00836372413703,-0.100522934046
1589275810986475577,8449,1589275810986369180,,0.387041734037,-1.55586571679,1.16678989114,0.258951878755,-0.00836264603811,-0.101414308597
1589275810989572203,8450,1589275810989371253,,0.386684154569,-1.55613787416,1.18972032068,0.259716862704,-0.00836754142648,-0.10140985037
1589275810995581806,8451,1589275810995475851,,0.364186440244,-1.55572920801,1.16630540841,0.262625665202,-0.00837576840214,-0.102438369154
1589275810998432756,8452,1589275810998353658,,0.364215314452,-1.55571635138,1.16631354119,0.262625913432,-0.00837124100921,-0.102438102832
1589275811001370852,8453,1589275811001261002,,0.363873015075,-1.55599825228,1.18922756708,0.263391258654,-0.0083715084868,-0.102433133706
1589275811004361765,8454,1589275811004238814,,0.363843947391,-1.55600284352,1.18923045345,0.263417506156,-0.00903322963979,-0.103326327116
1589275811010479979,8455,1589275811010361338,,0.363858388244,-1.55598135203,1.18925415449,0.265238185045,-0.00903898970251,-0.103316200974
1589275811013580411,8456,1589275811013418289,,0.363880599208,-1.55597356465,1.18925754744,0.266152573873,-0.00904095446302,-0.103313638628
1589275811019339074,8457,1589275811019262687,,0.38672230382,-1.55611578288,1.18973681552,0.267117569682,-0.00904483908308,-0.104951327142
1589275811022553365,8458,1589275811022424956,,0.363539661461,-1.55623780084,1.21220074018,0.268792712948,-0.00904958074434,-0.105094857153
1589275811025496778,8459,1589275811025413702,,0.363683839288,-1.68784265256,1.21360128687,0.269681234928,-0.00905338209849,-0.104185716958
1589275811031672503,8460,1589275811031517629,,0.363686992103,-1.68783260237,1.21361431947,0.269681048071,-0.00905408108749,-0.104186139889
1589275811034550214,8461,1589275811034407808,,0.386543794267,-1.68797406261,1.2140789999,0.269704067853,-0.00905521764989,-0.104934652928
1589275811037495784,8462,1589275811037381378,,0.386555448176,-1.68798563002,1.21405920664,0.270609561223,-0.00905541741495,-0.104929604415
1589275811043852273,8463,1589275811043719130,,0.38656351542,-1.68797329105,1.21407379355,0.270610266032,-0.00905373283656,-0.104927932087
1589275811046530769,8464,1589275811046416168,,0.364045883702,-1.68756790347,1.19069420941,0.270764836222,-0.00905671144196,-0.105081077619
1589275811049600296,8465,1589275811049505955,,0.386175504201,-1.68820872945,1.23714880598,0.271407278864,-0.00840487698298,-0.105823960214
1589275811055602379,8466,1589275811055493810,,0.38618527459,-1.68820757473,1.23714733184,0.271407373587,-0.00840312201117,-0.105823856648
1589275811058501826,8467,1589275811058403722,,0.363795100818,-1.81958731267,1.21493910236,0.270615223659,-0.0090575409141,-0.105079937375
1589275811061462296,8468,1589275811061380821,,0.363794416041,-1.81958843654,1.21493762421,0.271503575719,-0.00906084020517,-0.104171502219
1589275811067552823,8469,1589275811067411489,,0.363812108463,-1.81958971366,1.21493041363,0.271477683669,-0.00840062555631,-0.10327793704
1589275811073578912,8470,1589275811073459934,,0.363327929459,-1.68807950829,1.23666548658,0.274040731176,-0.00906654852369,-0.102367826258
1589275811076512442,8471,1589275811076418797,,0.339797820461,-1.82020114796,1.28339214118,0.278235017077,-0.00908146459244,-0.0997924734672
1589275811079571850,8472,1589275811079467882,,0.340161732935,-1.81997285009,1.26042313114,0.278377137148,-0.0084222911746,-0.0997890913012
1589275811082436742,8473,1589275811082360960,,0.316807307752,-1.82010133049,1.28290610258,0.281807726525,-0.00908876464574,-0.0972236694893
1589275811088456869,8474,1589275811088363277,,0.316825646508,-1.82009553101,1.28290980169,0.281808303938,-0.00908511219408,-0.0972223371906
1589275811091513552,8475,1589275811091413099,,0.316869249405,-1.95195631496,1.2841410657,0.285429057379,-0.00909461540357,-0.0962902899406
1589275811094430044,8476,1589275811094341778,,0.316844774259,-1.95196651783,1.28413159591,0.285429539539,-0.00909654142234,-0.0962886787477
1589275811097437133,8477,1589275811097327560,,0.293928088244,-1.81998229073,1.28245600368,0.286299316996,-0.00909815879157,-0.0946386024889
1589275811103593587,8478,1589275811103481161,,0.2939752182,-1.9518532663,1.2836777155,0.288072031462,-0.00909966699106,-0.0928388911721
1589275811106471143,8479,1589275811106380270,,0.293225885273,-1.95232976551,1.32966900531,0.290489904256,-0.00910389270418,-0.0919150885753
1589275811112521316,8480,1589275811112438379,,0.269739003802,-2.08439779729,1.35336211588,0.2948468726,-0.00780637362385,-0.0893334629867
1589275811115536245,8481,1589275811115426947,,0.269719702011,-2.08439023771,1.35337760565,0.294847443227,-0.00780838526992,-0.0893314037863
1589275811118532702,8482,1589275811118421715,,0.292781004289,-2.08449624336,1.35380895399,0.296668866781,-0.0078083406633,-0.0891623533882
1589275811121506677,8483,1589275811121427672,,0.292379144994,-2.08470379753,1.37680015965,0.298317785429,-0.00847461484381,-0.0882529312442
1589275811127388302,8484,1589275811127303912,,0.292357575013,-2.08470899876,1.37679686457,0.298317551949,-0.00847788722632,-0.0882534061693
1589275811130560432,8485,1589275811130477585,,0.29273216115,-2.21654684328,1.35487977221,0.302069193381,-0.00848609034908,-0.0864326623047
1589275811136432200,8486,1589275811136358459,,0.292718726641,-2.21653719832,1.35489845351,0.302987195789,-0.00849027347477,-0.0864222680986
1589275811139600588,8487,1589275811139524353,,0.292324847196,-2.21673487687,1.37788487762,0.307404566529,-0.00784706636098,-0.0863826760576
1589275811142669502,8488,1589275811142603037,,0.292316511461,-2.21676163827,1.37784359156,0.307380058015,-0.00784769305356,-0.085480342455
1589275811145883042,8489,1589275811145647882,,0.268441931875,-2.21707385522,1.42347522306,0.308897563524,-0.0078560696255,-0.0847104373144
1589275811151748172,8490,1589275811151635667,,0.268055248665,-2.21725720802,1.44649784346,0.309664897445,-0.00721097034341,-0.0847048189466
1589275811154580686,8491,1589275811154495088,,0.268439935496,-2.21707648463,1.42347150421,0.314336014157,-0.00853352611861,-0.0828694024111
1589275811160382008,8492,1589275811160266145,,0.268435348022,-2.21707309334,1.42347765128,0.314335752112,-0.00853499230932,-0.0828702453871
1589275811163485599,8493,1589275811163348130,,0.268435302322,-2.21704679048,1.42351862589,0.317024582806,-0.00788368074772,-0.081040895855
1589275811166594203,8494,1589275811166462486,,0.268039384846,-2.21724767132,1.4465154013,0.318685422099,-0.00855074014649,-0.0801306283795
1589275811175549512,8495,1589275811175479485,,0.268029299102,-2.21725844464,1.44650075649,0.318685712997,-0.0085508232492,-0.0801294625786
1589275811178490026,8496,1589275811178407706,,0.244675336941,-2.21736893965,1.46906061779,0.323040477531,-0.00856417385755,-0.0775332541377
1589275811181444800,8497,1589275811181323820,,0.24457838042,-2.34946166083,1.4700615051,0.323936266732,-0.00856440768714,-0.0766282154252
1589275811184591501,8498,1589275811184483523,,0.24418356461,-2.34964642288,1.4931764396,0.325592220952,-0.00857147630386,-0.0757174803744
1589275811187639807,8499,1589275811187522699,,0.244196639699,-2.34964263859,1.49318025625,0.325592117883,-0.00857018642535,-0.0757180695869
1589275811190528715,8500,1589275811190434277,,0.244578308349,-2.34947521636,1.47003985234,0.325739825287,-0.00857072795549,-0.0757156687699
1589275811196503248,8501,1589275811196420001,,0.220710077566,-2.34977476054,1.51571352787,0.329063481601,-0.00858078243686,-0.0740304466475
1589275811199575135,8502,1589275811199503871,,0.220699387514,-2.34977813775,1.51570984885,0.329063827692,-0.00858110247336,-0.0740288711678
1589275811202458523,8503,1589275811202362199,,0.220709463105,-2.349777015,1.51571012232,0.329927276245,-0.00858414430528,-0.0722212274142
1589275811208474323,8504,1589275811208380454,,0.22110735185,-2.34955959937,1.492740751,0.329137449684,-0.00858319065945,-0.071335602533
1589275811211513478,8505,1589275811211387253,,0.19734083926,-2.34986125022,1.53832844644,0.333399946926,-0.00859447897159,-0.0705356712312
1589275811214499228,8506,1589275811214392329,,0.197331165187,-2.34985910666,1.5383329618,0.336102422315,-0.00860325308525,-0.0687017861545
1589275811220489858,8507,1589275811220376741,,0.197325872086,-2.34983472353,1.53837088622,0.336101562237,-0.00860767261478,-0.0687054401338
1589275811223415259,8508,1589275811223333933,,0.197307593951,-2.34984706106,1.53835438514,0.336989475842,-0.00795235812322,-0.067799935477
1589275811226405528,8509,1589275811226343339,,0.197302942326,-2.34984068891,1.5383647152,0.338804511162,-0.00861912241244,-0.0668821693612
1589275811232784482,8510,1589275811232616350,,0.197272654952,-2.34982460471,1.53839316755,0.338804684995,-0.00862340558912,-0.0668807366463
1589275811235497558,8511,1589275811235402898,,0.173590221131,-2.4820570654,1.56195809071,0.341361597762,-0.00797274767278,-0.0651887739198
1589275811238523269,8512,1589275811238415526,,0.173549320428,-2.48205949939,1.56195876795,0.341361631901,-0.00797787327327,-0.0651879680713
1589275811244912170,8513,1589275811244785563,,0.173550454628,-2.48204874531,1.56197573077,0.341340252393,-0.00797864860429,-0.0642932133516
1589275811247520663,8514,1589275811247396023,,0.196082005772,-2.61448094248,1.58646346541,0.343018231882,-0.00733198752879,-0.0641309635089
1589275811253520520,8515,1589275811253354536,,0.196063052595,-2.61447097979,1.58648222616,0.343018509505,-0.00733390721501,-0.0641292590581
1589275811256544939,8516,1589275811256426720,,0.196627528764,-2.48211511666,1.56242937706,0.343143875192,-0.00798698056142,-0.0632321502719
1589275811259646148,8517,1589275811259556723,,0.173523249981,-2.48204297504,1.56198792239,0.344974963199,-0.00799210945644,-0.0633500749464
1589275811262481707,8518,1589275811262371243,,0.173532634909,-2.48204052169,1.5619907782,0.344974693197,-0.00799185055585,-0.063351577891
1589275811268510192,8519,1589275811268421491,,0.172927876842,-2.61441306885,1.58602295982,0.348450871016,-0.00800280909458,-0.0615048203078
1589275811274520904,8520,1589275811274422279,,0.172911746758,-2.61440653733,1.58603548497,0.348451047853,-0.0080045191051,-0.0615035959155
1589275811277535176,8521,1589275811277434146,,0.149528053316,-2.61450267456,1.60863507618,0.351050626687,-0.00800695410123,-0.0616247682559
1589275811280419321,8522,1589275811280346809,,0.14953755104,-2.61451060793,1.60862129919,0.351050510014,-0.00800583488098,-0.0616255782962
1589275811283461510,8523,1589275811283374117,,0.149347349789,-2.74674906479,1.60948931497,0.351938846034,-0.0080051462918,-0.0607068144133
1589275811286425702,8524,1589275811286364865,,0.172194816725,-2.61475721627,1.63207361985,0.353643794599,-0.00800597267986,-0.0614349892446
1589275811295593259,8525,1589275811295434487,,0.172187162621,-2.61475536625,1.63207739132,0.354573441455,-0.00866872456917,-0.0623253893158
1589275811304408560,8526,1589275811304322509,,0.195477820956,-2.48265246385,1.63160979518,0.355552325729,-0.0086708638806,-0.0648580813048
1589275811307472850,8527,1589275811307335980,,0.195498671033,-2.48266810413,1.63158349858,0.355552439238,-0.00866705311288,-0.064857968393
1589275811310444831,8528,1589275811310354902,,0.195518735711,-2.48267461293,1.63157119023,0.355552654471,-0.00866336662422,-0.0648572810078
1589275811313441494,8529,1589275811313366979,,0.218505678296,-2.48275369723,1.63200551917,0.355571409851,-0.00866273691015,-0.0656033262162
1589275811316502115,8530,1589275811316344062,,0.195131492173,-2.48285324531,1.65460721886,0.354472835666,-0.00865538384402,-0.0639698319259
1589275811319460401,8531,1589275811319387805,,0.195572812678,-2.4826815391,1.63155416975,0.353704171306,-0.00930755221646,-0.0639788492237
1589275811325465497,8532,1589275811325345843,,0.195565188524,-2.48268301683,1.63155283503,0.352807493126,-0.00864342067849,-0.064884970752
1589275811331548884,8533,1589275811331460585,,0.219149627872,-2.35047166918,1.6079914278,0.352076891355,-0.00930023313118,-0.0665455707832
1589275811334400986,8534,1589275811334332724,,0.219150634751,-2.35048080611,1.60797793465,0.352077317352,-0.00929827018891,-0.0665435912058
1589275811337453611,8535,1589275811337347119,,0.219164608441,-2.3504688482,1.6079935096,0.352099754635,-0.0086351338459,-0.0674491759909
1589275811340402730,8536,1589275811340332424,,0.219186591752,-2.35048013097,1.60797402057,0.352121136508,-0.00863095028574,-0.0683450021383
1589275811343677613,8537,1589275811343550097,,0.219594611824,-2.35031304406,1.58491131665,0.350465568175,-0.00862388538723,-0.0692629606786
1589275811349461559,8538,1589275811349348245,,0.219616088104,-2.35029793116,1.58493075207,0.349546231639,-0.00927893066824,-0.0692729164176
1589275811355485093,8539,1589275811355372759,,0.219600678109,-2.35030986399,1.58491519194,0.348638268409,-0.00861712845235,-0.0692843462912
1589275811361648002,8540,1589275811361562876,,0.219218528127,-2.35050269283,1.6079366862,0.347578711198,-0.0086117162573,-0.0692970813821
1589275811364393282,8541,1589275811364326379,,0.219185998371,-2.35051878685,1.60791759419,0.34757893537,-0.00861484832022,-0.0692955676696
1589275811367657342,8542,1589275811367512723,,0.242231206915,-2.3505984051,1.60836631867,0.347597183953,-0.00862129207638,-0.0700491409327
1589275811376441218,8543,1589275811376365078,,0.219493975116,-2.35032903874,1.58490153788,0.346790561257,-0.00796420367487,-0.0684079141046
1589275811379652980,8544,1589275811379573081,,0.218943278651,-2.48262346678,1.60889198421,0.346618053207,-0.0079655852545,-0.0675149739562
1589275811382435702,8545,1589275811382312706,,0.218904642739,-2.48262334564,1.60889742835,0.346617569742,-0.00797226794013,-0.0675166672449
1589275811385390900,8546,1589275811385314558,,0.218879535106,-2.48262689833,1.60889536225,0.346617136527,-0.00797683566439,-0.0675183517583
1589275811388450477,8547,1589275811388365445,,0.218878757872,-2.48261310531,1.60891675129,0.34846626011,-0.00798210170756,-0.0683907090765
1589275811391587760,8548,1589275811391337343,,0.218855476754,-2.48259437509,1.60894881924,0.34846395852,-0.00865119505703,-0.0683963083034
1589275811397619367,8549,1589275811397513683,,0.195452062103,-2.48271510301,1.6315175657,0.350089312053,-0.00865766155807,-0.0658262750384
1589275811400722870,8550,1589275811400582554,,0.195488081805,-2.48273588378,1.63148162716,0.350088602966,-0.00865437501923,-0.0658304782728
1589275811403669101,8551,1589275811403571880,,0.218333605412,-2.61498903825,1.6328090192,0.350993206017,-0.00865983076743,-0.0656795683611
1589275811409619883,8552,1589275811409511847,,0.195704789971,-2.61473456487,1.60935483523,0.351124717329,-0.00932464638205,-0.0649292562722
1589275811415650073,8553,1589275811415533311,,0.195709299586,-2.61473685583,1.6093505647,0.353882167506,-0.00933291036741,-0.0657922901582
1589275811421576577,8554,1589275811421482886,,0.19572959909,-2.61470037228,1.60940736997,0.35388209604,-0.00933204045974,-0.0657927979537
1589275811427612757,8555,1589275811427489046,,0.194936487711,-2.61506346899,1.65544339969,0.356336969526,-0.00933768458126,-0.0657620680006
1589275811430535830,8556,1589275811430456681,,0.218134205339,-2.48297857695,1.6549696523,0.35727460596,-0.00867804012186,-0.0665021481051
1589275811433552520,8557,1589275811433469764,,0.218136808114,-2.48298021873,1.65496684604,0.357274226134,-0.00867890308887,-0.0665040760297
1589275811436620972,8558,1589275811436491921,,0.217967251943,-2.61513728958,1.65587802877,0.358204267282,-0.00868194325213,-0.0673990431864
1589275811442838968,8559,1589275811442716762,,0.194945710496,-2.61503955828,1.65548008423,0.358186739831,-0.0086819691087,-0.0666462782551
1589275811448577346,8560,1589275811448491513,,0.216795276435,-2.61567274926,1.72507193864,0.36051165154,-0.00868420222472,-0.0673697001766
1589275811454563930,8561,1589275811454468005,,0.21721730208,-2.61549336624,1.70203429538,0.360662339393,-0.00868261269268,-0.0673692979921
1589275811457557441,8562,1589275811457469778,,0.171064159519,-2.6153218542,1.70120612984,0.360646847314,-0.00934542569706,-0.0667586277281
1589275811460988109,8563,1589275811460885595,,0.17110487606,-2.61534476173,1.701166818,0.360626794339,-0.00933672036764,-0.0658589226652
1589275811466561028,8564,1589275811466477125,,0.171138547848,-2.61535136898,1.70115327298,0.360625931262,-0.00933500159068,-0.0658638921103
1589275811469649687,8565,1589275811469547172,,0.217267271851,-2.61550279204,1.70201343273,0.360662446961,-0.00867537645431,-0.0673696543498
1589275811475692140,8566,1589275811475594347,,0.216842555567,-2.61571287243,1.725005157,0.361430241587,-0.00868021615125,-0.0673606414013
1589275811478716747,8567,1589275811478601322,,0.216831536736,-2.61570903951,1.72501235412,0.362317727538,-0.00868579179306,-0.0664443187861
1589275811481723665,8568,1589275811481610295,,0.216856451901,-2.61569743847,1.72502681319,0.362317496321,-0.00868377126261,-0.0664458436789
1589275811487660985,8569,1589275811487561565,,0.193845184707,-2.61560323504,1.72462289456,0.363239229408,-0.0093455979987,-0.066587050753
1589275811493556225,8570,1589275811493463511,,0.194266723275,-2.61543271946,1.70157149463,0.36247083535,-0.00934167281283,-0.0665991424535
1589275811499795252,8571,1589275811499718274,,0.193828750475,-2.6155832412,1.72465506438,0.363217492328,-0.00935106920778,-0.065683874912
1589275811505571230,8572,1589275811505445765,,0.193783426534,-2.61560988043,1.72461975642,0.36321770668,-0.00935519629167,-0.0656821018834
1589275811508642095,8573,1589275811508557486,,0.1704604982,-2.74775899998,1.72501166,0.364109478583,-0.00935501653173,-0.0649135894365
1589275811511723811,8574,1589275811511613809,,0.193567410244,-2.74782515863,1.72545532078,0.365004699445,-0.0093619984269,-0.063862893725
1589275811514689145,8575,1589275811514527056,,0.193527853139,-2.74782603733,1.72545835862,0.365005358873,-0.00936466215387,-0.063858734116
