%time,field.header.seq,field.header.stamp,field.header.frame_id,field.vector.x,field.vector.y,field.vector.z
1588858984270127932,13937,1588858984269937070,,-0.0768318675099,-1.43128432768,0.536541892398
1588858984273011576,13938,1588858984272906285,,-0.076736837445,-1.42723046583,0.535236953139
1588858984276039980,13939,1588858984275911867,,-0.0766551454817,-1.4421862714,0.538346197862
1588858984281917373,13940,1588858984281818424,,-0.0767066851243,-1.4573241947,0.541565830939
1588858984284821980,13941,1588858984284751239,,-0.0766596216727,-1.45230774412,0.539965825389
1588858984294017546,13942,1588858984293832132,,-0.0767403388613,-1.46338711832,0.54173816182
1588858984296768670,13943,1588858984296692915,,-0.0770076918575,-1.47977328943,0.545088498485
1588858984299813493,13944,1588858984299738259,,-0.0769831937463,-1.47445623658,0.543227935678
1588858984305859194,13945,1588858984305703541,,-0.0769677135207,-1.49065742847,0.546845803493
1588858984308804207,13946,1588858984308709299,,-0.0769880142939,-1.50679371453,0.549951160675
1588858984315118313,13947,1588858984314992582,,-0.077007555846,-1.52299775549,0.553105169915
1588858984317935939,13948,1588858984317850893,,-0.0768423185549,-1.51908374546,0.551881515819
1588858984321215217,13949,1588858984321099832,,-0.0767314953948,-1.53610241293,0.555390665303
1588858984326804436,13950,1588858984326699842,,-0.0766167135066,-1.53063266072,0.55340662943
1588858984329745490,13951,1588858984329662674,,-0.0766181922859,-1.54698578041,0.557014499723
1588858984335617196,13952,1588858984335495597,,-0.0765698286001,-1.56368704563,0.560964404341
1588858984338569628,13953,1588858984338488876,,-0.0765623389725,-1.55794797967,0.559356280716
1588858984341581411,13954,1588858984341494461,,-0.0765844888566,-1.57325671399,0.56274475134
1588858984348048052,13955,1588858984347949760,,-0.0766531311376,-1.58941800136,0.566321551717
1588858984351301093,13956,1588858984351178973,,-0.0766275941984,-1.58429205598,0.564750093266
1588858984354495550,13957,1588858984354298261,,-0.0766810372671,-1.57941107582,0.563215498029
1588858984360023168,13958,1588858984359905064,,-0.076745009005,-1.5953713349,0.566894795871
1588858984362956735,13959,1588858984362834786,,-0.0767149546282,-1.61106317684,0.57049919059
1588858984366085321,13960,1588858984365912734,,-0.0765004102723,-1.6052756132,0.568872311475
1588858984369068164,13961,1588858984368891057,,-0.0764756634339,-1.62095596372,0.572236493641
1588858984374968906,13962,1588858984374864092,,-0.0765355870728,-1.63607542654,0.575408392858
1588858984377851884,13963,1588858984377759491,,-0.0766907470528,-1.62993433278,0.573080350637
1588858984383902548,13964,1588858984383804817,,-0.0766450855322,-1.64491229428,0.576431960365
1588858984386926725,13965,1588858984386812015,,-0.0765271918878,-1.63857332552,0.574574264846
1588858984389892607,13966,1588858984389804835,,-0.0765603599884,-1.65364045583,0.57808971859
1588858984392886275,13967,1588858984392779209,,-0.0765851196562,-1.64719041375,0.575719542147
1588858984399008011,13968,1588858984398794590,,-0.0766533911854,-1.66239579063,0.578642386185
1588858984401891278,13969,1588858984401803528,,-0.0765228665646,-1.67736034189,0.581955698865
1588858984408031716,13970,1588858984407942070,,-0.0762142911509,-1.69266761846,0.585609129497
1588858984410866521,13971,1588858984410782343,,-0.0761175196495,-1.68632111449,0.583503142421
1588858984414124139,13972,1588858984414002395,,-0.0760552190496,-1.68006261279,0.581447499344
1588858984416984055,13973,1588858984416853971,,-0.0758923440499,-1.69506421048,0.584736254645
1588858984422758839,13974,1588858984422671450,,-0.0757190923761,-1.71035491506,0.588218369662
1588858984425708420,13975,1588858984425631868,,-0.0758255384638,-1.70400114149,0.58588469786
1588858984431794458,13976,1588858984431688827,,-0.0755984751393,-1.71894516282,0.589410802018
1588858984435072317,13977,1588858984434964675,,-0.0756834275674,-1.73420157645,0.592548219321
1588858984437981137,13978,1588858984437832586,,-0.0756585393998,-1.72731358707,0.59058485337
1588858984440936214,13979,1588858984440846514,,-0.0755262893737,-1.72088141974,0.588799761286
1588858984447048742,13980,1588858984446921603,,-0.0755894967234,-1.73575031318,0.591645683385
1588858984450376075,13981,1588858984450232689,,-0.0755706612177,-1.75069995256,0.594994268812
1588858984456042785,13982,1588858984455939065,,-0.0755166515073,-1.76580799356,0.59816828666
1588858984458872037,13983,1588858984458755796,,-0.0755481990804,-1.75835027817,0.595432170705
1588858984464982612,13984,1588858984464865346,,-0.0756561630689,-1.77340147261,0.598376457381
1588858984470946512,13985,1588858984470840912,,-0.0756907484906,-1.7810036232,0.598833876208
1588858984474184184,13986,1588858984473942386,,-0.0756866423506,-1.77375872167,0.596411469051
1588858984480044551,13987,1588858984479927206,,-0.0758287042991,-1.78840369241,0.599334527577
1588858984482956253,13988,1588858984482816557,,-0.0760147913704,-1.80303579371,0.602026298564
1588858984485825769,13989,1588858984485744502,,-0.0757790731147,-1.79595388748,0.599886248054
1588858984491868627,13990,1588858984491783295,,-0.0757696972607,-1.81033761808,0.602936331848
1588858984495054530,13991,1588858984494944280,,-0.0757822521972,-1.82497930334,0.605924552582
1588858984497930495,13992,1588858984497836239,,-0.0757151383437,-1.81929108523,0.604122625707
1588858984503896353,13993,1588858984503811493,,-0.0758158828563,-1.83467274847,0.607475729849
1588858984507025967,13994,1588858984506937378,,-0.0757371364609,-1.82707164788,0.605170976251
1588858984510017098,13995,1588858984509900889,,-0.0755154476042,-1.84315910896,0.609238061106
1588858984515921504,13996,1588858984515816114,,-0.0755477158401,-1.85836914304,0.612874258159
1588858984519023439,13997,1588858984518855414,,-0.0755265424853,-1.85118908978,0.61082528964
1588858984521964719,13998,1588858984521859704,,-0.0753327584435,-1.8664579263,0.614464001265
1588858984530954830,13999,1588858984530860073,,-0.0753873440471,-1.87560393673,0.616119810323
1588858984534114171,14000,1588858984534016609,,-0.075187272175,-1.86932886217,0.614437778219
1588858984539765845,14001,1588858984539600765,,-0.0751508300419,-1.88484280362,0.617670619449
1588858984542809892,14002,1588858984542706809,,-0.0751330186155,-1.90045374297,0.620917639455
1588858984548818929,14003,1588858984548741133,,-0.0750684337247,-1.91526725471,0.624169871221
1588858984551863673,14004,1588858984551708530,,-0.0753046505061,-1.9084975638,0.621826649178
1588858984555012288,14005,1588858984554897057,,-0.0755906174265,-1.92375316462,0.624648583646
1588858984557594854,14006,1588858984557481538,,-0.07547927394,-1.91778289062,0.623174892788
1588858984563631687,14007,1588858984563500407,,-0.0755170530509,-1.93251715922,0.626299599474
1588858984566558501,14008,1588858984566464825,,-0.0757566622426,-1.92505009003,0.623825181604
1588858984569599339,14009,1588858984569526264,,-0.0758043043758,-1.94053514729,0.627340768261
1588858984576088436,14010,1588858984575938926,,-0.0759315953122,-1.95534823421,0.63078714869
1588858984579062953,14011,1588858984578940567,,-0.0760591715946,-1.94801141629,0.628910048058
1588858984585167887,14012,1588858984585018349,,-0.0760585466959,-1.96258390794,0.632633977113
1588858984591121043,14013,1588858984591008890,,-0.0765073863243,-1.97166287954,0.634288092297
1588858984597003345,14014,1588858984596880673,,-0.0765308562357,-1.98684014938,0.638080115245
1588858984599969694,14015,1588858984599858183,,-0.0767263037491,-1.98065803178,0.636664270615
1588858984603073903,14016,1588858984602952143,,-0.076725350799,-1.99581177722,0.640690663143
1588858984609000491,14017,1588858984608876285,,-0.077105467323,-2.01149811729,0.644459247202
1588858984612049358,14018,1588858984611888800,,-0.0770820173347,-2.00553053292,0.643372903293
1588858984614899495,14019,1588858984614791439,,-0.0771698791926,-2.02093538974,0.647514195822
1588858984621211192,14020,1588858984621105125,,-0.0772183810323,-2.03776132568,0.65199702224
1588858984624079874,14021,1588858984623950457,,-0.0773893632319,-2.0320623248,0.650500772102
1588858984627014682,14022,1588858984626918303,,-0.0775285474687,-2.02567655446,0.649064118883
1588858984633034512,14023,1588858984632935394,,-0.0776572382948,-2.04210297016,0.653460221849
1588858984636029043,14024,1588858984635947337,,-0.0779056087553,-2.05753907624,0.657784287755
1588858984638917758,14025,1588858984638805669,,-0.0781265996797,-2.05146006105,0.656366756271
1588858984651319142,14026,1588858984651197044,,-0.0783041279178,-2.08256067175,0.664668308683
1588858984654569497,14027,1588858984654484137,,-0.0786285599616,-2.08486748498,0.665411037507
1588858984657045859,14028,1588858984656906370,,-0.0788182839125,-2.09257326806,0.667778994167
1588858984660018037,14029,1588858984659941790,,-0.0789594925476,-2.08630559946,0.666411909468
1588858984662927002,14030,1588858984662723814,,-0.0792630021464,-2.10206685072,0.67117423543
1588858984669037137,14031,1588858984668885313,,-0.0795314067655,-2.11768796887,0.675233797027
1588858984675123187,14032,1588858984675048779,,-0.0798265092335,-2.13292876681,0.679486078123
1588858984677908947,14033,1588858984677809444,,-0.0798204461069,-2.12819841353,0.678872040733
1588858984680892920,14034,1588858984680789535,,-0.0801994766378,-2.12232383841,0.677868361516
1588858984683930283,14035,1588858984683831152,,-0.080480896842,-2.13747973124,0.682097265199
1588858984686856236,14036,1588858984686727213,,-0.0806920609983,-2.13260288838,0.681228536364
1588858984692821165,14037,1588858984692724139,,-0.0810025783141,-2.14824533967,0.685984567222
1588858984695850660,14038,1588858984695753668,,-0.0813389714899,-2.16347792774,0.690224839297
1588858984698798423,14039,1588858984698683947,,-0.0816960173993,-2.15795792177,0.68912476133
1588858984704941734,14040,1588858984704795481,,-0.0819187342363,-2.17424441226,0.693888520716
1588858984710886632,14041,1588858984710759456,,-0.0826726621906,-2.18450972581,0.697019321115
1588858984716887458,14042,1588858984716808831,,-0.0830470096296,-2.20049787511,0.701495457216
1588858984719913420,14043,1588858984719827914,,-0.0833545169058,-2.19519212381,0.700796833835
1588858984726060610,14044,1588858984725943300,,-0.0837263027965,-2.21014390324,0.705041976035
1588858984728934544,14045,1588858984728829749,,-0.0839841124451,-2.22502959599,0.709617008697
1588858984732048316,14046,1588858984731897863,,-0.0843069388445,-2.2198039036,0.708940994631
1588858984737944272,14047,1588858984737831965,,-0.0846628004098,-2.23570272252,0.713728613584
1588858984741038397,14048,1588858984740925634,,-0.084965670012,-2.22954945047,0.713112886818
1588858984749895048,14049,1588858984749773958,,-0.0851719215415,-2.2649689503,0.723345732993
1588858984753057975,14050,1588858984752970335,,-0.0854159282873,-2.25955798806,0.723014595568
1588858984756056756,14051,1588858984755968220,,-0.0855927696264,-2.27437794097,0.727820889184
1588858984758767650,14052,1588858984758670384,,-0.0859828825565,-2.26802335309,0.72729490333
1588858984761776520,14053,1588858984761697058,,-0.0862636345856,-2.28262376968,0.732200306497
1588858984764868220,14054,1588858984764791127,,-0.0863827309008,-2.27680735092,0.73166289134
1588858984770862791,14055,1588858984770777399,,-0.0867164856284,-2.29166731584,0.736513165439
1588858984774048353,14056,1588858984773884330,,-0.0870573608026,-2.28583499525,0.736246208774
1588858984776740221,14057,1588858984776652264,,-0.0872436560794,-2.30151382667,0.740674623142
1588858984779781821,14058,1588858984779714682,,-0.0873938126737,-2.29571643924,0.74041866736
1588858984785848513,14059,1588858984785769159,,-0.0876659143277,-2.31040281776,0.745520091799
1588858984789040601,14060,1588858984788901523,,-0.0878488315121,-2.32580591119,0.750251807219
1588858984794925858,14061,1588858984794840618,,-0.0881209514233,-2.34105633735,0.75444462477
1588858984797986238,14062,1588858984797888887,,-0.0881806612222,-2.3348753847,0.754498137573
1588858984801090410,14063,1588858984800934927,,-0.0884037647143,-2.33536681796,0.755617264901
1588858984803912302,14064,1588858984803816249,,-0.0886149763843,-2.34377920886,0.758701593345
1588858984809779216,14065,1588858984809703439,,-0.0886649772344,-2.35853502372,0.763728624787
1588858984812764643,14066,1588858984812670845,,-0.0890990420605,-2.35315813488,0.762966028576
1588858984819131183,14067,1588858984818967957,,-0.0892604996243,-2.36724679088,0.767921841782
1588858984821949831,14068,1588858984821893342,,-0.089234955383,-2.38170910427,0.772748311081
1588858984825007432,14069,1588858984824906947,,-0.0895626609721,-2.3752890269,0.772210018305
1588858984834058567,14070,1588858984833921938,,-0.0894870550575,-2.38256969829,0.776736334979
1588858984836954678,14071,1588858984836877363,,-0.0897390898986,-2.39659048512,0.781356400259
1588858984842825324,14072,1588858984842686851,,-0.0896766366639,-2.41072016178,0.786002612342
1588858984848785191,14073,1588858984848711073,,-0.0898067108424,-2.4240575877,0.790766598669
1588858984852029186,14074,1588858984851942605,,-0.0897674142764,-2.41786830046,0.790497764941
1588858984855405681,14075,1588858984855322442,,-0.0899042079881,-2.43144458169,0.795112467923
1588858984858060176,14076,1588858984857939213,,-0.089881291812,-2.42676433298,0.795061267196
1588858984860830173,14077,1588858984860765441,,-0.0899316733985,-2.42173845715,0.794816769437
1588858984866826861,14078,1588858984866704874,,-0.0899524392681,-2.43514422536,0.799602662661
1588858984869756697,14079,1588858984869662188,,-0.0900194065183,-2.4497894723,0.80401416695
1588858984872730144,14080,1588858984872659579,,-0.0899550367219,-2.44517589924,0.80409344071
1588858984878886344,14081,1588858984878807942,,-0.0899739681425,-2.45947634246,0.808529088013
1588858984881779901,14082,1588858984881663959,,-0.089981283685,-2.47372776622,0.813185261586
1588858984890946310,14083,1588858984890850988,,-0.090098527937,-2.48406621321,0.816948443033
1588858984896777381,14084,1588858984896685489,,-0.0901238920667,-2.49963462609,0.821474816167
1588858984899790611,14085,1588858984899662093,,-0.0900731628743,-2.49483515468,0.821197351016
1588858984902750095,14086,1588858984902670292,,-0.0900215846356,-2.50966442174,0.82581363159
1588858984905755062,14087,1588858984905668095,,-0.0901372538288,-2.5046467133,0.82531131812
1588858984908599962,14088,1588858984908518503,,-0.0901418580561,-2.5186763068,0.829737469589
1588858984914744286,14089,1588858984914654126,,-0.0899978523565,-2.53325496569,0.834340297562
1588858984917554272,14090,1588858984917477507,,-0.0901197737571,-2.52873566849,0.83410204482
1588858984920568630,14091,1588858984920493214,,-0.0899619469526,-2.52296414422,0.834057366182
1588858984929972677,14092,1588858984929886152,,-0.0898349103672,-2.55523762044,0.843534371787
1588858984933088015,14093,1588858984932957545,,-0.0898771730213,-2.5506104976,0.843332433658
1588858984936162519,14094,1588858984936017355,,-0.0898341829041,-2.56411729535,0.848089652905
1588858984939047467,14095,1588858984938970463,,-0.0896486063757,-2.55787836286,0.847852143228
1588858984941941837,14096,1588858984941863856,,-0.0897116535473,-2.57095574117,0.85228592649
1588858984948520469,14097,1588858984948372916,,-0.0896870853874,-2.58422052941,0.856746485907
1588858984951199759,14098,1588858984951122077,,-0.0896567725847,-2.57839761881,0.856630218038
1588858984954214476,14099,1588858984954138514,,-0.0895903788579,-2.57274057931,0.856257709994
1588858984957116079,14100,1588858984956978230,,-0.0896241553,-2.58652419068,0.860505929163
1588858984963018034,14101,1588858984962934367,,-0.0895869512033,-2.60016715332,0.865177922413
1588858984965988986,14102,1588858984965898663,,-0.0896131911002,-2.59472872998,0.864502437143
1588858984968965473,14103,1588858984968862855,,-0.0896080672282,-2.60825980175,0.86858509457
1588858984974952855,14104,1588858984974870691,,-0.0896070905012,-2.62157841954,0.873041015358
1588858984978054796,14105,1588858984977912467,,-0.0895780631952,-2.61634919061,0.87250688592
1588858984981013413,14106,1588858984980935543,,-0.0895685367863,-2.61065880534,0.871723797995
1588858984986893184,14107,1588858984986811117,,-0.0895575228048,-2.62407873136,0.87617150643
1588858984989831939,14108,1588858984989765176,,-0.0895253581265,-2.6374599569,0.880427435215
1588858984995917317,14109,1588858984995801164,,-0.0893356499941,-2.65026330103,0.884860946817
1588858984998888036,14110,1588858984998739731,,-0.08923923561,-2.64492353035,0.88454535045
1588858985002049363,14111,1588858985001947807,,-0.0890929213176,-2.65740218125,0.889090859086
1588858985011136712,14112,1588858985010993206,,-0.0889389179154,-2.66381228169,0.8931034602
1588858985013746331,14113,1588858985013639712,,-0.0887912807106,-2.65775788243,0.892821127401
1588858985020047277,14114,1588858985019943883,,-0.0885881578821,-2.66976929568,0.89714426242
1588858985023212808,14115,1588858985023076004,,-0.0884613351751,-2.68154935361,0.901476409851
1588858985025996413,14116,1588858985025910226,,-0.0882067260066,-2.67537749091,0.90125377036
1588858985031987808,14117,1588858985031888411,,-0.0881622743052,-2.68726691925,0.90508734576
1588858985034859127,14118,1588858985034776802,,-0.088017981339,-2.69904099029,0.909391659052
1588858985038010842,14119,1588858985037928447,,-0.0878343187523,-2.69373711471,0.909062291388
1588858985044134514,14120,1588858985044002455,,-0.0877391208463,-2.70591462076,0.913012389872
1588858985050206278,14121,1588858985050078279,,-0.0875147507344,-2.71662610076,0.916999161974
1588858985053245715,14122,1588858985053134525,,-0.0875536100029,-2.71189468525,0.916512108919
1588858985055970880,14123,1588858985055860237,,-0.0874367298619,-2.72369440313,0.920388149258
1588858985058958775,14124,1588858985058883682,,-0.0871589756163,-2.71750535429,0.919997424205
1588858985065008950,14125,1588858985064930846,,-0.0870272664762,-2.72951115343,0.924173666883
1588858985068406989,14126,1588858985068320832,,-0.0869759174649,-2.74176311436,0.927837235071
1588858985070745736,14127,1588858985070669876,,-0.0867523166751,-2.73613999854,0.927105626268
1588858985077045283,14128,1588858985076988796,,-0.0867153284198,-2.74882475024,0.930991369277
1588858985082983418,14129,1588858985082923510,,-0.0864042653206,-2.76117609596,0.934974411024
1588858985085872618,14130,1588858985085822526,,-0.0863471775183,-2.75523204274,0.934611185507
1588858985089021488,14131,1588858985088921391,,-0.0861901009663,-2.76729809255,0.938575889851
1588858985092057919,14132,1588858985091972862,,-0.0860150738255,-2.76150516848,0.938106929601
1588858985095268836,14133,1588858985095185381,,-0.0856965587083,-2.77263617982,0.942258997488
1588858985104117369,14134,1588858985103999479,,-0.0855642735409,-2.78377715321,0.946295028458
1588858985107113211,14135,1588858985106839058,,-0.0854222741435,-2.77749724845,0.945747042748
1588858985109659264,14136,1588858985109572570,,-0.0851939387685,-2.78828590318,0.94982881566
1588858985112678746,14137,1588858985112569232,,-0.0849693490972,-2.78113070241,0.94935803511
1588858985115717072,14138,1588858985115607025,,-0.0846975978606,-2.7918300683,0.953706872811
1588858985118851920,14139,1588858985118769194,,-0.0845049940568,-2.785242559,0.953132874598
1588858985125327320,14140,1588858985125219401,,-0.0843834821723,-2.79530223623,0.957101706203
1588858985134435676,14141,1588858985134161269,,-0.0839620086172,-2.79897227745,0.960993258173
1588858985137373689,14142,1588858985137164227,,-0.0836738504822,-2.80934620789,0.965138185459
1588858985139991741,14143,1588858985139911874,,-0.0834898330209,-2.80290907746,0.964833100263
1588858985142810276,14144,1588858985142721384,,-0.0832593008086,-2.81366644573,0.969065013915
1588858985152256891,14145,1588858985152157388,,-0.0829835949694,-2.82423258059,0.97259616274
1588858985155478188,14146,1588858985155339889,,-0.0827925997963,-2.83508187635,0.976605467027
1588858985161236657,14147,1588858985161131063,,-0.082581687513,-2.82926518226,0.976428663072
1588858985164109351,14148,1588858985164006117,,-0.0822230331546,-2.84098972478,0.980337805687
1588858985170184571,14149,1588858985170015357,,-0.0820838319075,-2.85203116594,0.984050973296
1588858985172972785,14150,1588858985172876063,,-0.0817772570249,-2.84616109279,0.983957884099
1588858985179266470,14151,1588858985179149779,,-0.0816470707239,-2.85810207019,0.987920697309
1588858985185174675,14152,1588858985185045698,,-0.0813335284844,-2.86834338312,0.991357667241
1588858985190995543,14153,1588858985190910462,,-0.0810781978397,-2.87320063309,0.994363657482
1588858985197105973,14154,1588858985196992951,,-0.0807805793665,-2.88336797591,0.998094772383
1588858985203076556,14155,1588858985202977457,,-0.0805253338718,-2.89338711808,1.0014927802
1588858985209068557,14156,1588858985208971468,,-0.0802005860657,-2.90339558931,1.00497855213
1588858985215018426,14157,1588858985214929475,,-0.0801762084554,-2.91345639082,1.00852900222
1588858985221412388,14158,1588858985221254736,,-0.0797892090657,-2.90682646665,1.00855338018
1588858985227000910,14159,1588858985226876724,,-0.0796200565986,-2.91588597227,1.01193138526
1588858985233013775,14160,1588858985232925812,,-0.0794521123936,-2.925260303,1.01509293158
1588858985239027180,14161,1588858985238924309,,-0.0791691151259,-2.93549611489,1.01865839358
1588858985245154486,14162,1588858985245058909,,-0.0788097211784,-2.94411505842,1.02227380307
1588858985251554298,14163,1588858985251465237,,-0.078514521936,-2.95207563373,1.02583523063
1588858985254538425,14164,1588858985254393244,,-0.0783560394561,-2.94655583355,1.02593067828
1588858985260036726,14165,1588858985259873899,,-0.0780410739627,-2.95497249856,1.02958554732
1588858985266000875,14166,1588858985265890327,,-0.0778416295475,-2.96288371494,1.03319680669
1588858985272190060,14167,1588858985272061770,,-0.0776217304933,-2.97194239878,1.03621293041
1588858985277938275,14168,1588858985277875387,,-0.0774167284041,-2.98051845057,1.03974504086
1588858985283893400,14169,1588858985283815935,,-0.0770825147424,-2.98966262322,1.04318126824
1588858985290078847,14170,1588858985289941342,,-0.0768555244776,-2.99820104764,1.0464529494
1588858985293053668,14171,1588858985292940670,,-0.0768600405337,-2.99330080147,1.04593795063
1588858985296082232,14172,1588858985295981024,,-0.076565976982,-3.00189940331,1.04910515269
1588858985301944560,14173,1588858985301875735,,-0.0764852040661,-3.01040643838,1.05203627134
1588858985313955846,14174,1588858985313838394,,-0.0761314930192,-3.01297826656,1.05457943111
1588858985319997901,14175,1588858985319912371,,-0.0760090857056,-3.02123884137,1.05750532994
1588858985323056357,14176,1588858985322988919,,-0.0758236206266,-3.02904153053,1.06054629
1588858985326029916,14177,1588858985325942594,,-0.0756359706475,-3.02301724134,1.05996442335
1588858985328917900,14178,1588858985328842346,,-0.0753035841235,-3.03054858776,1.06299728193
1588858985331912021,14179,1588858985331829824,,-0.075148026392,-3.02347295452,1.06300999311
1588858985338043233,14180,1588858985337939863,,-0.0748201023974,-3.03092807027,1.06561564205
1588858985344033504,14181,1588858985343889576,,-0.0745984105963,-3.03816243979,1.06891386381
1588858985350122278,14182,1588858985350012434,,-0.0744563664528,-3.04455652354,1.07177961489
1588858985353148467,14183,1588858985353062755,,-0.0740934090327,-3.03748560722,1.07151613057
1588858985359080878,14184,1588858985358985170,,-0.0738294936284,-3.04405763348,1.07478972636
1588858985365045748,14185,1588858985364906963,,-0.0736445345832,-3.05026258395,1.07772534716
1588858985370997343,14186,1588858985370925479,,-0.0733517014753,-3.05618257025,1.08074386244
1588858985377218226,14187,1588858985377080519,,-0.0729641937597,-3.06257051592,1.08368152002
1588858985380231943,14188,1588858985380106386,,-0.0727910219627,-3.05598026583,1.08298623476
1588858985383219821,14189,1588858985383130806,,-0.0724316680651,-3.06254766268,1.08595927964
1588858985386189977,14190,1588858985386096525,,-0.0722919091605,-3.05768314597,1.08569899993
1588858985389273126,14191,1588858985389096713,,-0.0720303305711,-3.06512692059,1.08853560901
1588858985392224488,14192,1588858985392116254,,-0.0717872381475,-3.05838885255,1.08822241623
1588858985398174445,14193,1588858985398066621,,-0.0716324890431,-3.06622507748,1.0908437477
1588858985404197921,14194,1588858985404100220,,-0.0715991275594,-3.07425751203,1.0935921029
1588858985407164202,14195,1588858985407052565,,-0.0713760354676,-3.06856850639,1.09318070328
1588858985410179730,14196,1588858985410063762,,-0.071248334268,-3.07524592707,1.09584878445
1588858985416151170,14197,1588858985416060950,,-0.0710066361361,-3.08305023755,1.09840287941
1588858985419113221,14198,1588858985419003627,,-0.0709163919582,-3.07829157693,1.09777067898
1588858985425149157,14199,1588858985425063382,,-0.0707348033099,-3.08586768079,1.10062371944
1588858985431169179,14200,1588858985431062552,,-0.0705019326552,-3.09374945619,1.10334357843
1588858985437138314,14201,1588858985437056961,,-0.0703515176254,-3.10088373784,1.10557265484
1588858985443035938,14202,1588858985442948125,,-0.0700637354655,-3.10805406145,1.10825796856
1588858985449044642,14203,1588858985448951493,,-0.0697697633121,-3.11453596217,1.11117557264
1588858985452261700,14204,1588858985452172857,,-0.0694622116108,-3.10889981856,1.11080984128
1588858985455380577,14205,1588858985455277373,,-0.0690959685403,-3.11487228124,1.11346732457
1588858985458105341,14206,1588858985457980194,,-0.0688679036659,-3.10947432288,1.1132495349
1588858985461297541,14207,1588858985461149744,,-0.0686046656132,-3.10340949191,1.11287395628
1588858985464199051,14208,1588858985464065553,,-0.0681574496232,-3.1087933664,1.11549569435
1588858985470145784,14209,1588858985470007179,,-0.0679487929546,-3.11384080257,1.11798021207
1588858985476127193,14210,1588858985476013904,,-0.0675586607827,-3.1194332922,1.1208403227
1588858985482097856,14211,1588858985482015747,,-0.0670654032142,-3.12410754021,1.12319774946
1588858985494081881,14212,1588858985493971740,,-0.066582022368,-3.12287801871,1.12479504564
1588858985500202770,14213,1588858985500118726,,-0.0662101477606,-3.12746845656,1.12716757957
1588858985506185566,14214,1588858985506088512,,-0.0659236641264,-3.131449669,1.12941426896
1588858985512280313,14215,1588858985512186367,,-0.0655250745145,-3.13600083127,1.13166285552
1588858985518192463,14216,1588858985518084751,,-0.0653554397038,-3.14040340652,1.13364331792
1588858985523639659,14217,1588858985523584737,,-0.0649268325623,-3.14467187149,1.13574757823
1588858985529689891,14218,1588858985529619944,,-0.0646170786947,-3.14907597293,1.13792371793
1588858985535945680,14219,1588858985535839037,,-0.0641711199732,-3.15317213071,1.13994881958
1588858985542095681,14220,1588858985542017321,,-0.0639394754974,-3.15752268948,1.14190941513
1588858985551608614,14221,1588858985551461367,,-0.063335508753,-3.15590406899,1.14392573496
1588858985554504731,14222,1588858985554425632,,-0.0630143362378,-3.16016009016,1.14589328502
1588858985560192628,14223,1588858985560091012,,-0.0627110079639,-3.15450771398,1.14565670915
1588858985566232981,14224,1588858985566084460,,-0.0624669185322,-3.15822996196,1.14765982705
1588858985572087414,14225,1588858985571994494,,-0.0623196963833,-3.16228063851,1.14929513956
1588858985578406162,14226,1588858985578262033,,-0.0619530388842,-3.1658619757,1.15128715052
1588858985584411658,14227,1588858985584302304,,-0.0617285095036,-3.16962039427,1.1528479627
1588858985590288532,14228,1588858985590182053,,-0.0613691716156,-3.17240870207,1.15463893133
1588858985596436949,14229,1588858985596305485,,-0.0611645050818,-3.17597717842,1.15649234313
1588858985602299662,14230,1588858985602178161,,-0.0608349251009,-3.17906945923,1.15828236553
1588858985613902068,14231,1588858985613808038,,-0.0602754917795,-3.17664604052,1.15932296713
1588858985619992985,14232,1588858985619788442,,-0.0599264665148,-3.18050411787,1.16128460903
1588858985625909945,14233,1588858985625830198,,-0.0596245404764,-3.18306245459,1.16302440333
1588858985631860007,14234,1588858985631770153,,-0.0591959095982,-3.18520675029,1.1648120387
1588858985638129466,14235,1588858985638046200,,-0.0588666317342,-3.18895132479,1.16646485953
1588858985644328073,14236,1588858985644149905,,-0.0585021704668,-3.19154114305,1.16827362913
1588858985650472960,14237,1588858985650291337,,-0.0580878301734,-3.19345609361,1.16995049747
1588858985653515946,14238,1588858985653378408,,-0.0577248118258,-3.18808978746,1.1699618057
1588858985659267728,14239,1588858985659141370,,-0.0573624781835,-3.19071755654,1.17158481861
1588858985665208979,14240,1588858985665124638,,-0.0571019804161,-3.19366047475,1.17317502135
1588858985671171708,14241,1588858985671067449,,-0.0568449623028,-3.19609624257,1.17450604755
1588858985677064432,14242,1588858985676969347,,-0.056420232973,-3.19860153989,1.17596403873
1588858985683174763,14243,1588858985683065976,,-0.0561699100911,-3.20074921506,1.17750492663
1588858985689059564,14244,1588858985688977481,,-0.0559201284147,-3.20244905421,1.17861154105
1588858985695403403,14245,1588858985695291888,,-0.0557291884218,-3.2039876073,1.17981370126
1588858985701462986,14246,1588858985701171269,,-0.055480264127,-3.19905664011,1.17958753035
1588858985707564148,14247,1588858985707254029,,-0.0552103982822,-3.20136811739,1.18116500126
1588858985713241175,14248,1588858985713133654,,-0.0550852902878,-3.20266192976,1.18233050114
1588858985719044181,14249,1588858985718897680,,-0.0549121747778,-3.20298461992,1.1833731731
1588858985725006969,14250,1588858985724925164,,-0.0546573715514,-3.20448913272,1.18495224074
1588858985731040781,14251,1588858985730944997,,-0.0543806477163,-3.20515568961,1.18613058803
1588858985737116941,14252,1588858985737020338,,-0.0541332137973,-3.20543589434,1.18737402806
1588858985743208591,14253,1588858985743094070,,-0.0537973715886,-3.20583920205,1.18872042778
1588858985749093937,14254,1588858985749026377,,-0.0535037602167,-3.20653603262,1.19030208468
1588858985752374747,14255,1588858985752284866,,-0.0532473146064,-3.20103477832,1.19004256579
1588858985755180002,14256,1588858985755107051,,-0.0530462596397,-3.20140623458,1.19126851472
1588858985761265320,14257,1588858985761166613,,-0.0527935987593,-3.188237117,1.18925368126
1588858985767138397,14258,1588858985767032914,,-0.0524765370531,-3.19650857024,1.19242837373
1588858985773050085,14259,1588858985772963600,,-0.0522984777724,-3.19668365124,1.19349885636
1588858985779170877,14260,1588858985779021937,,-0.0522456239882,-3.19637881904,1.19451661189
1588858985784966611,14261,1588858985784889883,,-0.0520535203764,-3.19646590681,1.19518768462
1588858985791203484,14262,1588858985791108641,,-0.0520235693786,-3.19772955211,1.19605107749
1588858985797089584,14263,1588858985796991458,,-0.0517530106463,-3.1976624291,1.19712695041
1588858985803218215,14264,1588858985803133113,,-0.0517913918609,-3.19654811412,1.19802680485
1588858985809217503,14265,1588858985809075489,,-0.0515905196814,-3.1970743321,1.19900956187
1588858985815395392,14266,1588858985815280716,,-0.0514688538587,-3.19655511509,1.19978287174
1588858985820939984,14267,1588858985820739374,,-0.0513138132199,-3.19141027918,1.19949560169
1588858985827210835,14268,1588858985827101648,,-0.0510980256497,-3.19088455445,1.20043494371
1588858985833140572,14269,1588858985833069860,,-0.0509052569556,-3.19031514309,1.20101880455
1588858985839154496,14270,1588858985839061308,,-0.0506491381521,-3.18964568063,1.20164579039
1588858985845089771,14271,1588858985845007733,,-0.050432620836,-3.1891888887,1.20245683436
1588858985851605245,14272,1588858985851504443,,-0.0501868803921,-3.18775357407,1.20355130499
1588858985854883972,14273,1588858985854785788,,-0.0499529675918,-3.1867066817,1.20434137996
1588858985860310530,14274,1588858985860184063,,-0.0498275303024,-3.18149118275,1.20385083259
1588858985866288120,14275,1588858985866171207,,-0.0496098861177,-3.17997648893,1.20452265538
1588858985872195684,14276,1588858985872123570,,-0.0494667919076,-3.17802579445,1.20492414686
1588858985878332728,14277,1588858985878169293,,-0.0491858463855,-3.17597750098,1.20568180827
1588858985884198799,14278,1588858985884113068,,-0.0489835515514,-3.17384359791,1.2062246265
1588858985890201646,14279,1588858985890118409,,-0.048727842329,-3.17183263386,1.20685596
1588858985896222342,14280,1588858985896151056,,-0.0484411995606,-3.16935268164,1.20709618875
1588858985902135791,14281,1588858985902056201,,-0.0484726598953,-3.16668473469,1.20706162529
1588858985908831834,14282,1588858985908768260,,-0.0480045119861,-3.1640033668,1.20783324817
1588858985914264520,14283,1588858985914116371,,-0.0478087533616,-3.15848364462,1.20764578309
1588858985920334454,14284,1588858985920215217,,-0.047702969231,-3.1556943318,1.20800022831
1588858985926016396,14285,1588858985925919304,,-0.0473790471766,-3.1526841825,1.20844671928
1588858985932467299,14286,1588858985932297456,,-0.0471434903495,-3.14960621682,1.20865582847
1588858985938300570,14287,1588858985938123340,,-0.0468685731178,-3.14596355847,1.20929968794
1588858985944424171,14288,1588858985944272415,,-0.0467702083349,-3.14227498158,1.20949401407
1588858985950409297,14289,1588858985950286031,,-0.0464361056692,-3.13899322104,1.20990409291
1588858985956344978,14290,1588858985956203472,,-0.0463084929488,-3.13550339792,1.21003976151
1588858985962335707,14291,1588858985962181904,,-0.0464617050494,-3.13178233077,1.21009247656
1588858985968913911,14292,1588858985968811865,,-0.0462945419996,-3.12828677641,1.21057873576
1588858985974389944,14293,1588858985974127230,,-0.0460210344492,-3.1230580203,1.21030575294
1588858985980330909,14294,1588858985980183410,,-0.0460501402846,-3.11879576291,1.21032426458
1588858985986209401,14295,1588858985986114841,,-0.0457837261213,-3.11525608328,1.21076316771
1588858985992281357,14296,1588858985992188172,,-0.0457958961974,-3.11123919164,1.21042853409
1588858985998252851,14297,1588858985998139857,,-0.0456321031128,-3.10730895881,1.21060655283
1588858986004305024,14298,1588858986004194336,,-0.0456400965515,-3.10304521647,1.21045180524
1588858986009896072,14299,1588858986009799689,,-0.0454732846982,-3.09893081596,1.21060709546
1588858986015756161,14300,1588858986015678305,,-0.0454348743383,-3.09465944354,1.21071825063
1588858986021830608,14301,1588858986021753484,,-0.04544622743,-3.09023141305,1.21078982608
1588858986028313301,14302,1588858986028226431,,-0.0453039349191,-3.0855449823,1.21060969813
1588858986034373557,14303,1588858986034239785,,-0.045121048404,-3.08055185407,1.21075723906
1588858986040306007,14304,1588858986040199203,,-0.0451611284887,-3.07631945433,1.21038825428
1588858986046290020,14305,1588858986046192729,,-0.0452661746793,-3.07200825076,1.21000979324
1588858986052428244,14306,1588858986052333841,,-0.0451049439159,-3.06688422506,1.2102938681
1588858986055931410,14307,1588858986055823275,,-0.0450211502956,-3.06178994473,1.21043719248
1588858986061139225,14308,1588858986060751801,,-0.0450220984259,-3.05691012643,1.2101242136
1588858986066781322,14309,1588858986066694372,,-0.0449442936182,-3.05196644732,1.21019431658
1588858986072899837,14310,1588858986072756523,,-0.0449661591687,-3.04684738119,1.21017102246
1588858986078989842,14311,1588858986078861774,,-0.0448853404893,-3.04150570885,1.21007957591
1588858986084859636,14312,1588858986084753010,,-0.0448498938925,-3.03621906119,1.21003523664
1588858986090891595,14313,1588858986090749920,,-0.0447759649807,-3.03034384523,1.20995312357
1588858986096813460,14314,1588858986096732019,,-0.0447751159371,-3.02478620629,1.21007081459
1588858986102881181,14315,1588858986102737288,,-0.0448520011353,-3.01923426331,1.20961129292
1588858986108993217,14316,1588858986108811984,,-0.0447817478541,-3.01291478908,1.20947409736
1588858986115322204,14317,1588858986115160555,,-0.0446043832853,-3.00673986465,1.20927608437
1588858986121919723,14318,1588858986121775710,,-0.0446087521462,-2.9906422425,1.20644259981
1588858986127308566,14319,1588858986127193729,,-0.0446557516506,-2.99571362449,1.20912866703
1588858986133283745,14320,1588858986133187128,,-0.0446526335465,-2.98963930684,1.20871003851
1588858986138781761,14321,1588858986138716036,,-0.0446784732943,-2.98360937427,1.20830246471
1588858986145262721,14322,1588858986145166648,,-0.0445846003201,-2.97698656732,1.20807842988
1588858986151703934,14323,1588858986151566345,,-0.0448396674521,-2.97041558024,1.2074625285
1588858986154688268,14324,1588858986154570732,,-0.0448729847919,-2.96390492821,1.20706266661
1588858986160327178,14325,1588858986160208829,,-0.0447649751584,-2.95904411628,1.20732381323
1588858986166358680,14326,1588858986166238547,,-0.0447500155952,-2.95237778317,1.20688616542
1588858986172230227,14327,1588858986172145075,,-0.0449350325853,-2.94593008742,1.20606904568
1588858986178164725,14328,1588858986178064254,,-0.045032214331,-2.93891113065,1.20539535629
1588858986184074712,14329,1588858986183978818,,-0.0449732557785,-2.93170997358,1.20514377679
1588858986190199426,14330,1588858986190025928,,-0.0450318523651,-2.92468224581,1.20473530965
1588858986196384548,14331,1588858986196274368,,-0.0452444888941,-2.91753691577,1.20398449072
1588858986202352990,14332,1588858986202226968,,-0.045352308656,-2.9103615979,1.20369228929
1588858986208544131,14333,1588858986208407265,,-0.0455193181178,-2.90280685867,1.20287308146
1588858986214408495,14334,1588858986214105684,,-0.0454794117062,-2.89809293427,1.2030655622
1588858986220354038,14335,1588858986220225261,,-0.0456814226841,-2.89081243636,1.20246111116
1588858986226109528,14336,1588858986225998288,,-0.0456655812636,-2.88363643182,1.20211524958
1588858986232243494,14337,1588858986232151139,,-0.0456276368102,-2.87596322817,1.2013044387
1588858986238343770,14338,1588858986238202825,,-0.0457315202054,-2.86833642019,1.20075887425
1588858986244238247,14339,1588858986244103330,,-0.0459177630744,-2.86087828707,1.19995524101
1588858986250512413,14340,1588858986250344015,,-0.0460410388077,-2.85337540137,1.1992337209
1588858986256343555,14341,1588858986256223111,,-0.0461715313779,-2.84562191884,1.19854718024
1588858986262229942,14342,1588858986262140556,,-0.0463453598172,-2.83806884705,1.19783612492
1588858986274475831,14343,1588858986274252598,,-0.0465637307287,-2.82609975324,1.19677864701
1588858986280284775,14344,1588858986280195256,,-0.046770177048,-2.81882066327,1.19587364056
1588858986286394957,14345,1588858986286274185,,-0.046879517665,-2.81105803609,1.19490457134
1588858986292395718,14346,1588858986292282017,,-0.0469011693248,-2.80299527669,1.19398071791
1588858986298453766,14347,1588858986298336462,,-0.0471111222799,-2.79540753678,1.19276712846
1588858986304438894,14348,1588858986304260699,,-0.0473124394535,-2.78763309293,1.19170582116
1588858986310510353,14349,1588858986310355170,,-0.0474417600495,-2.77947348533,1.19066063784
1588858986316535223,14350,1588858986316385217,,-0.0476778235578,-2.77136636396,1.18958544095
1588858986322445977,14351,1588858986322311182,,-0.0478092320235,-2.76337479574,1.18821451084
1588858986334819938,14352,1588858986334681053,,-0.0482044119978,-2.75143417243,1.18694890131
1588858986340416170,14353,1588858986340321042,,-0.0483398285054,-2.74316408545,1.18570025978
1588858986346378710,14354,1588858986346271536,,-0.0485171752597,-2.73476917987,1.18460921849
1588858986352674998,14355,1588858986352516799,,-0.0486520909128,-2.72592351883,1.18354883687
1588858986355645027,14356,1588858986355490668,,-0.0488188802031,-2.7175197929,1.18228282181
1588858986361898025,14357,1588858986361537591,,-0.049094477708,-2.71371564544,1.18232493664
1588858986367413986,14358,1588858986367301950,,-0.0491823350045,-2.70514109501,1.18122807627
1588858986373358482,14359,1588858986373215322,,-0.0494009157806,-2.69657468577,1.17997601899
1588858986379393453,14360,1588858986379272290,,-0.0496270493898,-2.68768548097,1.17857172771
1588858986385354360,14361,1588858986385254800,,-0.0497204045967,-2.67907191419,1.17706433876
1588858986391283124,14362,1588858986391190837,,-0.0498040835061,-2.67011690448,1.17588152411
1588858986397279910,14363,1588858986397185006,,-0.0499072639607,-2.66136887908,1.17459833335
1588858986403287869,14364,1588858986403157400,,-0.0501070579196,-2.65240132952,1.17324413054
1588858986409279862,14365,1588858986409177835,,-0.0501904701909,-2.64326199413,1.1718699305
1588858986415800708,14366,1588858986415678674,,-0.0502842675816,-2.63461141968,1.17059341654
1588858986421504294,14367,1588858986421356246,,-0.050548884644,-2.63114830174,1.17055376495
1588858986427203489,14368,1588858986427110411,,-0.0506971578624,-2.62198959793,1.16924947486
1588858986433363506,14369,1588858986433245247,,-0.0509663683083,-2.61265643446,1.16777324148
1588858986439371069,14370,1588858986439202754,,-0.0511127484111,-2.60345356248,1.16598088807
1588858986445251498,14371,1588858986445169780,,-0.0511240431595,-2.59451108344,1.16480980704
1588858986451704386,14372,1588858986451579020,,-0.0513487808271,-2.58502958228,1.16334719947
1588858986454630457,14373,1588858986454440697,,-0.0515695479124,-2.58148420895,1.16344946472
1588858986460230820,14374,1588858986460142496,,-0.0516203596906,-2.57216649477,1.16246190901
1588858986466167635,14375,1588858986466048504,,-0.0517137280062,-2.56291604074,1.16085146117
1588858986472172424,14376,1588858986472089431,,-0.0517857542225,-2.5530053276,1.15933844664
1588858986478239290,14377,1588858986478062851,,-0.0520041954265,-2.54362755959,1.15790716443
1588858986484175145,14378,1588858986484096152,,-0.0521820044885,-2.53404482183,1.15663404182
1588858986490417765,14379,1588858986490305194,,-0.0523960143038,-2.52439807252,1.15540138176
1588858986496435269,14380,1588858986496299423,,-0.0525048788676,-2.51477348406,1.15422292832
1588858986502189675,14381,1588858986502116302,,-0.052729761248,-2.50531293696,1.15231487846
1588858986513966708,14382,1588858986513862186,,-0.0530781596456,-2.49235977842,1.15091631831
1588858986520108709,14383,1588858986520034353,,-0.0531238700266,-2.48271673864,1.14952723401
1588858986525971815,14384,1588858986525847412,,-0.0532856830067,-2.47297297666,1.14808234905
1588858986532175005,14385,1588858986532033383,,-0.0534471806291,-2.4632256976,1.14648628118
1588858986538186800,14386,1588858986538084598,,-0.053595864521,-2.45315211658,1.14497646549
1588858986544259627,14387,1588858986544129691,,-0.0537556252974,-2.44322350853,1.14343807952
1588858986550210069,14388,1588858986550121106,,-0.0538600861247,-2.43335533488,1.14206519647
1588858986556215313,14389,1588858986556127440,,-0.0540123301078,-2.42332124635,1.14053143566
1588858986562313913,14390,1588858986562192989,,-0.0542021750638,-2.41342052398,1.13912220666
1588858986574233592,14391,1588858986574169691,,-0.0543843437347,-2.40080368896,1.13743506797
1588858986580280081,14392,1588858986580142290,,-0.0544478905399,-2.39052766928,1.13596683561
1588858986586120445,14393,1588858986586045154,,-0.0544924690502,-2.38044948457,1.13436341504
1588858986592375490,14394,1588858986592271230,,-0.0545181103552,-2.3702390207,1.13291133976
1588858986598496600,14395,1588858986598320037,,-0.0546428145886,-2.36061602034,1.13136532702
1588858986604381706,14396,1588858986604257336,,-0.0547351494589,-2.35039729544,1.12985597904
1588858986610087359,14397,1588858986609991787,,-0.0548956711236,-2.34024387315,1.12798525672
1588858986616228864,14398,1588858986616101388,,-0.0548933944978,-2.32974532575,1.12651761579
1588858986622548718,14399,1588858986622441357,,-0.0549492094623,-2.31939689046,1.12478129305
1588858986634522584,14400,1588858986634166288,,-0.0551099695023,-2.30622042688,1.12325181728
1588858986640324075,14401,1588858986640231688,,-0.0552529170922,-2.29603838908,1.12172144548
1588858986646530408,14402,1588858986646419697,,-0.0553263524093,-2.28554458414,1.12026254496
1588858986652623265,14403,1588858986652483030,,-0.0554960645854,-2.27500124794,1.11855936923
1588858986655699430,14404,1588858986655593204,,-0.0557061220599,-2.26449560685,1.11678910924
1588858986662052526,14405,1588858986661756777,,-0.0556400123577,-2.2611901295,1.11725001738
1588858986667314247,14406,1588858986667213352,,-0.0557568723911,-2.25072664819,1.11579321333
1588858986673464925,14407,1588858986673341955,,-0.0558069040468,-2.24039289015,1.11429703963
1588858986679403490,14408,1588858986679300599,,-0.0560252851492,-2.23002921284,1.11279008719
1588858986685478598,14409,1588858986685383602,,-0.0563528913487,-2.21623853096,1.1111480588
1588858986691494357,14410,1588858986691347542,,-0.0563894821896,-2.20570712211,1.10973258685
1588858986697440153,14411,1588858986697274913,,-0.0567406809513,-2.19179219409,1.10804259879
1588858986703633862,14412,1588858986703508951,,-0.0567733931949,-2.18125488542,1.10656936746
1588858986709208892,14413,1588858986709107463,,-0.0570361517181,-2.16803781832,1.10479573974
1588858986715986674,14414,1588858986715885430,,-0.0570960310883,-2.15805547248,1.10326494808
1588858986727306672,14415,1588858986727203333,,-0.0572842513192,-2.14207035879,1.10210042503
1588858986733245718,14416,1588858986733141505,,-0.0574096882781,-2.12929962496,1.10078569609
1588858986739611181,14417,1588858986739513534,,-0.0573841181897,-2.11945887488,1.09905774652
1588858986745267089,14418,1588858986745165219,,-0.0575380201544,-2.10704067873,1.09741949637
1588858986751732150,14419,1588858986751537272,,-0.0576443691046,-2.09691316232,1.09568118813
1588858986755541530,14420,1588858986755430033,,-0.0578190217734,-2.08475165794,1.09402594499
1588858986760296208,14421,1588858986760181617,,-0.0579444432606,-2.08284467261,1.09397307953
1588858986766610549,14422,1588858986766441866,,-0.0580757315864,-2.07087539136,1.09250676371
1588858986772377376,14423,1588858986772269368,,-0.0581121845254,-2.06123360954,1.0907351683
1588858986778355326,14424,1588858986778243746,,-0.0580782202379,-2.05147577161,1.08902686525
1588858986784221623,14425,1588858986784118389,,-0.0582084568709,-2.03996945668,1.08755391804
1588858986790314133,14426,1588858986790161417,,-0.0583806300481,-2.03096745884,1.0857848237
1588858986796500679,14427,1588858986796354785,,-0.0584448601904,-2.02124885823,1.08444455282
1588858986802600537,14428,1588858986802440644,,-0.0585446903861,-2.0102686357,1.08318743918
1588858986814544931,14429,1588858986814307645,,-0.0587508873472,-1.99503462035,1.081968428
1588858986820255322,14430,1588858986820161883,,-0.0588068362506,-1.98594393616,1.08036459284
1588858986826307078,14431,1588858986826229756,,-0.058904971687,-1.97454725325,1.07877936853
1588858986832306938,14432,1588858986832197612,,-0.058972583711,-1.96521505076,1.07708848847
1588858986838258071,14433,1588858986838173357,,-0.0591237609842,-1.95331259107,1.07583629279
1588858986844447892,14434,1588858986844337684,,-0.0592808353333,-1.94380856278,1.07433743263
1588858986850311244,14435,1588858986850218156,,-0.0594551417566,-1.93141929356,1.07292537712
1588858986856318017,14436,1588858986856216532,,-0.0596172129456,-1.92176892164,1.0715008884
1588858986862527764,14437,1588858986862436398,,-0.0596844133182,-1.90966590982,1.07040352387
1588858986874431928,14438,1588858986874248297,,-0.0599419727848,-1.89475614896,1.06950670346
1588858986880205950,14439,1588858986880121924,,-0.0600012275847,-1.88537457032,1.06808996979
1588858986886258065,14440,1588858986886130292,,-0.0604464030888,-1.87358410642,1.0664799997
1588858986892290730,14441,1588858986892184999,,-0.0607031118217,-1.86429602706,1.06479749684
1588858986898286775,14442,1588858986898210127,,-0.0606155149498,-1.85538677824,1.06358293357
1588858986904476274,14443,1588858986904383908,,-0.0606005215825,-1.84644697567,1.06193827118
1588858986910325202,14444,1588858986910216657,,-0.0607700905368,-1.83511572248,1.06021688015
1588858986916303713,14445,1588858986916157899,,-0.0606368423391,-1.82667764467,1.05910292471
1588858986922439347,14446,1588858986922318997,,-0.0606813525941,-1.81843177603,1.05758997598
1588858986935050219,14447,1588858986934815154,,-0.0607518369539,-1.80287648917,1.05674737422
1588858986940308088,14448,1588858986940197753,,-0.0607804687358,-1.79440565217,1.05532312401
1588858986946305474,14449,1588858986946204837,,-0.0607014941829,-1.78631730221,1.05414896757
1588858986952502090,14450,1588858986952423483,,-0.0605624914288,-1.77634192145,1.05313715724
1588858986958248508,14451,1588858986958159738,,-0.0605182912196,-1.76636523822,1.0522662999
1588858986964331850,14452,1588858986964244847,,-0.0605217637562,-1.75857104119,1.05098835261
1588858986970346294,14453,1588858986970262626,,-0.0605529811836,-1.75097688487,1.04972094805
1588858986976306363,14454,1588858986976218088,,-0.0605075273411,-1.74213609798,1.04879672377
1588858986982369577,14455,1588858986982283049,,-0.0604542677315,-1.73299006353,1.04803904339
1588858986994588249,14456,1588858986994394433,,-0.0604411110269,-1.72432018328,1.04699907433
1588858987000312972,14457,1588858987000185764,,-0.0604550037356,-1.71630625018,1.04600583274
1588858987006375971,14458,1588858987006232177,,-0.0604116871337,-1.70981274811,1.045013658
1588858987012357796,14459,1588858987012262016,,-0.0603169901871,-1.70248426499,1.04400884936
1588858987018297972,14460,1588858987018206699,,-0.0602580718628,-1.69638399512,1.04289880674
1588858987024109642,14461,1588858987024023620,,-0.0600714508821,-1.6892624142,1.0419560474
1588858987030320394,14462,1588858987030252430,,-0.0600385119617,-1.68256571437,1.04107315923
1588858987036296891,14463,1588858987036185506,,-0.0599049760979,-1.67731849043,1.04005134897
1588858987042259695,14464,1588858987042196639,,-0.0598422624769,-1.67183535772,1.03914686167
1588858987048621190,14465,1588858987048543215,,-0.0596920235904,-1.66559672251,1.03837766522
1588858987051582395,14466,1588858987051498579,,-0.0596721471247,-1.66444747468,1.03838363711
1588858987057396367,14467,1588858987057285820,,-0.0595674543451,-1.65771817955,1.03757340378
1588858987063328768,14468,1588858987063224330,,-0.0594167388585,-1.65242530842,1.03675713599
1588858987069317000,14469,1588858987069219560,,-0.0593385267473,-1.64672042955,1.03583042748
1588858987075963710,14470,1588858987075872416,,-0.0592818203978,-1.64167861597,1.03487577411
1588858987087414028,14471,1588858987087299086,,-0.0589129612681,-1.63436588146,1.03435139029
1588858987093366461,14472,1588858987093261947,,-0.0588797485608,-1.62996338485,1.03347293724
1588858987099243207,14473,1588858987099156111,,-0.0587228280315,-1.62374933177,1.03296065755
1588858987105092081,14474,1588858987105006481,,-0.0586839777982,-1.61940758947,1.03229862213
1588858987111400425,14475,1588858987111307373,,-0.0585425095269,-1.61390357117,1.0320847245
1588858987117429637,14476,1588858987117329452,,-0.0585071919493,-1.60977506674,1.03156935306
1588858987123420466,14477,1588858987123329663,,-0.0585439462441,-1.6048164745,1.03101549336
1588858987129534409,14478,1588858987129415572,,-0.0585480226535,-1.60133631457,1.03056424124
1588858987135682782,14479,1588858987135528988,,-0.0584979608516,-1.59687410141,1.03032820032
1588858987147461175,14480,1588858987147326150,,-0.058469680578,-1.59258710451,1.0299657292
1588858987153566838,14481,1588858987153424878,,-0.0584413325271,-1.58861500938,1.02975533768
1588858987159307231,14482,1588858987159220998,,-0.0585590794253,-1.58592913391,1.02915784377
1588858987165349541,14483,1588858987165222878,,-0.0585020402036,-1.58253869039,1.02911998672
1588858987171485138,14484,1588858987171391764,,-0.0585309935036,-1.5800602194,1.02897187617
1588858987177369422,14485,1588858987177283022,,-0.0585135244143,-1.57721985062,1.02898764669
1588858987183594019,14486,1588858987183436519,,-0.0584961603486,-1.5753124916,1.02894574811
1588858987188971880,14487,1588858987188894757,,-0.0584631277188,-1.57326148292,1.02893619857
1588858987195164673,14488,1588858987195029511,,-0.0584546951388,-1.57173998065,1.02899363199
1588858987207904567,14489,1588858987207465486,,-0.0584543608361,-1.56956446924,1.0293106358
1588858987213458155,14490,1588858987213372515,,-0.0584825996701,-1.56828860484,1.02934147909
1588858987219508408,14491,1588858987219414382,,-0.0584242844123,-1.56706426598,1.02973632892
1588858987225402679,14492,1588858987225331451,,-0.0584541272211,-1.56625094916,1.02985146396
1588858987231522127,14493,1588858987231344592,,-0.0584458994589,-1.56500187382,1.0302182305
1588858987237402559,14494,1588858987237327384,,-0.0584207829897,-1.56390055203,1.03046454112
1588858987243571267,14495,1588858987243403435,,-0.058434664748,-1.56198332445,1.03084718919
1588858987249331036,14496,1588858987249253885,,-0.058385528818,-1.56033188052,1.03118914383
1588858987255944612,14497,1588858987255833713,,-0.0583177568053,-1.55794867249,1.03197051577
1588858987267464394,14498,1588858987267337598,,-0.058262293088,-1.55510269405,1.03274847537
1588858987273515019,14499,1588858987273317554,,-0.0582112449767,-1.55324373944,1.03333129794
1588858987279505516,14500,1588858987279328961,,-0.0582326560684,-1.55129270713,1.03377158363
1588858987285372476,14501,1588858987285289332,,-0.0581650007149,-1.54854914378,1.03464696379
1588858987291437998,14502,1588858987291332874,,-0.0581539940315,-1.5459035917,1.03548395082
1588858987297442473,14503,1588858987297338902,,-0.0580244002039,-1.54279332325,1.03645402805
1588858987303511475,14504,1588858987303408729,,-0.0579881261018,-1.53976365372,1.03737261453
1588858987309706687,14505,1588858987309540185,,-0.0579376055144,-1.53641386842,1.03815255226
1588858987327704191,14506,1588858987327436292,,-0.0578632643929,-1.52916399416,1.04011808648
1588858987333357216,14507,1588858987333274974,,-0.0577550506357,-1.52533559521,1.04121230922
1588858987339513579,14508,1588858987339393049,,-0.0577332884983,-1.52171620331,1.04204886255
1588858987345396151,14509,1588858987345307120,,-0.0576330825763,-1.51737020292,1.04319791877
1588858987351802447,14510,1588858987351701965,,-0.0575803914943,-1.51319312142,1.04425083241
1588858987357018178,14511,1588858987356949447,,-0.0574579949385,-1.50840275554,1.04538218346
1588858987363511282,14512,1588858987363386712,,-0.0574044682921,-1.50374988863,1.04654293346
1588858987369261075,14513,1588858987369122290,,-0.0573642636609,-1.49865323927,1.04781311564
1588858987375851823,14514,1588858987375744923,,-0.0573525767577,-1.49364236122,1.0489625082
1588858987387870869,14515,1588858987387528161,,-0.0572080978938,-1.48781346188,1.05048255658
1588858987393453233,14516,1588858987393355701,,-0.05712022245,-1.48232923137,1.05200218396
1588858987399485571,14517,1588858987399383593,,-0.0570872818174,-1.47677682781,1.05326212277
1588858987405377229,14518,1588858987405276443,,-0.0569091470063,-1.47056560066,1.05498073048
1588858987411270161,14519,1588858987411168769,,-0.0569172952064,-1.464486652,1.05651082681
1588858987417417977,14520,1588858987417271877,,-0.0568474002244,-1.45763940625,1.0581757406
1588858987423323930,14521,1588858987423247988,,-0.0568184952623,-1.45101653205,1.05985825074
1588858987429337681,14522,1588858987429248875,,-0.0567878880911,-1.44379400286,1.06150241789
1588858987438376556,14523,1588858987438273623,,-0.0568495550916,-1.43512090907,1.06333573907
1588858987444815446,14524,1588858987444686506,,-0.0567928017672,-1.42790263111,1.06533989063
1588858987450671469,14525,1588858987450501168,,-0.0568446739581,-1.41961297285,1.06735520467
1588858987456313490,14526,1588858987456238483,,-0.0569014953106,-1.41214395599,1.06916567205
1588858987462671286,14527,1588858987462532150,,-0.0569276296909,-1.40382543707,1.07138971642
1588858987474982431,14528,1588858987474646173,,-0.0569046180952,-1.39502200689,1.07364773042
1588858987480497781,14529,1588858987480400055,,-0.056908348886,-1.38724558955,1.07565471816
1588858987486514691,14530,1588858987486373156,,-0.0569022019562,-1.37899414332,1.07780179996
1588858987492480338,14531,1588858987492354307,,-0.0569455787818,-1.37075743268,1.07976298949
1588858987498437835,14532,1588858987498311672,,-0.0569249265749,-1.36251459441,1.08204471206
1588858987505251608,14533,1588858987505166879,,-0.0569870874185,-1.35401993636,1.0841445636
1588858987510374916,14534,1588858987510256397,,-0.0569821331291,-1.34551501553,1.08645318866
1588858987516448198,14535,1588858987516328021,,-0.0570321104431,-1.3368063623,1.08872687263
1588858987522256467,14536,1588858987522182468,,-0.0571142370317,-1.32759566402,1.09124356322
1588858987528595998,14537,1588858987528529427,,-0.0571399796634,-1.31856536951,1.09358923334
1588858987534350874,14538,1588858987534220704,,-0.0572588751941,-1.31802771603,1.09418398144
1588858987540323064,14539,1588858987540219765,,-0.0573412845148,-1.30884209159,1.09655455724
1588858987546349539,14540,1588858987546285620,,-0.0574448821871,-1.29911181856,1.09926238767
1588858987552427455,14541,1588858987552346943,,-0.0575465248587,-1.289614895,1.10181811625
1588858987558290074,14542,1588858987558185470,,-0.057729475183,-1.27956246166,1.1043747394
1588858987564381861,14543,1588858987564283341,,-0.0578634866342,-1.26977715691,1.10681464567
1588858987570303090,14544,1588858987570241063,,-0.0580643456193,-1.25935783602,1.10944830876
1588858987576447454,14545,1588858987576344166,,-0.0581823114945,-1.24930861888,1.1119437571
1588858987582548693,14546,1588858987582486443,,-0.0584160587497,-1.2385004559,1.11455447789
1588858987594674779,14547,1588858987594486434,,-0.0588452634926,-1.22759921813,1.11712324583
1588858987600227055,14548,1588858987600146963,,-0.0589643289285,-1.21689173138,1.11970511426
1588858987606399780,14549,1588858987606256675,,-0.0591979927657,-1.20587072046,1.12248874772
1588858987612367933,14550,1588858987612300934,,-0.0593382244631,-1.19481588201,1.12512441736
1588858987618515153,14551,1588858987618404177,,-0.0596160215236,-1.18341515428,1.12780102985
1588858987624526871,14552,1588858987624404575,,-0.05967960184,-1.17204374267,1.13056593131
1588858987630252022,14553,1588858987630178950,,-0.0597884779273,-1.16061045912,1.13337151316
1588858987636484981,14554,1588858987636331677,,-0.059932358972,-1.14889595078,1.1360202697
1588858987642497530,14555,1588858987642406589,,-0.0600171548082,-1.13720204975,1.13891534949
1588858987650049523,14556,1588858987649900382,,-0.0602031231995,-1.1252754825,1.14163337683
1588858987660570248,14557,1588858987660464678,,-0.0602898567558,-1.11270542981,1.14463546918
1588858987666421085,14558,1588858987666319800,,-0.0603462682716,-1.10055530186,1.14761899107
1588858987672357109,14559,1588858987672252004,,-0.0604012023107,-1.08806403968,1.15064019544
1588858987678589072,14560,1588858987678473778,,-0.0603932379945,-1.07535849397,1.15384047706
1588858987684558625,14561,1588858987684450258,,-0.0604040050708,-1.06259470159,1.15709202342
1588858987690567933,14562,1588858987690434720,,-0.0603773941796,-1.04973017735,1.16037746211
1588858987696451313,14563,1588858987696340877,,-0.0604177889066,-1.03646046447,1.16366176165
1588858987702768927,14564,1588858987702654856,,-0.0604315688626,-1.02318486429,1.16695571854
1588858987714729523,14565,1588858987714460890,,-0.0605248724755,-1.00941720493,1.17047458692
1588858987720400102,14566,1588858987720269938,,-0.060528902122,-0.995888664159,1.17406142543
1588858987726418633,14567,1588858987726299451,,-0.0605591868454,-0.98219949309,1.17739930207
1588858987732598622,14568,1588858987732479843,,-0.0605985070825,-0.968436209591,1.18102033257
1588858987738517092,14569,1588858987738426690,,-0.0606191351401,-0.954726079427,1.18439569449
1588858987744340093,14570,1588858987744256315,,-0.0606070077619,-0.940741187721,1.18807682877
1588858987750412559,14571,1588858987750317072,,-0.060649361007,-0.926719677521,1.19167386622
1588858987756383615,14572,1588858987756285288,,-0.0606663698433,-0.912418002192,1.19514835207
1588858987763108762,14573,1588858987762974605,,-0.0606793894946,-0.898085490626,1.19879352293
1588858987775019056,14574,1588858987774812105,,-0.060711019491,-0.883439959464,1.20250645886
1588858987780444277,14575,1588858987780323474,,-0.0607517603904,-0.868564739058,1.20613491382
1588858987786471732,14576,1588858987786390809,,-0.0607722266018,-0.853915553894,1.20975484511
1588858987792494697,14577,1588858987792347162,,-0.0607821921662,-0.838986689212,1.21337384315
1588858987798506603,14578,1588858987798351395,,-0.0608067554551,-0.824164088096,1.21712955417
1588858987804611889,14579,1588858987804505365,,-0.0607661161994,-0.808730035102,1.22081170837
