%time,field.header.seq,field.header.stamp,field.header.frame_id,field.wrench.force.x,field.wrench.force.y,field.wrench.force.z,field.wrench.torque.x,field.wrench.torque.y,field.wrench.torque.z
1588858984269693331,13937,1588858984269478064,,-0.0871250177103,0.0980976922118,0.0500231138696,0.00507476644352,0.00335843465575,0.00122217204757
1588858984272642758,13938,1588858984272507453,,-0.0855869203669,0.0967209320488,0.0323784911532,0.0044719137946,0.00314226865153,0.0011383290373
1588858984275603634,13939,1588858984275501392,,-0.0683931634285,0.000145637897266,0.0123174667054,0.00315052777143,0.00255509765704,0.000648470710386
1588858984281581961,13940,1588858984281452892,,-0.0683930856069,0.000144341729028,0.012317914061,0.00315048826759,0.00255514496611,0.000648476226076
1588858984284491086,13941,1588858984284403759,,-0.0453730295506,9.4339952254e-05,0.0104167385139,0.00396937904126,0.00318719971015,0.000185171398283
1588858984293568530,13942,1588858984293456154,,-0.0679067995185,0.0953935219128,0.04896980007,0.00516565012381,0.00367146971377,0.000581924839222
1588858984296468995,13943,1588858984296369617,,-0.0855923928057,0.0967148045,0.0323823286371,0.0041976157581,0.0027180409252,0.000758158711604
1588858984299566316,13944,1588858984299404221,,-0.0871292721836,0.0980926599793,0.0500255718251,0.00507461339649,0.00335867941394,0.00122213492612
1588858984305481832,13945,1588858984305385632,,-0.0855928736218,0.0967145906992,0.0323816962909,0.00447172200273,0.00314255357726,0.00113829592209
1588858984308527851,13946,1588858984308398514,,-0.085592048491,0.0967161096272,0.0323793405944,0.00519533331219,0.00339967771807,0.00123804287873
1588858984314733153,13947,1588858984314598570,,-0.105657608637,0.0996386758681,0.0330258493859,0.00518330457385,0.00339110032717,0.00117768523274
1588858984317582192,13948,1588858984317492614,,-0.0844750238283,0.0958122692545,0.0152937882393,0.00388988126073,0.00291336706733,0.00105038049884
1588858984320769730,13949,1588858984320606414,,-0.0663626490111,0.0936639535933,0.0316612608808,0.00456683196722,0.00344541781861,0.000540720287642
1588858984326499596,13950,1588858984326406223,,-0.0663613552294,0.0936646005518,0.0316620587243,0.00456687497383,0.00344536428852,0.000540698144868
1588858984329447538,13951,1588858984329352286,,-0.047256119412,0.0892326911433,0.0148214075359,0.00397076593493,0.00318854886394,0.000234920285004
1588858984335370906,13952,1588858984335278847,,-0.0652390881966,0.0925006692343,0.0150628052945,0.00448107385355,0.00310347570088,0.000525140104121
1588858984338379203,13953,1588858984338286812,,-0.0652413117401,0.0924989988619,0.0150634323058,0.00427656255479,0.00273267188602,0.00050121274473
1588858984341370576,13954,1588858984341294064,,-0.0453730159606,9.66788448465e-05,0.0104167762641,0.00452832147499,0.0031403801359,0.000860823206014
1588858984347758800,13955,1588858984347507667,,-0.0453729752749,9.63700319703e-05,0.0104169563413,0.00377244220479,0.00281820199731,0.000471468687914
1588858984350975471,13956,1588858984350859320,,-0.0712341345618,0.000146598175713,0.0268444113319,0.00519550423389,0.00339941458053,0.00123804815994
1588858984353901816,13957,1588858984353792547,,-0.0712340980942,0.000146825842895,0.0268445068576,0.00519553156758,0.00339936095649,0.00123808069158
1588858984359669105,13958,1588858984359526786,,-0.0889556870919,0.0997995021003,0.0684425435433,0.00640654038431,0.0037540148985,0.000985717057825
1588858984362575452,13959,1588858984362457652,,-0.0453731053462,9.65700076615e-05,0.0104163879233,0.00452831792188,0.00314036100866,0.000860911670567
1588858984365652221,13960,1588858984365509665,,-0.0712345288926,0.000147158798698,0.0268433618476,0.00440118595511,0.00308861602815,0.000794853700794
1588858984368581145,13961,1588858984368479551,,-0.0712345045309,0.000148093687985,0.0268434213551,0.00440120753475,0.00308859968077,0.000794797731817
1588858984374578411,13962,1588858984374473759,,-0.0936811124169,0.000197569449666,0.0291821859784,0.00377148472643,0.002858476815,0.000981609792853
1588858984377524499,13963,1588858984377435577,,-0.0936808978133,0.000196868526709,0.0291828796302,0.0037714719024,0.00285850188956,0.000981586046052
1588858984383591199,13964,1588858984383442840,,-0.0712342904604,0.000147948330434,0.0268439902295,0.00370897984702,0.00280783584051,0.000717078768489
1588858984386560128,13965,1588858984386471897,,-0.0712343664816,0.000147973813709,0.0268437883552,0.00370897505474,0.00280784204834,0.000717079248088
1588858984389518614,13966,1588858984389420369,,-0.0712345537048,0.000147947882046,0.0268432916658,0.00378561858841,0.00286984189376,0.00103391372228
1588858984392495786,13967,1588858984392411795,,-0.0936810304316,0.000196862445064,0.0291824539457,0.00455043637142,0.00320092639971,0.00144123145449
1588858984398602445,13968,1588858984398463509,,-0.0683931559345,0.00014779188806,0.0123174826593,0.00388994094769,0.00291327386037,0.00105041797485
1588858984401512938,13969,1588858984401430143,,-0.0683931279056,0.000147796509798,0.0123176382341,0.00323231896838,0.00262524822583,0.000941415717877
1588858984407674384,13970,1588858984407573954,,-0.0683932816574,0.000148767215662,0.0123167728175,0.0032323476391,0.00262519159256,0.00094147520242
1588858984410542309,13971,1588858984410431759,,-0.0683932562316,0.000149637353125,0.0123169034617,0.00323238548973,0.00262514188011,0.000941483865769
1588858984413728300,13972,1588858984413520700,,-0.0849047153051,-0.0954452390677,0.0152090830582,0.00399154826467,0.00299323546104,0.00139332862475
1588858984416561869,13973,1588858984416467625,,-0.045373169229,9.92476456816e-05,0.0104160844812,0.00403589399022,0.00324885265999,0.000821784709946
1588858984422469168,13974,1588858984422364952,,-0.0453732202131,9.95644845209e-05,0.0104158593645,0.00338658019516,0.00295603172551,0.000742424185972
1588858984425485006,13975,1588858984425359777,,-0.0453731599607,0.000100036269297,0.0104161173104,0.00338662032584,0.00295598489616,0.000742427582099
1588858984431494097,13976,1588858984431278730,,-0.0683934153901,0.000152439022953,0.0123159852959,0.00345081372179,0.00301582633112,0.00100513973337
1588858984434726257,13977,1588858984434635966,,-0.045373206139,0.000100037111836,0.0104159161449,0.00338662268936,0.00295597225935,0.000742467113256
1588858984437558543,13978,1588858984437452734,,-0.0453733058719,9.96309704538e-05,0.0104154855777,0.0033865912746,0.00295599787969,0.000742508401627
1588858984440507656,13979,1588858984440434548,,-0.045373406576,9.9908586027e-05,0.0104150442081,0.00338660345531,0.0029559742005,0.000742547112886
1588858984446687755,13980,1588858984446590467,,-0.0712348013598,0.000151551544584,0.0268426143456,0.00378580983233,0.0028695229226,0.00103409878025
1588858984449996572,13981,1588858984449905955,,-0.0712348388053,0.000151051110834,0.0268425177935,0.00378578867464,0.00286954859983,0.00103410498566
1588858984455613740,13982,1588858984455504980,,-0.0712348624899,0.000151143207558,0.0268424544207,0.00378578991858,0.00286954723067,0.00103410423095
1588858984458546755,13983,1588858984458426102,,-0.0493626226109,0.000101493272087,0.0234467303436,0.00461084072681,0.00348277948408,0.000886320806237
1588858984464616805,13984,1588858984464473842,,-0.0712344627559,0.000149862665499,0.0268435223956,0.00447207211382,0.00314203627176,0.00113834851326
1588858984470605528,13985,1588858984470498631,,-0.045373113021,9.81230353656e-05,0.0104163399786,0.00377257054802,0.00281800267347,0.000471633122598
1588858984473622036,13986,1588858984473514566,,-0.045373075284,9.78122459357e-05,0.0104165072808,0.00377255602341,0.00281802222091,0.000471632507861
1588858984479703614,13987,1588858984479566634,,-0.0453730308752,9.69425150137e-05,0.0104167088487,0.00452837251801,0.00314026377065,0.000860979186548
1588858984482577501,13988,1588858984482483278,,-0.0855859111519,0.0967207204006,0.032381790888,0.00447194830765,0.00314223320965,0.00113829128598
1588858984485562807,13989,1588858984485427030,,-0.0855865017216,0.0967200301053,0.032382291814,0.00447192892673,0.00314224897239,0.00113832391331
1588858984491676603,13990,1588858984491474364,,-0.0453729551048,9.54640975177e-05,0.0104170525372,0.00597120152226,0.00361202674193,0.000625332324426
1588858984494649652,13991,1588858984494527497,,-0.0453729200951,9.49155455829e-05,0.0104172100379,0.00597115880602,0.00361210186814,0.000625306266868
1588858984497568937,13992,1588858984497487518,,-0.0543360549523,0.000100828160547,0.0390287646682,0.00904567051482,0.00477536167877,0.000799610888976
1588858984503637818,13993,1588858984503466140,,-0.0667789869653,-0.0933965979731,0.0315755477229,0.0108544339042,0.00515985965354,0.00138764153536
1588858984506739100,13994,1588858984506483965,,-0.0875557408709,-0.0977632768379,0.0499256626592,0.0140501967355,0.00526794939017,0.00203159539248
1588858984509657153,13995,1588858984509517357,,-0.130077797162,-0.103782221877,0.0706990957131,0.0165543867107,0.00515451098443,0.00376535510225
1588858984515645687,13996,1588858984515475789,,-0.130077003789,-0.103783585385,0.0706985538523,0.0165543077762,0.0051547047735,0.00376543684742
1588858984518612656,13997,1588858984518517275,,-0.100706866027,-0.222985957112,0.0960479463665,0.0235035633561,0.00619743128345,0.00317510206768
1588858984521613910,13998,1588858984521496306,,-0.100709371186,-0.222985473858,0.0960464415726,0.0235035736291,0.00619726317088,0.00317535414408
1588858984530624897,13999,1588858984530500135,,-0.103583236467,-0.226981431812,0.157600807537,0.0303451565728,0.00763981521317,0.00418905580218
1588858984533693048,14000,1588858984533575541,,-0.1045909964,-0.228402655391,0.178622443465,0.032910851634,0.00777343175435,0.00430153995052
1588858984539489153,14001,1588858984539420918,,-0.105599933668,-0.229817479875,0.19989184151,0.0345334930912,0.00731349344311,0.00436555937422
1588858984542535430,14002,1588858984542452021,,-0.127349835351,-0.231827210645,0.221657706617,0.0398373123202,0.00752059412885,0.00593325479519
1588858984548557262,14003,1588858984548462719,,-0.129468304322,-0.234353853199,0.265270395862,0.0504737607457,0.00838798297785,0.0071171663132
1588858984551601351,14004,1588858984551505403,,-0.129466040643,-0.234352014146,0.265273125363,0.0504737954505,0.00838812799399,0.00711674926861
1588858984554714566,14005,1588858984554631971,,-0.132809081507,-0.359947641694,0.271511636091,0.0513755331136,0.00840671449108,0.00637480481537
1588858984557417045,14006,1588858984557317347,,-0.111537671035,-0.35955628893,0.271566800522,0.0550252712431,0.00848510747404,0.00584182373712
1588858984563496356,14007,1588858984563310480,,-0.112239892978,-0.360591546474,0.293445738792,0.0576117182825,0.00853669842886,0.00592071227995
1588858984566408740,14008,1588858984566303738,,-0.133558351001,-0.360948615554,0.293389360902,0.0603369176843,0.00858910486532,0.00666574940388
1588858984569421099,14009,1588858984569345331,,-0.13048970921,-0.235535057585,0.287288448882,0.0603261607758,0.00800196403563,0.00587212345142
1588858984575689456,14010,1588858984575553416,,-0.133555982714,-0.360950989067,0.293387518916,0.0612428007087,0.00801686275872,0.00589880058087
1588858984578681130,14011,1588858984578560850,,-0.133553659883,-0.360954026397,0.29338483949,0.0639834447415,0.00805917970176,0.00597673784364
1588858984584783745,14012,1588858984584673603,,-0.133552153356,-0.360959117579,0.293379261457,0.0639833268862,0.00805971885664,0.00597727247393
1588858984590736739,14013,1588858984590590595,,-0.135039368598,-0.36295552901,0.337528955074,0.0691849373465,0.00813079585211,0.00450835213533
1588858984596587658,14014,1588858984596502824,,-0.135038945864,-0.362954397593,0.337530340846,0.0691848556556,0.00813128865075,0.00450871695662
1588858984599609529,14015,1588858984599528109,,-0.137298034404,-0.491105553491,0.342432809407,0.0728370062942,0.00817476709254,0.00459566428069
1588858984602650990,14016,1588858984602542350,,-0.137303021491,-0.49110279367,0.342434767829,0.0728369355395,0.00817482344206,0.00459668532737
1588858984608678809,14017,1588858984608513161,,-0.13791502341,-0.491901574725,0.364561970356,0.0745128394389,0.00760136320873,0.00463533596508
1588858984611650680,14018,1588858984611539743,,-0.140253542091,-0.622303311586,0.390714912764,0.0770976643822,0.00762534841683,0.00551189243869
1588858984614577588,14019,1588858984614479600,,-0.140263927436,-0.622296076598,0.390722707872,0.0770976010946,0.00762504927312,0.00551319135954
1588858984620793408,14020,1588858984620599967,,-0.161811725158,-0.621835834818,0.368259330891,0.0781494471134,0.00763281692664,0.0062281661101
1588858984623671354,14021,1588858984623553649,,-0.162942757694,-0.623106947413,0.412839971002,0.0833419409446,0.007675076248,0.00635628965242
1588858984626585006,14022,1588858984626493844,,-0.162941771686,-0.623106988274,0.412840298494,0.0833418373382,0.00767566614254,0.00635693576616
1588858984632660766,14023,1588858984632539214,,-0.162961144738,-0.623103044714,0.412838603852,0.0833412573501,0.00827343050933,0.00718140617467
1588858984635678565,14024,1588858984635554548,,-0.163528716933,-0.623747589522,0.435146679913,0.0859439211008,0.00890493612675,0.00724830950852
1588858984638677653,14025,1588858984638497350,,-0.141410429746,-0.623586698447,0.435397717518,0.086870121536,0.00891189362732,0.00657535092383
1588858984650975898,14026,1588858984650811800,,-0.163062675753,-0.495960633239,0.476079909601,0.0929623511428,0.00834374452354,0.00742044097989
1588858984654230255,14027,1588858984654011519,,-0.163056437567,-0.495965390537,0.476077090218,0.092962277985,0.00834468270923,0.00742030250882
1588858984656697879,14028,1588858984656487864,,-0.163697731787,-0.496703745242,0.498659609068,0.0964985970165,0.00898318223792,0.00583644169931
1588858984659684900,14029,1588858984659580466,,-0.141058332829,-0.495784812845,0.476269566231,0.0975681964622,0.00837187574109,0.00515568068336
1588858984662522337,14030,1588858984662426098,,-0.16370707854,-0.496696422274,0.498663834843,0.0983229270734,0.00776724819592,0.00587656744317
1588858984668636479,14031,1588858984668541440,,-0.143063400281,-0.625544748282,0.502700251464,0.100167962218,0.00838501159778,0.00521035193208
1588858984674844126,14032,1588858984674753303,,-0.143593386961,-0.626196175341,0.525185798932,0.102764406674,0.00839979863052,0.00526358888762
1588858984677595217,14033,1588858984677454123,,-0.143596461694,-0.626193503326,0.525188144166,0.102764658226,0.00839782024419,0.00526183418985
1588858984680580761,14034,1588858984680497910,,-0.16522395422,-0.625674545425,0.502454904287,0.102914475311,0.00778857180366,0.00429214942482
1588858984683634557,14035,1588858984683512050,,-0.165216290093,-0.625670760526,0.502462137473,0.104753057568,0.00779755198832,0.00432849558853
1588858984686531486,14036,1588858984686422344,,-0.16521927105,-0.625667646767,0.502465034551,0.104753227326,0.0077960051189,0.00432717343825
1588858984692552661,14037,1588858984692419750,,-0.143576414626,-0.62618651916,0.525201952182,0.105533087544,0.00779964032136,0.00363416103847
1588858984695555014,14038,1588858984695449721,,-0.143562446953,-0.626193867356,0.525197009227,0.10736180439,0.00780832239371,0.00366838957428
1588858984698474076,14039,1588858984698400273,,-0.143556310841,-0.626193798559,0.52519876852,0.108271224603,0.00781211957688,0.00368497954725
1588858984704548118,14040,1588858984704469134,,-0.144105081018,-0.626830644959,0.547728832947,0.109054192583,0.00781448783365,0.002847842619
1588858984710534728,14041,1588858984710454544,,-0.144087507666,-0.626832770849,0.547731023223,0.111797324406,0.0072004534964,0.00289568755307
1588858984716579729,14042,1588858984716469323,,-0.144087276742,-0.626827833564,0.547736734232,0.112737138295,0.00782735915332,0.00206661117662
1588858984719592576,14043,1588858984719487493,,-0.144630783226,-0.627455218163,0.570308276435,0.11625473826,0.00721161198807,0.00128128549796
1588858984725668498,14044,1588858984725575882,,-0.144622309416,-0.62745109478,0.570314961846,0.117174292201,0.00721458328876,0.00129606532907
1588858984728668542,14045,1588858984728506664,,-0.144622948314,-0.627451961362,0.570313846431,0.119019503556,0.00721974178019,0.000479496452515
1588858984731668309,14046,1588858984731553501,,-0.144624973043,-0.627453570772,0.570311562328,0.119019603016,0.00721818445132,0.000478253149369
1588858984737654336,14047,1588858984737546887,,-0.146266148775,-0.757872813076,0.596245257912,0.120715853603,0.00785032484188,0.000507773621354
1588858984740600922,14048,1588858984740504668,,-0.146267273851,-0.757873870904,0.596243637334,0.122561674195,0.00785563392314,-0.000320889451237
1588858984749609379,14049,1588858984749510257,,-0.146770888711,-0.758427469843,0.618840535062,0.12426953608,0.0072320881537,-0.00199552854119
1588858984752908319,14050,1588858984752690123,,-0.146762649813,-0.758420765316,0.618850705727,0.124269448819,0.00723363603559,-0.00199535224143
1588858984755671013,14051,1588858984755591071,,-0.123987185524,-0.757815200541,0.596555757146,0.122629654158,0.00786025253921,-0.00359400340455
1588858984758487906,14052,1588858984758410515,,-0.1020797826,-0.758348775035,0.61947192112,0.124323160075,0.00786871713162,-0.00428736898384
1588858984761526301,14053,1588858984761435143,,-0.102077666973,-0.758354187082,0.619465644334,0.12431854826,0.00723996699347,-0.00428682335284
1588858984764608044,14054,1588858984764516870,,-0.102555692781,-0.758901517981,0.642106107713,0.125087056618,0.00724106152728,-0.00427586299909
1588858984770603048,14055,1588858984770498457,,-0.102549251767,-0.758907883955,0.642099612452,0.125106135428,0.00724343265577,-0.00512703954752
1588858984773582896,14056,1588858984773485571,,-0.102539611067,-0.758916914818,0.642090478237,0.126939408537,0.00787964556139,-0.00510153121021
1588858984776491379,14057,1588858984776390271,,-0.125777742973,-0.889401341328,0.644588455728,0.126938039888,0.00724760853206,-0.00523676056483
1588858984779546688,14058,1588858984779453409,,-0.103757489622,-0.889865302901,0.667580113506,0.127703537848,0.00724890093715,-0.00509047987519
1588858984785567229,14059,1588858984785452719,,-0.103021163936,-0.759465548559,0.664751475277,0.128618817084,0.00662098997219,-0.00507729171095
1588858984788698601,14060,1588858984788573766,,-0.10302752124,-0.759452432429,0.664765474656,0.128642456794,0.00725082004915,-0.00593194155362
1588858984794635191,14061,1588858984794535909,,-0.103506168285,-0.760000053089,0.687548752646,0.129414214733,0.00725106046359,-0.00592241742471
1588858984797753350,14062,1588858984797543116,,-0.103504147007,-0.760005248394,0.687543314127,0.129414187407,0.00725290964468,-0.00592074998179
1588858984800722085,14063,1588858984800464182,,-0.103034151915,-0.759455113677,0.664761383805,0.130471410419,0.00725404201625,-0.00590616292323
1588858984803595534,14064,1588858984803494150,,-0.103038411846,-0.759449609697,0.66476701149,0.130471449128,0.0072537725718,-0.00590563872442
1588858984809475535,14065,1588858984809407541,,-0.10304317235,-0.759449483289,0.66476641801,0.130471490793,0.00725393021946,-0.00590452448827
1588858984812498834,14066,1588858984812410540,,-0.0807297475758,-0.759437415314,0.665113616597,0.1314073901,0.00725583556036,-0.00661191255213
1588858984818675893,14067,1588858984818519529,,-0.103764420229,-0.889856861469,0.66759028835,0.132304561421,0.00789045870343,-0.00588036377581
1588858984821599755,14068,1588858984821533754,,-0.103775703466,-0.889855850498,0.667589882048,0.133219897968,0.0072588729967,-0.00586653252435
1588858984824628934,14069,1588858984824569882,,-0.103754953642,-0.889851021603,0.66759954378,0.133243556318,0.00789528138342,-0.0067224761507
1588858984833682597,14070,1588858984833532472,,-0.104201362106,-0.890347326855,0.69035410724,0.134920429527,0.00726779897134,-0.00669968455478
1588858984836604053,14071,1588858984836523025,,-0.104202369011,-0.890347581106,0.690353627351,0.134920437173,0.00726759406516,-0.00669975286219
1588858984842541235,14072,1588858984842438531,,-0.081796346677,-0.890339885699,0.690720094195,0.134937206496,0.00726741760619,-0.00741879110656
1588858984848599847,14073,1588858984848467089,,-0.0819187702491,-1.02083203725,0.670448890493,0.135105268464,0.00727064331275,-0.00828343929232
1588858984851867403,14074,1588858984851686825,,-0.0817837131845,-0.890341064397,0.690720070815,0.136806921379,0.0072734204146,-0.00911945210948
1588858984855008832,14075,1588858984854916713,,-0.0817614625833,-0.89034489115,0.690717772291,0.137772134422,0.00791235687393,-0.0108263797182
1588858984857667819,14076,1588858984857572507,,-0.0822239622638,-0.890827671149,0.713409002785,0.138536518674,0.0072767945193,-0.0108174863196
1588858984860586331,14077,1588858984860469605,,-0.0822303181489,-0.890823279451,0.713413754054,0.138536582923,0.00727602011612,-0.0108171844074
1588858984866534763,14078,1588858984866415165,,-0.0822225665272,-0.890829774205,0.713406537573,0.138536524575,0.0072774227894,-0.0108169880868
1588858984869502911,14079,1588858984869425724,,-0.0601970675272,-1.02170903,0.716282761142,0.140379237858,0.00664466653781,-0.0115216963911
1588858984872508012,14080,1588858984872420526,,-0.0602079770955,-1.02170931924,0.716281431638,0.140379342598,0.00664366385207,-0.0115209984343
1588858984878645969,14081,1588858984878562557,,-0.0822212504852,-0.890838689389,0.713395556732,0.140357759538,0.00601839401046,-0.0107970831499
1588858984881501674,14082,1588858984881419714,,-0.0822059427593,-0.8908436667,0.713391105484,0.140357645553,0.00602066317183,-0.0107972998128
1588858984890644025,14083,1588858984890538608,,-0.083752040507,-1.15338695266,0.740765704283,0.140220053296,0.00664484133215,-0.0108003245152
1588858984896545941,14084,1588858984896441661,,-0.083764831429,-1.15338725697,0.740763784179,0.142048622127,0.00664432037809,-0.0107798914569
1588858984899500204,14085,1588858984899409316,,-0.0837759224299,-1.15338453546,0.74076676739,0.142048724275,0.00664345793924,-0.0107790769341
1588858984902524208,14086,1588858984902413658,,-0.0842216108751,-1.15376166468,0.763497198992,0.142817114939,0.00664272883327,-0.010769643953
1588858984905571415,14087,1588858984905419492,,-0.0615470958292,-1.15378321893,0.76388969367,0.142835008849,0.00664215595367,-0.0114955789409
1588858984908444855,14088,1588858984908363802,,-0.083255036486,-1.02213631293,0.738579558,0.142979588055,0.00664237952112,-0.0116384132486
1588858984914591570,14089,1588858984914494586,,-0.0838316852586,-1.1533729948,0.740778427668,0.144833404834,0.0072763393661,-0.0124778619154
1588858984917406507,14090,1588858984917303370,,-0.0838556475101,-1.1533650898,0.740788023327,0.144833570962,0.00727340338495,-0.0124776453609
1588858984920432086,14091,1588858984920343301,,-0.0828724307446,-1.0216881085,0.71589495178,0.144061795627,0.00663703091604,-0.0124853300869
1588858984929646588,14092,1588858984929543408,,-0.0832908429483,-1.02212543221,0.738590578805,0.145749086241,0.00664141646034,-0.0124658949765
1588858984932637896,14093,1588858984932505238,,-0.0838420649214,-1.15336998776,0.740781934835,0.14485176859,0.00664033590421,-0.0133375943937
1588858984935703201,14094,1588858984935604746,,-0.0615833323705,-1.15378363173,0.763886149699,0.145638478918,0.00664319694561,-0.0140553193123
1588858984938665500,14095,1588858984938583265,,-0.0611088424811,-1.02258222299,0.76168850477,0.146535627763,0.00664491735423,-0.0131819961588
1588858984941585133,14096,1588858984941511791,,-0.0610919385527,-1.02259052331,0.7616787173,0.146535540602,0.00664776476519,-0.0131815294011
1588858984948126053,14097,1588858984948045222,,-0.0610781729032,-1.02259897805,0.761668470259,0.147476543328,0.00665127347023,-0.014033320896
1588858984951051906,14098,1588858984950972560,,-0.0610766721126,-1.02260796848,0.76165652011,0.14747662369,0.00665273608987,-0.0140317829838
1588858984954008674,14099,1588858984953895681,,-0.0610725626877,-1.02261729031,0.761644333901,0.147476546561,0.00665289078823,-0.0140325202517
1588858984956686129,14100,1588858984956538149,,-0.0389452226095,-1.15384815321,0.764240471041,0.148426816964,0.0066550287336,-0.0156201190097
1588858984962686851,14101,1588858984962568170,,-0.0614963175124,-1.02304842802,0.784484666553,0.15012084087,0.00665686275122,-0.0157403777119
1588858984965702142,14102,1588858984965532424,,-0.0389641736737,-1.02307509174,0.784884591822,0.151048661517,0.0066580060027,-0.016457267423
1588858984968626304,14103,1588858984968518177,,-0.0389751394684,-1.02307103793,0.784889331378,0.151094641057,0.00665677757517,-0.0181865733908
1588858984974604918,14104,1588858984974511150,,-0.038968460283,-1.02307496232,0.784884547705,0.151987121454,0.0060281853697,-0.0173139781723
1588858984977664950,14105,1588858984977521275,,-0.0385545027154,-1.02263371121,0.76205719255,0.153090194915,0.00602783487344,-0.0190430110278
1588858984980607901,14106,1588858984980533789,,-0.0841253704451,-1.02300235998,0.784132914898,0.153842366235,0.00538700539292,-0.0184471062969
1588858984986678372,14107,1588858984986548629,,-0.084130413697,-1.02300009154,0.784135333282,0.15384242403,0.00538645733437,-0.0184467843419
1588858984989545428,14108,1588858984989459978,,-0.039415032065,-1.02348498873,0.807666162538,0.154655737,0.00665406045766,-0.0198958006773
1588858984995599343,14109,1588858984995505710,,-0.039826847244,-1.15459617541,0.809864800192,0.154629314267,0.00602225013404,-0.0190298299135
1588858984998539932,14110,1588858984998468166,,-0.039411642942,-1.15419890667,0.787128127812,0.155689032651,0.00602135196876,-0.0190200547681
1588858985001678486,14111,1588858985001592107,,-0.0394197895427,-1.15420072231,0.787125057512,0.155689245496,0.0060215090653,-0.0190182626984
1588858985010717340,14112,1588858985010639326,,-0.0398416764494,-1.15458205859,0.809884196299,0.156460368163,0.00665179286126,-0.0190098673962
1588858985013550328,14113,1588858985013469935,,-0.039852154863,-1.154582305,0.809883329466,0.156437203021,0.00664991078818,-0.0181342754416
1588858985019714962,14114,1588858985019546658,,-0.0398374158526,-1.15457843658,0.809889569458,0.156437196595,0.00665244559282,-0.0181334011518
1588858985022727741,14115,1588858985022616683,,-0.0398249144284,-1.15458093642,0.809886620497,0.156457300979,0.00602480288917,-0.0190086777358
1588858985025697536,14116,1588858985025603271,,-0.0398278177241,-1.15458386466,0.809882303191,0.15645731693,0.00602448645667,-0.0190086467374
1588858985031661314,14117,1588858985031564131,,-0.0393996723448,-1.15419128344,0.787139905224,0.156631334005,0.00602529487725,-0.0198745462303
1588858985034600989,14118,1588858985034504177,,-0.0394190939627,-1.02346668055,0.807689164125,0.157399244216,0.0060261859317,-0.0198666892442
1588858985037743698,14119,1588858985037603019,,-0.0394224140983,-1.02346607813,0.807689765442,0.157399199012,0.00602513469977,-0.0198673662115
1588858985043716234,14120,1588858985043589592,,-0.0398212922889,-1.15458025348,0.809887772205,0.158307912243,0.00602432437754,-0.0198595997883
1588858985049804866,14121,1588858985049704055,,-0.0176110790802,-1.15502089043,0.833047666996,0.159095362825,0.00602956074593,-0.0205785926276
1588858985052880897,14122,1588858985052708003,,-0.0398316039579,-1.02388588757,0.830473934543,0.160950406204,0.00602796440441,-0.0215778526527
1588858985055621426,14123,1588858985055519814,,-0.0402005965667,-1.15496128838,0.83266388602,0.160041470497,0.00603090319539,-0.0215872210472
1588858985058662387,14124,1588858985058566107,,-0.0175894765472,-1.15501148317,0.833061166423,0.160970030452,0.00603279026977,-0.0223069383229
1588858985064676503,14125,1588858985064555536,,-0.0175888092114,-1.15501433678,0.833057224059,0.16099405548,0.0060341550416,-0.0231739596675
1588858985068168295,14126,1588858985068061879,,-0.0401813722086,-1.15497087918,0.832651510698,0.161889491254,0.00539306462472,-0.0224388602775
1588858985070551674,14127,1588858985070453077,,-0.0401719670135,-1.15496392243,0.832661614137,0.161889333007,0.00539347216491,-0.0224399040072
1588858985076749118,14128,1588858985076662999,,-0.0405835743575,-1.15534699545,0.855547371733,0.162662962883,0.00603397616646,-0.0224348531272
1588858985082693353,14129,1588858985082617180,,-0.0179896024482,-1.15539393479,0.855948058663,0.163591542812,0.00603165205799,-0.0231562072709
1588858985085603893,14130,1588858985085514967,,-0.017983788789,-1.15539123138,0.855951829998,0.163591622191,0.00603310918365,-0.0231552668722
1588858985088668368,14131,1588858985088513991,,-0.0179892138094,-1.15538542884,0.855959548392,0.163588758644,0.00539051469413,-0.0231559501926
1588858985091698490,14132,1588858985091599293,,-0.0175808543645,-1.15499268565,0.833087409933,0.162817789728,0.00539016393413,-0.0231625622757
1588858985094894741,14133,1588858985094794115,,-0.0409788970219,-1.28671190633,0.857524136521,0.164511255449,0.00539077177752,-0.0232867336688
1588858985103695930,14134,1588858985103621393,,-0.0405574868236,-1.28636630485,0.834639015773,0.164685574105,0.00603343768902,-0.0241538815615
1588858985106661790,14135,1588858985106553836,,-0.0405458279413,-1.28635874351,0.834651235834,0.164685431571,0.00603424036151,-0.0241546528574
1588858985109503739,14136,1588858985109397509,,-0.0183042794111,-1.28675065039,0.857940410481,0.165476811377,0.00603528705813,-0.0248758883939
1588858985112477045,14137,1588858985112394934,,-0.0182792345592,-1.28675469597,0.857934876807,0.165476647024,0.0060383676794,-0.0248762340861
1588858985115574359,14138,1588858985115433215,,-0.0186881087831,-1.28709947931,0.880734722098,0.167129156484,0.00603922550185,-0.0239897768829
1588858985118592972,14139,1588858985118494338,,-0.018690408102,-1.28710678909,0.88072399074,0.167129059792,0.00603850987254,-0.0239906306268
1588858985124837699,14140,1588858985124691536,,-0.0179226866012,-1.15539451893,0.855948673931,0.166384919196,0.00604303573186,-0.0248687512689
1588858985133798725,14141,1588858985133680897,,-0.0182379428842,-1.28676799836,0.857915803959,0.167325462275,0.00540394302625,-0.0257371456846
1588858985136835707,14142,1588858985136664413,,-0.0182552560118,-1.28677683185,0.857902186439,0.167325914392,0.00540387018271,-0.0257342214506
1588858985139800173,14143,1588858985139686722,,-0.0186617063297,-1.28711743266,0.880709044478,0.168093615476,0.00540472655987,-0.0257268018799
1588858985142600950,14144,1588858985142511830,,-0.0183498732656,-1.15578034557,0.878743669288,0.168118111941,0.0054053840052,-0.0265959343246
1588858985151926811,14145,1588858985151822195,,-0.018361163311,-1.1557709693,0.878755765601,0.168117979379,0.00540241335946,-0.026597375827
1588858985155057378,14146,1588858985154920849,,-0.01837364864,-1.15577529122,0.878749820266,0.169004915663,0.0060422215814,-0.0257191558246
1588858985160905452,14147,1588858985160616297,,-0.0187954542773,-1.1561588156,0.901560475079,0.168839908298,0.00604092194041,-0.0248398627258
1588858985163761544,14148,1588858985163638962,,-0.0188229376425,-1.15615462283,0.901565278468,0.168816288094,0.00603634919642,-0.0239695295041
1588858985169860620,14149,1588858985169650737,,-0.018841771086,-1.15615187159,0.901568413205,0.168816453493,0.00603399134436,-0.0239689582728
1588858985172708991,14150,1588858985172546698,,-0.0187453765091,-1.28711079916,0.880716962087,0.167082890054,0.00603433083552,-0.0222455758894
1588858985178840771,14151,1588858985178736171,,-0.0187781375325,-1.28710488895,0.88072490151,0.167083063513,0.00603006616767,-0.0222454294852
1588858985184764726,14152,1588858985184628359,,-0.0414502114158,-1.28706434152,0.880310047251,0.166154743816,0.00602936972591,-0.0215248888731
1588858985190679317,14153,1588858985190551720,,-0.018767694837,-1.28711698617,0.880707444789,0.166174102552,0.0060309056931,-0.022255530715
1588858985196714334,14154,1588858985196624112,,-0.0184486329275,-1.15577539478,0.878748113015,0.167080205995,0.00538798471475,-0.0222461235806
1588858985202714491,14155,1588858985202612451,,-0.0414451505546,-1.28706773057,0.880305330518,0.167060638809,0.00538726292649,-0.021517085374
1588858985208713259,14156,1588858985208628315,,-0.0414550584634,-1.28707209805,0.880298478403,0.167060644429,0.00538586316071,-0.0215173921491
1588858985214695800,14157,1588858985214586634,,-0.0418696399221,-1.28741117583,0.903119490846,0.16784905495,0.00474408769032,-0.0223798449737
1588858985220957262,14158,1588858985220667325,,-0.0192014083552,-1.28746490105,0.903515445183,0.167871591813,0.00538735609681,-0.0231076260215
1588858985226680389,14159,1588858985226564284,,-0.041874558108,-1.28742170932,0.903104246971,0.169702847488,0.00538731255867,-0.0232295150603
1588858985232711817,14160,1588858985232607436,,-0.0191968059777,-1.28746797166,0.903511167506,0.170688714906,0.00538713597383,-0.0257045894738
1588858985238741759,14161,1588858985238602072,,-0.0191914330405,-1.2874648299,0.903515758517,0.170664318595,0.00538575978214,-0.0248264049066
1588858985244750767,14162,1588858985244665633,,-0.0418728829311,-1.28741467846,0.903114347408,0.170644631951,0.00538517047769,-0.024094547851
1588858985251203554,14163,1588858985251054418,,-0.0191770986899,-1.28746888619,0.903510282835,0.170688697577,0.00539012122894,-0.0257040787262
1588858985253994301,14164,1588858985253893181,,-0.0192078547052,-1.28746240005,0.903518871952,0.171597650288,0.00538684135663,-0.0256938807173
1588858985259693500,14165,1588858985259602243,,0.00305578528875,-1.28787013331,0.926745316234,0.172410032769,0.0053891705205,-0.0272866150531
1588858985265707934,14166,1588858985265580032,,-0.0195950965121,-1.28783002618,0.92631243325,0.17326583901,0.00666951286746,-0.0247931132326
1588858985271837669,14167,1588858985271728219,,-0.0196025562638,-1.28783681051,0.926302843244,0.173265740374,0.00666784099255,-0.0247942522049
1588858985277682498,14168,1588858985277590209,,0.0030969956219,-1.2878973754,0.926707320745,0.173306922941,0.00603806235773,-0.0264062919012
1588858985283637278,14169,1588858985283525868,,0.00266977016995,-1.28824291421,0.949643604282,0.175020623772,0.00603648223326,-0.0272617586187
1588858985289695681,14170,1588858985289596944,,0.0026666897594,-1.28823501624,0.949654326867,0.175020706439,0.00603622290395,-0.0272612853113
1588858985292681046,14171,1588858985292562930,,0.00263595857242,-1.28822680101,0.949665556767,0.175020839701,0.00603174964484,-0.0272614198607
1588858985295773197,14172,1588858985295646981,,0.0027480849461,-1.41942381497,0.928498081193,0.175158350057,0.00602914462933,-0.0272611489595
1588858985301689809,14173,1588858985301597239,,0.00234438050039,-1.41974508272,0.951424497486,0.175929011922,0.00602855628443,-0.0272560160537
1588858985313727223,14174,1588858985313542953,,0.00230485345121,-1.4197395605,0.951432834438,0.176869159733,0.00538018906537,-0.028119529533
1588858985319725955,14175,1588858985319600292,,-0.0204414950396,-1.41967708296,0.95102960022,0.176848899983,0.00537691321424,-0.0273881923077
1588858985322709133,14176,1588858985322633265,,-0.0207660290459,-1.55141998728,0.952613107439,0.176872731161,0.00537767207928,-0.0282621466806
1588858985325754734,14177,1588858985325605822,,-0.0207745896894,-1.55141625307,0.952619002267,0.176872514322,0.00537551993405,-0.0282639130891
1588858985328670610,14178,1588858985328572584,,-0.0207897434347,-1.55140364839,0.952639199107,0.176872688175,0.00537395047682,-0.0282631235785
1588858985331650052,14179,1588858985331558055,,0.0015956380995,-1.55178355782,0.975843934918,0.179489993947,0.00602097699564,-0.0289726366661
1588858985337756909,14180,1588858985337659304,,0.00158000476402,-1.55175977586,0.97588177732,0.179489889071,0.00601772022572,-0.0289739629825
1588858985343689511,14181,1588858985343585956,,0.0018576306527,-1.42006765887,0.9742603482,0.179514740258,0.00601801884512,-0.0298546462478
1588858985349793237,14182,1588858985349704859,,0.0243589500957,-1.55184422256,0.976263981277,0.180440891503,0.00537629680446,-0.0305797318675
1588858985352803645,14183,1588858985352725005,,0.0243786620135,-1.551836219,0.976276211381,0.180441162995,0.00537977221071,-0.0305775185897
1588858985358804925,14184,1588858985358661659,,0.00161361664756,-1.55179590799,0.975824265885,0.180423447872,0.00602648612397,-0.0298429557817
1588858985364720644,14185,1588858985364629964,,0.0246605425175,-1.42015401077,0.97464332696,0.17953279787,0.00538526898676,-0.030584629554
1588858985370771984,14186,1588858985370570893,,0.0244313012781,-1.55187079754,0.976219929092,0.180443809372,0.00603280435688,-0.0305756238145
1588858985376748868,14187,1588858985376648091,,0.0244295825329,-1.55187200162,0.976218058004,0.180441292323,0.00538812166311,-0.0305752851946
1588858985379828182,14188,1588858985379711877,,0.0240552651544,-1.55216493746,0.999070697123,0.182178190633,0.00603550695612,-0.0323116344475
1588858985382852361,14189,1588858985382738307,,0.0236517513426,-1.55246768826,1.02191917993,0.182970617767,0.00603659457336,-0.0331889740663
1588858985385778804,14190,1588858985385660034,,0.0236251587595,-1.55244927085,1.02194777364,0.182970788792,0.00603312918876,-0.0331886613257
1588858985388789275,14191,1588858985388677511,,0.0240127467505,-1.55213994509,0.999110547209,0.182203576891,0.00603102955977,-0.0331946688815
1588858985391835239,14192,1588858985391744887,,0.0244339914796,-1.55186069021,0.976235928919,0.182352020611,0.00538898897898,-0.0331917906821
1588858985397785651,14193,1588858985397649756,,0.0244370532748,-1.55184474224,0.976261203319,0.182351547741,0.00538702088326,-0.0331947079227
1588858985403820630,14194,1588858985403721431,,0.00124910933534,-1.55207094193,0.998705051981,0.182157558101,0.00603033984066,-0.0315785607529
1588858985406754147,14195,1588858985406652767,,0.0012606653617,-1.55208333683,0.998685774491,0.182157425719,0.00603171805786,-0.0315790611632
1588858985409772401,14196,1588858985409671278,,0.00169357542467,-1.55179896526,0.975819268568,0.181362809387,0.00538928135273,-0.0307117944176
1588858985415794538,14197,1588858985415702635,,0.00167313603418,-1.5517959383,0.975824117451,0.181362813537,0.00538651761375,-0.0307122547627
1588858985418750578,14198,1588858985418652787,,0.00167411798255,-1.55179306451,0.975828685767,0.181389776889,0.00603179572943,-0.0315867938131
1588858985424758811,14199,1588858985424663187,,0.00168299149865,-1.55179732193,0.97582190018,0.181389691117,0.00603276056914,-0.0315871021072
1588858985430822504,14200,1588858985430735116,,0.000954467346216,-1.68394511601,1.000134276,0.18210864335,0.006027626214,-0.0298322428145
1588858985436822904,14201,1588858985436712485,,0.0237671620893,-1.68398512596,1.00058565071,0.183068753583,0.00538112042032,-0.0314343627295
1588858985442795117,14202,1588858985442617451,,0.000943174855194,-1.68391895857,1.00017832718,0.183072530801,0.00537925813567,-0.031576014432
1588858985448726777,14203,1588858985448620984,,0.000526097096861,-1.6841856167,1.02304797691,0.183867540184,0.00602477878502,-0.0324521997995
1588858985451952746,14204,1588858985451847468,,0.000812934463967,-1.55234120042,1.02160199195,0.185716237109,0.00537823515349,-0.0333107644755
1588858985455032212,14205,1588858985454902878,,0.0235856759327,-1.5524064963,1.02201366179,0.185739786546,0.00602442286305,-0.0340438180784
1588858985457776857,14206,1588858985457658978,,0.0233211537101,-1.68422061234,1.02350755692,0.184822009739,0.00602498421384,-0.0340494386434
1588858985460986368,14207,1588858985460675164,,0.0229142001011,-1.68449233738,1.04647737001,0.186535727337,0.00602545630623,-0.0349101673194
1588858985463841834,14208,1588858985463744218,,0.0229129573888,-1.68448265613,1.04649298077,0.186535846144,0.00602542213821,-0.0349095383878
1588858985469777213,14209,1588858985469675350,,0.04626034672,-1.6842778482,1.02394460575,0.185733864296,0.00538174493019,-0.0339030908782
1588858985475735156,14210,1588858985475641323,,0.0462611656657,-1.68426961359,1.02395811368,0.185733974682,0.00538198334197,-0.0339024482923
1588858985481698972,14211,1588858985481608127,,0.0462739867988,-1.68428315705,1.02393525689,0.185733589913,0.00538257949911,-0.0339044615332
1588858985493721831,14212,1588858985493584423,,0.02364106095,-1.55238272745,1.02204848538,0.186596100332,0.00538326641157,-0.0322752078269
1588858985499789807,14213,1588858985499707851,,0.0236430074208,-1.55238312663,1.02204783405,0.186596318714,0.00538448044771,-0.0322737427203
1588858985505810246,14214,1588858985505706672,,0.0232620018687,-1.55267706493,1.04501632835,0.187366968672,0.00538694357889,-0.0322673307796
1588858985511869347,14215,1588858985511765730,,0.0230148577223,-1.68448784616,1.04648239052,0.188309730333,0.00538695772427,-0.0331451853835
1588858985517814089,14216,1588858985517722527,,0.0230398875841,-1.68448759752,1.04648223997,0.188309460557,0.00538901109111,-0.0331463842661
1588858985523525372,14217,1588858985523424364,,0.0232929396124,-1.55267637367,1.04501666628,0.188333863752,0.00538955403965,-0.0340225271321
1588858985529589809,14218,1588858985529469998,,-0.0222064603608,-1.68410642825,1.02267640676,0.187519980009,0.00474129637709,-0.0325580966215
1588858985535643570,14219,1588858985535559179,,0.000206990217239,-1.68442043327,1.04607832518,0.188311335846,0.00474236942684,-0.0332854254295
1588858985541723698,14220,1588858985541645096,,0.000905461499076,-1.55231830107,1.02163670922,0.187542844657,0.00538901339236,-0.0332926282985
1588858985551199747,14221,1588858985551083617,,0.0232898968018,-1.55267943642,1.04501218348,0.188309351209,0.00538845708555,-0.0331470955487
1588858985554135382,14222,1588858985554020016,,0.0232696635726,-1.55266639933,1.04503200447,0.189193335552,0.00538461212089,-0.032253422079
1588858985559823525,14223,1588858985559727124,,-0.000208360382396,-1.68468176166,1.06897365201,0.189919552198,0.00603071393461,-0.0306343779326
1588858985565872053,14224,1588858985565718727,,-0.000205026464178,-1.68468967136,1.06896118702,0.189919722827,0.0060321371198,-0.0306330398782
1588858985571812356,14225,1588858985571660158,,-0.000212056200679,-1.68468030391,1.06897594866,0.190812152357,0.00538302346619,-0.0297492049893
1588858985577999980,14226,1588858985577835624,,-0.000220967124471,-1.68467847557,1.06897882828,0.190812340777,0.00538269873119,-0.0297480551962
1588858985584042815,14227,1588858985583808291,,-0.000224615235572,-1.68467819209,1.06897927428,0.190835702751,0.00538180853708,-0.0306255336673
1588858985589887830,14228,1588858985589768888,,-0.000205458609896,-1.68468440973,1.06896947926,0.190812122368,0.0053838440213,-0.0297492488524
1588858985596049684,14229,1588858985595839891,,-0.000490168498921,-1.81662079224,1.07032066025,0.19173319761,0.00602989834181,-0.0297401706087
1588858985601867562,14230,1588858985601753433,,-0.0230229183517,-1.6846342704,1.06855065265,0.192550655579,0.0053803781227,-0.0263598307855
1588858985613703939,14231,1588858985613523316,,-0.000190954006494,-1.68468680882,1.06896570099,0.192594741237,0.00602754903526,-0.027973164743
1588858985619648908,14232,1588858985619547038,,-0.000603033841927,-1.68495774544,1.09185461205,0.19240822332,0.00602621519103,-0.0262231135064
1588858985625693419,14233,1588858985625564274,,-0.000173448988075,-1.68468535859,1.06896798954,0.191637688884,0.00538188276351,-0.0262318523103
1588858985631631753,14234,1588858985631534464,,-0.0229880154264,-1.68464212845,1.0685390153,0.19344664559,0.00538171744255,-0.0254765601433
1588858985637835355,14235,1588858985637649888,,-0.000172324779637,-1.68468164816,1.06897383731,0.192569366503,0.00538230316538,-0.0270972260907
1588858985643888568,14236,1588858985643771986,,-0.000574211509673,-1.68496958086,1.09183636286,0.194235848485,0.00602837302381,-0.0262039502148
1588858985650001994,14237,1588858985649894888,,-0.000535181698412,-1.68497704823,1.09182485864,0.19512201106,0.00603176613254,-0.0253085251036
1588858985653103451,14238,1588858985652883037,,0.0222942460559,-1.68503053456,1.09224873349,0.196105265044,0.00603440232905,-0.0277944353559
1588858985658931645,14239,1588858985658780402,,0.0222851643643,-1.68503845687,1.09223669685,0.196105361578,0.00603388562849,-0.0277938664218
1588858985664839699,14240,1588858985664736009,,0.0216189433626,-1.81720977459,1.11647970808,0.198678373909,0.00603031151866,-0.0268904175109
1588858985670809273,14241,1588858985670699369,,-0.000543558251727,-1.68498306836,1.09181556378,0.196972507707,0.00603047481554,-0.0261742160709
1588858985676771220,14242,1588858985676624632,,-0.000566182694034,-1.68497927423,1.09182140768,0.197913795686,0.00602712235401,-0.0270419379262
1588858985682798865,14243,1588858985682711040,,0.0218506679227,-1.68530505823,1.11514178704,0.198700575387,0.00602606982789,-0.0277705700228
1588858985688754355,14244,1588858985688652890,,-0.00128508930785,-1.81714090676,1.11608149571,0.198684087014,0.00666091964807,-0.0270355155553
1588858985695067864,14245,1588858985694972686,,-0.00141437663355,-1.68552133401,1.1377254202,0.200361860424,0.00602105989238,-0.0270172612701
1588858985700707034,14246,1588858985700622657,,-0.0242959395078,-1.68547171304,1.13730545232,0.200341021857,0.00536754002069,-0.0262804033692
1588858985707037778,14247,1588858985706942472,,-0.0239008998381,-1.68518929179,1.11431604163,0.20138574532,0.00536362111852,-0.0253905778966
1588858985712928619,14248,1588858985712776613,,-0.0238974857697,-1.68518400194,1.1143241147,0.201385662449,0.00536346971242,-0.0253912671621
1588858985718741965,14249,1588858985718621217,,-0.0242764110108,-1.68546536418,1.1373152782,0.202134722679,0.00536562642257,-0.0244971014903
1588858985724792467,14250,1588858985724646727,,-0.0246063372412,-1.81734268635,1.13866873786,0.203046389904,0.00601283435853,-0.0244850401685
1588858985730701238,14251,1588858985730604155,,-0.0246086550429,-1.81733933373,1.13867403861,0.203046541259,0.00601338405071,-0.0244836499958
1588858985736840186,14252,1588858985736708237,,-0.0245843994724,-1.81733857642,1.13867577123,0.203965675579,0.00601601952786,-0.0244718373532
1588858985742816258,14253,1588858985742709040,,-0.0245840075726,-1.81734354488,1.13866784994,0.203965896461,0.00601753824496,-0.0244696228632
1588858985748747148,14254,1588858985748664372,,-0.047881849182,-1.81755451973,1.16115887151,0.205559554105,0.00536507266645,-0.0210767350532
1588858985752039627,14255,1588858985751957260,,-0.0478641857061,-1.81754271739,1.16117807367,0.205559525974,0.00536702564932,-0.0210765121886
1588858985754988504,14256,1588858985754911503,,-0.00253183937666,-1.81788619819,1.18494061193,0.206346544104,0.00665594547331,-0.0216527397415
1588858985760716855,14257,1588858985760617636,,-0.00253313630947,-1.81788996301,1.18493483331,0.205456225949,0.00601789173662,-0.0225517474202
1588858985766807835,14258,1588858985766682145,,-0.0254121694757,-1.8178311863,1.18452930155,0.206326624556,0.00601501144135,-0.0209158494286
1588858985772727901,14259,1588858985772648700,,-0.0254263286777,-1.81783324246,1.18452584223,0.207248457315,0.00665268417908,-0.0209030368364
1588858985778777686,14260,1588858985778678618,,-0.025413212257,-1.81783391153,1.1845250969,0.2072484405,0.00665444184761,-0.020902644075
1588858985784886894,14261,1588858985784668826,,-0.0254308869264,-1.8178350941,1.18452290274,0.209056396193,0.00665003560353,-0.0200017995716
1588858985790844701,14262,1588858985790754974,,-0.0487485436609,-1.81802381308,1.20706104984,0.21070667181,0.00664297487728,-0.0183653674237
1588858985796730164,14263,1588858985796642527,,-0.0487658815144,-1.8180257458,1.20705743851,0.210706768048,0.00664133051897,-0.0183648579827
1588858985802866602,14264,1588858985802779760,,-0.0487165634289,-1.81803844699,1.20704029973,0.210683902501,0.00600718884966,-0.0174763636694
1588858985808856915,14265,1588858985808725765,,-0.0487506524691,-1.81802845707,1.20705397005,0.210684047273,0.00600343948817,-0.0174759067553
1588858985815041949,14266,1588858985814941152,,-0.0487534081184,-1.81802773256,1.20705495,0.211613871933,0.00600318319542,-0.0183514377458
1588858985820670127,14267,1588858985820579116,,-0.0487444714898,-1.81803015936,1.20705165574,0.211616235296,0.00664431051971,-0.0183509993631
1588858985826857039,14268,1588858985826694384,,-0.0258760620972,-1.81808240134,1.20745803112,0.211633342838,0.00664535282656,-0.019087180519
1588858985832811163,14269,1588858985832734364,,-0.0258481622043,-1.81808349206,1.20745698639,0.211633080744,0.00664708094204,-0.0190894846646
1588858985838803672,14270,1588858985838693483,,-0.0487304632777,-1.81803350587,1.20704718091,0.211616113169,0.00664527384745,-0.0183520588384
1588858985844800804,14271,1588858985844674455,,-0.0487357581301,-1.81802684525,1.20705699919,0.211613758887,0.00600468325101,-0.0183522505255
1588858985851255904,14272,1588858985851119785,,-0.0487353744343,-1.81802999704,1.20705226756,0.21159356588,0.00600542988776,-0.0174620803898
1588858985854597494,14273,1588858985854207533,,-0.0487595517472,-1.81803941524,1.20703710556,0.211634222102,0.0060038505985,-0.0192292363317
1588858985859900124,14274,1588858985859775594,,-0.049180832142,-1.8182834786,1.23008435918,0.212408364542,0.00664350093859,-0.0192179868804
1588858985865905251,14275,1588858985865796758,,-0.0720673302154,-1.81822182841,1.22970032419,0.212373908851,0.00729159281128,-0.0175995629045
1588858985871840534,14276,1588858985871763817,,-0.0720703797615,-1.81822342986,1.22969777758,0.212373941502,0.00729149168005,-0.0175992108051
1588858985877885861,14277,1588858985877777022,,-0.0487756542807,-1.81803383774,1.20704485578,0.211576332156,0.006642141492,-0.0165801017014
1588858985883831116,14278,1588858985883748467,,-0.0487846216538,-1.81803506723,1.20704264154,0.211576298486,0.00664035387162,-0.0165812473619
1588858985889804425,14279,1588858985889721469,,-0.0950896237216,-1.81818101575,1.22928986198,0.211383672736,0.00599523510774,-0.0142260596213
1588858985895917485,14280,1588858985895787843,,-0.0717031600042,-1.81797860751,1.20664896331,0.210628259389,0.00599466529488,-0.0149783739672
1588858985901762185,14281,1588858985901685377,,-0.0716712495423,-1.81798300071,1.20664424015,0.210628059389,0.00599720209326,-0.0149801707954
1588858985908464719,14282,1588858985908386507,,-0.0720705866055,-1.94995036548,1.20787269884,0.211501294012,0.00663403662671,-0.0131974336294
1588858985913817248,14283,1588858985913738324,,-0.071652978437,-1.94971301853,1.18494640162,0.210749922866,0.00599588083366,-0.0140954071925
1588858985919911278,14284,1588858985919817998,,-0.0716576010381,-1.94969846135,1.18497007416,0.210749953237,0.00599540722171,-0.014095154545
1588858985925745358,14285,1588858985925643006,,-0.0720843986615,-1.9499388213,1.20789051099,0.210608959157,0.00599525149692,-0.0140966767904
1588858985932011644,14286,1588858985931878055,,-0.0720824498566,-1.94993202291,1.20790160209,0.21063080493,0.0066349228573,-0.0149760997185
1588858985937790424,14287,1588858985937712488,,-0.0720723438717,-1.94994562699,1.20788024362,0.21063088052,0.0066374937924,-0.0149738971862
1588858985943950240,14288,1588858985943834573,,-0.0950445977265,-1.94991552528,1.20745443062,0.21059491633,0.0066380891607,-0.0133566418544
1588858985949960706,14289,1588858985949832573,,-0.0946443563743,-1.94967574643,1.18453061626,0.209826423662,0.00663588230858,-0.0133681087555
1588858985955890996,14290,1588858985955783730,,-0.0946565620516,-1.94966475974,1.18454772432,0.209826473839,0.00663456874785,-0.0133679731628
1588858985961935873,14291,1588858985961824276,,-0.0720294753335,-1.94994106132,1.20789017131,0.208749963516,0.00600095947911,-0.0132372891936
1588858985968567954,14292,1588858985968458810,,-0.0720446136563,-1.94994801523,1.20787804245,0.209691683077,0.00664017796978,-0.0141092819817
1588858985973887318,14293,1588858985973738146,,-0.0720951194001,-1.94994150723,1.20788553515,0.209691870584,0.00663489421826,-0.0141089809195
1588858985979914546,14294,1588858985979813926,,-0.0950179379789,-2.0817503427,1.18569331813,0.209845722707,0.00663774797054,-0.0142468446179
1588858985985855524,14295,1588858985985723872,,-0.095058734315,-2.0817567651,1.18567877206,0.209845943317,0.0066347636702,-0.0142449851641
1588858985991911555,14296,1588858985991803897,,-0.072020673753,-2.08179267662,1.18610209845,0.209840247811,0.00599542181902,-0.0141103433086
1588858985997867262,14297,1588858985997745440,,-0.0950645607278,-1.94989329142,1.20748876378,0.211502086113,0.00599395683103,-0.013345825541
1588858986003906586,14298,1588858986003764514,,-0.0720686976695,-1.94992026925,1.20792139657,0.210611159066,0.00663436484549,-0.0140999339034
1588858986009781504,14299,1588858986009641552,,-0.0955139198521,-1.95012633681,1.230526151,0.211386098437,0.00663098739338,-0.0142274335974
1588858986015704014,14300,1588858986015530347,,-0.0950957346068,-1.94989026725,1.20749119262,0.211502155596,0.005990202896,-0.0133464098313
1588858986021660120,14301,1588858986021568487,,-0.0720968674508,-1.94993879231,1.20788981361,0.211501376569,0.00663097209042,-0.0131976506848
1588858986027953554,14302,1588858986027825579,,-0.0955187662609,-1.95013510578,1.23051187772,0.212257099596,0.00662936358508,-0.0124465270356
1588858986033928965,14303,1588858986033798048,,-0.0959029384272,-2.08218740079,1.23166475506,0.212274031826,0.00599097672041,-0.0133344179532
1588858986040254983,14304,1588858986039809237,,-0.0958862364454,-2.08217021346,1.23169511094,0.212273789546,0.0059900067713,-0.0133387099394
1588858986045915800,14305,1588858986045801524,,-0.0729001030486,-1.95038376129,1.25391090935,0.213080128253,0.00662952285149,-0.0149511449383
1588858986052047731,14306,1588858986051948301,,-0.0728903015716,-1.95040022077,1.25388587705,0.213080152427,0.00663151946202,-0.0149499149151
1588858986055530147,14307,1588858986055435113,,-0.0728880379144,-1.9503961534,1.25389233535,0.213080217782,0.0066326499668,-0.0149484818307
1588858986060664883,14308,1588858986060565973,,-0.0728763893939,-1.95039008826,1.25390244653,0.213080164181,0.00663366649106,-0.0149487948039
1588858986066623754,14309,1588858986066544125,,-0.096316863195,-1.95058706798,1.27643554665,0.213810873869,0.00599155515951,-0.0133160348223
1588858986072727402,14310,1588858986072581947,,-0.0963150343107,-1.95058319915,1.27644159678,0.213810891575,0.00599206005958,-0.0133155233197
1588858986078788800,14311,1588858986078707222,,-0.0732758256259,-2.08241943433,1.25507283267,0.213058646015,0.00599159168763,-0.0140666868345
1588858986084824135,14312,1588858986084597390,,-0.0959303805366,-1.95034814925,1.25348995437,0.213023243906,0.00598983106629,-0.0124355204683
1588858986090655149,14313,1588858986090590177,,-0.0959063154039,-1.95035763971,1.25347702923,0.213023137155,0.00599202077317,-0.0124362941911
1588858986096671358,14314,1588858986096576957,,-0.0732686137921,-2.08244537152,1.25503021768,0.213978283909,0.00599265102638,-0.0140519014378
1588858986102711526,14315,1588858986102571602,,-0.0729100656806,-1.95039433783,1.25389387876,0.213058715711,0.00599260816466,-0.0140651981228
1588858986108765173,14316,1588858986108657867,,-0.0958946974859,-1.95035657506,1.25347957463,0.213023082487,0.00599297229046,-0.0124367721037
1588858986114865349,14317,1588858986114788978,,-0.0729028845124,-1.9504033751,1.253880239,0.213041566469,0.00663205086816,-0.0131780246402
1588858986121177756,14318,1588858986121057367,,-0.0724575647917,-1.95017876973,1.23092218506,0.212311722392,0.00663536135567,-0.0149579916173
1588858986126884074,14319,1588858986126759441,,-0.0724439820229,-1.95018526164,1.23091269918,0.212311780028,0.00663820001382,-0.0149559138988
1588858986132917877,14320,1588858986132807916,,-0.0724600216484,-1.95017697187,1.23092488881,0.212331391483,0.00663643702176,-0.0158354935976
1588858986138666883,14321,1588858986138550624,,-0.0495798608526,-1.95021804245,1.23134087384,0.213287340757,0.00663386281472,-0.017440531531
1588858986144921608,14322,1588858986144794354,,-0.0499787690087,-1.95045196196,1.25428667273,0.214055679883,0.00663470379213,-0.0174309742203
1588858986151216688,14323,1588858986151115327,,-0.0728518959293,-1.95041627934,1.25386312987,0.213099572452,0.00663638417901,-0.0158288545895
1588858986154282800,14324,1588858986154045640,,-0.0499627025615,-1.9504659317,1.25426558921,0.213116214746,0.00663605254296,-0.0165656339949
1588858986159908828,14325,1588858986159780757,,-0.072876534477,-1.95042172503,1.25385322712,0.214926467922,0.00599344356283,-0.0158012003673
1588858986165951020,14326,1588858986165841008,,-0.0954879054125,-1.81846185552,1.25219092945,0.214039868039,0.00599331610208,-0.0168423572994
1588858986171869459,14327,1588858986171741631,,-0.0954632178346,-1.81845367191,1.25220469613,0.214039619898,0.00599417309649,-0.0168452055503
1588858986177880491,14328,1588858986177753324,,-0.095884456072,-1.81870249381,1.2751573507,0.214788257998,0.00599394342035,-0.0159446825692
1588858986183730418,14329,1588858986183630961,,-0.0958961843414,-1.8187066228,1.27515057972,0.214768901829,0.00599391595666,-0.01506279491
1588858986189818495,14330,1588858986189716070,,-0.0959132281057,-1.81871026718,1.27514409997,0.212920435269,0.00599349896259,-0.0142092138096
1588858986195982390,14331,1588858986195873889,,-0.0954735473405,-1.81846412539,1.2521887279,0.213080798657,0.00599516512568,-0.0150869648085
1588858986201953049,14332,1588858986201825689,,-0.0954608702721,-1.81846795122,1.2521841384,0.213080789239,0.00599711992399,-0.0150863208983
1588858986208161964,14333,1588858986208063357,,-0.0728250623564,-1.95042087356,1.25385754222,0.213079966098,0.00663931878649,-0.0149491089464
1588858986213863424,14334,1588858986213765011,,-0.0728091903616,-1.95042428079,1.25385316389,0.213079859394,0.00664041359829,-0.0149501435619
1588858986219974282,14335,1588858986219860117,,-0.0728011018727,-1.95042187826,1.25385737078,0.213079776451,0.00664055739671,-0.0149512618112
1588858986225865735,14336,1588858986225658419,,-0.0724587189936,-1.81849081807,1.25261865847,0.212153487146,0.00728848454662,-0.0140835032212
1588858986231863265,14337,1588858986231764843,,-0.0724764864653,-1.81848876096,1.25262061698,0.211231544757,0.00663878181107,-0.0140951208612
1588858986237920659,14338,1588858986237812727,,-0.0724517506997,-1.81850087762,1.25260445744,0.211231456424,0.00664181060201,-0.0140950177525
1588858986243892578,14339,1588858986243739137,,-0.0724483558947,-1.81850635248,1.25259670549,0.211250875234,0.00664256083414,-0.014973924121
1588858986250098671,14340,1588858986249968486,,-0.0720416889456,-1.81824907034,1.22966154611,0.209543377684,0.00664155721645,-0.0141193301677
1588858986255984407,14341,1588858986255853595,,-0.0720476590195,-1.8182400148,1.22967458627,0.209543480407,0.00664195438174,-0.0141176187331
1588858986261864282,14342,1588858986261758436,,-0.072486638167,-1.81849311951,1.25261370201,0.211251183714,0.00664032454231,-0.0149705635903
1588858986273934933,14343,1588858986273824293,,-0.0720446821897,-1.81825433497,1.22965358612,0.209543513167,0.00664310042867,-0.0141165932154
1588858986279944932,14344,1588858986279843042,,-0.0720653627427,-1.81824345803,1.22966845757,0.209543636879,0.0066413080499,-0.0141156001936
1588858986285912345,14345,1588858986285809774,,-0.0720705387512,-1.81824057682,1.22967241449,0.208636629677,0.00729023358428,-0.01412845702
1588858986291932521,14346,1588858986291819800,,-0.0720652751275,-1.81825252412,1.22965505707,0.209582844528,0.00664266153242,-0.0158719033649
1588858986298078452,14347,1588858986297861958,,-0.0954138883785,-1.9501445382,1.23050506571,0.20954655509,0.0066422942849,-0.014255109227
1588858986303971444,14348,1588858986303839441,,-0.0720557921027,-1.81825557044,1.22965110829,0.207733942098,0.006642991345,-0.0150214339228
1588858986310092180,14349,1588858986309953667,,-0.0720575375768,-1.81825451676,1.22965256406,0.207731507852,0.00600320414574,-0.0150220166071
1588858986316085570,14350,1588858986315955303,,-0.0720621940046,-1.81826231496,1.22964076011,0.207731600664,0.00600375794205,-0.0150205117635
1588858986322036976,14351,1588858986321892673,,-0.0946506620573,-1.68641894922,1.22788494544,0.207734704919,0.00600154769998,-0.015159101829
1588858986334150048,14352,1588858986333908654,,-0.0716990719892,-1.68646126359,1.22828710714,0.206824579603,0.00664322313408,-0.0150319629989
1588858986340018141,14353,1588858986339911490,,-0.0950608954365,-1.81821251569,1.22924549269,0.206847547376,0.00664235426889,-0.0160472748315
1588858986345922222,14354,1588858986345815939,,-0.0720924278227,-1.81825117643,1.22965545824,0.207734258123,0.00664119080472,-0.0150178592758
