%time,field.header.seq,field.header.stamp,field.header.frame_id,field.vector.x,field.vector.y,field.vector.z
1588858984269382899,13937,1588858984269213601,,0.49938534506,-0.195437770817,0.210289209188
1588858984272343320,13938,1588858984272193279,,0.4993861053,-0.195405339922,0.210278769674
1588858984275338094,13939,1588858984275232146,,0.499386758836,-0.195357733739,0.210261830475
1588858984281347208,13940,1588858984281199213,,0.499386346519,-0.195311255286,0.21024569208
1588858984284279648,13941,1588858984284195171,,0.499386723027,-0.195271123681,0.210232892035
1588858984293446154,13942,1588858984293235780,,0.499386077289,-0.195191857329,0.21020509539
1588858984296270496,13943,1588858984296188672,,0.499383938465,-0.195154735547,0.210189845296
1588858984299414523,13944,1588858984299200866,,0.49938413445,-0.195112199125,0.210174960793
1588858984305370727,13945,1588858984305207909,,0.499384258292,-0.195073297402,0.210161775922
1588858984308321706,13946,1588858984308212882,,0.499384095886,-0.195033586019,0.210144418361
1588858984314483771,13947,1588858984314372068,,0.499383939553,-0.19499413595,0.210127379836
1588858984317428272,13948,1588858984317258894,,0.499385261452,-0.19496282387,0.210117590603
1588858984320490981,13949,1588858984320248090,,0.499386148037,-0.194929619771,0.210103325439
1588858984326354197,13950,1588858984326226484,,0.499387066292,-0.194885861753,0.210087453152
1588858984329289536,13951,1588858984329171654,,0.499387054462,-0.194847071907,0.210073912414
1588858984335304263,13952,1588858984335154372,,0.499387441371,-0.194810815533,0.210063045027
1588858984338280396,13953,1588858984338151477,,0.499387501288,-0.194764903005,0.210050180038
1588858984341357394,13954,1588858984341153033,,0.499387324089,-0.194717264357,0.210034760672
1588858984347489089,13955,1588858984347253166,,0.499386774951,-0.194676213764,0.210020789852
1588858984350745101,13956,1588858984350564730,,0.499386979246,-0.194635206201,0.210008218184
1588858984353688130,13957,1588858984353566431,,0.499386551702,-0.19459615836,0.209995941423
1588858984359379765,13958,1588858984359232276,,0.499386039928,-0.194553276824,0.209982734903
1588858984362314982,13959,1588858984362226902,,0.499386280363,-0.194508034879,0.209968875891
1588858984365432562,13960,1588858984365242812,,0.499387996718,-0.19446173437,0.209955860858
1588858984368453144,13961,1588858984368265323,,0.499388194693,-0.194416197057,0.209940029286
1588858984374391011,13962,1588858984374233829,,0.499387715303,-0.194365978836,0.209922610999
1588858984377329648,13963,1588858984377227088,,0.499386474024,-0.194316850086,0.209903986661
1588858984383374938,13964,1588858984383226198,,0.499386839316,-0.194265315667,0.209887960011
1588858984386381129,13965,1588858984386242596,,0.499387782465,-0.194214603917,0.209873098447
1588858984389333106,13966,1588858984389222149,,0.49938751712,-0.194163608272,0.209858338905
1588858984392307875,13967,1588858984392198324,,0.499387319043,-0.194112007935,0.209839377494
1588858984398412814,13968,1588858984398247652,,0.499386772871,-0.194061953288,0.20981983583
1588858984401285312,13969,1588858984401215052,,0.499387817067,-0.194009816654,0.209803379071
1588858984407554480,13970,1588858984407247058,,0.499390285671,-0.193960276021,0.209789606804
1588858984410330659,13971,1588858984410222732,,0.499391059843,-0.19390950399,0.209772758908
1588858984413464671,13972,1588858984413308911,,0.499391558248,-0.193859435976,0.209756313763
1588858984416349684,13973,1588858984416217731,,0.499392861248,-0.193807313684,0.209739590037
1588858984422308926,13974,1588858984422192028,,0.499394247261,-0.193757377579,0.209724381522
1588858984425295379,13975,1588858984425190673,,0.499393395692,-0.193706547391,0.209705712148
1588858984431388459,13976,1588858984431166088,,0.499395212199,-0.193653720702,0.209690826266
1588858984434482143,13977,1588858984434379600,,0.499394532579,-0.193603285573,0.209672803995
1588858984437331169,13978,1588858984437227126,,0.499394731685,-0.193548181658,0.209657097067
1588858984440332483,13979,1588858984440228388,,0.499395789685,-0.19349672432,0.209642816331
1588858984446384115,13980,1588858984446263251,,0.499395284026,-0.193443090976,0.209622437585
1588858984449813264,13981,1588858984449690815,,0.49939543471,-0.193390015062,0.209606058011
1588858984455400905,13982,1588858984455258954,,0.499395866788,-0.193338127324,0.209588262137
1588858984458449504,13983,1588858984458227768,,0.499395614407,-0.193278465601,0.20956637321
1588858984464446749,13984,1588858984464268565,,0.499394750695,-0.193226053543,0.2095467221
1588858984470398190,13985,1588858984470265075,,0.499394474012,-0.193113989062,0.209507161029
1588858984473426614,13986,1588858984473260132,,0.499394506861,-0.19305602985,0.209487781772
1588858984479442207,13987,1588858984479255056,,0.499393370366,-0.19300025732,0.209467933166
1588858984482420758,13988,1588858984482265662,,0.499391881669,-0.192944340671,0.209446223969
1588858984485362262,13989,1588858984485241737,,0.499393767415,-0.192887685421,0.209429103565
1588858984491421719,13990,1588858984491251087,,0.499393842422,-0.192829750077,0.209410252938
1588858984494372124,13991,1588858984494280904,,0.499393741982,-0.192773856059,0.209390901829
1588858984497365854,13992,1588858984497245205,,0.499394278893,-0.192728350314,0.209376486414
1588858984503330293,13993,1588858984503228849,,0.499393472937,-0.192678363212,0.209360051145
1588858984506381463,13994,1588858984506248144,,0.499394102908,-0.192617554407,0.209341613116
1588858984509474961,13995,1588858984509257457,,0.499395876419,-0.192573210167,0.209330888813
1588858984515348736,13996,1588858984515242698,,0.499395618273,-0.192521852363,0.20931671887
1588858984518504314,13997,1588858984518268227,,0.49939578766,-0.192464411937,0.209300327122
1588858984521368228,13998,1588858984521256955,,0.499397337932,-0.192413539759,0.209286181097
1588858984530440944,13999,1588858984530281169,,0.499396901248,-0.192313709518,0.209256177989
1588858984533479403,14000,1588858984533284526,,0.499398501823,-0.192263508922,0.209242721732
1588858984539474123,14001,1588858984539311021,,0.49939879336,-0.192214655997,0.209225343348
1588858984542519440,14002,1588858984542306866,,0.499398935851,-0.192166622227,0.209208089186
1588858984548431045,14003,1588858984548256650,,0.49939945253,-0.192112261494,0.209190889834
1588858984551484458,14004,1588858984551362054,,0.499397562796,-0.192058103967,0.209172144058
1588858984554519811,14005,1588858984554382230,,0.499395275061,-0.192007341674,0.209151517758
1588858984557338368,14006,1588858984557216712,,0.499396165808,-0.191959579482,0.209139728232
1588858984563314851,14007,1588858984563209295,,0.499395863576,-0.191904717508,0.209121541854
1588858984566397093,14008,1588858984566202381,,0.499393946702,-0.191844980955,0.209101746511
1588858984569395081,14009,1588858984569222432,,0.499393565565,-0.191796205498,0.209086707226
1588858984575458193,14010,1588858984575288638,,0.499392547238,-0.191742143698,0.209071136646
1588858984578469106,14011,1588858984578317650,,0.499391526627,-0.191683449154,0.20905611984
1588858984584491677,14012,1588858984584322999,,0.499391531626,-0.191627561204,0.209042794302
1588858984590467007,14013,1588858984590299949,,0.499387940909,-0.191527832877,0.209012937198
1588858984596393300,14014,1588858984596259005,,0.49938775315,-0.191477007871,0.209000212591
1588858984599394707,14015,1588858984599253794,,0.49938618957,-0.19142755093,0.208988885834
1588858984602445207,14016,1588858984602305314,,0.499386197194,-0.191376663796,0.2089780677
1588858984608404591,14017,1588858984608273851,,0.499383156261,-0.191330172595,0.208965220892
1588858984611400345,14018,1588858984611268397,,0.499383343861,-0.19128243192,0.20895653014
1588858984614383970,14019,1588858984614265307,,0.499382640966,-0.191233833118,0.208946701067
1588858984620458304,14020,1588858984620323060,,0.499382252952,-0.19119675628,0.208939642597
1588858984623586747,14021,1588858984623299529,,0.499380885094,-0.191151164273,0.208927672596
1588858984626405892,14022,1588858984626281007,,0.49937977162,-0.191100078111,0.20891617937
1588858984632460158,14023,1588858984632320279,,0.499378742094,-0.191059967487,0.208908467706
1588858984635450587,14024,1588858984635294575,,0.49937675513,-0.191012105784,0.208900222596
1588858984638389727,14025,1588858984638280083,,0.499374987203,-0.190963473663,0.208888882344
1588858984650665898,14026,1588858984650529697,,0.499373566977,-0.19087012761,0.208869757028
1588858984653811016,14027,1588858984653679936,,0.49937097152,-0.190823752229,0.208859491387
1588858984656446449,14028,1588858984656269833,,0.499369453729,-0.19077944592,0.208851946897
1588858984659480728,14029,1588858984659291567,,0.49936832406,-0.190729304572,0.20884101022
1588858984662373634,14030,1588858984662250820,,0.499365895983,-0.190684819373,0.208836465025
1588858984668394348,14031,1588858984668288592,,0.499363748746,-0.190639429265,0.208826351755
1588858984674661745,14032,1588858984674570266,,0.499361387926,-0.190591221627,0.208817836498
1588858984677423770,14033,1588858984677262992,,0.499361436431,-0.190553378801,0.208812924199
1588858984680455305,14034,1588858984680280071,,0.499358404187,-0.1905063822,0.208804894765
1588858984683526075,14035,1588858984683293487,,0.499356152825,-0.190457729208,0.208796250961
1588858984686342227,14036,1588858984686243593,,0.499354463512,-0.190418714465,0.20878930113
1588858984692361041,14037,1588858984692230354,,0.499351979373,-0.190374196655,0.208784935022
1588858984695374558,14038,1588858984695228456,,0.499349288228,-0.190326651454,0.208776505722
1588858984698330790,14039,1588858984698237256,,0.499346431861,-0.190282491406,0.208767705099
1588858984704321431,14040,1588858984704228386,,0.499344650126,-0.190243637716,0.20876352877
1588858984710341933,14041,1588858984710234569,,0.499338618702,-0.19015688365,0.20874635603
1588858984716369861,14042,1588858984716242581,,0.499335623923,-0.190116190032,0.208740015416
1588858984719406989,14043,1588858984719246107,,0.499333163865,-0.190073744022,0.208734426428
1588858984725432884,14044,1588858984725280564,,0.499330189578,-0.190025045901,0.208726309477
1588858984728380973,14045,1588858984728272378,,0.4993281271,-0.189976114209,0.20872090543
1588858984731470152,14046,1588858984731286280,,0.499325544489,-0.18993430867,0.208715497317
1588858984737430816,14047,1588858984737265246,,0.499322697597,-0.189893785748,0.208711869901
1588858984740436197,14048,1588858984740281412,,0.49932027464,-0.189844559572,0.208706944087
1588858984749460543,14049,1588858984749320375,,0.499318624628,-0.189793434318,0.208705186543
1588858984752566525,14050,1588858984752434775,,0.499316672574,-0.18975014662,0.208702537444
1588858984755510067,14051,1588858984755337284,,0.499315257843,-0.189701955598,0.208699300131
1588858984758379747,14052,1588858984758250092,,0.49931213694,-0.189651118894,0.208695092244
1588858984761429840,14053,1588858984761273893,,0.499309890923,-0.189601509607,0.208692732314
1588858984764449339,14054,1588858984764302720,,0.499308938153,-0.189554978257,0.208688432993
1588858984770449254,14055,1588858984770272263,,0.499306268115,-0.189507791874,0.20868571866
1588858984773393848,14056,1588858984773306600,,0.499303541114,-0.189461133309,0.208683583007
1588858984776358250,14057,1588858984776223534,,0.499302050751,-0.189420852837,0.208677582541
1588858984779350084,14058,1588858984779233564,,0.499300849499,-0.189374473738,0.208675534895
1588858984785336374,14059,1588858984785234657,,0.499298672685,-0.189326617054,0.208675009362
1588858984788420083,14060,1588858984788284594,,0.499297209348,-0.1892848659,0.20867161911
1588858984794396182,14061,1588858984794288526,,0.499295032389,-0.189242273587,0.20866401272
1588858984797428217,14062,1588858984797277840,,0.49929455471,-0.189192825966,0.208664440823
1588858984800379217,14063,1588858984800260058,,0.499292769882,-0.189146934805,0.208660938184
1588858984803410010,14064,1588858984803263666,,0.499291080189,-0.189099849352,0.208657016667
1588858984809351993,14065,1588858984809236090,,0.499290680182,-0.189054085485,0.208656280322
1588858984812404650,14066,1588858984812245957,,0.499287207664,-0.189011070374,0.208650179552
1588858984818472801,14067,1588858984818296759,,0.499285916003,-0.188960374327,0.208648974734
1588858984821379623,14068,1588858984821268482,,0.499286120357,-0.18891308087,0.208646838498
1588858984824392389,14069,1588858984824319954,,0.499283498712,-0.188861720251,0.208642532155
1588858984833435994,14070,1588858984833299895,,0.49928410356,-0.188757395194,0.208638100082
1588858984836439307,14071,1588858984836280334,,0.499282087281,-0.188707420768,0.208634525424
1588858984842411972,14072,1588858984842266391,,0.499282586907,-0.188658755306,0.208631269402
1588858984848416967,14073,1588858984848317307,,0.499281546313,-0.188604197787,0.208629067061
1588858984851675760,14074,1588858984851514926,,0.499281860686,-0.188554683489,0.208626916391
1588858984854805783,14075,1588858984854669347,,0.499280766336,-0.18850249083,0.208623633287
1588858984857466763,14076,1588858984857311471,,0.499280949666,-0.18846504884,0.208623223682
1588858984860464720,14077,1588858984860292097,,0.499280546613,-0.188424841833,0.208621267699
1588858984866412191,14078,1588858984866262799,,0.499280380486,-0.18837174712,0.208619469631
1588858984869365877,14079,1588858984869265850,,0.499279844748,-0.188329038285,0.208614793962
1588858984872407531,14080,1588858984872271192,,0.499280359706,-0.1882921297,0.208615428152
1588858984878432169,14081,1588858984878328172,,0.499280208255,-0.188247140445,0.20861106513
1588858984881393272,14082,1588858984881275203,,0.499280149731,-0.188202244969,0.208608587803
1588858984890447408,14083,1588858984890303758,,0.499279211777,-0.188126539503,0.208599089994
1588858984896424730,14084,1588858984896253281,,0.499279008863,-0.188093175441,0.208595823137
1588858984899364844,14085,1588858984899257800,,0.499279414697,-0.188054779669,0.208593603416
1588858984902382554,14086,1588858984902267531,,0.499279827323,-0.18801601193,0.208591183192
1588858984905432565,14087,1588858984905267626,,0.499278901969,-0.187975870263,0.208587164684
1588858984908429964,14088,1588858984908255144,,0.499278865136,-0.187931222402,0.208583352744
1588858984914490178,14089,1588858984914398944,,0.499280017181,-0.187891492069,0.208581085466
1588858984917346648,14090,1588858984917210947,,0.49927904181,-0.187855337692,0.208579179444
1588858984920341691,14091,1588858984920249808,,0.499280304424,-0.187809165498,0.208578822015
1588858984929439678,14092,1588858984929334010,,0.499281320717,-0.187756239876,0.208576859702
1588858984932419787,14093,1588858984932291306,,0.499280982616,-0.187719222893,0.208575244197
1588858984935481027,14094,1588858984935328708,,0.499281326537,-0.187672538731,0.208574617315
1588858984938467234,14095,1588858984938304984,,0.499282811149,-0.187622627271,0.208572717238
1588858984941418929,14096,1588858984941310029,,0.499282306772,-0.187573063323,0.20856964176
1588858984947906221,14097,1588858984947829924,,0.499282503317,-0.187525561766,0.20856692127
1588858984950976374,14098,1588858984950742901,,0.499282745819,-0.187478978481,0.208565991127
1588858984953930225,14099,1588858984953693597,,0.499283276969,-0.187433722165,0.208563011063
1588858984956431875,14100,1588858984956298832,,0.499283006758,-0.187390941808,0.208558734504
1588858984962463451,14101,1588858984962323977,,0.49928330439,-0.187347614335,0.208557992656
1588858984965483825,14102,1588858984965327259,,0.499283094471,-0.187304106948,0.208552588774
1588858984968411560,14103,1588858984968300575,,0.499283135462,-0.187260469844,0.208547278614
1588858984974400363,14104,1588858984974306143,,0.499283143276,-0.18721572598,0.208545102779
1588858984977457919,14105,1588858984977313163,,0.499283375494,-0.187173892149,0.208540829743
1588858984980501611,14106,1588858984980344450,,0.499283451706,-0.187128369067,0.20853456504
1588858984986511930,14107,1588858984986343679,,0.499283539818,-0.187085035879,0.208532473558
1588858984989415456,14108,1588858984989295246,,0.499283797135,-0.187042000592,0.208528999716
1588858984995418494,14109,1588858984995326287,,0.4992853148,-0.186994957009,0.208527100225
1588858984998415364,14110,1588858984998298456,,0.499286086115,-0.186952238844,0.208524575454
1588858985001474965,14111,1588858985001310283,,0.499287256629,-0.18690321968,0.20852372743
1588858985010556979,14112,1588858985010350109,,0.499288488657,-0.186806281242,0.208518773429
1588858985013430966,14113,1588858985013337655,,0.499289669754,-0.186757846048,0.208516514766
1588858985019499829,14114,1588858985019342972,,0.499291294737,-0.186706354365,0.208514204099
1588858985022481184,14115,1588858985022362194,,0.499292309319,-0.18665365517,0.208512126364
1588858985025447509,14116,1588858985025333809,,0.499294346192,-0.186604280268,0.208510345248
1588858985031456495,14117,1588858985031332215,,0.499294701806,-0.186553106398,0.208504441527
1588858985034435167,14118,1588858985034340402,,0.499295856149,-0.186501667022,0.208502468047
1588858985037579929,14119,1588858985037375122,,0.49929732545,-0.186459236017,0.208499833106
1588858985043477455,14120,1588858985043341556,,0.499298087033,-0.186411688415,0.208495191981
1588858985049513091,14121,1588858985049396731,,0.499299881994,-0.186353083796,0.208491012043
1588858985052589394,14122,1588858985052470523,,0.49929957112,-0.186315232472,0.208487115619
1588858985055397283,14123,1588858985055305567,,0.499300506161,-0.186266011801,0.208482219338
1588858985058488891,14124,1588858985058350574,,0.499302728195,-0.18621649941,0.208479093538
1588858985064491483,14125,1588858985064325073,,0.499303781868,-0.186169612239,0.208476770088
1588858985068010329,14126,1588858985067905361,,0.49930419266,-0.186125385969,0.208470518144
1588858985070407419,14127,1588858985070292818,,0.499305981467,-0.186080401043,0.208464665274
1588858985076580035,14128,1588858985076430527,,0.499306277373,-0.18604033542,0.208460365309
1588858985082486153,14129,1588858985082409492,,0.499308765877,-0.185998307533,0.20845701998
1588858985085386244,14130,1588858985085324164,,0.49930922258,-0.185950755107,0.208454114175
1588858985088458401,14131,1588858985088325735,,0.499310479192,-0.185907156454,0.208450800047
1588858985091463652,14132,1588858985091339532,,0.499311879409,-0.185860813062,0.208447048365
1588858985094657635,14133,1588858985094548632,,0.49931442753,-0.185810452271,0.208445412688
1588858985103468637,14134,1588858985103385213,,0.499315485812,-0.185760895865,0.208443029887
1588858985106512765,14135,1588858985106336212,,0.499316621807,-0.185710656627,0.208438646002
1588858985109433568,14136,1588858985109291437,,0.49931844849,-0.185659012832,0.208436811927
1588858985112396157,14137,1588858985112272480,,0.499320245207,-0.185601771226,0.208433045683
1588858985115466230,14138,1588858985115304273,,0.499322419217,-0.185550150703,0.208433532522
1588858985118487400,14139,1588858985118326547,,0.499323960048,-0.185497450628,0.208428940536
1588858985124523594,14140,1588858985124380659,,0.499324932143,-0.18544145655,0.208426573315
1588858985133529128,14141,1588858985133399938,,0.499328303931,-0.18533509566,0.208423775425
1588858985136559518,14142,1588858985136382123,,0.499330609196,-0.185283122431,0.208423193676
1588858985139563229,14143,1588858985139385126,,0.499332081336,-0.185231625388,0.208420752994
1588858985142497503,14144,1588858985142357706,,0.499333925594,-0.185183482431,0.208421057828
1588858985151779588,14145,1588858985151614184,,0.49933613124,-0.185134578546,0.208415948777
1588858985154782626,14146,1588858985154673170,,0.499337659202,-0.185088715006,0.208414858735
1588858985160475693,14147,1588858985160344627,,0.4993393465,-0.185042181453,0.208413444303
1588858985163515509,14148,1588858985163388051,,0.499342215735,-0.18500410101,0.208411748249
1588858985169566771,14149,1588858985169423561,,0.499343329345,-0.184961342896,0.208408681178
1588858985172514069,14150,1588858985172347163,,0.499345781944,-0.18491438231,0.208407936465
1588858985178552542,14151,1588858985178395883,,0.499346823434,-0.184879613586,0.208407064834
1588858985184582597,14152,1588858985184392339,,0.499349331772,-0.184832046554,0.20840218621
1588858985190458049,14153,1588858985190349792,,0.499351374417,-0.184742211883,0.208394060964
1588858985196544829,14154,1588858985196392101,,0.499353755365,-0.184695668621,0.208391939382
1588858985202518527,14155,1588858985202402495,,0.499355797329,-0.184648756167,0.208387357047
1588858985208541616,14156,1588858985208424830,,0.499358395311,-0.184602580453,0.208383682352
1588858985214464942,14157,1588858985214365006,,0.499358590332,-0.184557651127,0.208380732018
1588858985220480505,14158,1588858985220372235,,0.499361686327,-0.184504611733,0.208380927041
1588858985226499135,14159,1588858985226371428,,0.499363039547,-0.184452505368,0.20837680548
1588858985232517776,14160,1588858985232419471,,0.499364383101,-0.184403756461,0.208371161962
1588858985238557416,14161,1588858985238410030,,0.499366647079,-0.184362743731,0.208368960852
1588858985244544834,14162,1588858985244433273,,0.499369522231,-0.184309645798,0.208367371757
1588858985250995863,14163,1588858985250816221,,0.499371883825,-0.184252136021,0.208365564583
1588858985253807733,14164,1588858985253699821,,0.499373151684,-0.184207977619,0.208366328164
1588858985259536601,14165,1588858985259432100,,0.499375671408,-0.184154976965,0.208365483623
1588858985265493003,14166,1588858985265379998,,0.499377266964,-0.184098798369,0.208364506616
1588858985271599576,14167,1588858985271428803,,0.499379026156,-0.184052670348,0.208358986233
1588858985277537683,14168,1588858985277418209,,0.499380666173,-0.184003557235,0.208357812734
1588858985283518369,14169,1588858985283342805,,0.499383339882,-0.183959870122,0.20835609243
1588858985289565001,14170,1588858985289370842,,0.499385155804,-0.183912223067,0.208353277267
1588858985292457060,14171,1588858985292350597,,0.499385119676,-0.183873021098,0.208349157276
1588858985295545310,14172,1588858985295418853,,0.499387472184,-0.183826746458,0.20834572903
1588858985301504958,14173,1588858985301363428,,0.499388118367,-0.183780635174,0.208340636087
1588858985313485159,14174,1588858985313366847,,0.499390948056,-0.183687942954,0.208332664654
1588858985319651538,14175,1588858985319418810,,0.499391927314,-0.1836416662,0.208327981507
1588858985322501595,14176,1588858985322404305,,0.499393411035,-0.183592636563,0.2083244464
1588858985325534143,14177,1588858985325404103,,0.499394912235,-0.18354444225,0.208319791467
1588858985328565709,14178,1588858985328385100,,0.499397571327,-0.183494156725,0.208316420261
1588858985331487425,14179,1588858985331392250,,0.499398815789,-0.183437551659,0.208316521951
1588858985337599430,14180,1588858985337446686,,0.499401439181,-0.18338757573,0.208309962928
1588858985343597367,14181,1588858985343402914,,0.499403212715,-0.1833367578,0.208309175481
1588858985349600786,14182,1588858985349431129,,0.499404349068,-0.183280146015,0.208305160376
1588858985352640932,14183,1588858985352531963,,0.499407252728,-0.183223578685,0.208303052501
1588858985358538846,14184,1588858985358384081,,0.499409364051,-0.183169323275,0.208302533363
1588858985364547546,14185,1588858985364445238,,0.499410843723,-0.183113068432,0.208299544717
1588858985370550071,14186,1588858985370399846,,0.499413186388,-0.183055475324,0.20829745459
1588858985376595585,14187,1588858985376413920,,0.49941628645,-0.183002571551,0.208294954016
1588858985379539925,14188,1588858985379413218,,0.499417671824,-0.182949849551,0.208289391734
1588858985382624342,14189,1588858985382418599,,0.499420546655,-0.182899331195,0.208287411711
1588858985385615968,14190,1588858985385426283,,0.499421664727,-0.182860415062,0.208285329473
1588858985388548871,14191,1588858985388426688,,0.499423757355,-0.18281786162,0.208282496436
1588858985391696726,14192,1588858985391461179,,0.499425702095,-0.182763957075,0.208279990894
1588858985397570234,14193,1588858985397422765,,0.499426940088,-0.182725501146,0.208275675113
1588858985403575319,14194,1588858985403458284,,0.49942720698,-0.182689576756,0.208272615988
1588858985406541816,14195,1588858985406428473,,0.499428991716,-0.18264406471,0.208269324791
1588858985409554197,14196,1588858985409433179,,0.499430013326,-0.18259826596,0.208265864911
1588858985415591718,14197,1588858985415476115,,0.499431946911,-0.1825624519,0.208261735535
1588858985418587936,14198,1588858985418449080,,0.499432668864,-0.182524382615,0.208256677932
1588858985424558672,14199,1588858985424443864,,0.499434121574,-0.182487716231,0.208255183452
1588858985430623457,14200,1588858985430460721,,0.499435984539,-0.182454472235,0.208252867774
1588858985436632281,14201,1588858985436475090,,0.499437187859,-0.182416228927,0.208246870995
1588858985442536489,14202,1588858985442384468,,0.499439490116,-0.182379258148,0.208244770163
1588858985448583985,14203,1588858985448392263,,0.499441841894,-0.182337767665,0.208244774573
1588858985451710858,14204,1588858985451590198,,0.499444302307,-0.182292678516,0.208241848722
1588858985454784246,14205,1588858985454689578,,0.499447232252,-0.182248103626,0.208240019941
1588858985457529860,14206,1588858985457433886,,0.499449056771,-0.182204919959,0.208238277623
1588858985460628940,14207,1588858985460429338,,0.499451162675,-0.182156401311,0.208235272994
1588858985463677545,14208,1588858985463489430,,0.499454740403,-0.182108112164,0.208233406863
1588858985469631270,14209,1588858985469464207,,0.499456409656,-0.182058129238,0.208230692401
1588858985475523342,14210,1588858985475406795,,0.499459530714,-0.18201350768,0.208231232917
1588858985481495572,14211,1588858985481390381,,0.499463476774,-0.181962544272,0.208228002983
1588858985493560346,14212,1588858985493368066,,0.499467343821,-0.181865357863,0.208218943793
1588858985499564643,14213,1588858985499493574,,0.499470318818,-0.181815741284,0.208216339045
1588858985505557616,14214,1588858985505428603,,0.499472610687,-0.18176226399,0.208212980811
1588858985511614533,14215,1588858985511499033,,0.499475799404,-0.181714362242,0.208209891742
1588858985517603705,14216,1588858985517428279,,0.499477156482,-0.181666290533,0.208204912364
1588858985523416646,14217,1588858985523318380,,0.49948058534,-0.181618167395,0.208201178732
1588858985529494684,14218,1588858985529376786,,0.49948306337,-0.181572153445,0.208198276159
1588858985535498264,14219,1588858985535397342,,0.49948663104,-0.181524702614,0.208194421949
1588858985541506706,14220,1588858985541418502,,0.499488484196,-0.181480316158,0.208190308982
1588858985550987142,14221,1588858985550838258,,0.49949331593,-0.181389207861,0.208186899707
1588858985553911733,14222,1588858985553754100,,0.49949588531,-0.181346130641,0.20818335876
1588858985559626162,14223,1588858985559486071,,0.499498311936,-0.181300911632,0.208181466153
1588858985565606732,14224,1588858985565499002,,0.499500264652,-0.181254600449,0.208178468805
1588858985571661803,14225,1588858985571409490,,0.499501442429,-0.18121195512,0.208172788619
1588858985577611129,14226,1588858985577473897,,0.499504375689,-0.18116659563,0.20817022216
1588858985583657208,14227,1588858985583493379,,0.499506171924,-0.181123695398,0.208164466762
1588858985589557082,14228,1588858985589438853,,0.499509046627,-0.181074078864,0.208160813763
1588858985595665529,14229,1588858985595504044,,0.499510683959,-0.181031750166,0.20815792193
1588858985601606225,14230,1588858985601432162,,0.499513320599,-0.180986660215,0.208154785059
1588858985613544584,14231,1588858985613374087,,0.499517796066,-0.180898494728,0.208145915338
1588858985619544160,14232,1588858985619398242,,0.499520588268,-0.180861632943,0.208144676872
1588858985625573120,14233,1588858985625410834,,0.499523003676,-0.180815426559,0.208141926957
1588858985631521256,14234,1588858985631406320,,0.499526432723,-0.180766962691,0.208139823482
1588858985637516832,14235,1588858985637409337,,0.499529066946,-0.180732357335,0.20813690556
1588858985643684781,14236,1588858985643478275,,0.499531982636,-0.180689571571,0.20813549964
1588858985649724113,14237,1588858985649578617,,0.499535297359,-0.180642445788,0.20813330324
1588858985652697477,14238,1588858985652600682,,0.499538201505,-0.180599515339,0.208133393705
1588858985658691160,14239,1588858985658491604,,0.499541100175,-0.180559152228,0.208131031493
1588858985664659698,14240,1588858985664493269,,0.499543184157,-0.180522371558,0.208128672111
1588858985670570621,14241,1588858985670444793,,0.499545240302,-0.180482595973,0.208124504888
1588858985676527763,14242,1588858985676424920,,0.499548638136,-0.180444439874,0.208121619199
1588858985682620673,14243,1588858985682471324,,0.499550640719,-0.18040448693,0.208119662716
1588858985688575077,14244,1588858985688441640,,0.499552638973,-0.18036201623,0.208114498277
1588858985694888953,14245,1588858985694783579,,0.499554166493,-0.18031932089,0.208110364618
1588858985700538670,14246,1588858985700434687,,0.499556157887,-0.180279873153,0.208108555251
1588858985706852401,14247,1588858985706751184,,0.499558316814,-0.180244427494,0.208107690649
1588858985712616281,14248,1588858985712482306,,0.499559317678,-0.180201907356,0.208103796989
1588858985718624481,14249,1588858985718450242,,0.499560702602,-0.180152685553,0.208099187533
1588858985724592809,14250,1588858985724459194,,0.499562741028,-0.180113986033,0.208099136169
1588858985730525319,14251,1588858985730409816,,0.499564954818,-0.180069650872,0.208096146043
1588858985736688694,14252,1588858985736492768,,0.49956693429,-0.180023293123,0.208093943717
1588858985742640478,14253,1588858985742460828,,0.499569621027,-0.179978988564,0.208092832159
1588858985748568903,14254,1588858985748450153,,0.499571969918,-0.179938100607,0.208093869764
1588858985751879214,14255,1588858985751703527,,0.499574021483,-0.179894090572,0.208091793613
1588858985754916722,14256,1588858985754781725,,0.499575629923,-0.179851668009,0.208090252651
1588858985760504921,14257,1588858985760426692,,0.49957765121,-0.179809219108,0.208089859993
1588858985766582312,14258,1588858985766429739,,0.499580187704,-0.179768160752,0.208088450037
1588858985772565965,14259,1588858985772461130,,0.499581612178,-0.179726303527,0.20808619943
1588858985778570596,14260,1588858985778449501,,0.499582035008,-0.179681674776,0.208083793951
1588858985784683624,14261,1588858985784519534,,0.499583571837,-0.179641248792,0.208078881861
1588858985790669170,14262,1588858985790489885,,0.499583811445,-0.179611302213,0.208075775069
1588858985796507841,14263,1588858985796420462,,0.499585975915,-0.179571775884,0.208074634716
1588858985802686316,14264,1588858985802519301,,0.499585668865,-0.17952493778,0.208072352655
1588858985808603025,14265,1588858985808506391,,0.499587275843,-0.179492288977,0.208071000075
1588858985814812179,14266,1588858985814710495,,0.499588249169,-0.179452340921,0.208068237974
1588858985820563228,14267,1588858985820476519,,0.499589489494,-0.179411182233,0.208065939814
1588858985826594235,14268,1588858985826491752,,0.499591215795,-0.179372245441,0.208064771801
1588858985832617024,14269,1588858985832533610,,0.499592757944,-0.179334021493,0.208061025523
1588858985838671779,14270,1588858985838488497,,0.499594806895,-0.179296058394,0.20805788956
1588858985844620726,14271,1588858985844468010,,0.499596539033,-0.179260856751,0.208056491085
1588858985851050960,14272,1588858985850901994,,0.499598504957,-0.179218885759,0.208057624732
1588858985853878033,14273,1588858985853811174,,0.499600376259,-0.17918107963,0.208056587584
1588858985859626043,14274,1588858985859512981,,0.499601379758,-0.179139355638,0.208052663205
1588858985865692769,14275,1588858985865532722,,0.499603120911,-0.179098863143,0.208050944051
1588858985871599180,14276,1588858985871506607,,0.499604265665,-0.179055937158,0.208047325876
1588858985877612628,14277,1588858985877524162,,0.499606513229,-0.179013283276,0.208046820283
1588858985883600190,14278,1588858985883504550,,0.499608131588,-0.178970995697,0.20804485874
1588858985889645097,14279,1588858985889501605,,0.499610177261,-0.178930741005,0.208043867664
1588858985895595463,14280,1588858985895490024,,0.499612470404,-0.178887781885,0.208040009618
1588858985901540601,14281,1588858985901450448,,0.499612218721,-0.178844364293,0.208034214606
1588858985908239460,14282,1588858985908149707,,0.499615963904,-0.178801882734,0.208035129935
1588858985913648165,14283,1588858985913509824,,0.499617529973,-0.178757724956,0.208033630215
1588858985919767181,14284,1588858985919560528,,0.499618376246,-0.178715421061,0.208031468428
1588858985925575764,14285,1588858985925464793,,0.499620967623,-0.178672389424,0.208030302745
1588858985931670719,14286,1588858985931515565,,0.499622852077,-0.178629851839,0.208027497154
1588858985937594810,14287,1588858985937480974,,0.499625051415,-0.178583830836,0.208028428095
1588858985943744851,14288,1588858985943541195,,0.499625838333,-0.178538474049,0.208026020662
1588858985949749610,14289,1588858985949570917,,0.499628511155,-0.178497400707,0.208025596478
1588858985955606139,14290,1588858985955511531,,0.499629532056,-0.178455689028,0.208023233553
1588858985961813989,14291,1588858985961600899,,0.49962830636,-0.178413150718,0.20802046283
1588858985968351249,14292,1588858985968235266,,0.499629643664,-0.178373436889,0.208021415555
1588858985973687513,14293,1588858985973503847,,0.499631831724,-0.17833160684,0.208019231693
1588858985979698419,14294,1588858985979571035,,0.499631598878,-0.178286776727,0.208016696773
1588858985985592268,14295,1588858985985492756,,0.499633730191,-0.178248741442,0.208017778536
1588858985991620226,14296,1588858985991523485,,0.49963363283,-0.178207899433,0.208012924748
1588858985997626145,14297,1588858985997514231,,0.499634943175,-0.178168758334,0.208012424088
1588858986003638487,14298,1588858986003512744,,0.499634879228,-0.178127953369,0.208009512351
1588858986009680565,14299,1588858986009513450,,0.499636213722,-0.17808934382,0.208009331087
1588858986015592855,14300,1588858986015437901,,0.499636521005,-0.178050475548,0.208009046005
1588858986021573664,14301,1588858986021471794,,0.499636430181,-0.178011347337,0.208008692617
1588858986027664212,14302,1588858986027574019,,0.499637568521,-0.177971141421,0.208006572976
1588858986033714291,14303,1588858986033541318,,0.499639031613,-0.177931196395,0.208007753303
1588858986039763458,14304,1588858986039564690,,0.499638710972,-0.177895608296,0.2080043692
1588858986045666871,14305,1588858986045586216,,0.499637870603,-0.177860371307,0.208001154671
1588858986051850559,14306,1588858986051731753,,0.499639160449,-0.17781960915,0.208003484782
1588858986055255769,14307,1588858986055188546,,0.499639830798,-0.177780058134,0.208004932184
1588858986060581196,14308,1588858986060468381,,0.499639823213,-0.177741019587,0.208002428353
1588858986066557235,14309,1588858986066443009,,0.499640445651,-0.177703642226,0.208003532195
1588858986072653075,14310,1588858986072487012,,0.499640270727,-0.177665826178,0.208004129962
1588858986078708779,14311,1588858986078564436,,0.499640917276,-0.177627189151,0.208004422477
1588858986084776120,14312,1588858986084465429,,0.499641200849,-0.177589947551,0.208005330659
1588858986090639489,14313,1588858986090493248,,0.49964179228,-0.17754894789,0.208006174271
1588858986096592987,14314,1588858986096460333,,0.499641799073,-0.177511434482,0.208008852725
1588858986102689447,14315,1588858986102476408,,0.499641183991,-0.177474907327,0.208007148648
1588858986108682954,14316,1588858986108561303,,0.499641746017,-0.177433175549,0.208008257088
1588858986114644549,14317,1588858986114543840,,0.499643164934,-0.177393530636,0.208009111605
1588858986120620960,14318,1588858986120536377,,0.499643129983,-0.177354630698,0.208008913988
1588858986126668146,14319,1588858986126524034,,0.499642753987,-0.177316000397,0.208010602186
1588858986132648928,14320,1588858986132534360,,0.499642778932,-0.177279005365,0.208010153036
1588858986138558773,14321,1588858986138444899,,0.499642572214,-0.177243279762,0.20801002091
1588858986144678208,14322,1588858986144562157,,0.499643323197,-0.177203719929,0.208011584287
1588858986150985392,14323,1588858986150871971,,0.49964128266,-0.177165477728,0.2080102385
1588858986154004801,14324,1588858986153810153,,0.499641016122,-0.177128615483,0.208010845347
1588858986159651841,14325,1588858986159545430,,0.499641880199,-0.177089728987,0.20801293452
1588858986165756877,14326,1588858986165532389,,0.499641999875,-0.177052512663,0.208013461923
1588858986171674792,14327,1588858986171507429,,0.499640519739,-0.177017930793,0.208011174889
1588858986177708073,14328,1588858986177540223,,0.499639742285,-0.176979658069,0.208010255106
1588858986183619484,14329,1588858986183479122,,0.499640213954,-0.176940800747,0.208012930454
1588858986189671445,14330,1588858986189534152,,0.499639745181,-0.176904197525,0.208014567367
1588858986195737009,14331,1588858986195624602,,0.499638044089,-0.176867513702,0.20801368052
1588858986201671203,14332,1588858986201561123,,0.499637181531,-0.176831443635,0.208016676027
1588858986207934406,14333,1588858986207844588,,0.499635845455,-0.176793185189,0.208015667232
1588858986213707401,14334,1588858986213537874,,0.499636164706,-0.176755473794,0.208017207077
1588858986219725521,14335,1588858986219575593,,0.499634548619,-0.176720249491,0.208018126389
1588858986225648215,14336,1588858986225530564,,0.49963467535,-0.176686694459,0.208021322748
1588858986231669437,14337,1588858986231527227,,0.499634978906,-0.176649988159,0.208021006093
1588858986237687761,14338,1588858986237552451,,0.499634147838,-0.176614472236,0.208023016213
1588858986243699468,14339,1588858986243527842,,0.499632657895,-0.176581117701,0.208023164779
1588858986249831001,14340,1588858986249703249,,0.49963167169,-0.176548209799,0.208024171414
1588858986255753324,14341,1588858986255533041,,0.499630627749,-0.176514094327,0.208025657186
1588858986261729151,14342,1588858986261533199,,0.499629237121,-0.176482371785,0.208027144251
1588858986273732467,14343,1588858986273592749,,0.499627490154,-0.176416103036,0.208026055429
1588858986279771542,14344,1588858986279606767,,0.499625838584,-0.176388128499,0.208026379923
1588858986285682203,14345,1588858986285528131,,0.499624963859,-0.176357051943,0.208026383484
1588858986291812573,14346,1588858986291551694,,0.499624790645,-0.176324332591,0.208026938338
1588858986297703741,14347,1588858986297535643,,0.499623111022,-0.176296163526,0.208025362836
1588858986303837137,14348,1588858986303534732,,0.499621500484,-0.176267242713,0.208025191062
1588858986309755544,14349,1588858986309637849,,0.49962046592,-0.176235974112,0.20802533166
1588858986315771169,14350,1588858986315632208,,0.499618577412,-0.176205850443,0.20802541341
1588858986321707079,14351,1588858986321576529,,0.499617526144,-0.176177367648,0.208023308407
1588858986333741729,14352,1588858986333585726,,0.499614364704,-0.17611800015,0.208022222903
1588858986339759389,14353,1588858986339622476,,0.499613281372,-0.176088695852,0.20802144787
1588858986345701962,14354,1588858986345595960,,0.499611862598,-0.176059082968,0.20802210613
1588858986351953429,14355,1588858986351831984,,0.499610783273,-0.176026544941,0.208023179892
1588858986354970378,14356,1588858986354857171,,0.499609448958,-0.175998214113,0.208022776517
1588858986360800882,14357,1588858986360632503,,0.499607244178,-0.175967780933,0.208023113436
1588858986366712640,14358,1588858986366579067,,0.49960654132,-0.175938745928,0.208024228902
1588858986372699614,14359,1588858986372542724,,0.499604792674,-0.175910429051,0.208024266043
1588858986378703751,14360,1588858986378537086,,0.499602983605,-0.175880173272,0.208023246178
1588858986384701780,14361,1588858986384600338,,0.499602236763,-0.1758527564,0.208021559982
1588858986390706850,14362,1588858986390546722,,0.499601567332,-0.175823232009,0.208022626386
1588858986396720851,14363,1588858986396583772,,0.499600741888,-0.175795977621,0.208023043314
1588858986402777608,14364,1588858986402576643,,0.499599143537,-0.175767571147,0.208023043172
1588858986408735755,14365,1588858986408603930,,0.499598476238,-0.175738384355,0.208023031545
1588858986415081630,14366,1588858986414996083,,0.499597725859,-0.175713691357,0.208023947332
1588858986420650092,14367,1588858986420515888,,0.499595608923,-0.175685986414,0.20802363012
1588858986426668917,14368,1588858986426514998,,0.499594422737,-0.175657801704,0.208024467029
1588858986432738499,14369,1588858986432565394,,0.499592269054,-0.175628784135,0.208024069097
1588858986438695299,14370,1588858986438597045,,0.499591098013,-0.175601361087,0.208021280251
1588858986444768883,14371,1588858986444604083,,0.499591007655,-0.17557656262,0.208023596944
1588858986451054033,14372,1588858986450901943,,0.499589209753,-0.17554798254,0.208023714066
1588858986453971087,14373,1588858986453855920,,0.499587443617,-0.175519619553,0.208024532188
1588858986459757690,14374,1588858986459592728,,0.499587037122,-0.175492869334,0.208028579616
1588858986465695803,14375,1588858986465575387,,0.499586290176,-0.175467165639,0.208027771018
1588858986471639149,14376,1588858986471534131,,0.499585713966,-0.175436677068,0.208027866185
1588858986477684211,14377,1588858986477513250,,0.499583966437,-0.175410937882,0.208028736667
1588858986483690303,14378,1588858986483565067,,0.499582543964,-0.175384033266,0.208030991007
1588858986489843810,14379,1588858986489645859,,0.499580831886,-0.175357079263,0.208033684725
1588858986495732367,14380,1588858986495602997,,0.499579960969,-0.175330753504,0.208036924835
1588858986501734148,14381,1588858986501621557,,0.49957816191,-0.175306179159,0.208034437944
1588858986513658560,14382,1588858986513538116,,0.499575374723,-0.175254091004,0.208036133741
1588858986519785487,14383,1588858986519622329,,0.49957500904,-0.175228898753,0.208038009083
1588858986525661680,14384,1588858986525505773,,0.499573714536,-0.175203303421,0.208039538694
1588858986531703527,14385,1588858986531561346,,0.499572422555,-0.175178070268,0.208039956421
1588858986537758415,14386,1588858986537605870,,0.499571233084,-0.175150604501,0.208041158616
1588858986543677265,14387,1588858986543611209,,0.499569954998,-0.17512466368,0.208042223539
1588858986549725916,14388,1588858986549589149,,0.499569119311,-0.175099558728,0.208044700584
1588858986555721928,14389,1588858986555582391,,0.499567901359,-0.175073465953,0.208045975481
1588858986561716170,14390,1588858986561614415,,0.499566382599,-0.175048766574,0.208048328249
1588858986573749885,14391,1588858986573609122,,0.49956492525,-0.175002651604,0.208048536067
1588858986579683814,14392,1588858986579572565,,0.499564416876,-0.174975563178,0.208050570141
1588858986585807380,14393,1588858986585576260,,0.499564060248,-0.174950344034,0.20805159436
1588858986591744366,14394,1588858986591596462,,0.499563855117,-0.17492433971,0.208053897604
1588858986597740676,14395,1588858986597620400,,0.499562857483,-0.174903294463,0.208055514191
1588858986603735446,14396,1588858986603576191,,0.499562118804,-0.174877728978,0.208057485486
1588858986609696656,14397,1588858986609587536,,0.499560834631,-0.174852917526,0.208056623689
1588858986615720695,14398,1588858986615576211,,0.499560852844,-0.174825562606,0.208059040926
1588858986621918396,14399,1588858986621786125,,0.499560406324,-0.174799611905,0.20805935954
1588858986633750139,14400,1588858986633556444,,0.499559120244,-0.174751225956,0.208061380173
1588858986639788935,14401,1588858986639635881,,0.499557976663,-0.174726969912,0.208063437264
1588858986645750576,14402,1588858986645580978,,0.499557389181,-0.174700379618,0.208066106096
1588858986651998485,14403,1588858986651826493,,0.499556031483,-0.174673538215,0.208066857012
1588858986655056452,14404,1588858986654913596,,0.499554351024,-0.174647128631,0.208067103818
1588858986660824100,14405,1588858986660642030,,0.499554879901,-0.174620684812,0.208070791083
1588858986666735289,14406,1588858986666548258,,0.499553945021,-0.174594727748,0.208073574347
1588858986672868700,14407,1588858986672614112,,0.499553544768,-0.174569908561,0.208076067677
1588858986678721184,14408,1588858986678568835,,0.499551797719,-0.17454493482,0.208078495977
1588858986684847516,14409,1588858986684688647,,0.499549176869,-0.174492614421,0.208079861014
1588858986690890459,14410,1588858986690635489,,0.499548884142,-0.174466422021,0.208083051956
1588858986696752408,14411,1588858986696603328,,0.499546074552,-0.174413199585,0.208084056298
1588858986702920705,14412,1588858986702687949,,0.499545812854,-0.174387020386,0.208086800265
1588858986708698530,14413,1588858986708576667,,0.499543710786,-0.174339409427,0.208087142638
1588858986715422421,14414,1588858986715322343,,0.499543231751,-0.174317666436,0.208089425249
1588858986726744632,14415,1588858986726599869,,0.499541725989,-0.174247875249,0.208094631495
1588858986732674387,14416,1588858986732555304,,0.499540722494,-0.174203756658,0.208098625483
1588858986738876124,14417,1588858986738674046,,0.499540927054,-0.174183018967,0.208099298964
1588858986744706825,14418,1588858986744596994,,0.499539695839,-0.174141586069,0.208100671131
1588858986751189804,14419,1588858986750972867,,0.499538845047,-0.174118386163,0.208101219721
1588858986755050891,14420,1588858986754914111,,0.499537447826,-0.174078804958,0.208102405484
1588858986759726019,14421,1588858986759575178,,0.499536444454,-0.174063549076,0.20810198256
1588858986765893389,14422,1588858986765719016,,0.499535394147,-0.174025379173,0.20810464812
1588858986771748284,14423,1588858986771606807,,0.499535102524,-0.174005685552,0.208104835515
1588858986777836951,14424,1588858986777653250,,0.499535374238,-0.173984902397,0.208105488978
1588858986783705057,14425,1588858986783576622,,0.499534332345,-0.173949952827,0.208107980638
1588858986789876348,14426,1588858986789646946,,0.49953295496,-0.173934841541,0.208108054057
1588858986795818649,14427,1588858986795608340,,0.499532441118,-0.173913783379,0.208111504551
1588858986801934205,14428,1588858986801809259,,0.499531642477,-0.173882400249,0.208115562304
1588858986813891875,14429,1588858986813687350,,0.499529992901,-0.173816736698,0.208119862358
1588858986819718390,14430,1588858986819614581,,0.49952954531,-0.173799951489,0.208121016743
1588858986825894589,14431,1588858986825641044,,0.499528760227,-0.173764431613,0.208122248345
1588858986831716477,14432,1588858986831578041,,0.49952821933,-0.173745122384,0.208122558402
1588858986837774241,14433,1588858986837663272,,0.499527009912,-0.17370492724,0.20812629697
1588858986843710853,14434,1588858986843612083,,0.499525753317,-0.173683576884,0.208127976557
1588858986849795398,14435,1588858986849650962,,0.499524358866,-0.173638782985,0.208130260176
1588858986855775440,14436,1588858986855673524,,0.499523062296,-0.173615519549,0.208132349151
1588858986861977372,14437,1588858986861850716,,0.499522524693,-0.173572235035,0.20813695513
1588858986873784070,14438,1588858986873621722,,0.499520464218,-0.173506077179,0.208143060625
1588858986879714164,14439,1588858986879613250,,0.499519990179,-0.173483705893,0.208144897091
1588858986885717370,14440,1588858986885627962,,0.499516428775,-0.17344160495,0.208145073022
1588858986891731684,14441,1588858986891638502,,0.499514375105,-0.173419044676,0.20814454909
1588858986897828964,14442,1588858986897666400,,0.49951507588,-0.173399016658,0.208147644077
1588858986903778771,14443,1588858986903665056,,0.499515195827,-0.17337822569,0.208147168641
1588858986909802643,14444,1588858986909659050,,0.499513839276,-0.17333776432,0.208145944676
1588858986915783776,14445,1588858986915626170,,0.499514905261,-0.173319889126,0.20814944039
1588858986921883866,14446,1588858986921725896,,0.499514549179,-0.173302971802,0.208149599206
1588858986933861081,14447,1588858986933702638,,0.499513985304,-0.173226978599,0.208154970665
1588858986939781383,14448,1588858986939665722,,0.49951375625,-0.173207039585,0.208155533584
1588858986945780693,14449,1588858986945643429,,0.499514388047,-0.173189518029,0.208157936643
1588858986952086556,14450,1588858986951895958,,0.499515500069,-0.173156236606,0.208161472567
1588858986957752414,14451,1588858986957654357,,0.49951585367,-0.173122259813,0.208165964876
1588858986963916268,14452,1588858986963710284,,0.49951582589,-0.173105036475,0.208167023857
1588858986969853162,14453,1588858986969698045,,0.499515576151,-0.173088685393,0.208167985163
1588858986975760677,14454,1588858986975645531,,0.499515939781,-0.173061611408,0.208171504446
1588858986981828830,14455,1588858986981695204,,0.499516365858,-0.173031323643,0.208176163131
1588858986993753968,14456,1588858986993643825,,0.499516471112,-0.173004051218,0.208178365032
1588858986999749419,14457,1588858986999634194,,0.49951635997,-0.172981210227,0.208180736718
1588858987005868794,14458,1588858987005678559,,0.499516706503,-0.172969694141,0.208182907303
1588858987011799524,14459,1588858987011671442,,0.499517464079,-0.172950637104,0.208184761541
1588858987017745530,14460,1588858987017634172,,0.499517935425,-0.172940521961,0.208185552954
1588858987023693047,14461,1588858987023583321,,0.499519428393,-0.17292132965,0.208187455963
1588858987029713531,14462,1588858987029620510,,0.499519691904,-0.172904606685,0.208189605516
1588858987035730435,14463,1588858987035636873,,0.499520760191,-0.172898526648,0.208190405473
1588858987041746923,14464,1588858987041650520,,0.4995212619,-0.172889583125,0.208191899959
1588858987048070434,14465,1588858987047985296,,0.499522463811,-0.172873595877,0.208194226846
1588858987051116034,14466,1588858987050991796,,0.499522622823,-0.172864401894,0.208194274621
1588858987056766007,14467,1588858987056644967,,0.499523460365,-0.172843466012,0.208196017374
1588858987062821179,14468,1588858987062668819,,0.499524666089,-0.172832974363,0.208197450062
1588858987068755555,14469,1588858987068638995,,0.499525291786,-0.172818115528,0.208197731443
1588858987075321478,14470,1588858987075220862,,0.499525745437,-0.172807465971,0.208197515454
1588858987086776241,14471,1588858987086671508,,0.49952869631,-0.172777529521,0.20820046174
1588858987092752556,14472,1588858987092661293,,0.499528962012,-0.17276973101,0.208200289481
1588858987098858061,14473,1588858987098684266,,0.499530217376,-0.172746271486,0.208202754468
1588858987104717132,14474,1588858987104620954,,0.499530528178,-0.172736597128,0.20820372308
1588858987110802559,14475,1588858987110698187,,0.499531659924,-0.172716406324,0.208207972235
1588858987116853724,14476,1588858987116725681,,0.499531942464,-0.172705976315,0.20820949877
1588858987122940156,14477,1588858987122705806,,0.49953164843,-0.172687637049,0.20821040026
1588858987128832379,14478,1588858987128743100,,0.499531615819,-0.172679831285,0.208211799122
1588858987134989653,14479,1588858987134895588,,0.499532016313,-0.172662849579,0.208214589795
1588858987146869053,14480,1588858987146724275,,0.499532242555,-0.172645924363,0.208216032715
1588858987152982953,14481,1588858987152839671,,0.49953246934,-0.172630147236,0.208218349492
1588858987158815998,14482,1588858987158660213,,0.499531527365,-0.172623262691,0.208217220155
1588858987164892999,14483,1588858987164714039,,0.499531983678,-0.172609318217,0.208220212067
1588858987170897797,14484,1588858987170740381,,0.499531752052,-0.172601219763,0.208221959511
1588858987176801426,14485,1588858987176703538,,0.499531891805,-0.172588749829,0.208224648929
1588858987182804347,14486,1588858987182673727,,0.499532030717,-0.172582240973,0.208226501245
1588858987188773648,14487,1588858987188603393,,0.499532294978,-0.172573053052,0.208228229886
1588858987194990384,14488,1588858987194732673,,0.499532362439,-0.172566544283,0.208230105165
1588858987206957010,14489,1588858987206747222,,0.499532365113,-0.172553219347,0.208233660985
1588858987212885321,14490,1588858987212740807,,0.499532139203,-0.172545480128,0.208234524655
1588858987218852244,14491,1588858987218695518,,0.499532605725,-0.172536514128,0.208237890631
1588858987224893389,14492,1588858987224690826,,0.499532366982,-0.172530839998,0.20823860361
1588858987230861445,14493,1588858987230689060,,0.499532432804,-0.17252334088,0.208240914372
1588858987236785107,14494,1588858987236685384,,0.499532633736,-0.17251867923,0.208241847626
1588858987242886520,14495,1588858987242687786,,0.499532522682,-0.17250914008,0.208243459142
1588858987248838400,14496,1588858987248682446,,0.499532915769,-0.1725033712,0.208244334112
1588858987255349672,14497,1588858987255242458,,0.499533457946,-0.172493386404,0.20824831487
1588858987266823569,14498,1588858987266669179,,0.499533901655,-0.172481331787,0.208251860244
1588858987272860753,14499,1588858987272680918,,0.49953431004,-0.172478799794,0.208253437914
1588858987278853306,14500,1588858987278694614,,0.499534138751,-0.172477151652,0.20825347017
1588858987284870577,14501,1588858987284687532,,0.499534679994,-0.172470777718,0.208256579568
1588858987290964424,14502,1588858987290725114,,0.499534768048,-0.172466796265,0.208258979724
1588858987296885525,14503,1588858987296726684,,0.499535804798,-0.172460699354,0.208262044032
1588858987302875137,14504,1588858987302726196,,0.499536094991,-0.172456843336,0.20826429739
1588858987308830505,14505,1588858987308736244,,0.499536499156,-0.172452016274,0.208265044086
1588858987326932771,14506,1588858987326716522,,0.499537093885,-0.172442704227,0.208268596623
1588858987332829898,14507,1588858987332694982,,0.499537959595,-0.172438780068,0.208270674647
1588858987338950900,14508,1588858987338733023,,0.499538133692,-0.172438092458,0.208270300192
1588858987344864394,14509,1588858987344716259,,0.499538935339,-0.172433150004,0.208272036255
1588858987351206515,14510,1588858987351063229,,0.499539356868,-0.172431110403,0.208272615301
1588858987356787158,14511,1588858987356656762,,0.49954033604,-0.172425709462,0.208273435613
1588858987362845621,14512,1588858987362724979,,0.499540764254,-0.17242294683,0.208274106537
1588858987368789687,14513,1588858987368695814,,0.499541085891,-0.172418165592,0.208275270006
1588858987375236597,14514,1588858987375136882,,0.499541179386,-0.172415595466,0.208275085922
1588858987386936967,14515,1588858987386753139,,0.499542335217,-0.172407999352,0.208277487538
1588858987392859402,14516,1588858987392710397,,0.49954303822,-0.172404671966,0.208279507943
1588858987398862958,14517,1588858987398747824,,0.499543301745,-0.172402303722,0.208279074707
1588858987404830364,14518,1588858987404694516,,0.499544726824,-0.172396162516,0.208281936416
1588858987410795745,14519,1588858987410681222,,0.499544661638,-0.172392570223,0.208282917363
1588858987416832564,14520,1588858987416699029,,0.499545220798,-0.17238431525,0.208284605925
1588858987422842757,14521,1588858987422706392,,0.499545452038,-0.172379331912,0.208286066092
1588858987428809773,14522,1588858987428711039,,0.499545696895,-0.172371020919,0.208286852119
1588858987437921235,14523,1588858987437721344,,0.499545203559,-0.172352567873,0.208288785762
1588858987443915891,14524,1588858987443812467,,0.499545657586,-0.172347208652,0.208291722224
1588858987449880135,14525,1588858987449783731,,0.499545242608,-0.172334726478,0.208294385964
1588858987455832048,14526,1588858987455716273,,0.499544788038,-0.172330250272,0.20829505072
1588858987461953061,14527,1588858987461852656,,0.499544578962,-0.172320411593,0.208298665707
1588858987473881922,14528,1588858987473757531,,0.499544763055,-0.17230811983,0.2083021959
1588858987479889213,14529,1588858987479701710,,0.499544733209,-0.172305462999,0.208303363175
1588858987485894052,14530,1588858987485768460,,0.499544782384,-0.172300417344,0.20830529835
1588858987491890724,14531,1588858987491745018,,0.49954443537,-0.172296893521,0.208305395401
1588858987497864543,14532,1588858987497702439,,0.499544600587,-0.172294717123,0.208307707604
1588858987504848580,14533,1588858987504678912,,0.499544103301,-0.17229191507,0.208308217614
1588858987509866188,14534,1588858987509716883,,0.499544142935,-0.172290412236,0.208310052481
1588858987515822789,14535,1588858987515698020,,0.499543743116,-0.172288653242,0.208311264395
1588858987521778480,14536,1588858987521693194,,0.499543086104,-0.172284243926,0.208314078852
1588858987528205376,14537,1588858987528117059,,0.499542880163,-0.172282636179,0.208315185561
1588858987533900662,14538,1588858987533739203,,0.499541928998,-0.172278334951,0.208319943546
1588858987539879563,14539,1588858987539714035,,0.499541269724,-0.172276835165,0.20832091185
1588858987545987861,14540,1588858987545744487,,0.499540440943,-0.172272321013,0.208324242485
1588858987552074039,14541,1588858987551889512,,0.499539627801,-0.172271008666,0.208326022553
1588858987557929387,14542,1588858987557730772,,0.499538164199,-0.172266579399,0.208327477989
1588858987563885181,14543,1588858987563718427,,0.499537092107,-0.172265606428,0.208327669872
1588858987569918295,14544,1588858987569753799,,0.499535485235,-0.172260872672,0.208329083974
1588858987576001792,14545,1588858987575755246,,0.499534541508,-0.172260403127,0.208329066513
1588858987582133510,14546,1588858987581975289,,0.49953267153,-0.172255157399,0.208329647385
1588858987593797482,14547,1588858987593707458,,0.499529237892,-0.172250454423,0.208329570797
1588858987599823381,14548,1588858987599697305,,0.499528285369,-0.172248580738,0.208329279192
1588858987605945753,14549,1588858987605768448,,0.499526416058,-0.172245470038,0.208330283913
1588858987611969835,14550,1588858987611774471,,0.499525294204,-0.172243351758,0.208329789163
1588858987617932368,14551,1588858987617721678,,0.499523071828,-0.172239721234,0.208329308239
1588858987623874437,14552,1588858987623709618,,0.499522563185,-0.172237571903,0.20832922196
1588858987629920107,14553,1588858987629712877,,0.499521692177,-0.172236166021,0.208329151518
1588858987635922172,14554,1588858987635749264,,0.499520541128,-0.172233740494,0.208327518935
1588858987642127723,14555,1588858987642002227,,0.499519862762,-0.172232701675,0.208327551477
1588858987649501764,14556,1588858987649388882,,0.499518375014,-0.172231015039,0.20832586422
1588858987659865544,14557,1588858987659760540,,0.499517681146,-0.172225385663,0.208326148197
1588858987665905498,14558,1588858987665777432,,0.499517229854,-0.172224312428,0.208325984425
1588858987671970181,14559,1588858987671777985,,0.499516790382,-0.172221698433,0.208325825035
1588858987677918973,14560,1588858987677792670,,0.499516854096,-0.172218550021,0.208326803299
1588858987683961261,14561,1588858987683770733,,0.499516767959,-0.172216106995,0.208327898842
1588858987689885479,14562,1588858987689768799,,0.499516980847,-0.172214020952,0.208328974814
1588858987696017901,14563,1588858987695797492,,0.499516657689,-0.172209847684,0.208329753101
1588858987702171447,14564,1588858987702060059,,0.499516547449,-0.172206773022,0.208330322221
1588858987713883236,14565,1588858987713767206,,0.49951580102,-0.172200898981,0.20833240636
1588858987719876788,14566,1588858987719714426,,0.499515768783,-0.172198066345,0.208334752146
1588858987725936782,14567,1588858987725769274,,0.499515526505,-0.172195068455,0.208334826289
1588858987732007498,14568,1588858987731794350,,0.499515211943,-0.172192588761,0.208336887889
1588858987737927968,14569,1588858987737796053,,0.499515046919,-0.172191636667,0.208336708548
1588858987743884248,14570,1588858987743760207,,0.499515143938,-0.172189580106,0.208338701979
1588858987749954524,14571,1588858987749820416,,0.499514805112,-0.172188315445,0.208339751424
1588858987755924978,14572,1588858987755765675,,0.499514669041,-0.17218588551,0.208339551443
1588858987762602979,14573,1588858987762493729,,0.499514564884,-0.172184276105,0.208340450138
1588858987774147010,14574,1588858987773873494,,0.499514311844,-0.17218122091,0.208341626362
1588858987779864908,14575,1588858987779765012,,0.499513985917,-0.172177377688,0.208341864367
1588858987785885498,14576,1588858987785754185,,0.499513822187,-0.172176383334,0.208341774035
1588858987791903147,14577,1588858987791757200,,0.499513742463,-0.172174183199,0.208341418324
1588858987798097579,14578,1588858987797788550,,0.499513545956,-0.172173855879,0.20834190064
1588858987804006397,14579,1588858987803854333,,0.49951387107,-0.172169650673,0.208341541069
1588858987810040877,14580,1588858987809840480,,0.499514300412,-0.172167103167,0.208341430774
1588858987815892384,14581,1588858987815717185,,0.499514064692,-0.17216394204,0.208341432203
1588858987821884191,14582,1588858987821765299,,0.499514992937,-0.172162283167,0.208341821531
