%time,field.header.seq,field.header.stamp,field.header.frame_id,field.wrench.force.x,field.wrench.force.y,field.wrench.force.z,field.wrench.torque.x,field.wrench.torque.y,field.wrench.torque.z
1588764323405944788,3962,1588764323405846748,,-0.0389751612276,-0.216463708113,0.0182005300053,0.0,0.0,0.0
1588764323408848442,3963,1588764323408790781,,-0.0198507018021,-0.215947068402,0.0184967569237,0.0,0.0,0.0
1588764323411911878,3964,1588764323411825678,,-0.0198529543205,-0.215946782702,0.0184976748625,0.0,0.0,0.0
1588764323415180747,3965,1588764323415067492,,-0.0198575341552,-0.215946365161,0.018497633386,0.0,0.0,0.0
1588764323418206713,3966,1588764323418146066,,-0.0198584012048,-0.215946501509,0.01849511064,0.0,0.0,0.0
1588764323423765117,3967,1588764323423708029,,-0.0198576820586,-0.215946578527,0.0184949835269,0.0,0.0,0.0
1588764323427021282,3968,1588764323426954626,,-0.0389825785936,-0.216462122475,0.0182035028164,0.0,0.0,0.0
1588764323429940451,3969,1588764323429860424,,-0.0153040972016,-0.0842500112141,0.0144777998409,0.0,0.0,0.0
1588764323432889089,3970,1588764323432831918,,-0.030369037201,-0.0855742350507,-0.000583541443836,0.0,0.0,0.0
1588764323441903114,3971,1588764323441839921,,-0.0386002178814,-0.216272594931,-0.000787578827903,0.0,0.0,0.0
1588764323447786171,3972,1588764323447635567,,-0.0579834314314,-0.217134669277,-0.00113645086258,0.0,0.0,0.0
1588764323453766859,3973,1588764323453707482,,-0.0389752227089,-0.21646329666,0.0182052912431,0.0,0.0,0.0
1588764323459744700,3974,1588764323459643978,,-0.0389795471097,-0.21646232138,0.0182076287618,0.0,0.0,0.0
1588764323465882416,3975,1588764323465801510,,-0.0386050225798,-0.216271731162,-0.000789272585971,0.0,0.0,0.0
1588764323471798547,3976,1588764323471726031,,-0.0386041913145,-0.216271882698,-0.000788407397696,0.0,0.0,0.0
1588764323477840600,3977,1588764323477734223,,-0.0386072381161,-0.216271352062,-0.000784768455003,0.0,0.0,0.0
1588764323484012610,3978,1588764323483927906,,-0.0386055208135,-0.216271643502,-0.000788922532824,0.0,0.0,0.0
1588764323490058008,3979,1588764323489963895,,-0.0389809007264,-0.216462290186,0.0182051015132,0.0,0.0,0.0
1588764323495787543,3980,1588764323495674472,,-0.0394200913777,-0.217005864118,0.037294292753,0.0,0.0,0.0
1588764323501982740,3981,1588764323501884923,,-0.0216247764428,-0.348531898455,0.019856368912,0.0,0.0,0.0
1588764323507995417,3982,1588764323507927254,,-0.0389829788614,-0.21646126858,0.0182127971244,0.0,0.0,0.0
1588764323514173374,3983,1588764323514026430,,-0.0471003585175,-0.0885028212541,-0.000884672227827,0.0,0.0,0.0
1588764323516991087,3984,1588764323516898791,,-0.0470997763352,-0.0885031520755,-0.000882569681778,0.0,0.0,0.0
1588764323522920227,3985,1588764323522841200,,-0.0579878626565,-0.217133518801,-0.0011301507584,0.0,0.0,0.0
1588764323529050254,3986,1588764323528943606,,-0.0194938393345,-0.215749487966,-0.000433711605579,0.0,0.0,0.0
1588764323535031649,3987,1588764323534945565,,-0.0194937953362,-0.215749488918,-0.000435213020081,0.0,0.0,0.0
1588764323540990606,3988,1588764323540892199,,-0.0194944984166,-0.215749425241,-0.000435287542175,0.0,0.0,0.0
1588764323546851320,3989,1588764323546762107,,-0.0194895063488,-0.215749877693,-0.000434572204239,0.0,0.0,0.0
1588764323552959030,3990,1588764323552873188,,-0.0198441218548,-0.215947098015,0.0185034703913,0.0,0.0,0.0
1588764323559022337,3991,1588764323558836677,,-0.0198456738122,-0.215947028218,0.018502620483,0.0,0.0,0.0
1588764323564904406,3992,1588764323564809426,,-0.0385938422628,-0.216273731697,-0.000787868201332,0.0,0.0,0.0
1588764323570879871,3993,1588764323570822165,,-0.0385942175731,-0.21627365886,-0.000789476175028,0.0,0.0,0.0
1588764323576965282,3994,1588764323576887651,,-0.0303650997599,-0.0855756285343,-0.00058409175426,0.0,0.0,0.0
1588764323588958182,3995,1588764323588851665,,-0.0385919693179,-0.216274049876,-0.000792258588055,0.0,0.0,0.0
1588764323595016730,3996,1588764323594929149,,-0.0216013416841,-0.348534100481,0.0198432210686,0.00392186594031,0.00291197177958,-0.000896408167393
1588764323600969614,3997,1588764323600819455,,-0.0216039497687,-0.348534098832,0.0198404105095,0.00392189260989,0.00291195078056,-0.00089635969874
1588764323606892234,3998,1588764323606812092,,-0.0433532076165,-0.349979343061,0.0810430783992,0.0138931986973,0.00481469129794,-0.00157655054111
1588764323612995260,3999,1588764323612885297,,-0.026711823351,-0.486271148894,0.234104864213,0.0380680521568,0.00691133609647,-0.00162987485973
1588764323619236823,4000,1588764323619147721,,-0.049597766089,-0.618048782709,0.259375955681,0.0452101829265,0.00767669545772,-0.000943116576688
1588764323624877774,4001,1588764323624773228,,-0.0286618306392,-0.619243798721,0.303696083348,0.0522028959511,0.00784805732434,-0.000726224538279
1588764323630960653,4002,1588764323630882590,,-0.0768550025408,-0.885069754307,0.442401911599,0.0704164404201,0.00755742177696,0.00492016529651
1588764323636979102,4003,1588764323636799322,,-0.0768630571027,-0.885071944318,0.442396130888,0.0704164041362,0.00755717910393,0.00492105724482
1588764323649167035,4004,1588764323649059198,,-0.0811423511184,-1.15116206147,0.60461066884,0.103232920436,0.00902918043588,0.00649999467441
1588764323654953520,4005,1588764323654818458,,-0.0811531748961,-1.15115975436,0.604613608793,0.103233037231,0.00902807121896,0.00649968045975
1588764323660974356,4006,1588764323660880772,,-0.0811613180528,-1.15116516124,0.60460222113,0.113275290897,0.00845222250658,0.00757289803048
1588764323666877666,4007,1588764323666773773,,-0.104566648387,-1.15190048393,0.649491384065,0.123047168196,0.00848736182159,0.00763942026791
1588764323672802492,4008,1588764323672736019,,-0.0834289221338,-1.28432516136,0.697190429533,0.131012672813,0.0078843915951,0.00623527365143
1588764323678856577,4009,1588764323678795606,,-0.0856201931065,-1.41748217633,0.78981531788,0.148743669221,0.00727765043828,0.00572708809769
1588764323684948258,4010,1588764323684783702,,-0.085659755981,-1.41750076746,0.789777661429,0.148743825146,0.00727374788179,0.00572799616128
1588764323691148528,4011,1588764323690950342,,-0.0629695448642,-1.4175167359,0.790193794144,0.153368390485,0.00791066604376,0.00336934795244
1588764323696898851,4012,1588764323696815941,,-0.0638818095902,-1.41812337719,0.835768545071,0.157663540091,0.00663309556023,0.0025896502034
1588764323708967655,4013,1588764323708856338,,-0.0663831898312,-1.55143512438,0.951620182415,0.167921569579,0.00664156864175,0.00277890307606
1588764323715226340,4014,1588764323715115079,,-0.0445190245196,-1.55203768379,0.997764819219,0.175010869796,0.00663804030658,-0.000441062551642
1588764323718213210,4015,1588764323718069520,,-0.0448325177881,-1.68393126575,0.999152727248,0.181485723727,0.00600932753581,-0.00382830041613
1588764323723890476,4016,1588764323723741150,,-0.0451398684987,-1.81596535589,1.00040870702,0.185198854286,0.00601314245018,-0.00639900576448
1588764323729828861,4017,1588764323729755995,,-0.022709356894,-1.8162414025,1.02373573372,0.192463791641,0.00536591824936,-0.0105291150824
1588764323736090223,4018,1588764323735969709,,-0.000692552732771,-1.81679010259,1.07003313141,0.199616521741,0.00536245937888,-0.0155536586289
1588764323741820838,4019,1588764323741714111,,0.0217016546041,-1.81706453147,1.09341017063,0.206867426866,0.00470499941724,-0.0188323648777
1588764323748101642,4020,1588764323747952455,,0.0442727472453,-1.81734605826,1.11679350712,0.21794734442,0.00404787572086,-0.0291452717735
1588764323753969494,4021,1588764323753890353,,0.0443563378921,-1.81731459653,1.11684138608,0.217946440847,0.00405350988951,-0.0291512449862
1588764323759998259,4022,1588764323759864476,,0.0891128655455,-1.94989208677,1.16495254162,0.222357696943,0.00340102844069,-0.0341176038901
1588764323765972321,4023,1588764323765884830,,0.110424114158,-1.95089137264,1.25723534533,0.231997512524,0.00208216982181,-0.0409645323908
1588764323772041063,4024,1588764323771960110,,0.110090963563,-1.95117503588,1.28010386821,0.238394140713,0.00143878959574,-0.0462273303272
1588764323778166923,4025,1588764323778017457,,0.109956702581,-1.95114789124,1.28015678117,0.238395278218,0.00142478018688,-0.0462218977928
1588764323784209096,4026,1588764323784080843,,0.177529837372,-1.95205911982,1.35051298129,0.250187925572,9.08693346579e-05,-0.0590067654465
1588764323790132193,4027,1588764323790039929,,0.177670094783,-1.95208093887,1.35046299786,0.250186646246,0.00010650449832,-0.0590121633626
1588764323796045008,4028,1588764323795974332,,0.222846514462,-1.95268703085,1.39745062241,0.257363486734,-0.000550709893998,-0.0649017427991
1588764323802036212,4029,1588764323801964647,,0.244555848684,-2.08532591203,1.4680832522,0.271850122592,-0.00123286277027,-0.076229042559
1588764323808002053,4030,1588764323807923440,,0.244661808247,-2.08537405494,1.46799720996,0.271848801614,-0.00121949860883,-0.0762339682655
1588764323814080749,4031,1588764323814008206,,0.244187428087,-2.21761800206,1.49211021666,0.277358478658,-0.00253662361772,-0.0824444847513
1588764323820118416,4032,1588764323820024687,,0.312444178634,-2.21833161247,1.53941267785,0.287318052487,-0.00320303185007,-0.089977503778
1588764323826094657,4033,1588764323826002909,,0.357296780575,-2.21916052192,1.60944342596,0.293472287976,-0.00387648924287,-0.0968067731413
1588764323832059510,4034,1588764323831953932,,0.38031153489,-2.21926879647,1.60987832607,0.298222596693,-0.00454334160612,-0.103804559685
1588764323838101173,4035,1588764323837966884,,0.356523777396,-2.21953953172,1.65553537336,0.304424181299,-0.00521084158141,-0.107484225249
1588764323844085876,4036,1588764323843991562,,0.402181494709,-2.35187231809,1.68063053707,0.311797841976,-0.00589324666066,-0.115225939325
1588764323850181700,4037,1588764323850080817,,0.401381261788,-2.35224645463,1.72672440222,0.317151974239,-0.00722996786018,-0.121478714574
1588764323856208418,4038,1588764323855925958,,0.423601670098,-2.35271945129,1.77338169923,0.323370115467,-0.00790204569702,-0.125781879413
1588764323861973988,4039,1588764323861867206,,0.469275120776,-2.48514300569,1.79825629517,0.334535762923,-0.00859707457626,-0.138921775676
1588764323868200346,4040,1588764323868106099,,0.469098034421,-2.48513265486,1.79831680265,0.334538687651,-0.00861775524716,-0.138913451049
1588764323874164403,4041,1588764323874070142,,0.513531942805,-2.61809619809,1.89249299931,0.346087943375,-0.00998573248219,-0.14845494036
1588764323879977052,4042,1588764323879893580,,0.559198594248,-2.61867135544,1.93953526237,0.353250580165,-0.0113041555161,-0.154432876338
1588764323886029291,4043,1588764323885923174,,0.559178053029,-2.61862636349,1.93960192901,0.353250439117,-0.0113109528316,-0.154432701273
1588764323892156009,4044,1588764323891934380,,0.627998376832,-2.75113899015,1.96497346689,0.363523376167,-0.0126693197102,-0.168363288347
1588764323898087966,4045,1588764323898007156,,0.628242079352,-2.75122044058,1.96478151637,0.363520709991,-0.0126317338804,-0.168371868944
1588764323904045822,4046,1588764323903950439,,0.674208250414,-2.88379929718,1.98940911084,0.36989030294,-0.0132948272272,-0.173468804638
1588764323909892591,4047,1588764323909764882,,0.67345971572,-3.01628739097,2.03638852295,0.377037287121,-0.0133106539059,-0.178834525202
1588764323919201697,4048,1588764323919109609,,0.71828087066,-3.14935595631,2.13030569718,0.389558716965,-0.0139890097197,-0.191121516621
1588764323924930061,4049,1588764323924779828,,0.741015955913,-3.149527968,2.15394813392,0.391309904722,-0.0146516682912,-0.193669806213
1588764323930941758,4050,1588764323930843319,,0.786518560769,-3.28218668501,2.20190298379,0.399387337533,-0.0153476916601,-0.199657640209
1588764323936964827,4051,1588764323936865740,,0.831721581694,-3.41497257517,2.2728458547,0.412967123298,-0.017374728089,-0.212847880602
1588764323949221335,4052,1588764323949066368,,0.87716574939,-3.41537938238,2.32019131203,0.419245239192,-0.0174200627197,-0.219763577495
1588764323955143672,4053,1588764323955048491,,0.945482384233,-3.41607243794,2.39099054963,0.431955127989,-0.0187782656437,-0.233724702011
1588764323961194928,4054,1588764323961057435,,0.945384412591,-3.41608583632,2.39101014634,0.431959005172,-0.0187854296219,-0.233716960599
1588764323967036854,4055,1588764323966950994,,1.0370268025,-3.54910191625,2.46281030496,0.441859997646,-0.0194795225334,-0.245767830798
1588764323973157102,4056,1588764323973044925,,1.0370389821,-3.54905604491,2.46287127941,0.441856485338,-0.0194874524165,-0.245773516751
1588764323979138190,4057,1588764323979004872,,1.01306669523,-3.54919165385,2.50878291832,0.448046535374,-0.0201815749313,-0.24950668441
1588764323984984653,4058,1588764323984907825,,1.08146599214,-3.54987644555,2.57960420995,0.462531992561,-0.0215511722645,-0.262569809464
1588764323991075590,4059,1588764323990941494,,1.08138088975,-3.54993374633,2.57956103218,0.462531164156,-0.021559533014,-0.26257058238
1588764323997024822,4060,1588764323996930588,,1.10415734565,-3.68246648125,2.60363925067,0.46708096734,-0.0222380604399,-0.267844866431
1588764324009111003,4061,1588764324009007979,,1.14899469021,-3.81552250218,2.69758321336,0.476699210706,-0.0229200846351,-0.274736800841
1588764324015399503,4062,1588764324015288833,,1.17154463437,-3.81589603845,2.74432482243,0.482957801142,-0.0229191564039,-0.280899660845
1588764324018376908,4063,1588764324018291084,,1.21711501778,-4.08097983084,2.79249666808,0.493857902017,-0.0236020671188,-0.290506258694
1588764324023891247,4064,1588764324023808392,,1.26282657116,-4.08137786461,2.83979614464,0.501034967984,-0.0242889665307,-0.297431863505
1588764324029978702,4065,1588764324029881883,,1.26280868691,-4.08141663957,2.83974836916,0.501038295663,-0.024282866309,-0.29742675594
1588764324035982226,4066,1588764324035828826,,1.30836958818,-4.21416232623,2.88742334075,0.508222761421,-0.0249676486318,-0.304337908182
1588764324041933117,4067,1588764324041845665,,1.35397818895,-4.47922327233,2.9357511711,0.514473934954,-0.0249869252569,-0.31036087017
1588764324047914791,4068,1588764324047795210,,1.40007498541,-4.47951584666,2.95980546655,0.520931336342,-0.0263274305846,-0.319108920281
1588764324053934031,4069,1588764324053847472,,1.42212564539,-4.47985427619,3.02992274316,0.532578869044,-0.0270399686568,-0.327947724615
1588764324059996291,4070,1588764324059900877,,1.42210429993,-4.47984955461,3.02993974279,0.532581026614,-0.0270406845639,-0.32794416172
1588764324066144026,4071,1588764324066028704,,1.46768977025,-4.61262520627,3.07757156807,0.536965384942,-0.0277239833492,-0.3330886937
1588764324072163267,4072,1588764324072059985,,1.46661518176,-4.48054569471,3.14666436663,0.547696010274,-0.0290743816665,-0.342088905665
1588764324078020297,4073,1588764324077933713,,1.46658975683,-4.48060189534,3.14659619122,0.547697599816,-0.0290698808422,-0.342086743241
1588764324084022449,4074,1588764324083903369,,1.55914131706,-4.61345477755,3.17201975101,0.554155465558,-0.0290881140723,-0.350553431454
1588764324090141020,4075,1588764324090029793,,1.58210060741,-4.61362712997,3.19574064926,0.559614506198,-0.0291019913703,-0.355824857486
1588764324096251075,4076,1588764324096069844,,1.5816563947,-4.87846329499,3.2197677723,0.564103827112,-0.0291230762994,-0.359441967321
1588764324102109374,4077,1588764324102001641,,1.60407074851,-4.87869741143,3.26660886459,0.569387000186,-0.0298150987238,-0.363808841568
1588764324108130322,4078,1588764324108026828,,1.62620565781,-4.87893468309,3.33683739194,0.576354700973,-0.0305095803952,-0.368149037584
1588764324114208028,4079,1588764324114036809,,1.64889438836,-5.0113855495,3.36110350562,0.58361777757,-0.0312152400765,-0.372470282237
1588764324120166306,4080,1588764324120058310,,1.67079092437,-5.1440868371,3.43169333725,0.595963319989,-0.0305978575314,-0.373090409265
1588764324126164859,4081,1588764324125995397,,1.67076595277,-5.14406857647,3.43173286739,0.595961364412,-0.0306059998324,-0.373092865176
1588764324131983352,4082,1588764324131875291,,1.71649543364,-5.14443135914,3.47907149098,0.603964835523,-0.0312969595959,-0.376346412258
1588764324138014346,4083,1588764324137840805,,1.71603349169,-5.14457309651,3.50218809331,0.613099336409,-0.0313172407091,-0.382625923414
1588764324143856459,4084,1588764324143754855,,1.73858697358,-5.14486738213,3.54902421782,0.621193932315,-0.0326604674508,-0.389691864809
1588764324150133036,4085,1588764324150027663,,1.73705648441,-5.2776039178,3.64216948028,0.634382641845,-0.0326867774946,-0.393198526306
1588764324156637763,4086,1588764324156305613,,1.73706023749,-5.27762273868,3.64214041818,0.634384428857,-0.0326817548396,-0.39319606065
1588764324162190941,4087,1588764324162080057,,1.80552391476,-5.41051303609,3.71351346276,0.643180774732,-0.0327024523781,-0.397198035013
1588764324168109422,4088,1588764324168009959,,1.82681476367,-5.54345466078,3.83039402117,0.659048819502,-0.033402093556,-0.404164157501
1588764324174053288,4089,1588764324173845137,,1.82697996736,-5.54349814576,3.83025229211,0.659037864374,-0.033388582314,-0.404183137256
1588764324180078438,4090,1588764324179995749,,1.80221421191,-5.54359978409,3.89952354867,0.664027348265,-0.0327515493097,-0.401496221651
1588764324186100434,4091,1588764324186015733,,1.87076034976,-5.67653469746,3.97088818704,0.673703154283,-0.0327701872423,-0.404579512032
1588764324192071854,4092,1588764324191986035,,1.82425162394,-5.67636716429,3.993204101,0.68277181065,-0.034093908655,-0.408434982448
1588764324198190555,4093,1588764324198096141,,1.89265515336,-5.6767336806,4.06438757969,0.696209325175,-0.0341724190314,-0.41604729854
1588764324204011215,4094,1588764324203932970,,1.93909562317,-5.67693536816,4.08852253943,0.70629362697,-0.0354987434363,-0.423858666789
1588764324210062929,4095,1588764324209961494,,1.91441005757,-5.80977488772,4.18087639754,0.715682998673,-0.0348013274719,-0.421151309055
1588764324222029760,4096,1588764324221943098,,2.02994423033,-5.81032040656,4.22959212456,0.722854531571,-0.0348213026233,-0.427618522791
1588764324227999709,4097,1588764324227884156,,1.95974766446,-5.94258419721,4.25172673764,0.72726051999,-0.0354678146616,-0.427091581216
1588764324234078104,4098,1588764324233917403,,2.0991976761,-5.94327997125,4.30062502924,0.736387702499,-0.0354423982361,-0.439837378499
1588764324239971413,4099,1588764324239857290,,2.05181560945,-5.94311166908,4.32320808412,0.741886197611,-0.0368452239422,-0.446448646242
1588764324245952631,4100,1588764324245797776,,2.09772139305,-5.94333660416,4.37066868569,0.749965012631,-0.0375348043901,-0.453377649841
1588764324252204187,4101,1588764324252096217,,2.00474036907,-5.94312716002,4.36860330214,0.74877084027,-0.0368127450718,-0.441161050765
1588764324257952925,4102,1588764324257858056,,2.19068897123,-5.94389401634,4.39538577842,0.753285139011,-0.0354947967688,-0.445420124629
1588764324264050938,4103,1588764324263952764,,2.00409904348,-6.07575598545,4.39206363612,0.754094142808,-0.0361804595147,-0.441104761668
1588764324269984676,4104,1588764324269906909,,2.18911764169,-6.07664604205,4.46542865376,0.763058836171,-0.0362014238126,-0.451670838629
1588764324276146399,4105,1588764324276025908,,2.09537197161,-6.07632390506,4.48697260772,0.763886219099,-0.0375511182611,-0.454063045289
1588764324282076002,4106,1588764324281974093,,2.21050866365,-6.20919893201,4.55954749471,0.770051405748,-0.0382710347125,-0.463314698865
1588764324287932759,4107,1588764324287851840,,2.21042143959,-6.20895833445,4.55991740564,0.777499263939,-0.038338149362,-0.469633511791
1588764324294373017,4108,1588764324294234489,,2.25616051537,-6.2090390032,4.60755394919,0.785566699961,-0.0390600908976,-0.475626569672
1588764324300243787,4109,1588764324300087048,,2.25555518064,-6.47413405913,4.63153231908,0.782192554538,-0.0357057002898,-0.454621966677
1588764324306241190,4110,1588764324306095246,,2.25549593095,-6.47408889022,4.631624311,0.782190163637,-0.0357224047948,-0.454624768022
1588764324312053484,4111,1588764324311967097,,2.02184214256,-6.6057808626,4.62765335584,0.782962020069,-0.0364330543128,-0.447826630714
1588764324315324395,4112,1588764324315252630,,2.18334084957,-6.60666211194,4.74676656368,0.801702831955,-0.0364682765519,-0.461223345241
1588764324318389231,4113,1588764324318277294,,2.18384547027,-6.60667156327,4.74652126867,0.801696787706,-0.0364031098468,-0.461238999143
1588764324323964617,4114,1588764324323890676,,2.15989633664,-6.60651305289,4.76955860363,0.807115775548,-0.0377911974048,-0.464966593518
1588764324330191523,4115,1588764324330090305,,2.36823627526,-6.74003232946,4.86660804485,0.830859978868,-0.039158341646,-0.490796276351
1588764324335987447,4116,1588764324335882769,,2.36871790956,-6.74018182145,4.86616658148,0.830854602283,-0.0390789835649,-0.490811703196
1588764324341970769,4117,1588764324341881810,,2.41467583373,-6.4755960731,4.91287376475,0.839959034373,-0.0397730870104,-0.502306341744
1588764324348067908,4118,1588764324347995091,,2.15850512721,-6.73979691784,4.88511883762,0.830430496466,-0.0390572115168,-0.478415986773
1588764324354155394,4119,1588764324354075122,,2.46068256675,-6.47607918773,4.95984792594,0.835578294909,-0.0356892947557,-0.482827730633
1588764324360188599,4120,1588764324360058565,,2.20437656105,-6.74014636255,4.93231271177,0.83468170663,-0.03769381128,-0.477137971907
1588764324366125795,4121,1588764324366013852,,2.36556494523,-6.74089985786,5.05171120077,0.855420408818,-0.0390890107454,-0.496871378318
1588764324372223218,4122,1588764324372110642,,2.36549316608,-6.74089099476,5.05175663881,0.855420783027,-0.0391002436865,-0.496869850247
1588764324378078059,4123,1588764324377989392,,2.50449336757,-6.74142604371,5.10109782133,0.867279856776,-0.0391384207832,-0.508625288614
1588764324384183596,4124,1588764324384078381,,2.64264799364,-6.74229901469,5.19657618826,0.881805543405,-0.0411778204051,-0.530437511241
1588764324390196464,4125,1588764324389990629,,2.64241965135,-6.74234019558,5.1966388729,0.881818811968,-0.0411894659669,-0.530414548592
1588764324396125600,4126,1588764324395990186,,2.64107897393,-6.74258539772,5.26636936018,0.889747353924,-0.0418868798476,-0.536709010716
1588764324402128357,4127,1588764324402013299,,2.71052631808,-6.87544277918,5.29115169506,0.895302909866,-0.0418976196016,-0.546273309174
1588764324408118760,4128,1588764324407996435,,2.33785830707,-7.00661402731,5.23778222649,0.879310751539,-0.042552628322,-0.513112818808
1588764324414265133,4129,1588764324414130360,,2.36107368329,-7.00672446567,5.23820986463,0.878174493712,-0.0392151858514,-0.502906799673
1588764324420168888,4130,1588764324420065831,,2.36068538052,-7.00694536942,5.23808938314,0.878182567313,-0.0392393022717,-0.502890820149
1588764324426140551,4131,1588764324426047419,,2.5216624015,-7.00802074258,5.33421501375,0.901783229391,-0.0413907316588,-0.522602004573
1588764324432159179,4132,1588764324431998791,,2.52088317837,-7.00853576289,5.33390666113,0.901770122485,-0.041481414142,-0.522617430953
1588764324438010674,4133,1588764324437865977,,2.7060788042,-7.00988723876,5.36043019213,0.911061923753,-0.0402595510055,-0.535965336337
1588764324443914931,4134,1588764324443845905,,2.65912445879,-7.00963050958,5.38287949055,0.915686243309,-0.0423053199584,-0.545377022826
1588764324450149868,4135,1588764324450037495,,2.79881433192,-7.00993204483,5.43224250415,0.922027488786,-0.041571311124,-0.555392226794
1588764324456161128,4136,1588764324456037803,,2.86864930239,-7.009877512,5.48027422155,0.922935970518,-0.0414967115945,-0.567754673124
1588764324462284861,4137,1588764324462107716,,2.86908946507,-7.00955572558,5.48045538876,0.922938556544,-0.0414534602172,-0.56775362886
1588764324468204008,4138,1588764324468048231,,2.89213511587,-7.00958916146,5.50417408447,0.922919276573,-0.041419069204,-0.573086338727
1588764324474077164,4139,1588764324473981684,,2.47305083217,-7.27287460943,5.45027234322,0.909718370373,-0.0420270582781,-0.541087641854
1588764324480180374,4140,1588764324479984190,,2.47127870788,-7.27368158688,5.44999925129,0.909725955473,-0.0422014184589,-0.541061317604
1588764324486098260,4141,1588764324485995473,,2.86667434569,-7.27519107504,5.52751086556,0.913741184674,-0.0354980605965,-0.534807435545
1588764324492223115,4142,1588764324492104512,,2.72562998616,-7.53975944066,5.59489581509,0.932409375436,-0.0368285884442,-0.531769174826
1588764324498091072,4143,1588764324497983622,,2.72609946706,-7.53956686687,5.59492659307,0.93242614793,-0.0367497960418,-0.531745216028
1588764324504183133,4144,1588764324504086763,,2.7956011312,-7.53961962278,5.66613182764,0.953450732654,-0.0387306496281,-0.55209646668
1588764324510206544,4145,1588764324510040910,,2.79559257246,-7.53962144846,5.66613362107,0.953456271626,-0.0387230138765,-0.552087436582
1588764324517047107,4146,1588764324516950524,,2.90827524471,-7.67421715393,5.71463686813,0.959938792622,-0.0404198478798,-0.569591640743
1588764324522188645,4147,1588764324522091544,,2.90805245812,-7.67430844268,5.71462765074,0.959936309179,-0.0404490634473,-0.569593752137
1588764324528165587,4148,1588764324528055123,,2.90869180305,-7.67389184841,5.73795210707,0.95717038025,-0.0410371610076,-0.576099107383
1588764324534181674,4149,1588764324534094557,,2.95515685226,-7.67384219524,5.78547467576,0.956078499762,-0.0402590442035,-0.580381823159
1588764324539917997,4150,1588764324539783301,,3.02605595386,-7.40860716628,5.80975383133,0.957049907031,-0.0415257595779,-0.590031102766
1588764324546476882,4151,1588764324546026680,,3.0721207069,-7.54127444703,5.85731032534,0.96240594959,-0.041504403616,-0.597924478637
1588764324552260131,4152,1588764324552130689,,3.16373308772,-7.54167237434,5.97548017315,0.983986100338,-0.0435372314277,-0.615371612353
1588764324558220359,4153,1588764324558100444,,3.16446165015,-7.54118509193,5.97570936591,0.983985431928,-0.0434686521709,-0.615377529246
1588764324564126811,4154,1588764324563993257,,3.21061064168,-7.54129557361,6.02310330775,0.998506587154,-0.0448005820532,-0.624036313705
1588764324569998010,4155,1588764324569921132,,2.97349933543,-7.67511221683,5.99494965112,0.999301100012,-0.0452924705672,-0.613607705396
1588764324576346916,4156,1588764324576258839,,3.08986102919,-7.67553006904,5.99736836706,0.983025670477,-0.0392656777771,-0.579154956956
1588764324582320410,4157,1588764324582111973,,2.78873749418,-7.80623402506,5.92210045148,0.976618656111,-0.0398078812616,-0.560114514331
1588764324588224481,4158,1588764324588094596,,2.88294566969,-7.67370588074,5.92376405469,0.97569331632,-0.0403724977921,-0.558600313798
1588764324594257203,4159,1588764324594138173,,2.81348868295,-7.67290822405,5.94599727215,0.981119208422,-0.0389373265546,-0.561690397989
1588764324600146315,4160,1588764324600043507,,2.90715630668,-7.67293290175,5.97120701863,0.981995185502,-0.0402001669373,-0.566599046932
1588764324606209467,4161,1588764324606082108,,2.86066120413,-7.67259104627,5.99356471468,0.986482251669,-0.0401395707697,-0.569579710445
1588764324612265018,4162,1588764324612156764,,2.97707472823,-7.67266275726,6.04249355745,0.990072316664,-0.0400586394226,-0.578843255606
1588764324618602198,4163,1588764324618480569,,2.95376762728,-7.67230930155,6.01926625011,0.991208349729,-0.0401116456822,-0.581697345403
1588764324624095071,4164,1588764324623991580,,2.99355655048,-7.67556853858,6.06591300809,0.99283660492,-0.0408286903895,-0.586871356722
1588764324629964478,4165,1588764324629855040,,3.01737336612,-7.67578818102,6.04279926008,0.99397505381,-0.0408357499706,-0.591318335617
1588764324636353547,4166,1588764324636122272,,3.04128106132,-7.67547797665,6.0666383896,0.995739193431,-0.040758166836,-0.595770404772
1588764324641953868,4167,1588764324641895040,,3.1332521266,-7.6757911603,6.16165214313,1.00634127804,-0.0414194216157,-0.605084076319
1588764324648193888,4168,1588764324648070937,,3.1343522154,-7.67551072108,6.16144198372,1.00634390303,-0.0412640776108,-0.605090324262
1588764324653893879,4169,1588764324653816353,,3.15898200838,-7.6752071496,6.16169062718,1.0101200363,-0.0418044281009,-0.611356426606
1588764324659975175,4170,1588764324659874059,,3.18268124118,-7.67513693885,6.18525867066,1.01552015955,-0.0417276043988,-0.61481419041
1588764324666041330,4171,1588764324665837735,,3.20598804351,-7.67509959309,6.20893096369,1.02000830731,-0.0423208434081,-0.616397682313
1588764324671997038,4172,1588764324671886560,,3.20641055566,-7.67458807415,6.23252874558,1.02450208195,-0.0422643748641,-0.620019014828
1588764324678009171,4173,1588764324677799805,,3.22999728681,-7.80681578715,6.2565803041,1.02622253783,-0.0421923048585,-0.621697383543
1588764324683891650,4174,1588764324683802591,,3.23004349989,-7.80654696462,6.27997553069,1.02793595713,-0.0421237894412,-0.622561698148
1588764324690431592,4175,1588764324690245166,,3.22996726764,-7.80616063093,6.30357804436,1.0297232817,-0.0420811584242,-0.626171949148
1588764324696300513,4176,1588764324696193606,,3.22278086721,-7.81022981956,6.30221565442,1.02969177123,-0.0429070699944,-0.626167717383
1588764324702252512,4177,1588764324702091159,,3.24499045166,-7.67799913964,6.32607697008,1.03328940809,-0.0430284684369,-0.629602643644
1588764324708280573,4178,1588764324708172083,,3.24585990048,-7.67738911939,6.32637127165,1.0332838465,-0.0429531166203,-0.62961691622
1588764324714246725,4179,1588764324714095273,,3.29232183301,-7.81006328585,6.35061091154,1.03963045862,-0.042847615039,-0.631922286192
1588764324720270486,4180,1588764324720107081,,3.29341428941,-7.80963692755,6.35056878626,1.03961761953,-0.0427301729081,-0.631951360372
1588764324726229443,4181,1588764324726069900,,3.29470372817,-7.67619722391,6.35090344077,1.04332790159,-0.04265093695,-0.634659542371
1588764324732179459,4182,1588764324732047982,,3.29532643154,-7.67592661312,6.3509074415,1.04334364231,-0.0425458030867,-0.634640722048
1588764324738188847,4183,1588764324738071346,,3.31919061329,-7.67560175493,6.35155295358,1.04433159233,-0.0424361680387,-0.636262467596
1588764324744257390,4184,1588764324744073706,,3.3201544117,-7.67485130726,6.35195604864,1.04432976793,-0.0423505764528,-0.63627116488
1588764324750263464,4185,1588764324750113654,,3.32096196823,-7.67417731037,6.35234820869,1.04343417522,-0.0429379237581,-0.637199295617
1588764324756660472,4186,1588764324756379936,,3.29874216031,-7.54124240654,6.35157683208,1.04255109864,-0.0421431782977,-0.638292606084
1588764324762232732,4187,1588764324762115505,,3.29923154195,-7.54070653618,6.35195885505,1.04255363101,-0.0421082021033,-0.638290778191
1588764324768210074,4188,1588764324768110400,,3.31419122872,-7.54581252293,6.35078502749,1.04347803549,-0.0431147862219,-0.640883880323
1588764324774193796,4189,1588764324774093612,,3.33680643502,-7.54606173343,6.35146730505,1.04534925684,-0.0432602427583,-0.643466587077
1588764324780237583,4190,1588764324780079177,,3.33799248891,-7.54524109344,6.35181901368,1.04532044475,-0.0431869152596,-0.643518316908
1588764324786216129,4191,1588764324786115958,,3.33854348356,-7.4127640591,6.35139429203,1.04541673335,-0.0430335944023,-0.645277289922
1588764324792051045,4192,1588764324791959041,,3.33966457722,-7.41224017751,6.35141630685,1.04540246021,-0.0429135304549,-0.6453084089
1588764324798127281,4193,1588764324798016400,,3.34113596242,-7.54390026319,6.32868176513,1.0446342141,-0.0428051060531,-0.646276001222
1588764324804044076,4194,1588764324803951045,,3.4122233445,-7.54402019259,6.30644334092,1.04304874614,-0.0420138304209,-0.650443437374
1588764324810108598,4195,1588764324810018439,,3.41296360616,-7.54363300519,6.30650592145,1.04306158443,-0.0419020367047,-0.650430061112
1588764324822329834,4196,1588764324822100248,,3.41473842306,-7.40991564469,6.30683307083,1.04309535279,-0.0424246400372,-0.65228797373
1588764324828091135,4197,1588764324827884320,,3.41620082821,-7.40879805523,6.30735404276,1.04311440794,-0.0422461471595,-0.652269086171
1588764324834356530,4198,1588764324834133602,,3.41723538239,-7.54077436161,6.28454445305,1.04147428335,-0.041481746735,-0.654133884261
1588764324840296378,4199,1588764324840176208,,3.44202608475,-7.54004211918,6.26213568687,1.03616058604,-0.0413329512326,-0.654027639705
1588764324846271436,4200,1588764324846082526,,3.43205456426,-7.54621876892,6.26016819642,1.03611216566,-0.0425202888669,-0.654028234569
1588764324852237353,4201,1588764324852113978,,3.40979080826,-7.41306586574,6.23659470241,1.03072850024,-0.0425584248174,-0.654338346046
1588764324858236598,4202,1588764324858138257,,3.41044233553,-7.4130522758,6.23625459713,1.03075873104,-0.0423929582496,-0.654301465156
1588764324864006109,4203,1588764324863919224,,3.41370332598,-7.41148614745,6.19009601067,1.02825102472,-0.0415028965682,-0.653495329034
1588764324870163064,4204,1588764324870060157,,3.41476226466,-7.41152846974,6.16639264072,1.02474721707,-0.0413557656068,-0.653545689417
1588764324876482371,4205,1588764324876051517,,3.41627515827,-7.27783905606,6.18989971016,1.02459150699,-0.0404945131676,-0.652638748447
1588764324882268440,4206,1588764324882146570,,3.371615189,-7.2772058996,6.11913296599,1.01851695964,-0.0403553978993,-0.647518801822
1588764324888232359,4207,1588764324888070667,,3.37288915241,-7.27602370238,6.11983666377,1.01854129773,-0.0402103534993,-0.647489541392
1588764324894300968,4208,1588764324894177373,,3.37377939347,-7.27562073257,6.09676089628,1.01324925677,-0.0394473355398,-0.648453158139
1588764324900303212,4209,1588764324900190089,,3.32981404335,-7.1418040713,6.00319418036,1.00184088502,-0.0392813012497,-0.641533155005
1588764324906290356,4210,1588764324906189946,,3.33034857828,-7.14153891269,6.00321310875,1.0018552982,-0.0391885973455,-0.641516316083
1588764324912224483,4211,1588764324912116703,,3.28567991164,-7.00826232495,5.93250266607,0.993002661535,-0.0383984507955,-0.633660600664
1588764324918567932,4212,1588764324918440401,,3.27562131706,-7.0148047963,5.93033218607,0.992945298061,-0.0396291708695,-0.633674717461
1588764324924094593,4213,1588764324923997111,,3.2529644267,-7.01433182864,5.90684573725,0.988450711092,-0.0383587544974,-0.633062544181
1588764324930186385,4214,1588764324930026762,,3.27760374061,-7.01425967022,5.88374425352,0.987658802112,-0.0381824923172,-0.631072046054
1588764324936509234,4215,1588764324936377758,,3.25665033716,-7.01287804483,5.86030562062,0.983140131889,-0.0380008455568,-0.628599687526
1588764324942180631,4216,1588764324942059732,,3.21067591408,-7.01272826949,5.85897468899,0.98214720519,-0.037869146338,-0.625254783007
1588764324948184477,4217,1588764324948083808,,3.21229752306,-6.87903211285,5.83630138472,0.979533201905,-0.037763195415,-0.62342994839
1588764324954267546,4218,1588764324954146246,,3.21303660293,-6.87882410787,5.81307247213,0.97698291582,-0.0376742972788,-0.624353212897
1588764324960264138,4219,1588764324960169323,,3.19139535932,-6.74505575562,5.76671617025,0.970837466733,-0.0369112400569,-0.620878688464
1588764324966186871,4220,1588764324966071891,,3.19202752813,-6.74473944029,5.74367462706,0.96458767367,-0.0361530526994,-0.619084442692
1588764324972346755,4221,1588764324972234961,,3.1930417815,-6.74393652866,5.72099516682,0.960155526983,-0.0360312867576,-0.616329853495
1588764324978174489,4222,1588764324978091760,,3.19345741979,-6.74378220988,5.72094508219,0.960156981977,-0.035968839285,-0.616331234396
1588764324984345456,4223,1588764324984186219,,3.17081823569,-6.87592687942,5.69745218008,0.957565795477,-0.0352276275778,-0.616501845594
1588764324990157826,4224,1588764324990047068,,3.17223558127,-6.74303641456,5.67385843571,0.954035398168,-0.035105593073,-0.615661365824
1588764324996613621,4225,1588764324996192006,,3.17324254083,-6.74275972284,5.67362417832,0.951273842414,-0.0349783626712,-0.615737679429
1588764325002193819,4226,1588764325002102455,,3.17406519589,-6.74240112161,5.65053192065,0.947721511183,-0.0349316499257,-0.613965380048
1588764325008070777,4227,1588764325007934522,,3.14001742986,-6.74975410586,5.60096997764,0.943339552604,-0.0363310798464,-0.612368723338
1588764325014203067,4228,1588764325014055586,,3.11581820956,-6.75019836563,5.53115526415,0.939112739419,-0.0366406664181,-0.608918583097
1588764325020071816,4229,1588764325019923129,,3.11874406688,-6.61631362102,5.50796520819,0.934660228392,-0.035680423448,-0.607149566799
1588764325026071844,4230,1588764325025966531,,3.14328076558,-6.61576627544,5.5084932326,0.930979140653,-0.0348515772357,-0.606153198777
1588764325032314509,4231,1588764325032216928,,3.07564315262,-6.61463764183,5.4376219951,0.921243584361,-0.0340041198948,-0.600317057715
1588764325038163981,4232,1588764325037980070,,3.07596436959,-6.61437635654,5.4377581325,0.921263081539,-0.0339422911497,-0.600290635563
1588764325044079897,4233,1588764325043975515,,3.05345700234,-6.61378856807,5.41424321205,0.916775569912,-0.0339063368026,-0.597770684433
1588764325050124759,4234,1588764325050011112,,3.03142217489,-6.48091580527,5.39023898377,0.915037823102,-0.033121689976,-0.594259627063
1588764325059068785,4235,1588764325058970402,,3.01010824854,-6.47995586947,5.32038220344,0.90895483567,-0.0323149659637,-0.588045196325
1588764325065300685,4236,1588764325065188245,,3.01046675775,-6.47974674478,5.32043405682,0.90803081645,-0.0322632940529,-0.587140560393
1588764325071295536,4237,1588764325071202984,,2.98834315719,-6.34683843468,5.29650208232,0.901680719786,-0.0314944273754,-0.582801155565
1588764325077062263,4238,1588764325076979306,,2.98867717907,-6.34671506852,5.29646144207,0.901676703389,-0.0314528057604,-0.582809617193
1588764325083438489,4239,1588764325083300999,,2.94335544504,-6.34617199835,5.24901968858,0.896436381586,-0.0320380094083,-0.580432181665
1588764325089439763,4240,1588764325089252890,,2.92035194971,-6.34600016746,5.24851490704,0.890839170086,-0.0319872245232,-0.575157943717
1588764325095160640,4241,1588764325095064432,,2.92087607631,-6.34572763655,5.24855276001,0.890837042762,-0.0319250133769,-0.575164695089
1588764325101232346,4242,1588764325101110581,,2.8985946609,-6.34535574611,5.20170945702,0.887439994817,-0.031211529543,-0.573532826684
1588764325107125383,4243,1588764325107005400,,2.87620380035,-6.34488034117,5.17817971325,0.883872177515,-0.0318239065796,-0.570979152133
1588764325113096788,4244,1588764325113030319,,2.89971426166,-6.34476121185,5.17874890859,0.884777242792,-0.0311320515019,-0.570820562128
1588764325119456350,4245,1588764325119373901,,2.87729023956,-6.34422752692,5.15521547118,0.881258080527,-0.0310861476427,-0.570104900773
1588764325125010492,4246,1588764325124934066,,2.92383589236,-6.21175469851,5.17917919963,0.881125640286,-0.0303973169748,-0.570732177944
1588764325131254775,4247,1588764325131158277,,2.9251507639,-6.07897263038,5.13235767985,0.879653416653,-0.030330032616,-0.573506126153
1588764325137115980,4248,1588764325137044450,,2.92537652687,-6.07881885114,5.13241114268,0.879651340754,-0.0303078515188,-0.573510482806
1588764325143481203,4249,1588764325143382502,,2.92626251726,-6.07851107389,5.10921586381,0.877072471897,-0.0309144909001,-0.574475333107
1588764325149195907,4250,1588764325149131003,,2.92645243147,-6.07842555032,5.1092088364,0.87707114352,-0.0308902966498,-0.574478662644
1588764325155440944,4251,1588764325155262920,,2.92651422307,-6.07824006964,5.13244802647,0.877850948213,-0.0301830311011,-0.57539694871
1588764325161268414,4252,1588764325161163391,,2.92712121499,-5.94561297997,5.10897850481,0.877124738472,-0.0301637726042,-0.577248464245
1588764325167253839,4253,1588764325167133873,,2.92743404075,-5.94539161422,5.10905687657,0.877127648735,-0.030122952394,-0.577246173702
1588764325173214152,4254,1588764325173148292,,2.95083427116,-5.94534885134,5.10957412187,0.879864684259,-0.0301180372188,-0.577063401099
1588764325179302399,4255,1588764325179105303,,2.95114897818,-5.81277052665,5.10926002553,0.880830741942,-0.0300831420009,-0.579799528935
1588764325185114282,4256,1588764325185025007,,2.95128317033,-5.81267691001,5.1092890194,0.880828900814,-0.0300701685192,-0.579802998949
1588764325191289542,4257,1588764325191197800,,2.95151864851,-5.68011249383,5.1090037431,0.882631978742,-0.0300436515556,-0.578866046193
1588764325197220455,4258,1588764325197103647,,2.95206966004,-5.68000563661,5.08575395467,0.882760409263,-0.0300191137946,-0.577953584665
1588764325203129907,4259,1588764325203056894,,2.95234108273,-5.54746747429,5.08541797241,0.882775882604,-0.0299859329138,-0.57887721976
1588764325209188693,4260,1588764325209115803,,2.92915061884,-5.54734844443,5.08496723399,0.887302816709,-0.0299832557612,-0.577134705852
1588764325215741136,4261,1588764325215614059,,2.92944637438,-5.54725387009,5.08490003077,0.887291425274,-0.0299529782291,-0.577153791112
1588764325221217568,4262,1588764325221099270,,2.95282210965,-5.54726756322,5.08535675955,0.888216314758,-0.0292657670675,-0.577909532517
1588764325227224958,4263,1588764325227144786,,2.92972141754,-5.4147513954,5.08452288276,0.89182668625,-0.0299284463154,-0.576193847182
1588764325233097711,4264,1588764325232987481,,2.9297971564,-5.41472320494,5.08450926245,0.891825870785,-0.029916869239,-0.576195710562
1588764325239103805,4265,1588764325239031359,,2.93002189773,-5.41462618089,5.08448308127,0.891816195542,-0.0292254443194,-0.576212533915
1588764325245279466,4266,1588764325245191107,,2.92964299162,-5.28230381167,5.10734806162,0.896186143151,-0.0299045386261,-0.57431930774
1588764325251349048,4267,1588764325251178584,,2.92977792894,-5.2822563402,5.10731975533,0.896180229737,-0.0298916849188,-0.574329204248
1588764325257204942,4268,1588764325257113644,,2.92978662444,-5.14994493798,5.10691020828,0.900763294386,-0.0298909687779,-0.575186206775
1588764325263369028,4269,1588764325263280377,,2.95282369721,-5.1500518336,5.13051527216,0.901539241768,-0.0298758287288,-0.575955883267
1588764325269169113,4270,1588764325269080165,,2.95282984674,-5.15004790882,5.13051567256,0.901537242261,-0.0298789241737,-0.575958852494
1588764325275173870,4271,1588764325275061192,,2.9532658928,-5.0176892517,5.10686828159,0.904431626646,-0.0298749389051,-0.576857123428
1588764325281501728,4272,1588764325281282633,,2.97574542023,-4.88555286794,5.15340751213,0.910565231526,-0.0292159673632,-0.578460318783
1588764325287284651,4273,1588764325287190834,,2.99918876199,-4.88562747058,5.15381993905,0.911483648635,-0.0285391420872,-0.579228964875
1588764325293414778,4274,1588764325293201562,,2.99919689116,-4.88563024463,5.1538125787,0.911483835815,-0.0285364508911,-0.579228802918
1588764325299393465,4275,1588764325299278211,,2.97549168589,-4.88561121985,5.17665031059,0.913148941758,-0.0292125524173,-0.578441895729
1588764325305225471,4276,1588764325305129444,,2.95266180049,-4.75323438353,5.15242171782,0.915092079577,-0.0292101783729,-0.577666375694
1588764325311185790,4277,1588764325311083924,,2.97547477533,-4.62111286439,5.17583709495,0.916808217276,-0.0292129641514,-0.579322144765
1588764325317254215,4278,1588764325317160877,,2.97503663043,-4.48889186746,5.19872846894,0.91940063402,-0.029219917037,-0.579284456149
1588764325326253093,4279,1588764325326152694,,2.97491739224,-4.35654605532,5.19850212443,0.92036877956,-0.0292281412178,-0.581093708728
1588764325332449185,4280,1588764325332274060,,2.99860513704,-4.35645308876,5.1758665065,0.91962750455,-0.0285602127982,-0.581862378892
1588764325338305572,4281,1588764325338215143,,2.97515868931,-4.22411732274,5.17509179096,0.919613681564,-0.0285647884556,-0.581086380637
1588764325344201489,4282,1588764325344089936,,2.97514377705,-4.22411434344,5.17510279581,0.920519701745,-0.029246206911,-0.581074652461
1588764325350171226,4283,1588764325350073148,,2.97462413246,-3.95974250773,5.19765570389,0.924950918053,-0.0285844972659,-0.58100570352
1588764325362330683,4284,1588764325362200744,,2.97463843575,-3.95967095605,5.19770202777,0.92765899074,-0.0292735387389,-0.580047805247
1588764325368264210,4285,1588764325368141274,,2.97459240393,-3.82750637112,5.19733463677,0.931276932701,-0.0286074435393,-0.578171261348
1588764325374128323,4286,1588764325374031547,,2.97459457303,-3.82750518867,5.19733426612,0.934944306513,-0.0279580309844,-0.579039239655
1588764325380308365,4287,1588764325380215852,,2.97451442504,-3.69535606576,5.19699090372,0.937667049897,-0.0286322066822,-0.578084485915
1588764325386410505,4288,1588764325386268019,,2.95113629458,-3.56314107339,5.19620889336,0.943130964183,-0.0286480660465,-0.577230445287
1588764325392390698,4289,1588764325392279136,,2.95107903484,-3.43101451376,5.19586762843,0.947697902312,-0.0286634558616,-0.577166936527
1588764325398412485,4290,1588764325398297928,,2.95102328773,-3.43103877314,5.19588327123,0.947700568332,-0.0286717374335,-0.577162147602
1588764325404273887,4291,1588764325404180709,,2.97384931377,-3.29913239222,5.21920736411,0.95307404248,-0.0280165924663,-0.578766540767
1588764325410210860,4292,1588764325410015606,,2.97336707621,-3.16720520071,5.24207776795,0.955647901339,-0.0293678185205,-0.577809835542
1588764325422175145,4293,1588764325422094288,,2.97292646015,-2.90373700239,5.26442747208,0.966437084245,-0.0286761461312,-0.576753106036
1588764325428265224,4294,1588764325428151673,,2.99549212248,-2.77215907855,5.3109518098,0.974404610695,-0.0286719245146,-0.578321040993
1588764325434342137,4295,1588764325434231253,,2.99464717253,-2.50853250318,5.35687179811,0.986008729535,-0.0293778395752,-0.579064833513
1588764325440239354,4296,1588764325440158866,,2.99460966411,-2.5085901483,5.35686577173,0.986009626114,-0.029385369952,-0.57906292476
1588764325446271334,4297,1588764325446186332,,2.99455105666,-2.3767922482,5.35654936889,0.993321378246,-0.028741097602,-0.578958924656
1588764325452450122,4298,1588764325452318898,,3.01777307457,-2.24501947325,5.35675338297,0.999774585558,-0.0287583093917,-0.581469557612
1588764325458245553,4299,1588764325458129672,,3.01774936137,-2.24508969296,5.35673731233,1.00165982033,-0.0294398174723,-0.584185193173
1588764325464252337,4300,1588764325464166888,,3.06357710265,-2.11353721464,5.40394304253,1.00690392705,-0.0287947389597,-0.58656440698
1588764325470333557,4301,1588764325470236929,,3.0635905183,-1.84993716205,5.40344251914,1.0170074477,-0.0301829590387,-0.589173204345
1588764325476950242,4302,1588764325476808077,,3.06368932085,-1.5863510851,5.40299348357,1.02251219507,-0.0301993299894,-0.590011733555
1588764325482344860,4303,1588764325482231829,,3.0872309878,-1.32285101448,5.40309131851,1.02438734397,-0.0308721249296,-0.592595605469
1588764325488366789,4304,1588764325488240890,,3.08726429008,-1.32302241415,5.40303032284,1.02437954485,-0.0308854422763,-0.592608393264
1588764325494334960,4305,1588764325494202783,,3.06366872616,-1.1912766659,5.42569571196,1.02691544809,-0.0308924213295,-0.589977809407
1588764325500505447,4306,1588764325500373894,,3.086737798,-0.796107214348,5.47229790807,1.03761639943,-0.0309193462645,-0.591523452069
1588764325506241348,4307,1588764325506125175,,3.08679974454,-0.796242490929,5.47224328386,1.03760686167,-0.0309380298828,-0.59153920547
1588764325512367168,4308,1588764325512272451,,3.13374730823,-0.532841067304,5.4730818636,1.04497807315,-0.0309504194682,-0.594819652045
1588764325518646995,4309,1588764325518568830,,3.13377048445,-0.532939836387,5.47305897667,1.044974559,-0.0309552031186,-0.594825576716
1588764325524218274,4310,1588764325524136268,,3.133602279,-0.401214206665,5.49626237805,1.05217498887,-0.030975224912,-0.596553448057
1588764325530221238,4311,1588764325530063394,,3.1343348975,-0.137770538229,5.47297178188,1.05781853748,-0.0309893757837,-0.597394339739
1588764325536926775,4312,1588764325536356027,,3.1344226518,0.125692938271,5.49626695329,1.06410919018,-0.0316720798614,-0.599148237867
1588764325542421687,4313,1588764325542283588,,3.13390610242,0.389100480178,5.56622656682,1.07828130869,-0.0317083049267,-0.598954005172
1588764325548244303,4314,1588764325548119389,,3.13395085087,0.389033854888,5.56620602922,1.07827651283,-0.0317038306005,-0.5989628758
1588764325551245208,4315,1588764325551143442,,3.18072017884,0.652486841966,5.5906175622,1.08456486438,-0.0310420810444,-0.601340318075
1588764325557168678,4316,1588764325557096921,,3.15748356638,0.652515288548,5.59010556617,1.08638167216,-0.0310395105047,-0.600551481392
1588764325566246178,4317,1588764325566160518,,3.15736381044,1.04803294071,5.66033513807,1.10060532677,-0.0316897366113,-0.603127429657
1588764325572450930,4318,1588764325572332840,,3.2042460508,1.44359787631,5.70845559174,1.11138433061,-0.0316845945024,-0.608199389712
1588764325578379633,4319,1588764325578183592,,3.2042758794,1.44361632386,5.70843418317,1.11137965717,-0.0316687724048,-0.608208753622
1588764325584298727,4320,1588764325584228979,,3.20402794109,1.57551853894,5.75507785413,1.12026274588,-0.0316825016044,-0.610861202106
1588764325590300428,4321,1588764325590223434,,3.22727683829,1.70744235285,5.77912761868,1.1293274413,-0.0316850816485,-0.614259196393
1588764325596340809,4322,1588764325596196156,,3.29716934116,2.10332743956,5.85107993704,1.14741014065,-0.0330475003652,-0.625484240696
1588764325602256889,4323,1588764325602122077,,3.29645152338,2.23538790772,5.92117878458,1.15528959872,-0.0337363742872,-0.629955667638
1588764325608377955,4324,1588764325608239985,,3.29647949661,2.23535691238,5.92117491261,1.15528839387,-0.0337461473894,-0.629957353773
1588764325614410345,4325,1588764325614288749,,3.34256795079,2.63144128978,6.01610511577,1.17401571794,-0.0344625306564,-0.634876922539
1588764325620375164,4326,1588764325620276925,,3.3419612136,2.76348155511,6.06314950377,1.18567079553,-0.0344927920956,-0.636493688947
1588764325626207168,4327,1588764325626137248,,3.34199657994,2.76346477794,6.06313765673,1.18566885398,-0.0345016775035,-0.63649682411
1588764325632322683,4328,1588764325632244773,,3.36486219706,2.89554817289,6.11049749941,1.19369354581,-0.034531192732,-0.639870873521
1588764325638309929,4329,1588764325638241424,,3.41037883275,3.15989076572,6.22848753652,1.21686216363,-0.0352468849021,-0.645646538778
1588764325644193666,4330,1588764325644123612,,3.41038027532,3.15984891179,6.22850798018,1.21686364771,-0.0352513228631,-0.645643499405
1588764325650060085,4331,1588764325649968668,,3.40922069415,3.55641926465,6.36904513351,1.24169676733,-0.0353052791417,-0.650771947272
1588764325653076192,4332,1588764325652990754,,3.40925216877,3.55634836781,6.36906787344,1.24169681554,-0.0353138554893,-0.650771389945
1588764325659239603,4333,1588764325659126281,,3.43177786416,3.82068509337,6.46333077748,1.26131041986,-0.0360323223398,-0.653977387966
1588764325665157135,4334,1588764325665036966,,3.43163642262,3.82062501921,6.46344138646,1.26132628247,-0.03603336409,-0.653946735829
1588764325671181654,4335,1588764325671091428,,3.43131585401,4.08510687148,6.53390170254,1.27552503139,-0.0367422680404,-0.654667402718
1588764325677423925,4336,1588764325677273283,,3.45426274286,4.34959350491,6.60492063353,1.2888832402,-0.0367728454299,-0.657978541724
1588764325683285566,4337,1588764325683200970,,3.52256133692,4.87896413014,6.79379059599,1.3143985269,-0.037493556231,-0.665386244464
1588764325689080020,4338,1588764325688956421,,3.52264632347,4.87884768018,6.79383015766,1.3143955966,-0.0375024753667,-0.665391530291
1588764325695186173,4339,1588764325695066063,,3.52229958826,4.87882914124,6.81709590618,1.32527441894,-0.0368469414862,-0.667983133141
1588764325701166578,4340,1588764325701079511,,3.5446213064,5.0111365703,6.91095008845,1.33755878216,-0.0375741632231,-0.671332897343
1588764325704100068,4341,1588764325703996239,,3.59101357558,5.27576077498,6.98235636648,1.34998563254,-0.0369406235325,-0.674521424377
1588764325707083558,4342,1588764325706960013,,3.56764516324,5.40800099744,7.02878517426,1.35428379396,-0.0376915655148,-0.675539411352
1588764325710562024,4343,1588764325710483197,,3.59066486644,5.40792436813,7.05250389261,1.36517667753,-0.0370498871433,-0.678902693839
1588764325716393542,4344,1588764325716309918,,3.59068429315,5.40780729571,7.05258377257,1.36518172965,-0.0370631100551,-0.678891812903
1588764325722317951,4345,1588764325722216736,,3.5902833017,5.67260945589,7.12306819336,1.37112382131,-0.0377594316637,-0.677872139913
1588764325728244933,4346,1588764325728112107,,3.59005669205,5.67266506977,7.14621639137,1.37831958635,-0.0371103700987,-0.679624403506
1588764325734141889,4347,1588764325734062854,,3.61306616782,5.80504676091,7.19350797056,1.38261875209,-0.0371260567743,-0.680325839624
1588764325740232051,4348,1588764325740145480,,3.63596613272,5.93740467042,7.24092661342,1.38873512521,-0.0364789185211,-0.68007066689
1588764325746225443,4349,1588764325746139965,,3.63583578683,6.06966914089,7.28775908673,1.39297700958,-0.0371981887196,-0.679097392904
1588764325752743645,4350,1588764325752617455,,3.61246405755,6.33459069485,7.33461631732,1.39908527392,-0.0358820588526,-0.678213692383
1588764325758322518,4351,1588764325758240273,,3.63524158814,6.4668632888,7.40527894467,1.40323651853,-0.0359531133955,-0.678911783564
1588764325764287000,4352,1588764325764159814,,3.63520225885,6.4667318445,7.40541303623,1.4032439737,-0.0359530663303,-0.678896376809
1588764325770458288,4353,1588764325770369411,,3.61116094605,6.5991554466,7.47519587991,1.40919726905,-0.035963094962,-0.678040658071
1588764325776062635,4354,1588764325776010851,,3.58765929097,6.59890238615,7.49812151229,1.40715762629,-0.035368913592,-0.674528746544
1588764325782385344,4355,1588764325782278116,,3.56428694523,6.46612000791,7.49752994491,1.39155705079,-0.0353948324424,-0.672156093859
1588764325788285226,4356,1588764325788192795,,3.56583022451,6.20082400342,7.38044468868,1.37026820871,-0.034722450227,-0.669752655902
1588764325794378821,4357,1588764325794290777,,3.614069838,5.93555773331,7.24130333258,1.35295965473,-0.0340277751277,-0.674290836954
1588764325800469340,4358,1588764325800370214,,3.71114229021,6.3322743505,7.10466445907,1.34499455494,-0.0347167502931,-0.688486860589
1588764325806369778,4359,1588764325806240407,,3.71101870974,6.33219540632,7.10479937059,1.34500875965,-0.0347156648043,-0.688459164986
1588764325812349513,4360,1588764325812246500,,3.78221187583,6.5965469456,7.1070289423,1.34706300779,-0.036150551356,-0.698983888613
1588764325818728700,4361,1588764325818628264,,3.78212562333,6.59644753439,7.10716711224,1.34707319762,-0.0361455644057,-0.698964508603
1588764325824407774,4362,1588764325824274823,,3.85327041943,6.59603471764,7.08516461016,1.34736338881,-0.0362533412872,-0.706821453341
1588764325830258207,4363,1588764325830196123,,3.90101879942,6.72828778396,7.06314124426,1.34861710967,-0.0369420066219,-0.716617741267
1588764325839304637,4364,1588764325839227666,,4.11165781399,7.12496424991,7.13832978352,1.34340476326,-0.0376453553117,-0.750244373893
1588764325845319890,4365,1588764325845247680,,4.15931637281,7.25679721851,7.13985790507,1.34359781131,-0.0377248499257,-0.759111091989
1588764325851505996,4366,1588764325851400456,,4.27624167662,7.38877489986,7.16599166817,1.34661459603,-0.0384256745337,-0.778504104091
1588764325857345972,4367,1588764325857198298,,4.27663541086,7.38821047666,7.16633863986,1.34663345919,-0.0385104448746,-0.778467285772
1588764325866129684,4368,1588764325866006247,,4.27669812068,7.12213839607,7.18921210275,1.34743559962,-0.0373947203891,-0.780296847377
1588764325869163023,4369,1588764325868983050,,4.30124463446,7.12173271179,7.14323470638,1.34404737573,-0.0367919565349,-0.779281972662
1588764325875345842,4370,1588764325875257311,,4.25685223165,7.12082815631,7.11885721423,1.34129339735,-0.0376772247326,-0.77512980151
1588764325881234357,4371,1588764325881158053,,4.16605879573,7.12046460853,7.00078560514,1.34629598675,-0.0378004957957,-0.761888480034
1588764325887077476,4372,1588764325887017631,,4.16728759887,7.1197941244,7.00073616946,1.34627730276,-0.0380084778518,-0.761911147777
1588764325890545342,4373,1588764325890472940,,4.12131738069,7.11935595431,6.97691224703,1.34722011653,-0.0374343277982,-0.75480379019
1588764325896664694,4374,1588764325896609278,,4.07651219593,7.11853259643,6.92967808135,1.33993811947,-0.0369132238266,-0.743284565295
1588764325902364502,4375,1588764325902192291,,4.07693736672,7.11813793152,6.9298333614,1.33994159785,-0.0369909502134,-0.743274430512
1588764325908179155,4376,1588764325908109561,,4.05501805906,7.11736828298,6.90638998041,1.3308648622,-0.0357468924997,-0.739916057083
1588764325914207536,4377,1588764325914135828,,4.05567681713,7.11690108759,6.9064846167,1.33085312335,-0.0358397690402,-0.739932678231
1588764325920154108,4378,1588764325920084158,,4.08060484621,7.11556100893,6.90729437435,1.32713689912,-0.0346608854072,-0.738987455089
1588764325923374333,4379,1588764325923275786,,4.05750141708,7.11518113419,6.9302121242,1.32514193619,-0.0340721961364,-0.738251113198
1588764325929532134,4380,1588764325929443976,,4.05885673253,7.11409711678,6.93053133939,1.32513882022,-0.03429975554,-0.738246168736
1588764325935093035,4381,1588764325934999638,,4.08331551094,7.24595399746,6.95469431393,1.32865305046,-0.0337635385639,-0.738985931348
1588764325941258251,4382,1588764325941201296,,4.08490042812,7.37738542836,6.97880512684,1.3404357862,-0.0340256197566,-0.740633300779
1588764325947188389,4383,1588764325947095183,,4.10943779985,7.6419335222,7.02666848322,1.34842438836,-0.0341750772898,-0.742158774667
1588764325950152886,4384,1588764325950094961,,4.13396723351,7.77361448635,7.0511602973,1.35744172585,-0.0343582239118,-0.742774621163
1588764325959266743,4385,1588764325959160486,,4.06274067334,7.77345098024,7.14317076137,1.38136847426,-0.0339093604449,-0.73269964197
1588764325965185438,4386,1588764325965125522,,4.06278162161,7.77341314644,7.14318864353,1.38136958286,-0.0339179834332,-0.732697152783
1588764325968161502,4387,1588764325968076962,,4.01503568486,7.64081840083,7.16536068156,1.38198845196,-0.0332902335444,-0.724689187855
1588764325971181649,4388,1588764325971107181,,4.01559234057,7.64039480164,7.16550043691,1.38103891223,-0.0327253739905,-0.722849225056
1588764325977200735,4389,1588764325977125580,,3.99368195685,7.64022730942,7.09529464218,1.37498361382,-0.0327480177978,-0.718500791443
1588764325980118794,4390,1588764325980053751,,3.99506618344,7.64001166053,7.00253388632,1.3628913291,-0.0313235936086,-0.723228020358
1588764325983262996,4391,1588764325983210426,,4.0400915225,7.5074144874,7.02648286242,1.36102663808,-0.0319067435945,-0.727527471095
1588764325986180762,4392,1588764325986047652,,4.08764720874,7.50713903768,7.00397953067,1.36400712533,-0.0319821497784,-0.732718868768
1588764325989135612,4393,1588764325989051486,,4.13411519907,7.50677668198,6.98220835697,1.36712791628,-0.0319225042376,-0.741480389872
1588764325995266808,4394,1588764325995195288,,4.20438910672,7.3737338603,6.98283292344,1.36821936655,-0.0333923950098,-0.752105966011
1588764326001376040,4395,1588764326001278265,,4.34370334891,7.37281379015,7.03247184192,1.38034348363,-0.0340906598387,-0.776713592636
1588764326007442676,4396,1588764326007345769,,4.41240793637,7.1073497571,7.05616604567,1.39248104466,-0.035603871815,-0.796302288668
1588764326013287139,4397,1588764326013196303,,4.45845577798,7.1068851719,7.10377903202,1.39969873498,-0.0356683701322,-0.805059442026
1588764326019637274,4398,1588764326019549813,,4.45856026573,7.10639538081,7.12720388135,1.39859455859,-0.0351068954668,-0.802296833906
1588764326025387280,4399,1588764326025295711,,4.45813997344,7.10609593186,7.17386656123,1.40286733216,-0.0338504509139,-0.801307124979
1588764326031275517,4400,1588764326031158772,,4.45869057489,7.10570120436,7.17391536093,1.4028567864,-0.0339338363126,-0.801322060607
1588764326037150618,4401,1588764326037054291,,4.43585801538,7.10500721225,7.19695449049,1.40448933616,-0.0340289757525,-0.800571805442
1588764326040158595,4402,1588764326040096060,,4.41332544606,7.36978647077,7.2672545196,1.41403344511,-0.0341323582256,-0.79690158118
1588764326043559670,4403,1588764326043467306,,4.41257649273,7.36956852054,7.33705157403,1.42810507191,-0.0342627639157,-0.792114327341
1588764326049362628,4404,1588764326049298796,,4.36640495469,7.50194989622,7.38310280966,1.43506435127,-0.0337298026967,-0.788629206577
1588764326052197127,4405,1588764326052103561,,4.36668356669,7.50154404959,7.38335039614,1.43508394861,-0.0338087329629,-0.788590164389
1588764326055245760,4406,1588764326055110627,,4.36618604123,7.36875131525,7.38300331751,1.4377563414,-0.0338842403339,-0.785798686246
