%time,field.header.seq,field.header.stamp,field.header.frame_id,field.vector.x,field.vector.y,field.vector.z
1588856747839182412,8189,1588856747839080228,,0.177843748661,-1.94605464928,1.93752369195
1588856747845101026,8190,1588856747845035909,,0.178157525979,-2.0032651934,1.96536751444
1588856747851000719,8191,1588856747850914888,,0.178451459751,-2.06087782642,1.99381455592
1588856747857073636,8192,1588856747856996432,,0.178610477011,-2.11917226002,2.02218606914
1588856747863074220,8193,1588856747863006258,,0.178850842237,-2.17777366207,2.05124605647
1588856747869015208,8194,1588856747868936990,,0.179083945657,-2.23690306585,2.08001949753
1588856747875026406,8195,1588856747874960696,,0.179208276031,-2.23731801393,2.07939338678
1588856747881374791,8196,1588856747881299235,,0.179437093346,-2.29683895778,2.10869607354
1588856747884100532,8197,1588856747884052809,,0.179700946987,-2.35681059534,2.13821535815
1588856747888745833,8198,1588856747888681586,,0.179921359457,-2.40480043544,2.16186510718
1588856747890406450,8199,1588856747890339141,,0.180165044665,-2.41747325413,2.16759263337
1588856747896460359,8200,1588856747896362018,,0.180328356834,-2.47819498511,2.19768902884
1588856747902382397,8201,1588856747902330844,,0.180454468645,-2.53931672405,2.22787269947
1588856747908401424,8202,1588856747908332930,,0.180566170604,-2.53941480797,2.22771522873
1588856747914367822,8203,1588856747914307511,,0.180797174978,-2.60068883625,2.25821087779
1588856747920563496,8204,1588856747920495578,,0.180945379529,-2.66243369068,2.28888125341
1588856747923411918,8205,1588856747923310653,,0.181055424093,-2.72451164636,2.31959516257
1588856747929453426,8206,1588856747929386831,,0.181289260194,-2.78687906898,2.35041995001
1588856747935551620,8207,1588856747935470847,,0.181482301412,-2.83494088434,2.37418659015
1588856747941269650,8208,1588856747941164909,,0.181687283951,-2.84945925143,2.38098305185
1588856747947444490,8209,1588856747947336645,,0.181870266641,-2.91239020498,2.41205766018
1588856747953479177,8210,1588856747953407613,,0.182138449099,-2.9755164262,2.44323036047
1588856747956619002,8211,1588856747956522538,,0.182398243195,-3.03867775344,2.47455091507
1588856747962431705,8212,1588856747962346236,,0.182523226813,-3.10233683896,2.50571785545
1588856747968232333,8213,1588856747968129020,,0.182806631225,-3.1022098096,2.50532738644
1588856747974332403,8214,1588856747974252242,,0.183049086857,-3.1660129845,2.5365919015
1588856747980332443,8215,1588856747980250815,,0.183303309867,-3.22969654296,2.56806417747
1588856747986313000,8216,1588856747986225258,,0.183549435894,-3.29361242055,2.59965605661
1588856747990773351,8217,1588856747990675882,,0.183820711215,-3.35738244013,2.63125957169
1588856747995320339,8218,1588856747995228501,,0.184129757009,-3.40410389297,2.65422946709
1588856748001457027,8219,1588856748001357243,,0.184378597056,-3.42100878865,2.66238137709
1588856748007590992,8220,1588856748007465271,,0.184727772452,-3.48493839345,2.69398165549
1588856748013325873,8221,1588856748013269350,,0.185103370175,-3.54865400063,2.72577352912
1588856748019545342,8222,1588856748019487568,,0.185464526836,-3.61271267483,2.75742639459
1588856748022620696,8223,1588856748022519350,,0.18600741052,-3.67633213505,2.78915744892
1588856748028426986,8224,1588856748028333410,,0.186454093216,-3.67516944716,2.78844733884
1588856748034324065,8225,1588856748034253769,,0.186962482083,-3.73884772965,2.8203243136
1588856748040286191,8226,1588856748040212579,,0.187534700124,-3.80236930846,2.85217475184
1588856748046365477,8227,1588856748046270696,,0.187950138484,-3.86592645235,2.88400014783
1588856748052312932,8228,1588856748052237240,,0.188534808758,-3.92921769472,2.91578933469
1588856748055700406,8229,1588856748055589929,,0.18906149566,-3.99259393747,2.94762184575
1588856748059559609,8230,1588856748059483976,,0.189617020253,-3.99098267484,2.94700758708
1588856748064254140,8231,1588856748064181385,,0.190203596205,-4.054058934,2.97873594973
1588856748070283943,8232,1588856748070212669,,0.190846441532,-4.11685794522,3.01057068839
1588856748076224645,8233,1588856748076140426,,0.191430221698,-4.17929133199,3.04199344389
1588856748082382338,8234,1588856748082311763,,0.192154606975,-4.24025942269,3.07326182419
1588856748088356540,8235,1588856748088278423,,0.192720202485,-4.23741423134,3.07225763632
1588856748092934528,8236,1588856748092864299,,0.193308078647,-4.30011595,3.1037209523
1588856748097256985,8237,1588856748097194181,,0.193734761889,-4.36226745799,3.13487304727
1588856748103338611,8238,1588856748103282727,,0.194181477696,-4.42404042327,3.16609601482
1588856748109288933,8239,1588856748109219469,,0.194677317785,-4.48572578859,3.19710590752
1588856748115477251,8240,1588856748115390306,,0.195261202121,-4.54711094462,3.22815998494
1588856748118556431,8241,1588856748118492450,,0.195857339275,-4.54470170798,3.22718836126
1588856748121492369,8242,1588856748121412179,,0.196389925437,-4.54241093821,3.22598290758
1588856748127367249,8243,1588856748127301273,,0.196818328787,-4.60356613831,3.25644836204
1588856748133249805,8244,1588856748133173212,,0.197128189164,-4.6647663322,3.28655066199
1588856748139172313,8245,1588856748139111147,,0.197389452843,-4.72559415687,3.31690516395
1588856748145470713,8246,1588856748145389027,,0.19736887309,-4.78621019815,3.34637121044
1588856748151263581,8247,1588856748151190138,,0.197247042903,-4.84409330344,3.37358164742
1588856748157230139,8248,1588856748157157428,,0.197159454907,-4.90396700124,3.40233066715
1588856748160923121,8249,1588856748160832157,,0.197089872732,-4.90189567323,3.40030424944
1588856748166163133,8250,1588856748166084844,,0.197201693594,-4.96157719596,3.42904037125
1588856748172154096,8251,1588856748172074322,,0.197239195887,-5.01864054525,3.45486079133
1588856748178221027,8252,1588856748178125957,,0.197350688429,-5.07741996605,3.48271329527
1588856748184121867,8253,1588856748184061487,,0.197429651154,-5.13606393299,3.51083016276
1588856748190112628,8254,1588856748190038957,,0.197444254504,-5.19450696121,3.53866319325
1588856748196020061,8255,1588856748195959808,,0.197452241124,-5.25042216894,3.56414500757
1588856748202057591,8256,1588856748202008485,,0.197755333181,-5.27940563781,3.57711903912
1588856748208158500,8257,1588856748208078169,,0.197859899139,-5.30139591406,3.5876239448
1588856748214113042,8258,1588856748214049349,,0.197916834547,-5.35791716555,3.61480409244
1588856748220172403,8259,1588856748220121723,,0.198316668631,-5.4108591954,3.63985700317
1588856748226288014,8260,1588856748226219590,,0.198474305154,-5.46629458744,3.66667960088
1588856748229100611,8261,1588856748229053282,,0.198577122815,-5.52133589481,3.69330445232
1588856748235373849,8262,1588856748235314846,,0.198657652242,-5.54879124016,3.70597240897
1588856748241306257,8263,1588856748241238845,,0.199060085415,-5.57248262511,3.71641742126
1588856748247572540,8264,1588856748247497046,,0.199636459374,-5.62271947883,3.73839928838
1588856748253216565,8265,1588856748253128687,,0.19981606663,-5.67576431503,3.76385853389
1588856748259230044,8266,1588856748259174175,,0.200172872407,-5.7251649998,3.78620254674
1588856748262985529,8267,1588856748262919102,,0.200486530099,-5.77768613595,3.81143530619
1588856748268221362,8268,1588856748268174459,,0.201231610814,-5.77087582209,3.80569881742
1588856748274579952,8269,1588856748274516755,,0.20165091109,-5.82327647168,3.83052533282
1588856748280570305,8270,1588856748280484518,,0.202211457172,-5.87180892608,3.85228796944
1588856748286545104,8271,1588856748286449338,,0.202631201562,-5.92265758528,3.87669137226
1588856748292577030,8272,1588856748292503552,,0.202928296297,-5.97261116353,3.90034448496
1588856748297358330,8273,1588856748297282251,,0.203174228001,-6.02236625933,3.92365955917
1588856748304570427,8274,1588856748304470953,,0.20352477737,-6.07094244177,3.94660690894
1588856748310114773,8275,1588856748310057306,,0.204065971488,-6.11856146548,3.96935068133
1588856748313044494,8276,1588856748312997670,,0.204798364622,-6.10984477873,3.9621329249
1588856748319378607,8277,1588856748319310305,,0.205335254768,-6.15626393369,3.98441438965
1588856748322429486,8278,1588856748322383561,,0.206182503835,-6.1964019563,4.00210682246
1588856748328181261,8279,1588856748328087117,,0.206612878699,-6.19125064099,3.99839822572
1588856748331700716,8280,1588856748331632218,,0.206947250062,-6.23598325472,4.01940372215
1588856748337478524,8281,1588856748337408783,,0.20754664013,-6.27940015486,4.04058913066
1588856748343559327,8282,1588856748343480212,,0.2086625365,-6.31768213777,4.05781555896
1588856748355344757,8283,1588856748355279982,,0.209921636071,-6.36700619411,4.07917706715
1588856748361315665,8284,1588856748361262074,,0.21032705212,-6.39195965389,4.09048501489
1588856748367360384,8285,1588856748367302686,,0.210491896609,-6.4336782629,4.10985881356
1588856748373393012,8286,1588856748373341489,,0.211295075897,-6.46947970417,4.12471386616
1588856748379478256,8287,1588856748379420601,,0.21147219659,-6.51042465211,4.14292604705
1588856748385393784,8288,1588856748385334988,,0.212389519368,-6.54484093485,4.15675978192
1588856748391117863,8289,1588856748391023881,,0.212609790331,-6.58402620593,4.17418347534
1588856748397255584,8290,1588856748397137645,,0.213014066117,-6.62210342876,4.19127489799
1588856748400331314,8291,1588856748400214950,,0.2135064888,-6.61687285644,4.18682437482
1588856748406313601,8292,1588856748406261255,,0.21450486351,-6.64765165636,4.1990843389
1588856748412247001,8293,1588856748412146637,,0.215002188606,-6.68362279236,4.21544882809
1588856748418564011,8294,1588856748418506363,,0.216359093642,-6.71199281833,4.22745463642
1588856748421538151,8295,1588856748421458710,,0.217053833093,-6.7051924837,4.22277351023
1588856748424344030,8296,1588856748424224217,,0.217939364538,-6.7385782545,4.23885383587
1588856748430337288,8297,1588856748430265462,,0.218504528153,-6.77136732959,4.25395318903
1588856748434730973,8298,1588856748434628856,,0.220262707382,-6.75712289602,4.24437368244
1588856748439383886,8299,1588856748439300522,,0.220917259742,-6.78909550337,4.25876998611
1588856748445377965,8300,1588856748445322400,,0.22252317327,-6.81273766362,4.26765005862
1588856748451490974,8301,1588856748451371923,,0.22309347779,-6.84311791754,4.28114627317
1588856748457434685,8302,1588856748457343648,,0.22377845441,-6.87320767862,4.29432954412
1588856748463235585,8303,1588856748463157673,,0.224492951574,-6.9019395505,4.30733544839
1588856748469433759,8304,1588856748469365619,,0.225264707469,-6.9302650338,4.32012782532
1588856748475390692,8305,1588856748475266474,,0.226435498269,-6.91754134768,4.30927003219
1588856748481338152,8306,1588856748481216795,,0.227246049531,-6.94509048236,4.32109823613
1588856748487270793,8307,1588856748487203822,,0.228661557138,-6.96533517016,4.32752750041
1588856748493401072,8308,1588856748493293133,,0.229267623093,-6.99157096078,4.33846207073
1588856748499318341,8309,1588856748499244704,,0.23013543919,-7.0163184719,4.34955285504
1588856748503523137,8310,1588856748503405570,,0.231752991284,-7.03279892853,4.35432914574
1588856748508311742,8311,1588856748508235989,,0.232707417747,-7.02540652978,4.34932211135
1588856748514423319,8312,1588856748514360311,,0.233446404374,-7.04786433877,4.35847623716
1588856748520368487,8313,1588856748520307675,,0.235311179968,-7.06111821758,4.36190010018
1588856748526412835,8314,1588856748526335544,,0.236022512618,-7.08132548792,4.37075018443
1588856748532442855,8315,1588856748532379399,,0.236968841909,-7.10034610407,4.37893285827
1588856748538440330,8316,1588856748538313634,,0.237718170535,-7.11837659744,4.38644774535
1588856748544551252,8317,1588856748544418970,,0.238699237197,-7.13582363894,4.39374686841
1588856748550545578,8318,1588856748550441617,,0.240585734224,-7.14348479773,4.39470531298
1588856748556345008,8319,1588856748556271123,,0.242363056653,-7.15053470839,4.39514951395
1588856748562450482,8320,1588856748562371121,,0.243277723612,-7.16514663676,4.40115996247
1588856748568482353,8321,1588856748568406168,,0.24431353495,-7.15628527653,4.39513912446
1588856748572218957,8322,1588856748572145419,,0.24518166507,-7.16994182385,4.40072524782
1588856748577286678,8323,1588856748577219562,,0.246745791083,-7.17456323938,4.39993113457
1588856748583336375,8324,1588856748583264706,,0.247677438731,-7.18677107692,4.4046060583
1588856748589262607,8325,1588856748589196551,,0.248311564685,-7.19870328527,4.40852213733
1588856748595398740,8326,1588856748595277309,,0.250089112299,-7.18191191085,4.39691389379
1588856748601164057,8327,1588856748601109659,,0.252062959875,-7.18348078112,4.39517036095
1588856748604227011,8328,1588856748604179544,,0.252868121405,-7.19219677905,4.39798412698
1588856748610324266,8329,1588856748610247731,,0.253694460122,-7.20062543269,4.40051596317
1588856748616201240,8330,1588856748616127291,,0.255462411466,-7.1987047752,4.39703487488
1588856748619489310,8331,1588856748619416588,,0.256291000438,-7.18948837894,4.39098712339
1588856748623650204,8332,1588856748622399316,,0.258347415684,-7.18670908205,4.38665664958
1588856748628248820,8333,1588856748628092309,,0.259188320608,-7.17706719315,4.38066726056
1588856748634142971,8334,1588856748634068554,,0.26002259344,-7.18209108545,4.38153853441
1588856748640440878,8335,1588856748640362202,,0.261910816385,-7.17672535125,4.37607895824
1588856748646178105,8336,1588856748646124855,,0.262675652398,-7.1799066531,4.3761615704
1588856748652365296,8337,1588856748652246560,,0.264453083248,-7.17273010964,4.36980100383
1588856748658505668,8338,1588856748658386942,,0.265380129214,-7.17385103748,4.36882109267
1588856748664445353,8339,1588856748664376166,,0.267456113378,-7.16473186966,4.36186194466
1588856748670226191,8340,1588856748670151657,,0.268468013371,-7.16406405443,4.36017019962
1588856748674611504,8341,1588856748674503938,,0.269577016616,-7.15497711726,4.35401337581
1588856748679084591,8342,1588856748679036845,,0.270620947749,-7.15330894913,4.35230766566
1588856748685023919,8343,1588856748684975025,,0.272627667233,-7.14174125374,4.34382525314
1588856748691569747,8344,1588856748691515031,,0.273668155051,-7.13849828555,4.34106324288
1588856748697415627,8345,1588856748697355568,,0.275712372228,-7.12454841097,4.3316780109
1588856748703485955,8346,1588856748703421014,,0.277032280464,-7.11916180601,4.32803400698
1588856748709781403,8347,1588856748709709206,,0.279358319855,-7.10308231406,4.3173523556
1588856748715540658,8348,1588856748715487742,,0.28038934413,-7.06754732072,4.29801185451
1588856748718675375,8349,1588856748718603462,,0.281637683986,-7.08611949293,4.30604064552
1588856748721437952,8350,1588856748721355763,,0.283872380578,-7.06591940902,4.29344327884
1588856748727099980,8351,1588856748727054601,,0.28516587759,-7.05761752065,4.28827889268
1588856748733137933,8352,1588856748733055380,,0.286095179145,-7.04832026293,4.28213440602
1588856748739060638,8353,1588856748739006104,,0.287266567106,-7.03852503481,4.27568233255
1588856748742863938,8354,1588856748742803161,,0.288429034232,-7.02740277322,4.26932574637
1588856748748129625,8355,1588856748748037465,,0.290648468088,-7.00773848813,4.2566155356
1588856748754622921,8356,1588856748754546017,,0.291791128913,-6.99589431382,4.25005091074
1588856748760200274,8357,1588856748760118610,,0.293980376407,-6.97324394639,4.23612605287
1588856748766321718,8358,1588856748766228062,,0.294985468612,-6.96000693484,4.22768041244
1588856748772495423,8359,1588856748772430351,,0.296863527187,-6.93623719583,4.21250334299
1588856748776942759,8360,1588856748776882812,,0.297792402285,-6.92437956209,4.20471283178
1588856748781276547,8361,1588856748781224848,,0.299732444097,-6.90587981193,4.19166382192
1588856748787133623,8362,1588856748787070495,,0.300422011156,-6.89082638223,4.18298955866
1588856748793456814,8363,1588856748793367029,,0.300951485929,-6.87706781412,4.17523335616
1588856748799292043,8364,1588856748799179434,,0.303317863196,-6.84763317207,4.16007198113
1588856748805115782,8365,1588856748805029999,,0.304196522592,-6.83109451745,4.15110199395
1588856748811251941,8366,1588856748811153423,,0.305410834013,-6.8133373236,4.14232812127
1588856748817488968,8367,1588856748817416958,,0.307468295889,-6.78741958534,4.12857056078
1588856748820617544,8368,1588856748820559158,,0.308485129528,-6.7790839599,4.12433953191
1588856748826267994,8369,1588856748826213163,,0.309494550288,-6.75899717913,4.11372581383
1588856748832216848,8370,1588856748832148044,,0.310584026855,-6.73817360946,4.10261085515
1588856748838200916,8371,1588856748838139909,,0.311388282265,-6.71681425349,4.09045334433
1588856748844926145,8372,1588856748844848865,,0.312511197599,-6.69373809447,4.07760954222
1588856748850271379,8373,1588856748850192639,,0.313310078827,-6.66962019659,4.06351368037
1588856748856115507,8374,1588856748856043816,,0.314654316858,-6.6353835658,4.04232116512
1588856748868722956,8375,1588856748868588635,,0.317013625359,-6.58869798567,4.01257402013
1588856748874292511,8376,1588856748874206658,,0.317633403024,-6.56211199847,3.99693677614
1588856748880188000,8377,1588856748880119734,,0.319463279896,-6.52325751571,3.97456082824
1588856748886237957,8378,1588856748886124124,,0.320517710674,-6.49430707361,3.95904914707
1588856748892385605,8379,1588856748892299018,,0.322263811727,-6.45356390908,3.93628188202
1588856748898255171,8380,1588856748898198536,,0.323162122107,-6.42356515241,3.91987302176
1588856748904266243,8381,1588856748904147755,,0.324064712044,-6.39282477038,3.90340130474
1588856748910324223,8382,1588856748910246072,,0.325444495412,-6.3510272371,3.87972943593
1588856748913855660,8383,1588856748913676546,,0.326103823738,-6.34149428668,3.87346029398
1588856748920006016,8384,1588856748919894781,,0.327062843169,-6.30080383271,3.84961029529
1588856748922846613,8385,1588856748922749072,,0.327312768452,-6.2694951258,3.83226120627
1588856748928713291,8386,1588856748928538923,,0.327684784122,-6.26038987,3.8254641043
1588856748934494251,8387,1588856748934391809,,0.328441302705,-6.21910771242,3.80166872416
1588856748940309246,8388,1588856748940251972,,0.328951259957,-6.18607537158,3.78406419477
1588856748947484283,8389,1588856748947346645,,0.329642109008,-6.14436235992,3.75979326488
1588856748952386874,8390,1588856748952289352,,0.330206152697,-6.1100161557,3.74159760995
1588856748958646440,8391,1588856748958572447,,0.331261902146,-6.06630816839,3.7178910536
1588856748964146137,8392,1588856748964083354,,0.331664980466,-6.03137305198,3.69889791708
1588856748970258083,8393,1588856748970165832,,0.332980319343,-5.98528680041,3.67496357256
1588856748976103236,8394,1588856748976036073,,0.333418070824,-5.94873646012,3.655440414
1588856748988420411,8395,1588856748988342913,,0.334987189795,-5.89311737344,3.62498440772
1588856748994237087,8396,1588856748994155744,,0.335518534767,-5.8552232642,3.60529134748
1588856749000316241,8397,1588856749000236714,,0.33570179339,-5.81737165029,3.58517967269
1588856749006212273,8398,1588856749006134444,,0.336124666547,-5.77048008086,3.55972244523
1588856749012286221,8399,1588856749012175566,,0.336321129526,-5.73174297333,3.53951913055
1588856749015874340,8400,1588856749015774887,,0.336679176748,-5.69268846573,3.51917603637
1588856749018524142,8401,1588856749018436801,,0.33695511692,-5.67680103941,3.50868191652
1588856749021774261,8402,1588856749021618960,,0.337468728878,-5.66791735584,3.50353951504
1588856749027293892,8403,1588856749027130654,,0.337538719401,-5.62915817178,3.48285900182
1588856749033733823,8404,1588856749033613887,,0.337627758862,-5.58942962945,3.46204821064
1588856749039703981,8405,1588856749039593637,,0.337804023043,-5.54943360024,3.44118829074
1588856749045756328,8406,1588856749045665568,,0.338262136593,-5.50061915409,3.41573282774
1588856749050149696,8407,1588856749050036124,,0.338274601897,-5.45988732225,3.39422324286
1588856749054675744,8408,1588856749054577776,,0.338752314206,-5.44345070901,3.38476525599
1588856749060520375,8409,1588856749060419132,,0.339080514606,-5.4021344404,3.36372098278
1588856749066483959,8410,1588856749066404796,,0.339333583925,-5.35179350766,3.3373053035
1588856749072462084,8411,1588856749072398387,,0.339607080051,-5.31012477785,3.3159692113
1588856749078600351,8412,1588856749078406674,,0.339865453405,-5.25929565101,3.28961848804
1588856749084490036,8413,1588856749084205081,,0.340003146509,-5.21759400815,3.26796134909
1588856749090260314,8414,1588856749090185312,,0.340230878516,-5.17476866001,3.24614014582
1588856749096240323,8415,1588856749096183599,,0.340216711353,-5.13229575775,3.22394863765
1588856749108393044,8416,1588856749108307889,,0.340441973464,-5.07555001976,3.19323720306
1588856749114273392,8417,1588856749114179912,,0.340445005947,-5.02585961125,3.16682398681
1588856749118392118,8418,1588856749118317918,,0.340458688766,-4.98348858818,3.14475292188
1588856749120380060,8419,1588856749120316137,,0.340658338202,-4.9699626843,3.13652633849
1588856749123539711,8420,1588856749123478826,,0.34063101618,-4.92696188485,3.11421964676
1588856749129434527,8421,1588856749129370502,,0.340774994817,-4.88402794953,3.09231594008
1588856749135490468,8422,1588856749135414188,,0.340828065424,-4.87761359069,3.08805705449
1588856749141505413,8423,1588856749141414935,,0.340888982524,-4.83456601191,3.06589188881
1588856749147610561,8424,1588856749147510685,,0.340987616881,-4.78515221756,3.03970050624
1588856749152483050,8425,1588856749152380681,,0.341203240412,-4.74172050124,3.01743880944
1588856749156744938,8426,1588856749156644833,,0.341385691065,-4.69851007649,2.99529412902
1588856749168254959,8427,1588856749168160429,,0.341737064698,-4.6422186006,2.9650636947
1588856749174264600,8428,1588856749174179981,,0.342003960774,-4.59865644648,2.94292115432
1588856749180220084,8429,1588856749180149924,,0.342421548795,-4.54904369563,2.91720485702
1588856749186356232,8430,1588856749186253861,,0.342395553067,-4.5061349864,2.8947709756
1588856749192430439,8431,1588856749192240352,,0.342571717845,-4.46349149639,2.87293636466
1588856749198342762,8432,1588856749198281170,,0.342786069871,-4.41458500624,2.84685860041
1588856749204359911,8433,1588856749204287449,,0.343026188144,-4.37245654105,2.82529111632
1588856749210501337,8434,1588856749210414941,,0.343213001528,-4.32467032281,2.79952078244
1588856749216463982,8435,1588856749216389670,,0.343429850579,-4.28288218603,2.77793894167
1588856749220868551,8436,1588856749220728055,,0.343601593506,-4.2721819152,2.77069497146
1588856749222671913,8437,1588856749222624743,,0.343860680199,-4.23101522089,2.74962083322
1588856749228319798,8438,1588856749228243904,,0.343827512335,-4.22592298456,2.74614661792
1588856749234434813,8439,1588856749234358075,,0.343988225265,-4.18471795279,2.72489418391
1588856749240654932,8440,1588856749240549034,,0.344361024446,-4.13860549185,2.70065023974
1588856749246533606,8441,1588856749246449745,,0.344660054767,-4.09816240659,2.67973736703
1588856749252255025,8442,1588856749252191777,,0.345144876053,-4.05329639888,2.65549991515
1588856749258546869,8443,1588856749258493434,,0.34538028715,-4.01363324058,2.63460977066
1588856749264623093,8444,1588856749264558782,,0.345709970386,-3.97439220114,2.61438038695
1588856749270491499,8445,1588856749270425481,,0.346199041556,-3.93109540987,2.59142256225
1588856749276612045,8446,1588856749276550022,,0.346969323169,-3.88772563192,2.56883346319
1588856749282529848,8447,1588856749282478365,,0.347101917041,-3.85011329642,2.54923259691
1588856749289098906,8448,1588856749289017670,,0.347293190088,-3.84557018207,2.54592331215
1588856749294222010,8449,1588856749294147181,,0.347870222309,-3.80439009378,2.52384845099
1588856749300685057,8450,1588856749300591733,,0.348347453503,-3.76553781353,2.50297591367
1588856749306511775,8451,1588856749306386645,,0.348594701736,-3.72934258838,2.48408741588
1588856749312178567,8452,1588856749312121214,,0.34879013738,-3.69547814968,2.46631373922
1588856749318343893,8453,1588856749318286046,,0.349199127971,-3.65710484786,2.44609268401
1588856749322707935,8454,1588856749322649476,,0.349534106852,-3.62385761099,2.42892716019
1588856749327297817,8455,1588856749327232067,,0.349706562374,-3.61749248859,2.42471081277
1588856749333307092,8456,1588856749333241278,,0.350011786145,-3.58536843212,2.4081981653
1588856749339287288,8457,1588856749339234613,,0.350199400512,-3.55403760213,2.39187113206
1588856749345201608,8458,1588856749345111993,,0.350442533424,-3.52343632374,2.37586036545
1588856749351279176,8459,1588856749351207353,,0.350769977491,-3.49111251887,2.35834788256
1588856749357427251,8460,1588856749357371527,,0.350966109079,-3.46215821587,2.3433659787
1588856749363282740,8461,1588856749363205467,,0.35110896769,-3.43403375738,2.32891385679
1588856749369223168,8462,1588856749369171062,,0.351592482414,-3.40392107363,2.31327778617
1588856749375399608,8463,1588856749375159929,,0.351658882636,-3.40131238554,2.3113284968
1588856749381239911,8464,1588856749381163193,,0.352031460479,-3.37269148078,2.29579340357
1588856749387217167,8465,1588856749387152695,,0.352229440653,-3.34748240607,2.28254528781
1588856749391379381,8466,1588856749390987888,,0.352509307693,-3.32093134112,2.26821045165
1588856749396343529,8467,1588856749396285099,,0.3529066489,-3.29494842563,2.25465113753
1588856749402466620,8468,1588856749402399624,,0.353028168174,-3.27273702991,2.24331701486
1588856749408257624,8469,1588856749408199586,,0.353121767772,-3.27025875842,2.24158252917
1588856749414156321,8470,1588856749414094458,,0.353378917451,-3.24797422505,2.22966748455
1588856749420425330,8471,1588856749420342096,,0.353506929521,-3.22911538413,2.21989652742
1588856749425042369,8472,1588856749424961643,,0.353640713471,-3.21065908398,2.21038690065
1588856749429289584,8473,1588856749429222012,,0.353713939227,-3.19425912271,2.20168519583
1588856749435277126,8474,1588856749435208126,,0.353847040756,-3.19304686619,2.20105273105
1588856749441362662,8475,1588856749441277831,,0.353933893973,-3.1774042391,2.19291858458
1588856749447262166,8476,1588856749447212727,,0.354170124272,-3.16152055032,2.18491701287
1588856749453257900,8477,1588856749453208016,,0.354245910679,-3.14908700502,2.17854403798
1588856749460042763,8478,1588856749459966592,,0.354461060687,-3.13732620289,2.17240270663
1588856749465241968,8479,1588856749465192219,,0.354606911576,-3.12777682899,2.16745433455
1588856749471278641,8480,1588856749471208343,,0.354892027872,-3.11962421696,2.16334269106
1588856749477240481,8481,1588856749477186269,,0.355009141506,-3.11295309863,2.15982079551
1588856749483545478,8482,1588856749483494952,,0.355501959546,-3.10634309764,2.15659297655
1588856749489158806,8483,1588856749489104774,,0.355711728096,-3.10271395907,2.15465863369
1588856749495382229,8484,1588856749495241288,,0.356269822251,-3.09998593613,2.15350005186
1588856749501552088,8485,1588856749501459266,,0.356491386894,-3.09789894304,2.15240529516
1588856749507879528,8486,1588856749507768071,,0.3571259874,-3.09481758413,2.1510678145
1588856749513211016,8487,1588856749513158638,,0.357456947005,-3.09252406983,2.15082539314
1588856749519861209,8488,1588856749519796497,,0.358055491524,-3.0869071698,2.15069493053
1588856749522649834,8489,1588856749522591428,,0.358405105435,-3.08114344973,2.15209962151
1588856749529292572,8490,1588856749529222153,,0.359011985339,-3.0725101325,2.15372421533
1588856749534286022,8491,1588856749534236123,,0.359405019031,-3.07087559642,2.15318806032
1588856749540436645,8492,1588856749540371960,,0.359685344996,-3.06215495325,2.15628226325
1588856749546356492,8493,1588856749546297733,,0.359982632422,-3.05216530585,2.1603210974
1588856749552354903,8494,1588856749552298100,,0.360234283452,-3.04081633531,2.16519361723
1588856749558420654,8495,1588856749558358516,,0.360521024513,-3.02735614265,2.17078935825
1588856749564620765,8496,1588856749564543774,,0.360959153988,-3.01182889692,2.17694202977
1588856749570605198,8497,1588856749570496896,,0.361249506866,-2.9959172479,2.18423905706
1588856749576863875,8498,1588856749576762730,,0.361513943859,-2.97832811449,2.19212364877
1588856749588619175,8499,1588856749588552824,,0.362245940224,-2.95776009814,2.20063932791
1588856749594676132,8500,1588856749594582031,,0.362488662744,-2.93797639385,2.21022370563
1588856749597971523,8501,1588856749597892182,,0.362875327678,-2.9159822817,2.22020770763
1588856749603317506,8502,1588856749603257805,,0.363157324154,-2.89336642419,2.23119661372
1588856749609194914,8503,1588856749609141654,,0.363551846299,-2.86891906114,2.2425596763
1588856749615340747,8504,1588856749615200178,,0.363767464642,-2.86830653506,2.24258640908
1588856749621678329,8505,1588856749621576822,,0.364236518104,-2.84261994138,2.25481382563
1588856749627564328,8506,1588856749627470447,,0.364476744084,-2.81608186123,2.26777694745
1588856749632006505,8507,1588856749631804837,,0.365061089662,-2.78759984366,2.28143753258
1588856749636410019,8508,1588856749636339688,,0.365308316354,-2.75843397061,2.29560022556
1588856749645532525,8509,1588856749645459199,,0.365881481721,-2.72768637475,2.31061043662
1588856749651821740,8510,1588856749651692445,,0.366074252444,-2.69638396827,2.32601112509
1588856749657731553,8511,1588856749657611133,,0.366676143672,-2.66320948553,2.3422377434
1588856749663785189,8512,1588856749663666497,,0.366974343607,-2.62953010568,2.35896473277
1588856749666846897,8513,1588856749666775947,,0.367723526424,-2.62792901698,2.35940546842
1588856749672470858,8514,1588856749672386983,,0.368078178113,-2.59302693549,2.376650676
1588856749678874835,8515,1588856749678735791,,0.368909086227,-2.55594299399,2.39484774173
1588856749684635561,8516,1588856749684575052,,0.369264657986,-2.51863190921,2.41316001376
1588856749690376941,8517,1588856749690303311,,0.36973656393,-2.48001526237,2.43222950384
1588856749696663582,8518,1588856749696567518,,0.370611432894,-2.43937047447,2.45206501394
1588856749700982115,8519,1588856749700903024,,0.371591943233,-2.43696528845,2.45290926597
1588856749705671185,8520,1588856749705577907,,0.372026381207,-2.39615655854,2.47312472698
1588856749711842070,8521,1588856749711726641,,0.37259067411,-2.3540249508,2.4940512068
1588856749717288241,8522,1588856749717195676,,0.373726686122,-2.30892281873,2.51631399127
1588856749720419687,8523,1588856749720365064,,0.374332796003,-2.30720469123,2.51738400593
1588856749723696440,8524,1588856749723627747,,0.375314188749,-2.26112658785,2.54093722556
1588856749729315380,8525,1588856749729255388,,0.375844715629,-2.21608673605,2.56362305992
1588856749735412784,8526,1588856749735193059,,0.376370615582,-2.21415806208,2.56510380264
1588856749741372362,8527,1588856749741308310,,0.377506439146,-2.1656300314,2.58991428656
1588856749747290243,8528,1588856749747235796,,0.378082892807,-2.11861801798,2.61390333834
1588856749753302163,8529,1588856749753221748,,0.378615041506,-2.07071009542,2.6383842085
1588856749759421269,8530,1588856749759308793,,0.379735697708,-2.01999798823,2.66484585689
1588856749765416487,8531,1588856749765357073,,0.380777637411,-1.96851974895,2.69129697004
1588856749769063242,8532,1588856749769007651,,0.381337638337,-1.91802733093,2.71703245788
1588856749774493276,8533,1588856749774431753,,0.381737291112,-1.91625436689,2.71865656271
1588856749780436253,8534,1588856749780379855,,0.382638179243,-1.86279363866,2.74601896352
1588856749786522230,8535,1588856749786344326,,0.383550378339,-1.80867295313,2.77427493858
1588856749792386371,8536,1588856749792253610,,0.383953238684,-1.75576772871,2.80106190261
1588856749798491199,8537,1588856749798424919,,0.384457476422,-1.70194498634,2.82843285536
1588856749802339701,8538,1588856749802295251,,0.384930264148,-1.64727307683,2.85606374898
1588856749807420317,8539,1588856749807334241,,0.385880725447,-1.64330711134,2.85871051691
1588856749813437073,8540,1588856749813361622,,0.386420726738,-1.58805381163,2.88686248085
1588856749819831282,8541,1588856749819766839,,0.387250289935,-1.53002246155,2.91709786671
1588856749822632096,8542,1588856749822557170,,0.387826139721,-1.47314682057,2.94594566734
1588856749828296576,8543,1588856749828245063,,0.388707812076,-1.46894921889,2.94831309569
1588856749834320425,8544,1588856749834258701,,0.389207636986,-1.41145375672,2.97736278974
1588856749840281161,8545,1588856749840227616,,0.389635761009,-1.3534191711,3.00677476788
1588856749846336038,8546,1588856749846271276,,0.390128480124,-1.29477493679,3.03652067546
1588856749852313536,8547,1588856749852269227,,0.391000796329,-1.23317053116,3.06812400864
1588856749858785727,8548,1588856749858678348,,0.391387391946,-1.17340261684,3.09816038702
1588856749864323205,8549,1588856749864262079,,0.392247738052,-1.11062512554,3.12947280564
1588856749871124443,8550,1588856749871047509,,0.39263192463,-1.04966336047,3.15998411232
1588856749876318639,8551,1588856749876263744,,0.393149050638,-0.986687966799,3.19184914406
1588856749882939195,8552,1588856749882856005,,0.393424723523,-0.924973482233,3.22289079383
1588856749888394640,8553,1588856749888309283,,0.393840740253,-0.920837738588,3.22523579551
1588856749894362254,8554,1588856749894272253,,0.394117560858,-0.858851554031,3.25628389057
1588856749900475772,8555,1588856749900401147,,0.394184734792,-0.794575451702,3.28818358297
1588856749906371804,8556,1588856749906304876,,0.394187444173,-0.731880609171,3.31969769029
1588856749912446459,8557,1588856749912333902,,0.393791103732,-0.667212106692,3.35172761932
1588856749918354903,8558,1588856749918266892,,0.393531235812,-0.603600826612,3.38308781269
1588856749921465924,8559,1588856749921365397,,0.392607812673,-0.59945214529,3.38378287018
1588856749927338613,8560,1588856749927266300,,0.392081656689,-0.535821681023,3.41487228952
1588856749933358751,8561,1588856749933274099,,0.391563357908,-0.471723279508,3.44607836303
1588856749939489975,8562,1588856749939395650,,0.390498217383,-0.40521303913,3.47714676122
1588856749945980749,8563,1588856749945874706,,0.389998974639,-0.340302043596,3.50855446055
1588856749951879974,8564,1588856749951789981,,0.3894962104,-0.274947951629,3.54018854288
1588856749957730618,8565,1588856749957668315,,0.388689672644,-0.206840629188,3.57162137079
1588856749963771196,8566,1588856749963689718,,0.388365887008,-0.141287165242,3.60368100145
1588856749969600780,8567,1588856749969532659,,0.387666229686,-0.0722442358932,3.63588002083
1588856749974247283,8568,1588856749974175808,,0.38710712322,-0.06692117286,3.63620619439
1588856749978646936,8569,1588856749978558708,,0.386961684403,-0.000492934491541,3.6682410841
1588856749984562976,8570,1588856749984509822,,0.386757969792,0.0662899710138,3.70042697436
1588856749990589259,8571,1588856749990519363,,0.386581244271,0.133012203019,3.73231612417
1588856749996803182,8572,1588856749996663055,,0.386248783056,0.202481972181,3.7639944966
1588856750002823549,8573,1588856750002735675,,0.385761603273,0.27167457023,3.7959734581
1588856750008886670,8574,1588856750008834683,,0.385627762755,0.274205712341,3.79582019565
1588856750014599995,8575,1588856750014522336,,0.385554997143,0.341123543586,3.82791722423
1588856750021036833,8576,1588856750020949472,,0.385469413851,0.4079536224,3.86027052111
1588856750023892002,8577,1588856750023838433,,0.385370351904,0.477264193123,3.89251439378
1588856750029629549,8578,1588856750029572309,,0.385511451302,0.545909604247,3.92493857611
1588856750035586001,8579,1588856750035528479,,0.385615931731,0.593748347697,3.94784673311
1588856750042961579,8580,1588856750042873715,,0.38559790014,0.679463470958,3.98970159363
1588856750047583723,8581,1588856750047504785,,0.38561793546,0.681405468574,3.9896594251
1588856750053595664,8582,1588856750053511446,,0.38543935035,0.748994731641,4.02146350088
1588856750059597936,8583,1588856750059504048,,0.385392766522,0.81491678995,4.05366183368
1588856750065530605,8584,1588856750065458330,,0.385288806237,0.88091632997,4.08553748949
1588856750071656757,8585,1588856750071579820,,0.385286507761,0.947512037373,4.11726980358
1588856750077689494,8586,1588856750077623738,,0.385229758213,1.01291812893,4.14916728156
1588856750083489611,8587,1588856750083409107,,0.385261348538,1.07838920482,4.18105412486
1588856750089430555,8588,1588856750089368712,,0.385202285468,1.14346520429,4.21296117243
1588856750095781557,8589,1588856750095728118,,0.385176784035,1.20853449354,4.24474177266
1588856750101496761,8590,1588856750101416848,,0.385264182156,1.20972761366,4.2442197181
1588856750107528963,8591,1588856750107457338,,0.385359688373,1.27506196132,4.27578804712
1588856750111853007,8592,1588856750111788061,,0.385431458957,1.3392897653,4.30755699285
1588856750116558997,8593,1588856750116489412,,0.385429538491,1.403287871,4.33926075549
1588856750119961014,8594,1588856750119879734,,0.385383305228,1.40336481602,4.33897603989
1588856750122761633,8595,1588856750122683605,,0.385348614847,1.46692692924,4.3702018307
1588856750128754736,8596,1588856750128590776,,0.385371399144,1.46693933946,4.36995003323
1588856750134446118,8597,1588856750134358900,,0.385349103621,1.53004336049,4.40115834
1588856750140627158,8598,1588856750140567026,,0.385321171379,1.59308901982,4.43217103431
1588856750146312224,8599,1588856750146209451,,0.385392796119,1.65586428635,4.46309580092
1588856750152704342,8600,1588856750152610446,,0.385454259972,1.71783220991,4.49222255041
1588856750158486274,8601,1588856750158373938,,0.385523793099,1.7796638754,4.5221289838
1588856750164821783,8602,1588856750164664994,,0.385593258796,1.84053969702,4.54995274554
1588856750170671053,8603,1588856750170595971,,0.385668733429,1.90170195298,4.57884644633
1588856750176649143,8604,1588856750176572830,,0.385654357087,1.96110391357,4.60540739596
1588856750180429788,8605,1588856750180310995,,0.385595282339,1.96005091526,4.60311205287
1588856750185646855,8606,1588856750185564772,,0.385607015648,2.02014822742,4.63145707663
1588856750191654565,8607,1588856750191572175,,0.385531337504,2.07959493219,4.659848738
1588856750197663483,8608,1588856750197593567,,0.385385974063,2.13669393353,4.68576501859
1588856750203350166,8609,1588856750203274837,,0.385233580394,2.19440925431,4.71356521399
1588856750209902623,8610,1588856750209812577,,0.384869951463,2.24926808333,4.73966814559
1588856750214174406,8611,1588856750214080070,,0.384953039725,2.24659064078,4.73818851554
1588856750218677776,8612,1588856750218600491,,0.38528145288,2.30284292537,4.76633508566
1588856750221821867,8613,1588856750221734157,,0.385972150898,2.29610586698,4.76300128494
1588856750227723705,8614,1588856750227655528,,0.386093618548,2.35121799599,4.79080044548
1588856750233656942,8615,1588856750233576165,,0.386584605371,2.40180263156,4.81700011156
1588856750239618701,8616,1588856750239553826,,0.386858069202,2.45592295953,4.84472490552
1588856750245709567,8617,1588856750245630984,,0.387040627688,2.50973351362,4.8715934761
1588856750248559844,8618,1588856750248495681,,0.387380292397,2.50606744771,4.87001429674
1588856750254749961,8619,1588856750254668934,,0.388231684574,2.55517125093,4.89510912054
1588856750260837257,8620,1588856750260705186,,0.388605745861,2.60798528826,4.92129157019
1588856750266552882,8621,1588856750266478833,,0.389341788696,2.65707874475,4.94574173609
1588856750272629197,8622,1588856750272481663,,0.38995909444,2.70890689312,4.97092868047
1588856750278375296,8623,1588856750278265418,,0.390655815149,2.75723000544,4.99399964598
1588856750282609644,8624,1588856750282386517,,0.391111599438,2.75353823525,4.99153924723
1588856750287550649,8625,1588856750287457040,,0.392141358976,2.80088709609,5.01393246371
1588856750293577733,8626,1588856750293430246,,0.392458303739,2.85106521329,5.03809214487
1588856750299644938,8627,1588856750299518116,,0.393695974843,2.8979772264,5.05946997943
1588856750305476221,8628,1588856750305380631,,0.394136063102,2.94770472062,5.08287625102
1588856750311608383,8629,1588856750311471673,,0.395470139394,2.99413155939,5.10353461848
1588856750316393160,8630,1588856750316340585,,0.396079949078,3.0433095805,5.12671921874
1588856750320680434,8631,1588856750320629691,,0.397203756201,3.03773369978,5.12080414076
1588856750323770264,8632,1588856750323676786,,0.397735635773,3.08645047358,5.14308025391
1588856750329767171,8633,1588856750329704122,,0.398426542066,3.13488562867,5.16561357185
1588856750335807750,8634,1588856750335752256,,0.398972041112,3.18281078159,5.18745854606
1588856750341397438,8635,1588856750341348130,,0.400392974413,3.17839695648,5.18128932838
1588856750347463357,8636,1588856750347369257,,0.401087362021,3.22581235519,5.2023796044
1588856750353382718,8637,1588856750353337695,,0.402226908334,3.27040563114,5.22000302062
1588856750359478294,8638,1588856750359407008,,0.403176936325,3.31480045523,5.23793006867
1588856750365766261,8639,1588856750365660268,,0.403523654794,3.36038854993,5.25839374772
1588856750372045231,8640,1588856750371966936,,0.403798104568,3.40533044879,5.27838351156
1588856750377802367,8641,1588856750377680281,,0.404275501256,3.44750428507,5.29456194738
1588856750385288843,8642,1588856750385186252,,0.404635949325,3.49107718204,5.31359021013
1588856750390105527,8643,1588856750390010302,,0.4047215999,3.53359495536,5.33240921804
1588856750395635983,8644,1588856750395485663,,0.405031567834,3.52914027519,5.32551743982
1588856750401355582,8645,1588856750401272436,,0.40506910307,3.57088965222,5.34400266306
1588856750407471524,8646,1588856750407390012,,0.405129450812,3.60986539814,5.35855638062
1588856750413405358,8647,1588856750413340764,,0.405098765206,3.65002633956,5.37590797224
1588856750419546564,8648,1588856750419488796,,0.404834546607,3.68717266605,5.38932867514
1588856750428517351,8649,1588856750428442430,,0.404119263189,3.72114014273,5.39947213008
1588856750434361322,8650,1588856750434282565,,0.403845499582,3.75889354163,5.41633163526
1588856750440569773,8651,1588856750440516361,,0.403523519445,3.79584336542,5.43222486024
1588856750446341772,8652,1588856750446292143,,0.403140042158,3.83209600001,5.44835143064
1588856750453667206,8653,1588856750453590958,,0.402326125508,3.8645148836,5.46000066352
1588856750458749571,8654,1588856750458674200,,0.40200969473,3.89898670204,5.47505901966
1588856750464712292,8655,1588856750464644360,,0.400918320316,3.92938287082,5.48599621364
1588856750470825245,8656,1588856750470747476,,0.400343969534,3.96185365738,5.49995452961
1588856750476546132,8657,1588856750476487998,,0.399747771675,3.99357820563,5.51378730031
1588856750488639608,8658,1588856750488551925,,0.397299420813,4.01376932053,5.51517082653
1588856750494611419,8659,1588856750494488925,,0.39665565609,4.04337789923,5.528228679
1588856750500696087,8660,1588856750500579056,,0.39598731976,4.07213943687,5.54031639525
1588856750506670155,8661,1588856750506617312,,0.394688769256,4.09624099625,5.54854794002
1588856750512515368,8662,1588856750512460765,,0.393226008194,4.11892419261,5.55602352842
1588856750518548463,8663,1588856750518472012,,0.392436057835,4.1445796948,5.56700805593
1588856750521923753,8664,1588856750521561563,,0.391779896694,4.14065741414,5.56337651393
1588856750524719359,8665,1588856750524654336,,0.391034487551,4.16540672679,5.57348162742
1588856750530403421,8666,1588856750530327166,,0.390250584586,4.18937241899,5.58385169889
1588856750536342851,8667,1588856750536252379,,0.389556424564,4.21265803763,5.59326910364
1588856750548519051,8668,1588856750548446255,,0.387491621755,4.22648208773,5.59434626912
1588856750556689473,8669,1588856750556619918,,0.386883549071,4.27326376548,5.61575792626
1588856750563958172,8670,1588856750563879672,,0.385637778259,4.28944216999,5.62015844339
1588856750569855715,8671,1588856750569711595,,0.38493504602,4.30882293009,5.62846034207
1588856750575896696,8672,1588856750575836561,,0.383699764418,4.30158072943,5.62133686712
1588856750581604451,8673,1588856750581516097,,0.383182415469,4.32050769805,5.62893386571
1588856750587642808,8674,1588856750587469123,,0.38207632502,4.3353962281,5.63279221705
1588856750593862067,8675,1588856750593764826,,0.381639161148,4.35262765352,5.63938892515
1588856750599826755,8676,1588856750599721461,,0.381121444262,4.36921961531,5.6459355759
1588856750605520711,8677,1588856750605469323,,0.380723014418,4.38518140708,5.65181682458
1588856750611626061,8678,1588856750611537107,,0.379765935814,4.39729105438,5.65347940596
1588856750617573893,8679,1588856750617501015,,0.379386994042,4.41156687349,5.65861241642
1588856750621074366,8680,1588856750621012988,,0.378570485111,4.40679103161,5.65109361715
1588856750624593324,8681,1588856750624502817,,0.378221422998,4.42041855661,5.65597755126
1588856750629506078,8682,1588856750629438524,,0.377550978489,4.43079311688,5.65628380133
1588856750641777872,8683,1588856750641676752,,0.376854829626,4.44043202625,5.65641976482
1588856750647698167,8684,1588856750647640651,,0.376422235771,4.45155830554,5.65960415846
1588856750653783265,8685,1588856750653597977,,0.375995509567,4.46145840985,5.66198079655
1588856750659533509,8686,1588856750659460899,,0.375273646617,4.46834927241,5.66113837289
1588856750665609263,8687,1588856750665414086,,0.374703751993,4.47611115154,5.66263292846
1588856750671429795,8688,1588856750671360134,,0.374375290163,4.48339571686,5.66419264014
1588856750677546913,8689,1588856750677418378,,0.373495030403,4.48671716558,5.66133251314
1588856750683418600,8690,1588856750683343346,,0.373150650751,4.49202134109,5.6618622852
1588856750689417105,8691,1588856750689333405,,0.372090653475,4.49319774892,5.65804664255
1588856750693358497,8692,1588856750693244062,,0.371660675715,4.49015648816,5.65444421454
1588856750698568761,8693,1588856750698510990,,0.371186344015,4.49330451039,5.65372587444
1588856750704770652,8694,1588856750704703878,,0.370720094544,4.49541388517,5.65287917694
1588856750710456709,8695,1588856750710388321,,0.369678487856,4.49357172345,5.64729152971
1588856750716651357,8696,1588856750716593222,,0.369141073705,4.49385116459,5.64536865984
1588856750722842550,8697,1588856750722784128,,0.368259273546,4.49028698512,5.63919283359
1588856750728850444,8698,1588856750728789971,,0.367776657051,4.46071063439,5.62219563748
1588856750734770588,8699,1588856750734692407,,0.366768807214,4.48264271876,5.62843682426
1588856750740803075,8700,1588856750740676690,,0.366383776257,4.48017219519,5.62509960567
1588856750746695662,8701,1588856750746627199,,0.365981987745,4.47677271617,5.62108199993
1588856750752677877,8702,1588856750752605868,,0.365466231989,4.47262160419,5.61690259198
1588856750758485666,8703,1588856750758429328,,0.365142194021,4.46738290176,5.61184173977
1588856750762168017,8704,1588856750762082755,,0.364499903109,4.46001777202,5.60396620028
1588856750767422317,8705,1588856750767348758,,0.364426017772,4.45371737228,5.59858374237
1588856750773464160,8706,1588856750773365241,,0.364518711155,4.44175143404,5.5890170351
1588856750779527858,8707,1588856750779452906,,0.364746095009,4.43314230409,5.58277026332
1588856750785423884,8708,1588856750785368045,,0.365083254332,4.41835368335,5.57186899868
1588856750791464353,8709,1588856750791381177,,0.365376179198,4.40739662146,5.56456631848
1588856750794482689,8710,1588856750794434144,,0.366071075429,4.39712260054,5.55565193184
1588856750800674425,8711,1588856750800608186,,0.366397955448,4.38471514997,5.54767309351
1588856750806404454,8712,1588856750806337445,,0.366992862022,4.36531054233,5.53405640343
1588856750812557581,8713,1588856750812503825,,0.367137519509,4.3506530348,5.52431872392
1588856750818420224,8714,1588856750818346131,,0.367589196908,4.32875364928,5.50940271341
1588856750821932708,8715,1588856750821807420,,0.367748742342,4.32275808092,5.50402667817
1588856750825002334,8716,1588856750824920169,,0.367964767043,4.30613761019,5.49371354253
1588856750830699170,8717,1588856750830645779,,0.368486503317,4.28308214727,5.47695875077
1588856750836491996,8718,1588856750836423173,,0.369264709189,4.25888855461,5.46049059664
1588856750848706863,8719,1588856750848562738,,0.370218046054,4.23446446052,5.44389787501
1588856750854490507,8720,1588856750854424656,,0.370749272284,4.21521429585,5.43208952444
1588856750860773666,8721,1588856750860674081,,0.371827395426,4.18900647609,5.41416193537
1588856750864974452,8722,1588856750864885180,,0.372375338457,4.16963398659,5.40245893761
1588856750869880453,8723,1588856750869824804,,0.373142179333,4.14249547905,5.38398179928
1588856750876118484,8724,1588856750875952706,,0.373373815839,4.13690133055,5.3800157128
1588856750881969691,8725,1588856750881835485,,0.374285720158,4.10917586076,5.36201713043
1588856750887958227,8726,1588856750887865253,,0.374812362751,4.08604683199,5.34837516493
1588856750893981898,8727,1588856750893881390,,0.375285565457,4.06243261986,5.33499468537
1588856750900014883,8728,1588856750899916397,,0.376149900893,4.03245848726,5.31621643
1588856750905969750,8729,1588856750905849000,,0.376830877307,4.00165630262,5.29612431918
1588856750911987401,8730,1588856750911880838,,0.377096509642,3.97544938157,5.2808027055
1588856750917927444,8731,1588856750917820470,,0.377600037111,3.94868812154,5.2644123432
1588856750921281446,8732,1588856750921124154,,0.378553794792,3.93806551639,5.25254168738
1588856750924351615,8733,1588856750924241357,,0.379363740846,3.904660761,5.22905161228
1588856750930257954,8734,1588856750930167613,,0.379513995966,3.87667376162,5.21223481364
1588856750933112572,8735,1588856750933035144,,0.379865570689,3.87186748334,5.20755601901
1588856750939032794,8736,1588856750938943953,,0.380291198354,3.84277211977,5.18940898593
1588856750945228218,8737,1588856750945131864,,0.380657557728,3.81266022596,5.1716656661
1588856750950890878,8738,1588856750950828806,,0.381142046585,3.78276194235,5.15437914076
1588856750956838848,8739,1588856750956765271,,0.382002184144,3.74697182993,5.13126836193
1588856750967367281,8740,1588856750967276585,,0.382857790167,3.69740682023,5.0967753161
1588856750972003163,8741,1588856750971892711,,0.383241082571,3.66493832536,5.07774517581
1588856750978169071,8742,1588856750978078446,,0.383470022562,3.627717091,5.05303544439
1588856750983711811,8743,1588856750983647349,,0.38357833825,3.59318620973,5.03248254842
1588856750989750689,8744,1588856750989695568,,0.383530913911,3.55379273293,5.00757876432
1588856751002121654,8745,1588856751001996678,,0.383941396129,3.50625773381,4.97600543904
1588856751007844605,8746,1588856751007714021,,0.384094105705,3.47135761263,4.95657346289
1588856751013744590,8747,1588856751013647100,,0.384469915886,3.43105209986,4.93296852285
1588856751019900731,8748,1588856751019823883,,0.384727651102,3.39531667858,4.91298148091
1588856751023049086,8749,1588856751022941208,,0.385438250969,3.35274733528,4.88790822659
1588856751028864343,8750,1588856751028764573,,0.385942418501,3.34628412438,4.88233178708
1588856751036483785,8751,1588856751036381463,,0.386135780598,3.27701514486,4.84485857189
1588856751040686825,8752,1588856751040621521,,0.386479159546,3.27032111124,4.8384635406
1588856751046737542,8753,1588856751046659898,,0.386549206111,3.23154068159,4.81541121819
1588856751052817756,8754,1588856751052729047,,0.386541741184,3.18459568799,4.78525407386
1588856751058897317,8755,1588856751058814800,,0.386455955872,3.14438426915,4.76173109048
1588856751064740406,8756,1588856751064619288,,0.385953478935,3.09567226429,4.73043513847
1588856751070924350,8757,1588856751070868834,,0.385660027162,3.05548133653,4.7076299273
1588856751076911798,8758,1588856751076840943,,0.385190649694,3.01467436381,4.68407957144
1588856751089023777,8759,1588856751088897636,,0.384434474097,2.95916946743,4.64893390942
1588856751094711786,8760,1588856751094642216,,0.384466524007,2.91089874451,4.61968915548
1588856751100672923,8761,1588856751100601580,,0.385059282128,2.87060258099,4.59826564344
1588856751104254860,8762,1588856751104169790,,0.385436793292,2.83098444373,4.57639791242
1588856751116275498,8763,1588856751116079976,,0.386654244412,2.78370994115,4.54633668651
1588856751122003034,8764,1588856751121936701,,0.38752887982,2.73938148895,4.5186830229
1588856751124967935,8765,1588856751124913216,,0.387973229608,2.69867578878,4.49528385288
1588856751130930289,8766,1588856751130811729,,0.388628694907,2.65072748824,4.46359485724
1588856751136762927,8767,1588856751136686999,,0.38859332924,2.60823245064,4.43903259714
1588856751148732741,8768,1588856751148634701,,0.388078934535,2.5513713165,4.39999370437
1588856751154648926,8769,1588856751154563649,,0.387858063216,2.49884526067,4.3669465761
1588856751160545727,8770,1588856751160473616,,0.387875694106,2.45429158917,4.34045182647
1588856751166757050,8771,1588856751166688706,,0.387541507722,2.40146055913,4.30791343126
1588856751173775504,8772,1588856751173675437,,0.387169213103,2.35692872257,4.28309146127
1588856751178526184,8773,1588856751178403890,,0.38701654958,2.3126521486,4.25829156606
1588856751184453736,8774,1588856751184381150,,0.387151552551,2.26938410301,4.23352798567
1588856751190546955,8775,1588856751190478414,,0.387658585497,2.22053963004,4.2022088823
1588856751196559554,8776,1588856751196493467,,0.388107625646,2.17827888661,4.17800539744
1588856751202893942,8777,1588856751202838558,,0.388491751398,2.13673389527,4.15413640932
1588856751207070580,8778,1588856751206984512,,0.38921262073,2.13207081894,4.14901838555
1588856751211703403,8779,1588856751211641718,,0.390521064334,2.08755222419,4.11956115933
1588856751217462020,8780,1588856751217381418,,0.391332097106,2.04732301434,4.09614909256
1588856751220968584,8781,1588856751220840593,,0.392591347463,2.03749159681,4.08421212513
1588856751223876742,8782,1588856751223803038,,0.392897645737,1.99633888017,4.05994308839
1588856751229676551,8783,1588856751229606034,,0.39321353288,1.95497833994,4.03612076501
1588856751235908331,8784,1588856751235858193,,0.393385168873,1.91297708042,4.01215287915
1588856751241612408,8785,1588856751241477242,,0.393529752171,1.9069367066,4.00625615937
1588856751247641262,8786,1588856751247577790,,0.39357294206,1.85938146436,3.9748600744
1588856751253759272,8787,1588856751253589707,,0.393635210735,1.81714879283,3.95068083585
1588856751259660853,8788,1588856751259603868,,0.393703531586,1.7682704026,3.91876077835
1588856751265857848,8789,1588856751265763628,,0.39382346986,1.72682412275,3.89443908171
1588856751271809458,8790,1588856751271759823,,0.393663121466,1.67950370946,3.86493443165
1588856751276528079,8791,1588856751276442830,,0.393597664396,1.63970047411,3.84185002559
1588856751280559595,8792,1588856751280491537,,0.393585887958,1.63562316069,3.83690481433
1588856751286442071,8793,1588856751286392407,,0.394253781071,1.5922602972,3.80994804984
1588856751292591962,8794,1588856751292542436,,0.394623921012,1.55606460353,3.78996402546
1588856751298653954,8795,1588856751298577124,,0.395322758286,1.51943954845,3.76950266505
1588856751304679036,8796,1588856751304606342,,0.396771287011,1.4805214601,3.74566840567
1588856751310960755,8797,1588856751310876232,,0.398057926333,1.44227249211,3.72275382054
1588856751316631084,8798,1588856751316558593,,0.398503638504,1.4079252142,3.70349340997
1588856751328743499,8799,1588856751328668322,,0.399250796997,1.36598759441,3.6758773493
1588856751334782318,8800,1588856751334704178,,0.3993774381,1.33180422423,3.65602706622
1588856751341248241,8801,1588856751341130201,,0.399570178046,1.29825443676,3.63694639266
1588856751346502491,8802,1588856751346441546,,0.399722517482,1.26502347291,3.61769910955
1588856751353032564,8803,1588856751352922127,,0.399858460321,1.2327007406,3.59899959837
1588856751358560774,8804,1588856751358506919,,0.399984093182,1.20115004738,3.58046274844
1588856751364570581,8805,1588856751364516778,,0.400058520796,1.16493681496,3.5575776066
1588856751370550096,8806,1588856751370464155,,0.400037077999,1.13433690615,3.54041460451
1588856751376564448,8807,1588856751376494381,,0.400249338307,1.10019867692,3.51947750916
1588856751383022865,8808,1588856751382935419,,0.40027494149,1.07230181197,3.50325947994
1588856751389220495,8809,1588856751388953359,,0.400276375641,1.06811635006,3.49933734544
1588856751394916803,8810,1588856751394784517,,0.400357758081,1.04070986126,3.48407377757
1588856751400948862,8811,1588856751400871122,,0.400660202719,1.01166092055,3.46577272919
1588856751406764544,8812,1588856751406668431,,0.400870252949,0.987631393274,3.45142475332
1588856751412814048,8813,1588856751412747433,,0.400973052405,0.963965447846,3.43552041158
1588856751416754573,8814,1588856751416656620,,0.401209634485,0.942620986159,3.42272711275
1588856751422402062,8815,1588856751422031355,,0.401191633856,0.938705884529,3.41792854837
1588856751425186332,8816,1588856751425078484,,0.401411756287,0.918696166854,3.40576262935
1588856751430919693,8817,1588856751430823091,,0.401836351505,0.897955979225,3.3926083119
1588856751437083146,8818,1588856751437002735,,0.401949887979,0.8811250142,3.38315469732
1588856751443197302,8819,1588856751443104062,,0.402021283068,0.865923787368,3.37461868584
1588856751449050434,8820,1588856751448942373,,0.401839223543,0.862261322926,3.37026134174
1588856751454801676,8821,1588856751454706929,,0.401721059169,0.848298358989,3.3624148811
1588856751460723997,8822,1588856751460664568,,0.401906413031,0.833378663792,3.35164423567
1588856751466760737,8823,1588856751466663841,,0.401964472509,0.821715940965,3.34427693389
1588856751472704834,8824,1588856751472648829,,0.402049540639,0.809872270123,3.33529227362
1588856751478656826,8825,1588856751478605445,,0.401982541411,0.801418650028,3.32921301
1588856751484824943,8826,1588856751484766218,,0.401708545646,0.793252518856,3.32142787394
1588856751490717807,8827,1588856751490649277,,0.401635844613,0.787894281676,3.3166338704
1588856751496686438,8828,1588856751496582834,,0.401467313814,0.782378196506,3.3102829735
1588856751502896829,8829,1588856751502828628,,0.401303094922,0.780149121213,3.307378624
1588856751508781460,8830,1588856751508713925,,0.401058136979,0.777741586614,3.30265993245
