%time,field.header.seq,field.header.stamp,field.header.frame_id,field.wrench.force.x,field.wrench.force.y,field.wrench.force.z,field.wrench.torque.x,field.wrench.torque.y,field.wrench.torque.z
1588856747838890486,8189,1588856747838795679,,0.31818745762,-0.769546394907,1.06274539536,0.227333311678,-0.0043675729631,-0.091283692006
1588856747844902060,8190,1588856747844813063,,0.318191819793,-0.769546265579,1.06274418296,0.227332854205,-0.00436788324818,-0.0912848164437
1588856747850828295,8191,1588856747850734778,,0.295889823092,-0.899218555501,1.06426689865,0.229139758788,-0.00371967617409,-0.0905291629739
1588856747856854726,8192,1588856747856776221,,0.318251597948,-0.899763473194,1.08775702497,0.23365280641,-0.00438592471196,-0.0939357722076
1588856747862855318,8193,1588856747862787957,,0.318249383029,-0.899758808677,1.08776153134,0.23365363835,-0.0043842893742,-0.0939337791833
1588856747868798755,8194,1588856747868733957,,0.295897092702,-0.899220563076,1.06426318127,0.230129132175,-0.00501750584536,-0.0932040895085
1588856747874849384,8195,1588856747874775659,,0.295896286887,-0.899223226436,1.06426115497,0.230128938057,-0.00501808163217,-0.0932045378039
1588856747881095589,8196,1588856747881025729,,0.318538328313,-0.899386003448,1.06480787881,0.229219479215,-0.00501565465076,-0.0930552248253
1588856747883914730,8197,1588856747883856486,,0.296189081534,-1.02953028408,1.06628893741,0.227308998105,-0.00436669951336,-0.0905376190893
1588856747888365244,8198,1588856747888292074,,0.29618462234,-1.02953342704,1.06628714145,0.227309235019,-0.00436682243694,-0.090537018347
1588856747890052801,8199,1588856747889987533,,0.296183888137,-1.02953478202,1.06628603711,0.227308947821,-0.00436766881608,-0.0905376985794
1588856747896047179,8200,1588856747895956209,,0.29587493559,-1.02990390732,1.08920821584,0.228073200412,-0.00437091785065,-0.0905351165438
1588856747902040340,8201,1588856747901981401,,0.318563613528,-1.03006036132,1.08973185713,0.229040944936,-0.00437338361574,-0.0921669568638
1588856747908071932,8202,1588856747907966732,,0.295870545409,-1.02990356206,1.08920973485,0.230893562077,-0.00502219810167,-0.0932007915155
1588856747914030531,8203,1588856747913956375,,0.318837142704,-1.16074628935,1.09162289556,0.231833523143,-0.00438070481126,-0.0939430565314
1588856747920168133,8204,1588856747920098742,,0.318829408616,-1.16074811495,1.09162321327,0.235586853949,-0.00503555349524,-0.0974973939154
1588856747923031034,8205,1588856747922962470,,0.318826031102,-1.16074756288,1.09162478676,0.235587078173,-0.00503579089934,-0.0974968398483
1588856747929108254,8206,1588856747929028657,,0.341338296754,-1.1612502626,1.11505099368,0.237377014931,-0.00503993713619,-0.100922290026
1588856747935027699,8207,1588856747934937495,,0.341334131516,-1.16125329133,1.11504911451,0.237377229279,-0.00504005915142,-0.100921779769
1588856747940928825,8208,1588856747940863002,,0.364076044818,-1.16141623072,1.11556398613,0.240209698183,-0.0057029984705,-0.104334037339
1588856747947100371,8209,1588856747946949871,,0.364080287215,-1.16141802892,1.11556072946,0.240209048108,-0.00570343793276,-0.104335509981
1588856747953098552,8210,1588856747953017186,,0.386219344426,-1.16224607649,1.16204153259,0.24182291134,-0.00570729562,-0.106870776893
1588856747956309481,8211,1588856747956227276,,0.386222694176,-1.16225034514,1.16203614984,0.241822548248,-0.00570703856072,-0.106871612208
1588856747962107435,8212,1588856747962014932,,0.386841046162,-1.29288252356,1.14080605101,0.242875999072,-0.00571087075821,-0.106869334408
1588856747967930370,8213,1588856747967830926,,0.386836600157,-1.29288414882,1.14080571669,0.242876262879,-0.00571105453544,-0.106868725045
1588856747974027830,8214,1588856747973950778,,0.386840201211,-1.29288356361,1.14080515883,0.24381838568,-0.00571483789156,-0.107758994261
1588856747980033372,8215,1588856747979959815,,0.363411557559,-1.29334991866,1.18616010525,0.24722631314,-0.00637972386071,-0.109683295695
1588856747986003900,8216,1588856747985903570,,0.386443388287,-1.42469309274,1.18826461322,0.24906897914,-0.00638629157101,-0.110424368653
1588856747990396007,8217,1588856747990270015,,0.38644554571,-1.42469604569,1.18826037107,0.24906948319,-0.0063845704148,-0.110423331258
1588856747994987742,8218,1588856747994864757,,0.386441078826,-1.42469265006,1.18826589506,0.25007052851,-0.00573274379923,-0.113108199306
1588856748001134696,8219,1588856748000985971,,0.386645053144,-1.55610738428,1.18977290762,0.251031947187,-0.00639171767375,-0.114889236378
1588856748007164234,8220,1588856748007067207,,0.409437513301,-1.68810657082,1.21458997743,0.255581065038,-0.00640653505149,-0.119218232503
1588856748013004235,8221,1588856748012946055,,0.409438503598,-1.68809230443,1.21460947161,0.255581767367,-0.00640656128567,-0.119216725424
1588856748019196767,8222,1588856748019133068,,0.409231837859,-1.55648396914,1.21324908158,0.255583253161,-0.00575309761323,-0.11921519098
1588856748022270756,8223,1588856748022200185,,0.432089974438,-1.55662024369,1.21375167094,0.258385256452,-0.00641857698727,-0.121742881741
1588856748028097879,8224,1588856748027994009,,0.454937382252,-1.68859025033,1.23866852718,0.258272698941,-0.00641931056408,-0.122496951091
1588856748033979303,8225,1588856748033908371,,0.454585960204,-1.68883300044,1.26162324651,0.261873135168,-0.00642981769488,-0.126069478994
1588856748039987908,8226,1588856748039878805,,0.45456809575,-1.68883851471,1.26162230176,0.26187441796,-0.00643014780361,-0.126066797491
1588856748046020084,8227,1588856748045953174,,0.43122343087,-1.68894439993,1.28409435331,0.265402788224,-0.00709821732998,-0.127095133881
1588856748052024450,8228,1588856748051900433,,0.431214223976,-1.6889366815,1.28410759695,0.265432140061,-0.00709877393648,-0.127988475369
1588856748055176186,8229,1588856748055095892,,0.453845266025,-1.68931681279,1.30766505996,0.270858836028,-0.00711571772784,-0.131412997026
1588856748059045585,8230,1588856748058946537,,0.454001029127,-1.82099240137,1.30896046919,0.271801826507,-0.00711958759327,-0.132302722035
1588856748063925111,8231,1588856748063862058,,0.453632788296,-1.82121964125,1.3319360121,0.273498453367,-0.00712604327228,-0.133189245612
1588856748069946500,8232,1588856748069888809,,0.45360879101,-1.82121949423,1.33194438592,0.273500264218,-0.00712705000259,-0.133185473174
1588856748075922542,8233,1588856748075860399,,0.453235603846,-1.82146245152,1.35490554911,0.274321320575,-0.00712985247605,-0.134982825906
1588856748082060356,8234,1588856748081997155,,0.475832145904,-1.82182179973,1.37835713785,0.276982567107,-0.0077808612582,-0.137514764778
1588856748088094613,8235,1588856748087941157,,0.476204411537,-1.82158459343,1.35538370496,0.279864653622,-0.00778696009637,-0.137499716287
1588856748092504900,8236,1588856748092370344,,0.476156108034,-1.82158697214,1.35539747822,0.282616227134,-0.00780136037792,-0.138389254086
1588856748096945698,8237,1588856748096857744,,0.476152807581,-1.8215784777,1.35541005369,0.282700742489,-0.00780153727152,-0.141089418478
1588856748103078860,8238,1588856748103008024,,0.452523768416,-1.82189622925,1.40100094638,0.285122556622,-0.00846583282616,-0.14032124275
1588856748108985453,8239,1588856748108894581,,0.45300108775,-1.95344009885,1.37913383828,0.285261526803,-0.0078057563706,-0.140318053155
1588856748115055745,8240,1588856748114986166,,0.475547648573,-1.95379831633,1.40267902063,0.287854393368,-0.0078146145604,-0.140145434761
1588856748118347287,8241,1588856748118256582,,0.475520234627,-1.95381579863,1.4026639631,0.291548553673,-0.00782558523708,-0.141926067202
1588856748121226922,8242,1588856748121151126,,0.475123330211,-1.95404120098,1.42565078853,0.292313577255,-0.0078313068645,-0.141919577363
1588856748127024029,8243,1588856748126939104,,0.474755764059,-1.9542447371,1.44866237309,0.293078886963,-0.00783379030329,-0.141912691212
1588856748132948969,8244,1588856748132878807,,0.47485373633,-2.08609438075,1.44980490602,0.296771157876,-0.00784455254377,-0.1436868548
1588856748138947610,8245,1588856748138872460,,0.497934656184,-2.08621236033,1.45027901852,0.302305889664,-0.0085175176014,-0.146214517115
1588856748145137052,8246,1588856748144974780,,0.497944536026,-2.08622227851,1.45026135902,0.302305164765,-0.00851608085558,-0.146216099558
1588856748151021213,8247,1588856748150952300,,0.520283428217,-2.21873497913,1.49781568474,0.309380539196,-0.00853293418239,-0.14873508877
1588856748156976785,8248,1588856748156886658,,0.520290556037,-2.21876446963,1.49776952311,0.30937957908,-0.00853040368882,-0.148737231019
1588856748160667168,8249,1588856748160600278,,0.496912981585,-2.21884943044,1.52030111266,0.311967299517,-0.00919943058364,-0.148863881456
1588856748165971150,8250,1588856748165836527,,0.496921467828,-2.21885863197,1.52028490933,0.312907054411,-0.00920261579023,-0.149760242546
1588856748171910153,8251,1588856748171822748,,0.496565245535,-2.2190689712,1.54326783703,0.315539838687,-0.00986380987656,-0.151559207031
1588856748177936515,8252,1588856748177872714,,0.496267908677,-2.35127796177,1.56725039957,0.321813818514,-0.00923027999833,-0.153322972876
1588856748183903981,8253,1588856748183833113,,0.496268008307,-2.35128879064,1.56723412181,0.32181263915,-0.00923103113143,-0.15332540303
1588856748189917360,8254,1588856748189821986,,0.518894374454,-2.35160091399,1.59079451353,0.328139235239,-0.00990339037676,-0.156748625524
1588856748195814426,8255,1588856748195763318,,0.518834417197,-2.3516138288,1.59079497815,0.328138578648,-0.00991242177413,-0.156749429172
1588856748201882802,8256,1588856748201801587,,0.541830274538,-2.35173150175,1.59125868863,0.330922807613,-0.00992147448395,-0.158382878274
1588856748207955597,8257,1588856748207833011,,0.541548406862,-2.35189762861,1.61427757769,0.332601346232,-0.0105764721568,-0.158372315797
1588856748213904780,8258,1588856748213842597,,0.564331229352,-2.48425629476,1.6386852174,0.335259895893,-0.0105844701766,-0.160923832415
1588856748220013185,8259,1588856748219936904,,0.56430591807,-2.35220522023,1.63775355099,0.338021965426,-0.0105892683382,-0.161802605608
1588856748225970421,8260,1588856748225909795,,0.564341934713,-2.3521958669,1.63775457425,0.340799953237,-0.0105917087997,-0.163592554347
1588856748228922559,8261,1588856748228866929,,0.563667109355,-2.48459191511,1.68484260287,0.342359246809,-0.0105904932737,-0.164481044376
1588856748235097767,8262,1588856748235035683,,0.563677493777,-2.48456450367,1.68487955099,0.344230951381,-0.0105971639864,-0.166269318577
1588856748241095195,8263,1588856748241025513,,0.563636875972,-2.48455683095,1.68490445339,0.346964294643,-0.0112770856289,-0.166250766391
1588856748247139344,8264,1588856748247056964,,0.563431701917,-2.61687567886,1.70870775752,0.351439744473,-0.0112739198329,-0.168946857189
1588856748252990562,8265,1588856748252880103,,0.563481336193,-2.61690678667,1.7086437474,0.351438172475,-0.0112658142404,-0.168950667872
1588856748258948942,8266,1588856748258882665,,0.56385607399,-2.61674818322,1.68559143134,0.353434841282,-0.011923002805,-0.169844969417
1588856748262699215,8267,1588856748262630124,,0.563495140092,-2.74908679461,1.70945038022,0.357841973275,-0.0119329808444,-0.169809194723
1588856748267937275,8268,1588856748267859218,,0.563546321149,-2.7490247357,1.70953330651,0.357842561827,-0.0119309089767,-0.169808100036
1588856748274184106,8269,1588856748274104753,,0.5631120253,-2.74921467106,1.73254631144,0.36144399766,-0.0112952100962,-0.173400179388
1588856748280150887,8270,1588856748280067649,,0.58573306277,-2.74950463821,1.75612212878,0.364970702396,-0.0119622420043,-0.174125122208
1588856748286124882,8271,1588856748286024536,,0.585696593618,-2.74951157324,1.75612343426,0.364972293057,-0.0119645651364,-0.174121628486
1588856748292185110,8272,1588856748292081646,,0.585280570042,-2.88187967605,1.77995946624,0.367583624004,-0.0119744318908,-0.175002143014
1588856748296866214,8273,1588856748296785704,,0.585271235811,-2.88187909795,1.77996347145,0.367580488968,-0.0119803228219,-0.175008324687
1588856748304132455,8274,1588856748304025182,,0.585271179846,-2.88186288141,1.77998974524,0.368460757336,-0.0119851752804,-0.174099343441
1588856748309935190,8275,1588856748309865328,,0.607635502374,-2.88225847258,1.82658629673,0.375588834213,-0.0120087362765,-0.178413518637
1588856748312878001,8276,1588856748312835678,,0.607602303749,-2.88225523228,1.82660245329,0.375586179625,-0.0120177907471,-0.178418497206
1588856748319140808,8277,1588856748319078423,,0.607623281685,-2.88226874989,1.8265741449,0.377431360812,-0.0120202678412,-0.179307771169
1588856748322224303,8278,1588856748322163123,,0.607307403971,-2.88241812423,1.84971611236,0.380047080044,-0.0113641256932,-0.180188683216
1588856748327921489,8279,1588856748327848664,,0.65317801208,-2.88276803878,1.87369927864,0.380904476825,-0.0113664489429,-0.183514436942
1588856748331485514,8280,1588856748331418935,,0.629628640771,-3.01501143244,1.89708759825,0.385316477366,-0.0120289644645,-0.183616574172
1588856748337153683,8281,1588856748337040293,,0.629295430183,-3.0151657484,1.92012615268,0.388869703801,-0.0126922101292,-0.18539826472
1588856748343159604,8282,1588856748343073685,,0.652468536751,-3.01527423202,1.92057002977,0.390764455344,-0.0126938544039,-0.187943058289
1588856748355049425,8283,1588856748354985054,,0.629377711137,-3.01516253453,1.92010423104,0.39170918774,-0.0126830178094,-0.188990199968
1588856748361043342,8284,1588856748360977326,,0.629337123066,-3.01516692097,1.92011064661,0.391710201482,-0.0126869564154,-0.188987834466
1588856748367072727,8285,1588856748366979474,,0.629351831895,-3.14743065721,1.9208088896,0.388921205302,-0.0126755352427,-0.187200768909
1588856748373072170,8286,1588856748372984181,,0.607351055179,-3.14692083172,1.85116959879,0.370788329924,-0.0106511980591,-0.174829752607
1588856748379125532,8287,1588856748379046006,,0.607324626572,-3.14691340856,1.85119088853,0.370787227899,-0.0106569029871,-0.174831742171
1588856748385116087,8288,1588856748385021218,,0.607677983061,-3.14680374129,1.8279883038,0.370856180609,-0.0106639600588,-0.172120947859
1588856748390965320,8289,1588856748390826184,,0.561741213538,-3.14645015408,1.80408643034,0.369996562399,-0.0113352791285,-0.168799564038
1588856748396985089,8290,1588856748396903826,,0.561303371699,-3.1466053007,1.82713576583,0.371652971583,-0.0113452541806,-0.167883368303
1588856748400041133,8291,1588856748399963148,,0.58387865356,-3.27919229845,1.85140527414,0.375122071301,-0.0106974229424,-0.166795672015
1588856748406074558,8292,1588856748405986466,,0.583903676381,-3.27920038191,1.851383065,0.375119099223,-0.0106976974066,-0.16680233843
1588856748411967275,8293,1588856748411894120,,0.537053726445,-3.41152397693,1.87422004807,0.378582962109,-0.0107129307513,-0.165251537301
1588856748418312243,8294,1588856748418251855,,0.537134959081,-3.27915459365,1.87357763112,0.379479035408,-0.0107120651539,-0.164331904784
1588856748421292689,8295,1588856748421228666,,0.536230260359,-3.41179312293,1.92035886511,0.381920076692,-0.0100531815765,-0.164304842625
1588856748424069509,8296,1588856748423957735,,0.559064556371,-3.41202163776,1.94395677753,0.384511014361,-0.0100531106797,-0.16413298019
1588856748430089568,8297,1588856748429973595,,0.559511899452,-3.41187200717,1.92079998685,0.383741426537,-0.01004697031,-0.164141372102
1588856748434385089,8298,1588856748434310578,,0.558313604135,-3.41228859081,1.99009525759,0.391499811657,-0.0100642873661,-0.16316039257
1588856748439077691,8299,1588856748438996890,,0.558374010342,-3.41226657445,1.99011605976,0.39149854756,-0.0100605274742,-0.163163657585
1588856748445088575,8300,1588856748445021907,,0.510740435179,-3.5448703559,2.05918329437,0.409198117056,-0.0101027286882,-0.158746244746
1588856748451150945,8301,1588856748450975068,,0.510775721669,-3.54489200463,2.05913727316,0.40919736846,-0.0100979386218,-0.158748479147
1588856748457181032,8302,1588856748457051838,,0.51001839862,-3.5451418812,2.10531929803,0.419813763973,-0.0101248858338,-0.156826771671
1588856748463059769,8303,1588856748462927366,,0.5323138946,-3.54550635137,2.15201305582,0.428646138402,-0.0108128844037,-0.156582487462
1588856748469190234,8304,1588856748469023186,,0.485094666038,-3.67795711171,2.19806645449,0.438374332145,-0.010839893863,-0.154953859602
1588856748475050247,8305,1588856748474964845,,0.531228348543,-3.81050942616,2.19953086498,0.443844382016,-0.0108511957908,-0.154587573664
1588856748481059930,8306,1588856748480960583,,0.484518150183,-3.81048768602,2.22173947139,0.451910048939,-0.0102080287372,-0.153889803569
1588856748486973331,8307,1588856748486902966,,0.484483325134,-3.81046020033,2.22179420544,0.451907511656,-0.0102186971599,-0.153896546297
1588856748493097066,8308,1588856748493016300,,0.484422044426,-3.81048612228,2.22176310995,0.457382932595,-0.0102415863254,-0.153836972098
1588856748499051258,8309,1588856748498965072,,0.506754242962,-3.81080484879,2.26841229024,0.462545796266,-0.0102507779737,-0.152709294642
1588856748503180530,8310,1588856748503072962,,0.506654934464,-3.94321397814,2.2689698123,0.467134900948,-0.0102606861548,-0.153566876621
1588856748508035607,8311,1588856748507962799,,0.483089083529,-3.94322361238,2.29179740372,0.471541356378,-0.0102717970806,-0.152748431206
1588856748514168283,8312,1588856748514047625,,0.48271662871,-3.94329837037,2.31497231522,0.476836342914,-0.0102830722576,-0.15087365123
1588856748520119407,8313,1588856748520053331,,0.459137962838,-3.94337762306,2.33756791718,0.484878608405,-0.00963923094378,-0.149114777386
1588856748526200526,8314,1588856748526062186,,0.459191765423,-3.94336173498,2.33758415123,0.488533037576,-0.00963983981215,-0.149065249653
1588856748532191504,8315,1588856748532038042,,0.482057519406,-3.94351869204,2.36118803784,0.493805585781,-0.00965040531049,-0.146130118948
1588856748538106780,8316,1588856748538016710,,0.457476292328,-4.07618639182,2.43078075255,0.502428939456,-0.00966702839051,-0.142534524182
1588856748544261178,8317,1588856748544092333,,0.457437409881,-4.07622638241,2.43072100852,0.502430178316,-0.00966689913418,-0.142530165941
1588856748550211456,8318,1588856748550128481,,0.433975433429,-4.07622867132,2.45345558338,0.505894238397,-0.00966599518405,-0.14081305468
1588856748556081453,8319,1588856748555961557,,0.434040883915,-4.07614051817,2.45359045983,0.50863752734,-0.0096747035069,-0.14078560264
1588856748562109136,8320,1588856748561968083,,0.43361399997,-4.07622797688,2.47685716543,0.51213358584,-0.00968678601721,-0.139834105728
1588856748568153964,8321,1588856748568052066,,0.410197835762,-4.20861518257,2.47691883094,0.513899752212,-0.0096912169627,-0.137245942256
1588856748571941467,8322,1588856748571855196,,0.43273657654,-4.20888550744,2.52361554045,0.519105765408,-0.00969742874121,-0.137946234428
1588856748577083089,8323,1588856748576892813,,0.432914524556,-4.07639665632,2.52317697313,0.520003065497,-0.00970453536021,-0.137021100754
1588856748583071980,8324,1588856748583012827,,0.432328437331,-4.20893342389,2.54684394595,0.523486238704,-0.00904853428573,-0.136074634745
1588856748589034702,8325,1588856748588949217,,0.431852753413,-4.20907976177,2.57002192412,0.527900695169,-0.00906855770268,-0.1351141676
1588856748595065830,8326,1588856748594998525,,0.431823302647,-4.20904000403,2.57009198509,0.52790210693,-0.00907097411303,-0.135108489416
1588856748600971005,8327,1588856748600901031,,0.408202301941,-4.20906107202,2.59281052223,0.530479005148,-0.0090752410123,-0.13431598751
1588856748604029237,8328,1588856748603953410,,0.431319575462,-4.34162338447,2.59367378416,0.533221451493,-0.00841025445646,-0.134133942383
1588856748610062089,8329,1588856748609915532,,0.408096899681,-4.34157320104,2.59320409229,0.53411075684,-0.00907626020893,-0.133363752038
1588856748616010160,8330,1588856748615900166,,0.384556638588,-4.34166943227,2.61580591434,0.539394500938,-0.00974891966706,-0.130720911405
1588856748619172006,8331,1588856748619114433,,0.384616080169,-4.34172113263,2.61571136143,0.539393548782,-0.00974136273593,-0.130725403577
1588856748623634528,8332,1588856748622202525,,0.407426509442,-4.34190388535,2.63935108582,0.539263506537,-0.0090682147525,-0.13148961506
1588856748627950986,8333,1588856748627867520,,0.430714831259,-4.34199392555,2.63974238484,0.539263928728,-0.00839101838142,-0.131338154211
1588856748633940204,8334,1588856748633844738,,0.406870325012,-4.47446437573,2.66297840937,0.543659899925,-0.00840004798657,-0.129600286615
1588856748640160976,8335,1588856748640085635,,0.384187785632,-4.47432737405,2.63934730893,0.544679969962,-0.00839769450072,-0.127933247001
1588856748646032748,8336,1588856748645917939,,0.383822193494,-4.47443295021,2.66247438131,0.546378126847,-0.00839358352429,-0.12881078176
1588856748652153200,8337,1588856748652055432,,0.383801697771,-4.4743793276,2.66256744942,0.548198001166,-0.00839783558354,-0.127871489699
1588856748658093548,8338,1588856748658030492,,0.383211356869,-4.60695424403,2.68618637332,0.548986282806,-0.00774206648999,-0.12876990377
1588856748664152637,8339,1588856748664037365,,0.382793532572,-4.60701593131,2.70939293652,0.552533285523,-0.0084038483497,-0.130529085644
1588856748670002690,8340,1588856748669927361,,0.382779083319,-4.60698457085,2.70944830207,0.552534041905,-0.00840520972719,-0.13052579616
1588856748674293739,8341,1588856748674203805,,0.38251927607,-4.73947368013,2.70992526085,0.552513889002,-0.00841247278149,-0.12962049705
1588856748678936222,8342,1588856748678865649,,0.382235383728,-4.60709427616,2.7326909993,0.553308294619,-0.0084151489607,-0.130502061815
1588856748684877619,8343,1588856748684821309,,0.405156216802,-4.73964377527,2.73359844567,0.55609292596,-0.00842671259687,-0.132124937407
1588856748691221207,8344,1588856748691135588,,0.40577746674,-4.60705429802,2.70989421422,0.556209575724,-0.00842810793808,-0.131221474697
1588856748697103041,8345,1588856748696980285,,0.405316755287,-4.60714379773,2.73315952478,0.558840065044,-0.00843771182635,-0.132084985797
1588856748703111865,8346,1588856748703031047,,0.382061246957,-4.60701085109,2.73285599276,0.560652098616,-0.00911707571742,-0.131289897292
1588856748709389928,8347,1588856748709287168,,0.405287764353,-4.6069721338,2.73345316759,0.56066907243,-0.0091162730903,-0.132049302485
1588856748715115633,8348,1588856748715044226,,0.405309097973,-4.60689725326,2.73357620454,0.560668083049,-0.00911978722593,-0.132053260591
1588856748718469758,8349,1588856748718396509,,0.404928215837,-4.60695776735,2.75677579578,0.562343175132,-0.00912694007409,-0.132037627793
1588856748721323948,8350,1588856748721164596,,0.404958314871,-4.60690653527,2.75685698883,0.564172340178,-0.00912691560897,-0.132007041735
1588856748726961222,8351,1588856748726889242,,0.381316263107,-4.60688637423,2.77966559183,0.564927310616,-0.00912778491253,-0.131220293245
1588856748732921876,8352,1588856748732871133,,0.404359023308,-4.73938620068,2.780651083,0.564925491675,-0.00845398991595,-0.131074320331
1588856748738917261,8353,1588856748738852225,,0.404739260957,-4.73926604913,2.75755796052,0.565996600365,-0.00845827636754,-0.131053954318
1588856748742686140,8354,1588856748742620906,,0.404391155977,-4.73935875619,2.78069318648,0.567712581769,-0.00912307879865,-0.132841420812
1588856748747925679,8355,1588856748747860290,,0.427668764586,-4.73941752363,2.78113501227,0.566801606882,-0.00911936127143,-0.132707195639
1588856748754291279,8356,1588856748754190632,,0.404369985323,-4.73937928134,2.7806612823,0.570486683424,-0.00844823711063,-0.133694385935
1588856748760004011,8357,1588856748759917272,,0.404339989159,-4.73940958199,2.78061399903,0.57048753396,-0.0084482572815,-0.133690755293
1588856748766025886,8358,1588856748765970462,,0.426797159223,-4.73964802532,2.8274588827,0.572044387963,-0.00845166835175,-0.134429945585
1588856748772089208,8359,1588856748772012826,,0.427560858125,-4.73926390342,2.80465060967,0.57127389992,-0.00841942741487,-0.13443918864
1588856748776728001,8360,1588856748776628254,,0.427269506979,-4.73905238898,2.80505238791,0.571275185679,-0.00846141203578,-0.134431088901
1588856748781072848,8361,1588856748781005341,,0.426841460238,-4.87190891953,2.82829645653,0.572972363344,-0.00778373808074,-0.13533289881
1588856748786956683,8362,1588856748786882175,,0.426963762624,-4.87196983385,2.82817306433,0.572970884148,-0.00777005124335,-0.135339947753
1588856748793136215,8363,1588856748793045834,,0.42693747063,-4.73959370015,2.82752876308,0.574808915807,-0.00844977912915,-0.135307646221
1588856748799022625,8364,1588856748798945717,,0.427205957569,-4.73990931995,2.82695908369,0.574803953005,-0.00841471804873,-0.135330911893
1588856748804969372,8365,1588856748804850471,,0.427396459347,-4.73989217069,2.82695904271,0.575752618535,-0.00839574833989,-0.13714306348
1588856748811050002,8366,1588856748810965168,,0.427271610988,-4.87232474142,2.82751508978,0.576672984736,-0.00905642673581,-0.137120211842
1588856748817162415,8367,1588856748817049253,,0.427082870221,-4.8723644283,2.82747521619,0.577567980319,-0.0083976284623,-0.136169366043
1588856748820262066,8368,1588856748820181920,,0.427431772928,-4.87224953867,2.80427644746,0.579568884701,-0.00839822151478,-0.137035827207
1588856748825999905,8369,1588856748825942964,,0.427442240313,-4.87222000529,2.80432616374,0.579571444103,-0.00839218340417,-0.137025372156
1588856748832016031,8370,1588856748831941104,,0.449755742164,-4.87247213745,2.85115011815,0.58113060141,-0.00839424109687,-0.137751510185
1588856748837956701,8371,1588856748837887530,,0.450055153728,-4.87232781629,2.82810949612,0.582150970976,-0.00841057067006,-0.135910387233
1588856748844591262,8372,1588856748844505164,,0.426380906166,-4.87239062018,2.85078062716,0.58290323833,-0.00841638593175,-0.135134317926
1588856748850045527,8373,1588856748849979692,,0.425576385225,-4.87264470901,2.89695978531,0.586265213414,-0.00908940371668,-0.135090882181
1588856748855925320,8374,1588856748855853657,,0.425537597093,-4.87266835393,2.8969257125,0.586265089147,-0.00909325906508,-0.135091162018
1588856748868247050,8375,1588856748868161825,,0.425053408023,-5.00525477538,2.92061871595,0.592486016802,-0.00910546651741,-0.133199388799
1588856748874046268,8376,1588856748873968374,,0.425106990614,-5.00518595464,2.920728857,0.592485484391,-0.00910367849097,-0.133201879216
1588856748880006743,8377,1588856748879937621,,0.378519844532,-4.87254092496,2.94274499246,0.594128756319,-0.00909897463531,-0.131656420257
1588856748886025537,8378,1588856748885932620,,0.425067253738,-4.87259019125,2.94371521102,0.595993598443,-0.00842388638672,-0.133144889618
1588856748892093739,8379,1588856748892006394,,0.401841077775,-5.00496306879,2.94381850013,0.596858012683,-0.00839451799319,-0.130550013633
1588856748898069339,8380,1588856748898000806,,0.425131179806,-5.00494609127,2.94437948442,0.597784868341,-0.00839775840075,-0.131295634061
1588856748904020191,8381,1588856748903946680,,0.42511723799,-5.00492354938,2.94441981443,0.597785665529,-0.00839829614083,-0.13129197004
1588856748910050000,8382,1588856748909965989,,0.424985477489,-4.87248970026,2.96713611096,0.59947284331,-0.00838994682797,-0.131268425698
1588856748913491690,8383,1588856748913406243,,0.401531354218,-5.00490554854,2.96720465292,0.600375376744,-0.00839082391653,-0.130490775519
1588856748919585999,8384,1588856748919415481,,0.401505961988,-5.00486343394,2.96727912416,0.600374410496,-0.00839830987978,-0.130494739491
1588856748922485336,8385,1588856748922405896,,0.401299621551,-4.87250309677,2.98988535456,0.601141375893,-0.00839741486305,-0.130489170543
1588856748928285660,8386,1588856748928175987,,0.4010554557,-5.00497518293,2.99039776548,0.60113958525,-0.00841135883735,-0.130496521423
1588856748934196952,8387,1588856748934102971,,0.401037340645,-5.00501246366,2.99033779799,0.601139243309,-0.00841282060635,-0.130498002357
1588856748940101634,8388,1588856748940036089,,0.401063914311,-5.00498227332,2.99038476395,0.601138993849,-0.00841165565396,-0.130499226584
1588856748947202404,8389,1588856748947119838,,0.378221197271,-5.00485710663,2.9667750312,0.602181576168,-0.00842240843554,-0.129727003187
1588856748952091159,8390,1588856748952033132,,0.377892479963,-5.00492141453,2.98995802397,0.602947305277,-0.00908775081109,-0.129722453735
1588856748958257183,8391,1588856748958166705,,0.378416319149,-4.87235128511,2.96632134588,0.601243374103,-0.00908370087403,-0.128826709122
1588856748964020215,8392,1588856748963925236,,0.401169761031,-4.87243182524,2.99001892619,0.603897249205,-0.00842564582522,-0.131359597199
1588856748970159410,8393,1588856748969966122,,0.401194301364,-4.87250334304,2.98989908732,0.603903573156,-0.0084018236053,-0.131332047004
1588856748975960275,8394,1588856748975871543,,0.401641633178,-4.87236807779,2.96681452552,0.603117045768,-0.00839411265322,-0.130430988635
1588856748988204146,8395,1588856748988102433,,0.401720785138,-4.87240347021,2.96674568342,0.60218852817,-0.00837985989261,-0.12953715896
1588856748994037636,8396,1588856748993962287,,0.424630642331,-4.87256531507,2.99030581136,0.602994672839,-0.00837295148215,-0.131189456558
1588856749000131931,8397,1588856749000062857,,0.401767104154,-4.87245445122,2.96665568117,0.602229000365,-0.00836957010317,-0.131346047325
1588856749006130056,8398,1588856749005934490,,0.401722256005,-4.87240409447,2.96674445901,0.602229646813,-0.00837550462386,-0.131342704987
1588856749012053292,8399,1588856749011983463,,0.401705997087,-4.87242487295,2.96671253497,0.601310733519,-0.0083741814012,-0.131355256324
1588856749015649827,8400,1588856749015571718,,0.4249652504,-4.87247693251,2.9671599745,0.599540953723,-0.00837034122787,-0.133960244655
1588856749018377146,8401,1588856749018249840,,0.425254369853,-4.87237339327,2.94404701441,0.597853032188,-0.00838474601204,-0.133986987257
1588856749021422906,8402,1588856749021321625,,0.425378553988,-4.73992200795,2.94352535877,0.597852790746,-0.008389529114,-0.133987765166
1588856749027022373,8403,1588856749026951168,,0.42487431468,-4.74003478749,2.96665902821,0.59771247331,-0.00839794096261,-0.133986421115
1588856749033369872,8404,1588856749033217195,,0.425889021889,-4.60735668253,2.91990182804,0.592518838823,-0.00838917671022,-0.134066962627
1588856749039322052,8405,1588856749039191408,,0.425363828294,-4.60746251393,2.94305277994,0.592389191728,-0.00839915141071,-0.134968758937
1588856749045430106,8406,1588856749045234303,,0.425364697541,-4.60746218084,2.94305317577,0.592390249989,-0.00839610815247,-0.134964303414
1588856749049669445,8407,1588856749049529498,,0.425332932938,-4.60742493828,2.94311607033,0.590561769464,-0.00839915415379,-0.134992137248
1588856749054206850,8408,1588856749054104426,,0.425728696733,-4.60726435181,2.9200708919,0.589793716713,-0.00840267047708,-0.135002784148
1588856749060269427,8409,1588856749060141420,,0.425710201023,-4.6072397535,2.92011239903,0.587966251336,-0.0084006810493,-0.135026530968
1588856749066236363,8410,1588856749066103320,,0.44915162193,-4.47480414281,2.9200963674,0.588003463769,-0.00839063277384,-0.136692239528
1588856749072202369,8411,1588856749072121363,,0.449154215056,-4.47475663208,2.92016877349,0.586175214724,-0.00838937704575,-0.136719462277
1588856749078232775,8412,1588856749078144888,,0.449304548042,-4.47473025704,2.92018606269,0.586174432693,-0.00837317629518,-0.136723808258
1588856749084063637,8413,1588856749083998529,,0.42609255409,-4.47465470847,2.91977965266,0.585238775986,-0.00771931853646,-0.135979902296
1588856749090064917,8414,1588856749089993444,,0.426574718964,-4.47454199499,2.89654555603,0.582639116147,-0.00836271957614,-0.136014658405
1588856749096062232,8415,1588856749096007840,,0.449946412604,-4.34219519812,2.89640807757,0.581716121092,-0.00770137528486,-0.135890168034
1588856749108207006,8416,1588856749108095480,,0.427205068952,-4.34196659749,2.87292553284,0.580948945971,-0.00836248293129,-0.136052058956
1588856749114061571,8417,1588856749113994238,,0.427228608968,-4.34198859935,2.87288877972,0.580950235531,-0.00835468594108,-0.136047031392
1588856749118260653,8418,1588856749118109264,,0.450413522212,-4.34206862515,2.87329263385,0.580965856719,-0.00835624725151,-0.136812660645
1588856749120209802,8419,1588856749120142830,,0.450388751774,-4.34206664839,2.87329950397,0.580079297311,-0.00835222748971,-0.137732806676
1588856749123367938,8420,1588856749123290024,,0.47371566804,-4.34217897559,2.87365156729,0.578269134895,-0.0076812660387,-0.138524185929
1588856749129155136,8421,1588856749129072769,,0.473750983788,-4.34217479523,2.87365206198,0.578269278215,-0.00767635463293,-0.138523859893
1588856749135153716,8422,1588856749135035059,,0.473296797768,-4.3422581668,2.89683114132,0.579037554523,-0.00768381621216,-0.138511507328
1588856749141268866,8423,1588856749141137844,,0.473269960056,-4.34228803219,2.89679075835,0.577251476328,-0.00767884384382,-0.140343688185
1588856749147196722,8424,1588856749147090309,,0.47390605452,-4.20978928752,2.87306949678,0.575584475222,-0.00766521151773,-0.141275548934
1588856749151893770,8425,1588856749151801554,,0.473890061591,-4.20978934108,2.87307205625,0.575586007631,-0.00766312759289,-0.141269418509
1588856749156298433,8426,1588856749156163369,,0.451202897196,-4.07724539457,2.84890714738,0.573899611584,-0.00898522539093,-0.141449216451
1588856749168041501,8427,1588856749167970435,,0.47532829495,-4.07701948983,2.80306130849,0.57151212746,-0.00830555775443,-0.144052352458
1588856749174078612,8428,1588856749173997821,,0.475376039799,-4.07703067798,2.80303693861,0.570574093371,-0.00829292868623,-0.143155279523
1588856749180113365,8429,1588856749179971716,,0.475349475503,-4.07702130305,2.80305507941,0.568766178416,-0.00896122062608,-0.144085111988
1588856749186191433,8430,1588856749186007018,,0.452287351227,-3.94459259177,2.80201890985,0.566961591378,-0.00895048876161,-0.145172241306
1588856749192093852,8431,1588856749192000484,,0.475586947461,-3.94465381328,2.80245350215,0.565129740972,-0.00894381672146,-0.145059619971
1588856749198115973,8432,1588856749198043081,,0.476063297416,-3.94452008772,2.77933470525,0.56433846139,-0.00960671314185,-0.144161746069
1588856749204111691,8433,1588856749204031536,,0.4993190486,-3.81224676193,2.77916677018,0.562550332765,-0.00893626583417,-0.145860478451
1588856749210304793,8434,1588856749210172604,,0.476153827269,-3.81220139813,2.77870432149,0.562552903936,-0.00893896730977,-0.146008610568
1588856749216206785,8435,1588856749216103352,,0.476245486034,-3.67990881815,2.7780614879,0.561634941546,-0.00893817870761,-0.146018166206
1588856749220696995,8436,1588856749220446309,,0.476222984646,-3.6799234307,2.77804598891,0.560724784616,-0.00894298999567,-0.146035634719
1588856749222390958,8437,1588856749222341643,,0.476191579814,-3.67991078447,2.7780681239,0.560724744754,-0.00961409033114,-0.146031873486
1588856749228127585,8438,1588856749228007684,,0.476575147486,-3.67979185369,2.75493474086,0.559957460954,-0.00894878487059,-0.146043727743
1588856749234166466,8439,1588856749234090994,,0.476256512144,-3.54766183231,2.77739742979,0.557103338527,-0.00827623120619,-0.147891689954
1588856749240264862,8440,1588856749240196481,,0.476726252615,-3.54751643906,2.75427764095,0.554486572892,-0.00892970437069,-0.147021805059
1588856749246158228,8441,1588856749246070730,,0.476681335844,-3.54754320148,2.75425094471,0.554486789446,-0.00893465450533,-0.147020687589
1588856749252049935,8442,1588856749251973254,,0.476749499797,-3.41534852143,2.75353278344,0.551750442166,-0.00893455252453,-0.147058607089
1588856749258220770,8443,1588856749258148030,,0.500324188182,-3.41530318396,2.73081430201,0.54823089182,-0.0095931754177,-0.146966384651
1588856749264278570,8444,1588856749264197209,,0.500354018175,-3.41533984824,2.73076298151,0.548229367907,-0.00959095974357,-0.146972213814
1588856749270146438,8445,1588856749270079433,,0.477207459657,-3.28306332572,2.72965965604,0.548194257785,-0.0096014769086,-0.145295073704
1588856749276245268,8446,1588856749276183132,,0.500751059331,-3.28299691609,2.70687025073,0.544674426195,-0.00958981819849,-0.145184668453
1588856749282210574,8447,1588856749282154251,,0.477732683089,-3.15079425924,2.70567666869,0.541933258705,-0.00891244783877,-0.145376304022
1588856749288928583,8448,1588856749288549359,,0.477729545192,-3.1507776538,2.70569655985,0.541933665807,-0.00891258037367,-0.145374778294
1588856749294067918,8449,1588856749293969094,,0.477692114646,-3.15082513231,2.70564787902,0.539175474661,-0.00891413667647,-0.144500768902
1588856749300271048,8450,1588856749300199780,,0.477625228791,-3.15077204472,2.70572150803,0.538216526897,-0.00958642210259,-0.142694012773
1588856749306157672,8451,1588856749306098418,,0.477696838359,-3.1507734177,2.70570726742,0.537347463441,-0.00957921892113,-0.144524406586
1588856749312011373,8452,1588856749311954884,,0.477769816893,-3.01865240279,2.70498079851,0.534580447037,-0.0095792079189,-0.143656950988
1588856749318192185,8453,1588856749318125579,,0.477817411043,-3.01869554827,2.70492424212,0.529087945738,-0.00955926725263,-0.143734141786
1588856749322550579,8454,1588856749322479641,,0.455122554991,-2.88642725672,2.68056201268,0.526472315773,-0.0102146835069,-0.143013703263
1588856749327100635,8455,1588856749327011498,,0.455182877246,-2.88644236858,2.6805354975,0.526471229677,-0.0102067256512,-0.143018269563
1588856749333104351,8456,1588856749333012994,,0.501081382528,-2.88673400187,2.70457033062,0.526346315264,-0.00954988214548,-0.143634612329
1588856749339038207,8457,1588856749338970255,,0.478366353628,-2.88652139671,2.68097985569,0.520987324717,-0.00954100073289,-0.142948956432
1588856749345001924,8458,1588856749344943133,,0.478366069085,-2.88652742868,2.68097341203,0.517310146767,-0.00953816138661,-0.142088685353
1588856749351112487,8459,1588856749351031055,,0.50193094846,-2.75443192575,2.6575138175,0.514731426718,-0.00954331402559,-0.142887299406
1588856749357176359,8460,1588856749357093884,,0.478800323656,-2.75435395922,2.65707391963,0.511968384979,-0.00954183721066,-0.142163074238
1588856749363063669,8461,1588856749362997473,,0.479145764318,-2.75419910106,2.63395110715,0.506628806253,-0.0101916893707,-0.142227276586
1588856749369028849,8462,1588856749368964524,,0.479585477915,-2.62209170841,2.60990281511,0.504012440503,-0.009530079698,-0.141350428633
1588856749375076062,8463,1588856749374993753,,0.480070988792,-2.49006328445,2.58589704234,0.500519277311,-0.00952404458328,-0.142305312315
1588856749381079095,8464,1588856749380983207,,0.457173787599,-2.62175043566,2.56313604856,0.496057850215,-0.00951963692076,-0.140698819506
1588856749387027293,8465,1588856749386962868,,0.457250315733,-2.48987809642,2.5622606534,0.493290806778,-0.00951508987856,-0.139831642216
1588856749390750797,8466,1588856749390655634,,0.457189118605,-2.62177601206,2.56310715243,0.488674048937,-0.00950537989313,-0.13807886623
1588856749396099896,8467,1588856749396013430,,0.457168331129,-2.62177118812,2.5631157946,0.486827682519,-0.00883537324046,-0.137195381825
1588856749402221751,8468,1588856749402117036,,0.434881055518,-2.6213907333,2.51629338343,0.478808389079,-0.00814979311295,-0.13381988167
1588856749408080325,8469,1588856749408022771,,0.434906401982,-2.62140342535,2.51627578052,0.47880733128,-0.0081481310426,-0.133823767633
1588856749414018301,8470,1588856749413942169,,0.435291879496,-2.62124618385,2.49314824451,0.476126086115,-0.00814629983149,-0.130237072166
1588856749420263047,8471,1588856749420170372,,0.411786342597,-2.48940593409,2.51498541614,0.472259923713,-0.00880768034251,-0.127716928112
1588856749424689696,8472,1588856749424623953,,0.389440721226,-2.62091263791,2.46915070871,0.467949414414,-0.00812892405241,-0.126105700084
1588856749429069946,8473,1588856749429012543,,0.389836823606,-2.62073011529,2.44595161085,0.464389548547,-0.00812467019771,-0.124347467284
1588856749435060770,8474,1588856749434992722,,0.366250486829,-2.62080863725,2.46873877039,0.462375687639,-0.00812048592141,-0.122698010545
1588856749441118621,8475,1588856749441035278,,0.366801023917,-2.48875861771,2.44459684077,0.456966019318,-0.00810585902196,-0.120066640286
1588856749447061482,8476,1588856749447003888,,0.367259758033,-2.48863877421,2.42141552784,0.45341828453,-0.00808964388228,-0.118303238132
1588856749453090339,8477,1588856749452999685,,0.344604342013,-2.48841413719,2.39783052529,0.445249745291,-0.00741615895974,-0.114937752433
1588856749459797431,8478,1588856749459695782,,0.344602645031,-2.48843325999,2.39781092381,0.445249076484,-0.00741797631768,-0.114940225976
1588856749465097104,8479,1588856749465010923,,0.322449773111,-2.35617982905,2.35008627198,0.439994631559,-0.00740720851504,-0.112448994469
1588856749471116696,8480,1588856749471020786,,0.322328843243,-2.48803811612,2.35101619711,0.437227053639,-0.00740415196442,-0.111573401077
1588856749477031212,8481,1588856749476974167,,0.299670330598,-2.35594002703,2.32651761045,0.4336957721,-0.00739810840472,-0.1108576058
1588856749483217785,8482,1588856749483137202,,0.300431436889,-2.35560412361,2.28027375045,0.431252993348,-0.00739414227482,-0.110884258224
1588856749489000226,8483,1588856749488944599,,0.300405618121,-2.35561530917,2.28026559687,0.427599550855,-0.00738837681395,-0.110928004532
1588856749495073819,8484,1588856749495014561,,0.3008734448,-2.22365250629,2.25607301608,0.423143967401,-0.00738210331223,-0.110078885524
1588856749501224095,8485,1588856749501132694,,0.323991146154,-2.22372739766,2.25652394488,0.422254027789,-0.00738296881712,-0.110848737049
1588856749507378702,8486,1588856749507253949,,0.34700697598,-2.22381403357,2.25696565317,0.415896462092,-0.00670897560009,-0.112584563558
1588856749513083471,8487,1588856749512985470,,0.347008658056,-2.22382073419,2.25695879233,0.415895943445,-0.00671024223992,-0.112586403979
1588856749519612067,8488,1588856749519547934,,0.324356264544,-2.22358522294,2.23337372998,0.41418992202,-0.00737372225709,-0.111853648319
1588856749522427836,8489,1588856749522361474,,0.370036625644,-2.22392333838,2.25738688347,0.413212955303,-0.00670914204991,-0.1151901457
1588856749529000637,8490,1588856749528911745,,0.370028604922,-2.22392778235,2.25738382014,0.413212128871,-0.00671335761406,-0.115192864653
1588856749534135817,8491,1588856749533990128,,0.370795736183,-2.2235640028,2.21115972692,0.411721957362,-0.00671214679301,-0.117022138726
1588856749540233047,8492,1588856749540144789,,0.393942046241,-2.22363801605,2.21161961836,0.412679289394,-0.0073799434797,-0.118674060312
1588856749546144973,8493,1588856749546073419,,0.393538652676,-2.2238234283,2.23473026559,0.412551013372,-0.00738171485228,-0.11957568364
1588856749552112365,8494,1588856749552051960,,0.393520059909,-2.22381937327,2.23473757494,0.412551156206,-0.00738485522267,-0.11957499694
1588856749558230861,8495,1588856749558169247,,0.370395375619,-2.22375687638,2.23426267009,0.411668083646,-0.00803447766661,-0.120638216613
1588856749564304311,8496,1588856749564212893,,0.393164024891,-2.22402655376,2.25782036674,0.410661850058,-0.00869345781747,-0.123212591424
1588856749570259701,8497,1588856749570189067,,0.393157277433,-2.22404515524,2.25780321849,0.410661855677,-0.00869364739651,-0.123212559318
1588856749576340284,8498,1588856749576273831,,0.370433352188,-2.22379959093,2.23421385938,0.408990930852,-0.00802049019806,-0.123374323637
1588856749588256545,8499,1588856749588175865,,0.393509751937,-2.35571795975,2.23558811827,0.409032021688,-0.00867959316989,-0.125043943642
1588856749594322323,8500,1588856749594236108,,0.393505614182,-2.35571816707,2.23558862813,0.409917443043,-0.00868156684249,-0.124122025655
1588856749597803259,8501,1588856749597667571,,0.393512086814,-2.35572954368,2.23557550082,0.409917172112,-0.00868066142345,-0.124122983737
1588856749603139851,8502,1588856749603055434,,0.393896185389,-2.35555276725,2.21246848246,0.410963598463,-0.00868348781626,-0.123209159411
1588856749609045965,8503,1588856749608973424,,0.393511074721,-2.35573353063,2.23557147773,0.411730180961,-0.00868631244463,-0.123202346621
1588856749615096344,8504,1588856749615024024,,0.393487844456,-2.35574594143,2.23556248872,0.411730398442,-0.00868895387465,-0.123201433555
1588856749621366813,8505,1588856749621289163,,0.392991302153,-2.48779893835,2.25960240629,0.413429217016,-0.00803184443654,-0.124082061435
1588856749627208745,8506,1588856749627114629,,0.392984680556,-2.48781757446,2.2595830396,0.413429734796,-0.0080303574197,-0.124080432477
1588856749631744631,8507,1588856749631609893,,0.392971102966,-2.48784501102,2.25955519276,0.413407148971,-0.00803154998096,-0.123179927195
1588856749636268109,8508,1588856749636186241,,0.370211699399,-2.48761546155,2.23597512272,0.411735493158,-0.00802545908599,-0.123340734644
1588856749645235454,8509,1588856749645152927,,0.370210095268,-2.48763299472,2.23595588179,0.410794583141,-0.00802395657335,-0.122451999388
1588856749651333124,8510,1588856749651239757,,0.393359298517,-2.48772219083,2.23639490908,0.410812588821,-0.00868883568718,-0.123211301445
1588856749657316560,8511,1588856749657213659,,0.393364520911,-2.48773799039,2.23637641525,0.412615161391,-0.00869455334404,-0.122292634056
1588856749663394279,8512,1588856749663206244,,0.393359908938,-2.48774362437,2.23637095922,0.412614504368,-0.00869697242386,-0.122294678821
1588856749666391566,8513,1588856749666320203,,0.393644254098,-2.61955489299,2.21413925661,0.412786711413,-0.00870196805015,-0.1231967399
1588856749672194427,8514,1588856749672101373,,0.370865891794,-2.61932656041,2.19057310186,0.411999709065,-0.00870300636035,-0.122448990392
1588856749678364632,8515,1588856749678290990,,0.37010322249,-2.61968592161,2.23674179841,0.414438140234,-0.0087150791446,-0.122434166841
1588856749684316614,8516,1588856749684230842,,0.393731557931,-2.61960583437,2.21406346266,0.413684826307,-0.00871559924875,-0.123218711053
1588856749690141073,8517,1588856749690040305,,0.393779247831,-2.6196248926,2.214032432,0.413681020457,-0.00871778513604,-0.123231333176
1588856749696273224,8518,1588856749696206414,,0.393815875549,-2.61963265661,2.21401673084,0.413676608244,-0.00872404302229,-0.12324570096
1588856749700521680,8519,1588856749700444839,,0.393856917068,-2.61964368219,2.21399638462,0.413670993145,-0.00939443759879,-0.123260890197
1588856749705299852,8520,1588856749705217123,,0.39387685123,-2.61964743903,2.21398839317,0.413669322787,-0.00939580122279,-0.123266391946
1588856749711377763,8521,1588856749711211381,,0.394181480206,-2.75152650585,2.1917318569,0.41566802356,-0.00873651098278,-0.124149165616
1588856749717122541,8522,1588856749717040485,,0.416877011987,-2.75177739227,2.21525654369,0.41649652112,-0.00940344407302,-0.126712305783
1588856749720271202,8523,1588856749720209862,,0.417359051619,-2.61957538395,2.19130893215,0.418474117145,-0.00874489304056,-0.126690174983
1588856749723505526,8524,1588856749723417783,,0.416964811236,-2.6197424888,2.21441029295,0.41832376504,-0.00874443828178,-0.126690517856
1588856749729090897,8525,1588856749729022030,,0.440135234932,-2.61981262937,2.21487018098,0.419260516965,-0.00874665414613,-0.1274396035
1588856749735104016,8526,1588856749735034634,,0.439726631343,-2.61996645624,2.23799153085,0.420075530584,-0.0080822621849,-0.129236554936
1588856749741258015,8527,1588856749741130765,,0.416836018379,-2.75172061257,2.21533478694,0.420197506204,-0.00874853271715,-0.128471998709
1588856749747112709,8528,1588856749747043577,,0.416801825119,-2.7517151061,2.21534806014,0.418395020236,-0.00874650471126,-0.129390185567
1588856749753169211,8529,1588856749753063389,,0.440021329317,-2.61975604577,2.21495973938,0.421182022524,-0.00875534500765,-0.13101342662
1588856749759200762,8530,1588856749759085164,,0.416410975371,-2.61981792388,2.23765067998,0.424631184503,-0.00943266130292,-0.128402647014
1588856749765187849,8531,1588856749765114606,,0.415991993431,-2.62000259905,2.260738752,0.429980632477,-0.0094503473751,-0.129242730911
1588856749768918660,8532,1588856749768837629,,0.415969725424,-2.62001789268,2.26072512526,0.433643543991,-0.00946070711674,-0.129197851183
1588856749774236372,8533,1588856749774146643,,0.439099906679,-2.62010591392,2.26117348056,0.44279432769,-0.0101401444202,-0.129843676496
1588856749780226298,8534,1588856749780108549,,0.439062596507,-2.62008951756,2.26119972442,0.442795489814,-0.0101439427547,-0.129839416646
1588856749786150026,8535,1588856749786079988,,0.415489571145,-2.62015879812,2.28397661617,0.446336416783,-0.010154478514,-0.130839567992
1588856749792145566,8536,1588856749792075929,,0.461038305898,-2.48869921485,2.33024279455,0.453432376367,-0.00951791145851,-0.134085980916
1588856749798309961,8537,1588856749798244408,,0.461020786105,-2.48870152205,2.33024379668,0.453433455672,-0.00951755493161,-0.134082356334
1588856749802187594,8538,1588856749802129257,,0.484173097454,-2.48879472123,2.33069175131,0.457158206439,-0.00952859963054,-0.136603788335
1588856749807136728,8539,1588856749807079491,,0.484170603865,-2.48880612695,2.33068008984,0.45715558036,-0.00953659230106,-0.136612018746
1588856749813166649,8540,1588856749813092503,,0.484612254001,-2.35678630863,2.30665663225,0.45914604476,-0.0095404555776,-0.137496633574
1588856749819653124,8541,1588856749819509137,,0.508001260007,-2.35669583517,2.28401411628,0.462992164052,-0.00955172444606,-0.139102590849
1588856749822425494,8542,1588856749822367368,,0.485004918624,-2.22482386655,2.28262354752,0.466649601204,-0.00955855359812,-0.139199571544
1588856749828137598,8543,1588856749828052828,,0.531082593139,-2.22501464009,2.28354080031,0.467626987198,-0.00889936077851,-0.141617927577
1588856749834103844,8544,1588856749834023942,,0.530748364743,-2.09350304066,2.30571494806,0.468460734096,-0.00889902199241,-0.144314682813
1588856749840118845,8545,1588856749840041039,,0.507747200056,-1.96181080558,2.30428679487,0.471164664541,-0.00957322295063,-0.142618082716
1588856749846141224,8546,1588856749846065693,,0.531166531832,-1.83022321624,2.2806414787,0.473194501296,-0.00957955252594,-0.145166148955
1588856749852110983,8547,1588856749852057545,,0.554601506504,-1.83013227945,2.2578966169,0.475189961166,-0.00958394656186,-0.145892841796
1588856749858350026,8548,1588856749858248960,,0.554255705225,-1.69892678779,2.28014517152,0.477830806264,-0.0095915322995,-0.147666728182
1588856749864110959,8549,1588856749864064878,,0.577279029945,-1.56776327013,2.27963353511,0.481534600612,-0.00959811795804,-0.149290763754
1588856749870865946,8550,1588856749870802567,,0.576922209553,-1.56795513504,2.30278559501,0.485059169345,-0.00960415425369,-0.15014841566
1588856749876100985,8551,1588856749876042128,,0.576934729279,-1.4368157642,2.30180775137,0.48775956396,-0.0102680610528,-0.148295774737
1588856749882769396,8552,1588856749882683289,,0.530451665719,-1.43681741955,2.32399312223,0.490276976645,-0.0102719743126,-0.14492640759
1588856749888122156,8553,1588856749887992703,,0.530433178936,-1.43682973194,2.32398972954,0.490277372011,-0.0102751757964,-0.144924843134
1588856749894131598,8554,1588856749894073696,,0.507833932655,-1.30555629386,2.29934909821,0.49391490053,-0.00962900370585,-0.137772079015
1588856749900306405,8555,1588856749900208527,,0.507834261047,-1.30557038749,2.29934102334,0.493914375119,-0.00963117752358,-0.137773810661
1588856749906130734,8556,1588856749906062287,,0.507810664313,-1.3055815847,2.29933987699,0.497548249861,-0.00964036703604,-0.136808278207
1588856749912189290,8557,1588856749912119235,,0.461466814036,-1.17471637209,2.32059132431,0.504511655305,-0.00966497400733,-0.127946905707
1588856749918131783,8558,1588856749918056043,,0.461466975847,-1.17473661348,2.32058104554,0.504511503071,-0.00966487833182,-0.12794751321
1588856749921289222,8559,1588856749921168568,,0.437902567528,-1.04427110229,2.36569334512,0.509665358058,-0.00968569295056,-0.126222491743
1588856749927168069,8560,1588856749927087335,,0.437917201452,-1.04429962875,2.3656780438,0.514113975244,-0.00970207070087,-0.120723754057
1588856749933195513,8561,1588856749933118151,,0.437915804648,-1.04433074431,2.36566456654,0.514112920655,-0.00971006990601,-0.120727601936
1588856749939267411,8562,1588856749939197375,,0.391557573831,-1.04439161775,2.38787387656,0.518459277572,-0.00906538998526,-0.117352402296
1588856749945591216,8563,1588856749945459232,,0.390856345082,-1.0447425179,2.43429781545,0.52266137539,-0.00841166912901,-0.113671987355
1588856749951585815,8564,1588856749951328534,,0.366864065406,-0.91445198734,2.5028326167,0.533063160471,-0.00843970064467,-0.107318691623
1588856749957393013,8565,1588856749957330027,,0.366884069999,-0.914493523581,2.50281450798,0.533061334502,-0.00844906821471,-0.107327023975
1588856749963470436,8566,1588856749963322360,,0.344092185803,-0.783818541738,2.50166366025,0.537540886064,-0.00846947461333,-0.102877993671
1588856749969269547,8567,1588856749969206393,,0.344087307883,-0.783821251575,2.50166348214,0.541178264046,-0.00847924052842,-0.101919935038
1588856749973824291,8568,1588856749973728069,,0.297314716303,-0.783955418431,2.54731468279,0.546312672367,-0.00849447150317,-0.0985057268659
1588856749978277419,8569,1588856749978220061,,0.297325146134,-0.783966056065,2.54731019159,0.548140529265,-0.0085031050626,-0.0984824169726
1588856749984238264,8570,1588856749984169272,,0.296959860662,-0.784091590373,2.5705640716,0.553426944745,-0.00851511784395,-0.0956810676583
1588856749990252323,8571,1588856749990191056,,0.295723155254,-0.653982590841,2.66315768114,0.567396788658,-0.00921999274519,-0.091848224937
1588856749996415979,8572,1588856749996352760,,0.295748233675,-0.65400525273,2.66314933114,0.567395665903,-0.00922389702242,-0.0918547685639
1588856750002515012,8573,1588856750002453075,,0.272397694551,-0.654069143792,2.68594648748,0.57722827672,-0.00792861555585,-0.0873189840808
1588856750008404837,8574,1588856750008284368,,0.272398488385,-0.654081694399,2.68594335068,0.577227969788,-0.00793385102509,-0.0873205375208
1588856750014309954,8575,1588856750014235304,,0.27203588767,-0.654184526853,2.70931080512,0.583487142296,-0.00728748388292,-0.087228958718
1588856750020576626,8576,1588856750020494354,,0.271664473436,-0.654277450241,2.73258196227,0.589733704422,-0.00729999517071,-0.0862276715571
1588856750023609539,8577,1588856750023541460,,0.271318725841,-0.654350381961,2.75585554583,0.595058968323,-0.00797012707934,-0.0852339194774
1588856750029373996,8578,1588856750029266727,,0.247839595808,-0.654371143817,2.77867084894,0.604919935258,-0.00799319826965,-0.0825044463457
1588856750035262999,8579,1588856750035144468,,0.247835756432,-0.654385683028,2.77866776739,0.604920242916,-0.00798844229479,-0.0825026512221
1588856750042691249,8580,1588856750042590072,,0.224057551816,-0.65453722331,2.82485503898,0.609192763752,-0.00865357982746,-0.0816726380222
1588856750047325335,8581,1588856750047243005,,0.246677847505,-0.654699083514,2.84858053848,0.617285195961,-0.00866490779064,-0.0813976738287
1588856750053348054,8582,1588856750053207213,,0.246832371736,-0.39351176258,2.8711915465,0.622639532149,-0.00867565123905,-0.0822234439348
1588856750059264275,8583,1588856750059206749,,0.24644636962,-0.393578352401,2.89457679448,0.627970864402,-0.00868857753423,-0.0812325025469
1588856750065247421,8584,1588856750065164530,,0.246465091892,-0.393595693491,2.89457284245,0.63348760329,-0.00804132252851,-0.082055176844
1588856750071376463,8585,1588856750071190868,,0.245986525359,-0.263101632369,2.94096317401,0.640510247366,-0.00872639867521,-0.0819479976434
1588856750077384550,8586,1588856750077298763,,0.245623557137,-0.263156659344,2.96425054334,0.645854730574,-0.00941357072295,-0.0818680137768
1588856750083180843,8587,1588856750083117553,,0.268364756673,-0.263258095715,2.98809617778,0.653978270557,-0.00876240975201,-0.0834113442484
1588856750089200899,8588,1588856750089128717,,0.245157029311,-0.132601861798,3.01085083952,0.658398122441,-0.00944655317358,-0.0825789009462
1588856750095560999,8589,1588856750095315591,,0.244312607721,-0.00198597920508,3.08084377345,0.67169205051,-0.00947776512637,-0.0823700612272
1588856750101243777,8590,1588856750101171738,,0.244336731773,-0.00198631184217,3.08084186009,0.671691359282,-0.00948104489722,-0.0823753202807
1588856750107234652,8591,1588856750107163130,,0.244956145146,0.259403174835,3.08113934682,0.678106527538,-0.00949087448901,-0.0831832309075
1588856750111612441,8592,1588856750111549632,,0.244586233374,0.259421305966,3.10442924964,0.683471201328,-0.00950337467986,-0.0840174472423
1588856750116266049,8593,1588856750116204190,,0.244504524164,0.390195291133,3.12799401642,0.686087408209,-0.00950994286049,-0.084880973298
1588856750119703762,8594,1588856750119622261,,0.244524457355,0.390188629532,3.12799328923,0.692512390013,-0.00952612370856,-0.0856894505743
1588856750122495614,8595,1588856750122420846,,0.244450589897,0.521015548795,3.15173224172,0.696013714066,-0.0102053589222,-0.0847253275256
1588856750128398618,8596,1588856750128304053,,0.267587493597,0.520963085988,3.1521847179,0.697858293854,-0.0102110589657,-0.085460065609
1588856750134175407,8597,1588856750134113602,,0.290567725573,0.651822938203,3.17633823067,0.704176525806,-0.0102282339556,-0.0879432279606
1588856750140401911,8598,1588856750140318731,,0.312901732324,0.782863255483,3.24720530567,0.717476425493,-0.0102612762338,-0.0884939081794
1588856750146115470,8599,1588856750146048211,,0.312879974009,0.782857467856,3.24720879756,0.717477037802,-0.0102623880273,-0.0884888147288
1588856750152364968,8600,1588856750152263858,,0.2661644287,0.782996652098,3.26959526856,0.722795261083,-0.0109436724087,-0.086848110348
1588856750158334737,8601,1588856750158138635,,0.266447711927,0.913976816338,3.27013230549,0.727411203003,-0.010960284397,-0.0885757144457
1588856750164406758,8602,1588856750164280374,,0.266070588127,0.914012295428,3.29341213831,0.732757822068,-0.0109815017743,-0.0884893511407
1588856750170341899,8603,1588856750170254241,,0.265643887627,1.04520915035,3.34062788303,0.737064940752,-0.0109920323987,-0.0893306927202
1588856750176295065,8604,1588856750176225427,,0.288397837025,1.04521762915,3.36434236418,0.746082166578,-0.0116861188841,-0.0899623912564
1588856750180069124,8605,1588856750180000010,,0.288413917947,1.0452100391,3.36434334369,0.746081551248,-0.0116773294121,-0.0899686354595
1588856750185426638,8606,1588856750185271883,,0.310430433134,1.0453949666,3.43469154632,0.753002975477,-0.0110003891537,-0.0915486711375
1588856750191284631,8607,1588856750191199935,,0.310435561526,1.04540578711,3.43468778942,0.753002313051,-0.0109769631213,-0.0915569311818
1588856750197363853,8608,1588856750197296481,,0.287145038228,1.3079640518,3.48199870907,0.763667519799,-0.0123181159744,-0.0906271696665
1588856750203179734,8609,1588856750203095969,,0.287191559649,1.30791012526,3.48201512863,0.763666320281,-0.0123171161081,-0.0906374126882
1588856750209517783,8610,1588856750209440412,,0.286404860486,1.17660877525,3.50480496135,0.769034943773,-0.0122790000896,-0.0914613340485
1588856750213853091,8611,1588856750213684110,,0.309175137356,1.17663346966,3.5285207427,0.775324878979,-0.0122766737911,-0.0930329545006
1588856750218343378,8612,1588856750218271648,,0.308674697626,1.30803251882,3.57566848902,0.782377983176,-0.0129516407356,-0.0938283389318
1588856750221517008,8613,1588856750221394052,,0.308639809935,1.30804349693,3.57566748461,0.782378444404,-0.012935134355,-0.0938267700258
1588856750227417689,8614,1588856750227277250,,0.308177587167,1.43954240381,3.62291730779,0.791291141428,-0.0122886124302,-0.0964094376982
1588856750233312971,8615,1588856750233227955,,0.308116520005,1.43956361451,3.62291407387,0.791293051235,-0.0122979332945,-0.0963925727367
1588856750239311975,8616,1588856750239254112,,0.307679189276,1.43965908535,3.64616878098,0.794828627628,-0.0129659985352,-0.0972450618658
1588856750245478186,8617,1588856750245379756,,0.307312224442,1.43976585587,3.66941341559,0.798381320718,-0.0129709618648,-0.0990119097975
1588856750248371410,8618,1588856750248295464,,0.329540684361,1.43994231412,3.71645826747,0.802705927551,-0.012969715717,-0.100598118715
1588856750254444757,8619,1588856750254328849,,0.352648827079,1.43992082794,3.71689657917,0.804567591464,-0.0136544436425,-0.102246195733
1588856750260458757,8620,1588856750260355860,,0.352585989139,1.5713978687,3.74078989277,0.806263905062,-0.0136611030702,-0.103126813104
