%time,field.header.seq,field.header.stamp,field.header.frame_id,field.vector.x,field.vector.y,field.vector.z
1588856747838740218,8189,1588856747838641371,,0.501422749989,-0.202124760626,0.218778351252
1588856747844841662,8190,1588856747844683694,,0.501425260208,-0.202128066828,0.218773912756
1588856747850706735,8191,1588856747850623111,,0.501427611678,-0.202130223056,0.21877211667
1588856747856757835,8192,1588856747856644257,,0.501428883816,-0.202133628448,0.218767613737
1588856747862721540,8193,1588856747862636034,,0.501430806738,-0.202135445161,0.218766596384
1588856747868683520,8194,1588856747868603432,,0.501432671565,-0.202137601635,0.218761344535
1588856747874704037,8195,1588856747874637986,,0.501433666208,-0.20214092122,0.218756335649
1588856747880825505,8196,1588856747880742388,,0.501435496747,-0.202142485286,0.2187534554
1588856747883784866,8197,1588856747883726826,,0.501437607576,-0.202144089033,0.218750525
1588856747888158186,8198,1588856747888035458,,0.501439370876,-0.202144995531,0.218748216881
1588856747889805759,8199,1588856747889725166,,0.501441320357,-0.202147813263,0.218744754682
1588856747895793426,8200,1588856747895709159,,0.501442626855,-0.202148759881,0.218743112231
1588856747901747901,8201,1588856747901683741,,0.501443635749,-0.20214981317,0.218740621285
1588856747907855153,8202,1588856747907708016,,0.501444529365,-0.202150597841,0.218739361519
1588856747913853481,8203,1588856747913749898,,0.5014463774,-0.202149932139,0.218737897747
1588856747919949860,8204,1588856747919845353,,0.501447563036,-0.202150251101,0.218736440815
1588856747922823592,8205,1588856747922740859,,0.501448443393,-0.202150607559,0.218734018494
1588856747928852536,8206,1588856747928743711,,0.501450314082,-0.202150806317,0.218731246483
1588856747934821932,8207,1588856747934701793,,0.501451858411,-0.20215074447,0.218729101419
1588856747940770774,8208,1588856747940675065,,0.501453498272,-0.202150386843,0.218725220831
1588856747946874246,8209,1588856747946736941,,0.501454962133,-0.20215060558,0.218722203252
1588856747952895819,8210,1588856747952763009,,0.501457107593,-0.20215037007,0.218718962214
1588856747956216809,8211,1588856747956029019,,0.501459185946,-0.202148549796,0.218715971205
1588856747961889472,8212,1588856747961709468,,0.501460185815,-0.202148995946,0.218710893461
1588856747967770346,8213,1588856747967652585,,0.50146245305,-0.202147979711,0.218707769709
1588856747973850044,8214,1588856747973727821,,0.501464392695,-0.202148012088,0.218702689318
1588856747979876612,8215,1588856747979707181,,0.501466426479,-0.202145669368,0.218698561932
1588856747985823418,8216,1588856747985677459,,0.501468395487,-0.202143914516,0.218694756029
1588856747990142839,8217,1588856747989997472,,0.50147056569,-0.202139868743,0.218690481185
1588856747994752773,8218,1588856747994646653,,0.501473038056,-0.202137829329,0.218686334829
1588856748000953893,8219,1588856748000740290,,0.501475028776,-0.202133695309,0.218681863517
1588856748006894826,8220,1588856748006749899,,0.50147782218,-0.202129114518,0.218676656929
1588856748012914377,8221,1588856748012726198,,0.501480826961,-0.202122132335,0.218672638398
1588856748019019622,8222,1588856748018937927,,0.501483716215,-0.202117348375,0.218667234645
1588856748022079541,8223,1588856748022007335,,0.501488059284,-0.202108646572,0.218662254337
1588856748027882303,8224,1588856748027755370,,0.501491632746,-0.202099345069,0.218656573456
1588856748033805560,8225,1588856748033706019,,0.501495699857,-0.202090850973,0.218652629077
1588856748039769553,8226,1588856748039672138,,0.501500277601,-0.2020809807,0.218648411131
1588856748045887179,8227,1588856748045765192,,0.501503601108,-0.202071411774,0.21864400126
1588856748051785447,8228,1588856748051692113,,0.50150827847,-0.202059870877,0.218639379337
1588856748054914267,8229,1588856748054777285,,0.501512491965,-0.202049302668,0.21863525035
1588856748058814915,8230,1588856748058619103,,0.501516936162,-0.202036412567,0.218630336281
1588856748063735886,8231,1588856748063666316,,0.50152162877,-0.202023873632,0.218625588678
1588856748069827575,8232,1588856748069688524,,0.501526771532,-0.202009681322,0.218621974387
1588856748075810992,8233,1588856748075682432,,0.501531441774,-0.20199326308,0.218615413763
1588856748081877882,8234,1588856748081730682,,0.501537236856,-0.20196595497,0.218608034388
1588856748087843902,8235,1588856748087708883,,0.50154176162,-0.201943193439,0.218600000885
1588856748092296495,8236,1588856748092156549,,0.501546464629,-0.201930719259,0.218594663448
1588856748096741531,8237,1588856748096666718,,0.501549878095,-0.201914939664,0.218587384378
1588856748102889642,8238,1588856748102766499,,0.501553451822,-0.201897358305,0.218581285578
1588856748108806026,8239,1588856748108719485,,0.501557418542,-0.201880431965,0.218574160088
1588856748114909832,8240,1588856748114745554,,0.501562089617,-0.201862587933,0.218568130068
1588856748118238085,8241,1588856748118093084,,0.501566858714,-0.20184331404,0.218560357078
1588856748121073255,8242,1588856748120980776,,0.501571119403,-0.201824987882,0.218550713449
1588856748126825472,8243,1588856748126710540,,0.50157454663,-0.201806915257,0.218540779972
1588856748132810625,8244,1588856748132722571,,0.501577025513,-0.201790939608,0.218528809771
1588856748138824670,8245,1588856748138721260,,0.501579115623,-0.201773846887,0.218519788128
1588856748144806823,8246,1588856748144725300,,0.501578950985,-0.20175704551,0.218504651646
1588856748150866427,8247,1588856748150764099,,0.501577976343,-0.20172048885,0.218472524391
1588856748156810285,8248,1588856748156724687,,0.501577275639,-0.201702086578,0.218453820621
1588856748160544612,8249,1588856748160459155,,0.501576718982,-0.201685515954,0.21843760928
1588856748165790948,8250,1588856748165681436,,0.501577613549,-0.20166792621,0.218419977291
1588856748171778099,8251,1588856748171683316,,0.501577913567,-0.201631860115,0.218380254207
1588856748177863030,8252,1588856748177712530,,0.501578805507,-0.201612109552,0.218358081274
1588856748183807635,8253,1588856748183689113,,0.501579437209,-0.201593979045,0.218339375093
1588856748189797858,8254,1588856748189690317,,0.501579554036,-0.201577060231,0.218319807816
1588856748195716243,8255,1588856748195640606,,0.501579617929,-0.201542852351,0.218282897561
1588856748201774361,8256,1588856748201670728,,0.501582042665,-0.201504166695,0.218251413109
1588856748207826272,8257,1588856748207685310,,0.501582879193,-0.201472159335,0.218231487569
1588856748213823684,8258,1588856748213719340,,0.501583334676,-0.201449004751,0.218211266453
1588856748219930226,8259,1588856748219820566,,0.501586533349,-0.201400485339,0.218175661913
1588856748225780289,8260,1588856748225711556,,0.501587794441,-0.201375291065,0.21815590399
1588856748228810305,8261,1588856748228743276,,0.501588616983,-0.201350430368,0.218136307223
1588856748234873382,8262,1588856748234743792,,0.501589261218,-0.201325003427,0.218115116025
1588856748240921309,8263,1588856748240769603,,0.501592480683,-0.201298006033,0.218090411886
1588856748246879709,8264,1588856748246808591,,0.501597091675,-0.201242001082,0.218037316933
1588856748252871461,8265,1588856748252734449,,0.501598528533,-0.201212262491,0.218013942257
1588856748258814440,8266,1588856748258690658,,0.501601382979,-0.201157275966,0.217967598358
1588856748262544880,8267,1588856748262480548,,0.501603892241,-0.201131259767,0.217946367789
1588856748267773829,8268,1588856748267685916,,0.501609852887,-0.201076777256,0.217900475879
1588856748273910558,8269,1588856748273804681,,0.501613207289,-0.201053903963,0.217878048758
1588856748279885369,8270,1588856748279795310,,0.501617691657,-0.201004290633,0.217833213368
1588856748285895606,8271,1588856748285785466,,0.501621049612,-0.200977509811,0.217811655543
1588856748291842304,8272,1588856748291760805,,0.50162342637,-0.200947967175,0.217786294813
1588856748296614710,8273,1588856748296501022,,0.501625393824,-0.200921330075,0.217760476473
1588856748303861230,8274,1588856748303786219,,0.501628198219,-0.200889848216,0.217734009612
1588856748309826617,8275,1588856748309731482,,0.501632527772,-0.200855387365,0.217708253271
1588856748312794972,8276,1588856748312734460,,0.501638386917,-0.200785653871,0.21765051122
1588856748319007831,8277,1588856748318934208,,0.501642682038,-0.200746362646,0.217623440705
1588856748322107123,8278,1588856748322023747,,0.501649460031,-0.200661679786,0.217562086648
1588856748327775718,8279,1588856748327691546,,0.50165290303,-0.200620469264,0.217532417874
1588856748331332343,8280,1588856748331265506,,0.501655578,-0.200577487951,0.217500040734
1588856748336870144,8281,1588856748336793497,,0.501660373121,-0.200529011671,0.217471618261
1588856748342876664,8282,1588856748342794848,,0.501669300292,-0.200444571235,0.217414081538
1588856748354853069,8283,1588856748354766839,,0.501679373089,-0.20031327848,0.217322031
1588856748360882332,8284,1588856748360777699,,0.501682616417,-0.200273074599,0.217292578803
1588856748366831251,8285,1588856748366720382,,0.501683935173,-0.200231964375,0.217260139644
1588856748372858456,8286,1588856748372764345,,0.501690360607,-0.200148954705,0.217194269465
1588856748378923743,8287,1588856748378800025,,0.501691777573,-0.200112607841,0.217158013688
1588856748384869011,8288,1588856748384763664,,0.501699116155,-0.200029621712,0.217089525372
1588856748390858824,8289,1588856748390714950,,0.501700878323,-0.199990451285,0.217052588621
1588856748396860658,8290,1588856748396758563,,0.501704112529,-0.19994815243,0.217015861684
1588856748399891753,8291,1588856748399825386,,0.50170805191,-0.199906307852,0.216980257499
1588856748405866957,8292,1588856748405786538,,0.501716038908,-0.199811428147,0.216907782159
1588856748411836555,8293,1588856748411740390,,0.501720017509,-0.199763962639,0.216871080775
1588856748418217060,8294,1588856748418107040,,0.501730872749,-0.199661631123,0.216802481379
1588856748421177378,8295,1588856748421074861,,0.501736430665,-0.199607228446,0.21676503237
1588856748423845364,8296,1588856748423757843,,0.501743514916,-0.199551031498,0.216732033418
1588856748429955202,8297,1588856748429799802,,0.501748036225,-0.199496133698,0.216694223043
1588856748434205909,8298,1588856748434102913,,0.501762101659,-0.19938217823,0.21661758699
1588856748438881567,8299,1588856748438768420,,0.501767338078,-0.199326883859,0.216577219805
1588856748444906525,8300,1588856748444778829,,0.501780185386,-0.199211141879,0.216495820754
1588856748450995721,8301,1588856748450794555,,0.501784747822,-0.199155559741,0.216454478386
1588856748456982963,8302,1588856748456813261,,0.501790227635,-0.199103966197,0.216413788737
1588856748462940203,8303,1588856748462737525,,0.501795943613,-0.199047877824,0.216374864297
1588856748468959158,8304,1588856748468810590,,0.50180211766,-0.198994960668,0.216337442801
1588856748474910972,8305,1588856748474797698,,0.501811483986,-0.198893171179,0.216250580456
1588856748480931888,8306,1588856748480764726,,0.501817968396,-0.198840517883,0.216208682901
1588856748486805979,8307,1588856748486722180,,0.501829292457,-0.198735954253,0.216126856449
1588856748492959977,8308,1588856748492819251,,0.501834140985,-0.198685893538,0.216084359492
1588856748498870160,8309,1588856748498752711,,0.501841083514,-0.198630547775,0.21604642284
1588856748502973676,8310,1588856748502888283,,0.50185402393,-0.198515732095,0.215961303499
1588856748507885067,8311,1588856748507767181,,0.501861659342,-0.198456592905,0.215921247224
1588856748513918324,8312,1588856748513805862,,0.501867571235,-0.198396306114,0.215874505599
1588856748519966932,8313,1588856748519889293,,0.50188248944,-0.198269139717,0.215785297789
1588856748526027187,8314,1588856748525813793,,0.501888180101,-0.198204392247,0.215742895647
1588856748531878943,8315,1588856748531795169,,0.501895750735,-0.198136981487,0.215698569193
1588856748537919222,8316,1588856748537768986,,0.501901745364,-0.198068516012,0.215652333579
1588856748543928595,8317,1588856748543784179,,0.501909593898,-0.198002283674,0.215607822228
1588856748549969470,8318,1588856748549835890,,0.501924685874,-0.197864697664,0.215516052145
1588856748555857379,8319,1588856748555748259,,0.501938904453,-0.197729185835,0.215423650196
1588856748561950738,8320,1588856748561773973,,0.501946221789,-0.197661163218,0.215379274761
1588856748567903999,8321,1588856748567789271,,0.50195450828,-0.197590272336,0.215331108057
1588856748571664447,8322,1588856748571553678,,0.501961453321,-0.197521626759,0.215286848066
1588856748576806100,8323,1588856748576717036,,0.501973966329,-0.197387745339,0.215195068789
1588856748582901533,8324,1588856748582774920,,0.50198141951,-0.197321623722,0.21515057602
1588856748588951157,8325,1588856748588775389,,0.501986492517,-0.197260386793,0.215103557354
1588856748594963118,8326,1588856748594840359,,0.502000712898,-0.197126055798,0.215010691406
1588856748600834594,8327,1588856748600756430,,0.502016503679,-0.196989021249,0.214921950388
1588856748603895825,8328,1588856748603822626,,0.502022944971,-0.196916290225,0.214873231012
1588856748609821704,8329,1588856748609730314,,0.502029555681,-0.196848402414,0.214825827182
1588856748615849337,8330,1588856748615746097,,0.502043699292,-0.196704875578,0.214733897687
1588856748619010117,8331,1588856748618941691,,0.502050328004,-0.196631144408,0.214685515675
1588856748623623778,8332,1588856748622081149,,0.502066779325,-0.196487915437,0.214590374587
1588856748627841208,8333,1588856748627724138,,0.502073506565,-0.196410780326,0.214542459475
1588856748633933076,8334,1588856748633718408,,0.502080180748,-0.196337153375,0.214492520621
1588856748640083640,8335,1588856748639938976,,0.502095286531,-0.196187593442,0.214395526982
1588856748645898465,8336,1588856748645770826,,0.502101405219,-0.196113599335,0.214346465618
1588856748652041517,8337,1588856748651874065,,0.502115624666,-0.195963935485,0.214249455335
1588856748657890579,8338,1588856748657787459,,0.502123041034,-0.195887845868,0.214199087525
1588856748663888674,8339,1588856748663798814,,0.502139648907,-0.19573702934,0.214104482749
1588856748669838942,8340,1588856748669749050,,0.502147744107,-0.195661014818,0.214055612788
1588856748674159806,8341,1588856748674017769,,0.502156616133,-0.195588319321,0.214006358198
1588856748678880882,8342,1588856748678750319,,0.502164967582,-0.195511488417,0.213960969737
1588856748684809594,8343,1588856748684724976,,0.502181021338,-0.195362640907,0.213864957464
1588856748690964358,8344,1588856748690864883,,0.50218934524,-0.195287561899,0.21381829375
1588856748696884781,8345,1588856748696788069,,0.502205698978,-0.195133987288,0.213722224087
1588856748702891465,8346,1588856748702802789,,0.502216258244,-0.195056065322,0.213675657493
1588856748708996473,8347,1588856748708908287,,0.502234866559,-0.194899731457,0.213576355317
1588856748714898249,8348,1588856748714809093,,0.502243114753,-0.194821944474,0.21352487779
1588856748718365893,8349,1588856748718243838,,0.502253101472,-0.194743444719,0.213475569552
1588856748721139248,8350,1588856748721049155,,0.502270979045,-0.194581844048,0.213374790619
1588856748726851103,8351,1588856748726759213,,0.502281327021,-0.194501938938,0.213326730528
1588856748732839265,8352,1588856748732755084,,0.502288761433,-0.194421143276,0.213274365835
1588856748738826610,8353,1588856748738755550,,0.502298132537,-0.19434341231,0.213223064676
1588856748742602564,8354,1588856748742489214,,0.502307432274,-0.1942620874,0.213176038578
1588856748747827430,8355,1588856748747752746,,0.502325187745,-0.194104773119,0.213074356892
1588856748753957697,8356,1588856748753813415,,0.502334329031,-0.194024666889,0.213029163475
1588856748759929114,8357,1588856748759778171,,0.502351843011,-0.193865074539,0.212928569907
1588856748765879353,8358,1588856748765810526,,0.502359883749,-0.193787719676,0.212875275398
1588856748771909652,8359,1588856748771776210,,0.502374908217,-0.193632998609,0.212771577265
1588856748776599047,8360,1588856748776485528,,0.502382339218,-0.193580432721,0.212730400766
1588856748780914439,8361,1588856748780836544,,0.502397859553,-0.193432434719,0.212626008687
1588856748786926610,8362,1588856748786760476,,0.502403376089,-0.193361121261,0.212581171571
1588856748792992118,8363,1588856748792821913,,0.502407611887,-0.193306943676,0.212547067431
1588856748798901676,8364,1588856748798800700,,0.502426542906,-0.193134090377,0.212457088349
1588856748804889365,8365,1588856748804717346,,0.502433572181,-0.193071091451,0.212419983607
1588856748810956455,8366,1588856748810852533,,0.502443286672,-0.193004981971,0.212387766661
1588856748816910847,8367,1588856748816816145,,0.502459746367,-0.192880174859,0.212318973574
1588856748820117872,8368,1588856748819960071,,0.502467881036,-0.192813489855,0.212285125343
1588856748825870457,8369,1588856748825781386,,0.502475956402,-0.192741863754,0.212244749671
1588856748831856628,8370,1588856748831788432,,0.502484672215,-0.192670820974,0.212203602891
1588856748837834975,8371,1588856748837755533,,0.502491106258,-0.19260191146,0.212157325471
1588856748844451064,8372,1588856748844353613,,0.502500089581,-0.192525626629,0.212108737274
1588856748849953956,8373,1588856748849827405,,0.502506480631,-0.192447304166,0.21205328074
1588856748855834627,8374,1588856748855731763,,0.502517234535,-0.192294262894,0.211944166505
1588856748868004801,8375,1588856748867890827,,0.502536109003,-0.192047793453,0.211769696945
1588856748873913212,8376,1588856748873811509,,0.502541067224,-0.191968214133,0.211711153282
1588856748879917867,8377,1588856748879791583,,0.502555706239,-0.19179650775,0.211601710438
1588856748885926069,8378,1588856748885819135,,0.502564141685,-0.191709979673,0.211550154719
1588856748891937219,8379,1588856748891806279,,0.502578110494,-0.191534978428,0.211443488634
1588856748897995114,8380,1588856748897836985,,0.502585296977,-0.191451721219,0.211390584174
1588856748903945422,8381,1588856748903827652,,0.502592517696,-0.191368237467,0.21134003009
1588856748909913809,8382,1588856748909806225,,0.502603555963,-0.19120191816,0.211234685619
1588856748913347150,8383,1588856748913257958,,0.50260883059,-0.191125654557,0.211184532484
1588856748919287627,8384,1588856748919109486,,0.502616502745,-0.190973726238,0.21108053015
1588856748922262954,8385,1588856748922166893,,0.502618502148,-0.190902296431,0.211031257363
1588856748928042634,8386,1588856748927881919,,0.502621478273,-0.190829454385,0.210976880547
1588856748934005371,8387,1588856748933896495,,0.502627530422,-0.190683589168,0.210878713528
1588856748939977518,8388,1588856748939886677,,0.50263161008,-0.190608979805,0.210832701974
1588856748947075170,8389,1588856748946970963,,0.502637136872,-0.190470084968,0.210735939163
1588856748951950209,8390,1588856748951841227,,0.502641649222,-0.190395184498,0.210690308506
1588856748957984325,8391,1588856748957890385,,0.502650095217,-0.190250347115,0.210603069313
1588856748963911487,8392,1588856748963815598,,0.502653319844,-0.19018054491,0.210555963584
1588856748970068534,8393,1588856748969858309,,0.502663842555,-0.190026278097,0.210471700427
1588856748975835879,8394,1588856748975763025,,0.502667344567,-0.189952932705,0.210425043824
1588856748988000900,8395,1588856748987878232,,0.502679897518,-0.189731558509,0.210293185023
1588856748993959223,8396,1588856748993834482,,0.502684148278,-0.189656389706,0.210249632576
1588856748999980871,8397,1588856748999859821,,0.502685614347,-0.189585848202,0.210204874882
1588856749005931495,8398,1588856749005819016,,0.502688997332,-0.189447153499,0.210119435988
1588856749011970440,8399,1588856749011862520,,0.502690569036,-0.189377737376,0.210078049839
1588856749015627274,8400,1588856749015454628,,0.502693433414,-0.189309698702,0.210037503779
1588856749018271600,8401,1588856749018141970,,0.502695640935,-0.189182599291,0.20995355082
1588856749021262464,8402,1588856749021146900,,0.502699749831,-0.189111529823,0.209912411608
1588856749026943243,8403,1588856749026834831,,0.502700309755,-0.189049641458,0.209871060057
1588856749033080654,8404,1588856749032951917,,0.502701022071,-0.18898365432,0.209830494327
1588856749039002084,8405,1588856749038868932,,0.502702432184,-0.188919049034,0.209791296442
1588856749045024006,8406,1588856749044892920,,0.502706097093,-0.188787281091,0.209717026551
1588856749049363197,8407,1588856749049273967,,0.502706196815,-0.188723418934,0.209675946121
1588856749053989443,8408,1588856749053854571,,0.502710018514,-0.188591926028,0.209600282226
1588856749060078756,8409,1588856749059906494,,0.502712644117,-0.188526490691,0.209564475446
1588856749066068431,8410,1588856749065938013,,0.502714668671,-0.188391815037,0.209487175916
1588856749072069470,8411,1588856749071864069,,0.50271685664,-0.188329325909,0.209451917534
1588856749078019300,8412,1588856749077929813,,0.502718923627,-0.188196211632,0.209377871116
1588856749083979160,8413,1588856749083885993,,0.502720025172,-0.188138621579,0.20934262555
1588856749089923474,8414,1588856749089842879,,0.502721847028,-0.188074389754,0.209307241404
1588856749095968348,8415,1588856749095870701,,0.502721733691,-0.188015166062,0.209269989101
1588856749108116735,8416,1588856749107934080,,0.502723535788,-0.187843786114,0.209165590602
1588856749114024623,8417,1588856749113865135,,0.502723560048,-0.18773071025,0.209096508574
1588856749118118672,8418,1588856749118002141,,0.50272366951,-0.187677883081,0.209063010563
1588856749120127717,8419,1588856749120019440,,0.502725266706,-0.18756967585,0.208997197896
1588856749123242582,8420,1588856749123140187,,0.502725048129,-0.187513333378,0.208962576323
1588856749128958130,8421,1588856749128896397,,0.502726199959,-0.187458875139,0.208931853292
1588856749134960902,8422,1588856749134846708,,0.502726624523,-0.187407560269,0.208897782208
1588856749141064587,8423,1588856749140933024,,0.50272711186,-0.187353365727,0.208865553926
1588856749146996554,8424,1588856749146909368,,0.502727900935,-0.187249234925,0.208801612642
1588856749151640480,8425,1588856749151489216,,0.502729625923,-0.187193771914,0.208769514428
1588856749155984498,8426,1588856749155896118,,0.502731085529,-0.18714070518,0.208738665316
1588856749167989189,8427,1588856749167836738,,0.502733896518,-0.186983427817,0.208643349064
1588856749174013916,8428,1588856749173858010,,0.502736031686,-0.186928231695,0.208612859296
1588856749179998394,8429,1588856749179851600,,0.50273937239,-0.186824683389,0.208553805768
1588856749185978680,8430,1588856749185882191,,0.502739164425,-0.186774622954,0.208520939336
1588856749191950432,8431,1588856749191835871,,0.502740573743,-0.186726339771,0.208492694817
1588856749197985890,8432,1588856749197896764,,0.502742288559,-0.18662740505,0.208430231303
1588856749204007272,8433,1588856749203859518,,0.502744209505,-0.186581940943,0.208403473238
1588856749210051331,8434,1588856749209951662,,0.502745704012,-0.186490252157,0.208342611047
1588856749215991626,8435,1588856749215906399,,0.502747438805,-0.186445373264,0.208314669421
1588856749220397429,8436,1588856749220269072,,0.502748812748,-0.186359771098,0.20825671766
1588856749222241259,8437,1588856749222176811,,0.502750885442,-0.186318473836,0.2082321427
1588856749227982814,8438,1588856749227861793,,0.502750620099,-0.186277735946,0.208204348978
1588856749234077380,8439,1588856749233881107,,0.502751905802,-0.186234523869,0.208177543595
1588856749240043573,8440,1588856749239948673,,0.502754888196,-0.186150222967,0.208125891434
1588856749245934309,8441,1588856749245869950,,0.502757280438,-0.186109223319,0.208099860969
1588856749251890835,8442,1588856749251825289,,0.502761159008,-0.186030559088,0.20804609327
1588856749258010010,8443,1588856749257934821,,0.502763042297,-0.185991005893,0.208017848149
1588856749264038436,8444,1588856749263940428,,0.502765679763,-0.185952084214,0.207993516398
1588856749269968515,8445,1588856749269869116,,0.502769592332,-0.185877734284,0.207945866
1588856749275987885,8446,1588856749275920439,,0.502775754585,-0.185799578279,0.207899554317
1588856749282026722,8447,1588856749281960302,,0.502776815336,-0.185764016537,0.207875415858
1588856749288473869,8448,1588856749288355893,,0.502778345521,-0.185727671623,0.20784894158
1588856749293964578,8449,1588856749293853724,,0.502782961778,-0.185659856321,0.207803155393
1588856749300078430,8450,1588856749299957197,,0.502786779628,-0.185606702508,0.207765007309
1588856749305997055,8451,1588856749305904132,,0.502788757614,-0.185570591537,0.207740624742
1588856749311971546,8452,1588856749311847032,,0.502790321099,-0.185548657431,0.207722926031
1588856749318109208,8453,1588856749317968956,,0.502793593024,-0.185485923959,0.20768328406
1588856749322426587,8454,1588856749322351520,,0.502796272855,-0.185459208283,0.207665590979
1588856749326993978,8455,1588856749326872854,,0.502797652499,-0.185408287304,0.2076318602
1588856749332980044,8456,1588856749332866145,,0.502800094289,-0.185385300852,0.20761676202
1588856749338922208,8457,1588856749338824589,,0.502801595204,-0.185363135249,0.207600386273
1588856749344910711,8458,1588856749344830770,,0.502803540267,-0.185341009093,0.207583642175
1588856749350996947,8459,1588856749350899838,,0.50280615982,-0.185299030485,0.207551848227
1588856749357007781,8460,1588856749356920369,,0.502807728873,-0.185277657095,0.207537123514
1588856749362936077,8461,1588856749362858520,,0.502808871742,-0.185256289812,0.207523320731
1588856749368901666,8462,1588856749368829807,,0.502812739859,-0.18521209892,0.207496587455
1588856749375000324,8463,1588856749374866407,,0.502813271061,-0.185191229415,0.20748099314
1588856749380978773,8464,1588856749380867706,,0.502816251684,-0.18515176647,0.207451464541
1588856749386942820,8465,1588856749386843920,,0.502817835525,-0.185132100074,0.207436482715
1588856749390548924,8466,1588856749390472335,,0.502820074462,-0.185093904514,0.207408910506
1588856749395917311,8467,1588856749395844671,,0.502823253191,-0.185052162405,0.2073834966
1588856749401985718,8468,1588856749401864331,,0.502824225345,-0.185032198839,0.207371687419
1588856749407976224,8469,1588856749407881612,,0.502824974142,-0.185012372667,0.207357811533
1588856749413948109,8470,1588856749413842797,,0.50282703134,-0.184983125138,0.207337005545
1588856749420191203,8471,1588856749420070181,,0.502828055436,-0.184972275649,0.207328848507
1588856749424612983,8472,1588856749424476257,,0.502829125708,-0.184955326948,0.207318122343
1588856749428959749,8473,1588856749428861486,,0.502829711514,-0.184945193969,0.20730904206
1588856749434955217,8474,1588856749434849481,,0.502830776326,-0.184935495917,0.207303982342
1588856749441008007,8475,1588856749440895642,,0.502831471152,-0.184921467745,0.207294465593
1588856749446992677,8476,1588856749446861138,,0.502833360994,-0.184895234898,0.207280871351
1588856749452999383,8477,1588856749452871129,,0.502833967285,-0.184886001256,0.207275004912
1588856749459565966,8478,1588856749459472050,,0.502835688485,-0.184871218391,0.207265526037
1588856749464966588,8479,1588856749464877907,,0.502836855293,-0.184862863089,0.207259958905
1588856749470984663,8480,1588856749470858564,,0.502839136223,-0.184854081837,0.207255285579
1588856749476913680,8481,1588856749476850545,,0.502840073132,-0.184845212813,0.207249360376
1588856749483005089,8482,1588856749482919328,,0.502844015676,-0.184824549821,0.207239646333
1588856749488911994,8483,1588856749488837911,,0.502845693825,-0.184815104117,0.207233965292
1588856749494955043,8484,1588856749494855362,,0.502850158578,-0.184793279934,0.207224696637
1588856749501017540,8485,1588856749500932969,,0.502851931095,-0.184783191544,0.207219242361
1588856749507061747,8486,1588856749506957955,,0.502857007899,-0.184758540673,0.207208542516
1588856749512965382,8487,1588856749512877921,,0.502859655576,-0.184746829596,0.207203284627
1588856749519492436,8488,1588856749519380729,,0.502864443932,-0.184721686991,0.207192344628
1588856749522284716,8489,1588856749522179556,,0.502867240843,-0.184708347622,0.20718719696
1588856749528858215,8490,1588856749528753680,,0.502872095883,-0.184684851532,0.207177408487
1588856749533932640,8491,1588856749533848219,,0.502875240152,-0.184671775243,0.207173119247
1588856749540017977,8492,1588856749539937369,,0.50287748276,-0.184660202898,0.20716877647
1588856749546078054,8493,1588856749545922776,,0.502879861059,-0.184650923215,0.207165768395
1588856749552093579,8494,1588856749551912944,,0.502881874268,-0.184643036046,0.207163296256
1588856749558007915,8495,1588856749557915726,,0.502884168196,-0.184630348674,0.2071605651
1588856749564071613,8496,1588856749563954124,,0.502887673232,-0.184613037007,0.207156333322
1588856749570085663,8497,1588856749569995267,,0.502889996055,-0.184604384897,0.207155389
1588856749576045910,8498,1588856749575962337,,0.502892111551,-0.184593870452,0.207153366422
1588856749588038781,8499,1588856749587949008,,0.502897967522,-0.184570905361,0.207150702335
1588856749594113755,8500,1588856749594031849,,0.502899909302,-0.184565418192,0.207150986124
1588856749597599109,8501,1588856749597530269,,0.502903002621,-0.184553274335,0.20714895362
1588856749603030617,8502,1588856749602918736,,0.502905258593,-0.184547006394,0.20714953541
1588856749608936038,8503,1588856749608872949,,0.50290841477,-0.184536759756,0.207147773777
1588856749615035399,8504,1588856749614893955,,0.502910139717,-0.184531859547,0.207147987639
1588856749621237060,8505,1588856749621109910,,0.502913892145,-0.18452219606,0.20714789234
1588856749627023444,8506,1588856749626923895,,0.502915813953,-0.184516041514,0.207148522268
1588856749631639913,8507,1588856749631503607,,0.502920488717,-0.184504480339,0.207149659466
1588856749636149630,8508,1588856749635977658,,0.502922466531,-0.184497417444,0.207149828965
1588856749645067628,8509,1588856749644951678,,0.502927051854,-0.184487494366,0.207151881809
1588856749651081090,8510,1588856749650978111,,0.50292859402,-0.184482751117,0.207152249315
1588856749657073670,8511,1588856749656960706,,0.502933409149,-0.184472474535,0.207154502622
1588856749663056507,8512,1588856749662939092,,0.502935794749,-0.184467427277,0.207156124646
1588856749666185105,8513,1588856749666110019,,0.502941788211,-0.184454618568,0.207159650531
1588856749672011136,8514,1588856749671932823,,0.502944625425,-0.184448883694,0.207160871303
1588856749678174805,8515,1588856749678023217,,0.50295127269,-0.184434613717,0.207165247051
1588856749684074149,8516,1588856749683992340,,0.502954117264,-0.18442727245,0.207166171522
1588856749690057116,8517,1588856749689878055,,0.502957892511,-0.184418058925,0.207168867618
1588856749696067789,8518,1588856749695970826,,0.502964891463,-0.184401019218,0.2071734924
1588856749700248530,8519,1588856749700183193,,0.502972735546,-0.18438177773,0.207180246417
1588856749705125556,8520,1588856749704993317,,0.50297621105,-0.184371652468,0.207183797816
1588856749711052639,8521,1588856749710969514,,0.502980725393,-0.184358997547,0.207189010684
1588856749717072749,8522,1588856749716940511,,0.502989813489,-0.184330459531,0.20720097344
1588856749720202651,8523,1588856749720112607,,0.502994662368,-0.184316714511,0.207209533557
1588856749723439798,8524,1588856749723278456,,0.50300251351,-0.184288077927,0.207227965192
1588856749728989110,8525,1588856749728891470,,0.503006757725,-0.184275285041,0.207235688903
1588856749734983363,8526,1588856749734917741,,0.503010964925,-0.18425985565,0.207247534845
1588856749741022761,8527,1588856749740938809,,0.503020051513,-0.184226523893,0.207268572471
1588856749746984258,8528,1588856749746893084,,0.503024663142,-0.184212516112,0.207279440723
1588856749753071393,8529,1588856749752920127,,0.503028920332,-0.184198366586,0.207290730757
1588856749759035747,8530,1588856749758944589,,0.503037885582,-0.184168639231,0.207314439193
1588856749765062963,8531,1588856749764956527,,0.503046221099,-0.184139469024,0.207334720244
1588856749768794421,8532,1588856749768730143,,0.503050701107,-0.184124702598,0.207346017688
1588856749774116895,8533,1588856749773928300,,0.503053898329,-0.184110518886,0.207359010526
1588856749780085108,8534,1588856749779938943,,0.503061105434,-0.18407835466,0.207380148933
1588856749786017470,8535,1588856749785920074,,0.503068403027,-0.184047091401,0.207405345621
1588856749792107248,8536,1588856749791957527,,0.503071625909,-0.184031564886,0.207415783693
1588856749798154526,8537,1588856749798045899,,0.503075659811,-0.184014544209,0.207427970684
1588856749802105655,8538,1588856749802025745,,0.503079442113,-0.183996409615,0.207439397492
1588856749807014232,8539,1588856749806921402,,0.503087045804,-0.183964681891,0.207460571635
1588856749813063244,8540,1588856749812931072,,0.503091365814,-0.183947409552,0.207473410317
1588856749819452654,8541,1588856749819346156,,0.503098002319,-0.183913260681,0.207500242439
1588856749822276768,8542,1588856749822209953,,0.503102609118,-0.183893540389,0.207513382427
1588856749828013470,8543,1588856749827901481,,0.503109662497,-0.183859959575,0.207532321854
1588856749833977488,8544,1588856749833908535,,0.503113661096,-0.183840299214,0.207544567738
1588856749839997386,8545,1588856749839920973,,0.503117086088,-0.183821180529,0.207557284563
1588856749846015403,8546,1588856749845922888,,0.503121027841,-0.183801876062,0.20757032712
1588856749852029432,8547,1588856749851939649,,0.503128006371,-0.183763418969,0.20759596471
1588856749858089421,8548,1588856749858022381,,0.503131099136,-0.18374402049,0.207606883319
1588856749864015043,8549,1588856749863931917,,0.503137981904,-0.183704750636,0.207625907629
1588856749870742900,8550,1588856749870594246,,0.503141055397,-0.18368405102,0.207636500831
1588856749875976856,8551,1588856749875901147,,0.503145192405,-0.183651126626,0.207655981707
1588856749882659719,8552,1588856749882573851,,0.503147397788,-0.183632014234,0.207667013163
1588856749888019393,8553,1588856749887891251,,0.503150725922,-0.183598928285,0.207685773176
1588856749894003622,8554,1588856749893924480,,0.503152940487,-0.183581208162,0.207695073259
1588856749900216397,8555,1588856749900043975,,0.503153477878,-0.183548576384,0.207709482279
1588856749906024524,8556,1588856749905923887,,0.503153499553,-0.183531844873,0.207719181522
1588856749912037192,8557,1588856749911968817,,0.50315032883,-0.183502417476,0.207731460643
1588856749918052674,8558,1588856749917938116,,0.503148249886,-0.183484385164,0.207736913226
1588856749921138743,8559,1588856749921050223,,0.503140862501,-0.183451195714,0.207742473686
1588856749927052435,8560,1588856749926961100,,0.503136653254,-0.183435791872,0.207744369104
1588856749933060325,8561,1588856749932977667,,0.503132506863,-0.183419271848,0.207745884098
1588856749939130569,8562,1588856749939064590,,0.503123985739,-0.183385930548,0.207745060973
1588856749945252994,8563,1588856749945131315,,0.503119991797,-0.183367703517,0.2077457921
1588856749951196141,8564,1588856749951030664,,0.503115969683,-0.183348099673,0.207747250313
1588856749957192878,8565,1588856749957018406,,0.503109517381,-0.183308486374,0.207746090296
1588856749963269311,8566,1588856749963085740,,0.503106927096,-0.183291169554,0.207749011896
1588856749969052076,8567,1588856749968982706,,0.503101329837,-0.183247652653,0.207752190784
1588856749973644120,8568,1588856749973496710,,0.503096856986,-0.183205068148,0.207754800172
1588856749978091570,8569,1588856749977968850,,0.503095693475,-0.183184035264,0.207755882779
1588856749984086693,8570,1588856749983977162,,0.503094063758,-0.183161583208,0.207757464307
1588856749990100312,8571,1588856749990002434,,0.503092649954,-0.183140887225,0.207756036569
1588856749996293646,8572,1588856749996111437,,0.503089990264,-0.183099335,0.207752360584
1588856750002338075,8573,1588856750002276412,,0.503086092826,-0.183060978438,0.207750600165
1588856750008111538,8574,1588856750008011390,,0.503085022102,-0.183040729301,0.207749374065
1588856750014115851,8575,1588856750014018656,,0.503084439977,-0.183021404281,0.207748141479
1588856750020379962,8576,1588856750020240198,,0.503083755311,-0.183003470691,0.207748614334
1588856750023435841,8577,1588856750023326987,,0.503082962815,-0.182966239479,0.207747938638
1588856750029102737,8578,1588856750029040117,,0.50308409161,-0.182934733675,0.207748503355
1588856750035065276,8579,1588856750034965647,,0.503084927454,-0.182918195505,0.207748682722
1588856750042558904,8580,1588856750042415424,,0.503084783201,-0.182902266,0.207748625865
1588856750047164723,8581,1588856750047072418,,0.503084943484,-0.182886730019,0.207748288517
1588856750053146206,8582,1588856750053032486,,0.503083514803,-0.182864041992,0.207743708084
1588856750059072806,8583,1588856750059002816,,0.503083142132,-0.182854536361,0.207742359329
1588856750065107229,8584,1588856750064989498,,0.50308231045,-0.182844118192,0.2077385755
1588856750071085564,8585,1588856750070989975,,0.503082292062,-0.182828501541,0.207733859509
1588856750077200344,8586,1588856750077123322,,0.503081838066,-0.182821837208,0.207730747133
1588856750083045782,8587,1588856750082943652,,0.503082090788,-0.182813953937,0.207727899211
1588856750089062610,8588,1588856750088955430,,0.503081618284,-0.182808398777,0.207725629174
1588856750095084366,8589,1588856750094994421,,0.503081414272,-0.182801932392,0.207722830011
1588856750101102744,8590,1588856750100993477,,0.503082113457,-0.182792387431,0.207718653574
1588856750107100452,8591,1588856750106991377,,0.503082877507,-0.182782704309,0.207714704377
1588856750111477539,8592,1588856750111388288,,0.503083451672,-0.182780646959,0.207712973402
1588856750116129578,8593,1588856750116038477,,0.503083436308,-0.182779071376,0.207711398872
1588856750119570823,8594,1588856750119473338,,0.503083066442,-0.182778455816,0.207709121147
1588856750122382050,8595,1588856750122275186,,0.503082788919,-0.18277888419,0.207704464834
1588856750128227028,8596,1588856750128029595,,0.503082971193,-0.182778784908,0.207702450454
1588856750134042052,8597,1588856750133962841,,0.503082792829,-0.182781266965,0.207698459795
1588856750140216540,8598,1588856750140136753,,0.503082569371,-0.182782478891,0.20769377275
1588856750146025772,8599,1588856750145934548,,0.503083142369,-0.182783992077,0.207689313223
1588856750152237101,8600,1588856750152023621,,0.50308363408,-0.182789978395,0.207671462366
1588856750158151474,8601,1588856750158002645,,0.503084190345,-0.182794946574,0.207660903082
1588856750164170357,8602,1588856750164035491,,0.50308474607,-0.182805331856,0.207634797248
1588856750170172303,8603,1588856750170073160,,0.503085349867,-0.182811075734,0.207618425892
1588856750176077623,8604,1588856750176006770,,0.503085234857,-0.182828432938,0.207584627044
1588856750179908306,8605,1588856750179794690,,0.503084762259,-0.182836856925,0.207566264299
1588856750185175932,8606,1588856750185060891,,0.503084856125,-0.182846064357,0.207548031525
1588856750191133752,8607,1588856750191015511,,0.5030842507,-0.182857772962,0.207531523695
1588856750197144921,8608,1588856750197044946,,0.503083087793,-0.182885443991,0.207496622419
1588856750203075447,8609,1588856750202973811,,0.503081868643,-0.182905250966,0.207478259212
1588856750209335821,8610,1588856750209221345,,0.503078959612,-0.182944863311,0.207447841176
1588856750213648963,8611,1588856750213452570,,0.503079624318,-0.182966282852,0.207436004135
1588856750218163853,8612,1588856750218064408,,0.503082251623,-0.182991589171,0.207423514399
1588856750221338266,8613,1588856750221180073,,0.503087777207,-0.183045485638,0.207396843993
1588856750227126840,8614,1588856750227044516,,0.503088748948,-0.183076644256,0.207383209452
1588856750233151826,8615,1588856750233014223,,0.503092676843,-0.183140644582,0.207358468075
1588856750239119862,8616,1588856750239049633,,0.503094864554,-0.183172873114,0.207347670849
1588856750245244997,8617,1588856750245134755,,0.503096325022,-0.183203986859,0.207331820325
1588856750248195452,8618,1588856750248112650,,0.503099042339,-0.183233315386,0.20731918689
1588856750254279236,8619,1588856750254106178,,0.503105853477,-0.183298384741,0.20729099559
1588856750260204883,8620,1588856750260083691,,0.503108845967,-0.183329969723,0.207273406547
1588856750266130718,8621,1588856750265999649,,0.50311473431,-0.183387414074,0.207243911873
1588856750272131220,8622,1588856750272010509,,0.503119672756,-0.183418974176,0.207222314783
1588856750278107033,8623,1588856750277989006,,0.503125246521,-0.183474467766,0.207185843263
1588856750281680461,8624,1588856750281599983,,0.503128892796,-0.183504001928,0.207166160073
1588856750287116159,8625,1588856750287021872,,0.503137130872,-0.183563084007,0.207126369322
1588856750293150501,8626,1588856750293028023,,0.50313966643,-0.183595229165,0.207102861724
1588856750299233420,8627,1588856750299068187,,0.503149567799,-0.183649104322,0.207059298769
1588856750305147503,8628,1588856750305007274,,0.503153088505,-0.183675962235,0.207034210008
1588856750311138918,8629,1588856750311042580,,0.503163761115,-0.183724638843,0.206989431288
1588856750315978165,8630,1588856750315907112,,0.503168639593,-0.183746627715,0.206967201571
1588856750320338596,8631,1588856750320244048,,0.50317763005,-0.18379123476,0.206919880947
1588856750323420013,8632,1588856750323307265,,0.503181885086,-0.183812145035,0.206892767619
1588856750329266367,8633,1588856750329213789,,0.503187412337,-0.183830450835,0.206870140643
1588856750335106492,8634,1588856750335057581,,0.503191776329,-0.183847891834,0.206844479325
1588856750341083667,8635,1588856750340991977,,0.503203143795,-0.183883202435,0.206795125584
1588856750347088778,8636,1588856750347010865,,0.503208698896,-0.183899690726,0.206765942051
1588856750353076135,8637,1588856750352979591,,0.503217815267,-0.183933640818,0.206711581231
1588856750359079489,8638,1588856750358979945,,0.503225415491,-0.183963980395,0.206662248531
1588856750365109986,8639,1588856750365048590,,0.503228189238,-0.183979494233,0.206635848666
1588856750371272388,8640,1588856750371109046,,0.503230384837,-0.183994818138,0.206608337228
1588856750377185352,8641,1588856750377059200,,0.50323420401,-0.184026848648,0.206553054115
1588856750384684564,8642,1588856750384573555,,0.503237087595,-0.18404217192,0.206523326993
1588856750389199862,8643,1588856750389118887,,0.503237772799,-0.184060346124,0.206494720861
1588856750395122914,8644,1588856750395053056,,0.503240252543,-0.184095983566,0.206439586635
1588856750401075536,8645,1588856750400958426,,0.503240552825,-0.184114641145,0.206411142123
1588856750407141295,8646,1588856750407012560,,0.503241035606,-0.184149751815,0.206354113545
1588856750413169535,8647,1588856750413035275,,0.503240790122,-0.184169574387,0.206322371226
1588856750419221946,8648,1588856750419138548,,0.503238676373,-0.184207638371,0.206262119551
1588856750428172353,8649,1588856750428068159,,0.503232954106,-0.184265190282,0.206178621329
1588856750434085090,8650,1588856750434015396,,0.503230763997,-0.184286446205,0.206151855813
1588856750440231090,8651,1588856750440103616,,0.503228188156,-0.184308058015,0.206120396413
1588856750446095427,8652,1588856750446024837,,0.503225120337,-0.184329112168,0.206093871361
1588856750453085996,8653,1588856750452965129,,0.503218609004,-0.184374640362,0.206034625593
1588856750458130959,8654,1588856750458064957,,0.503216077558,-0.184397489983,0.206005780358
1588856750464173016,8655,1588856750464064985,,0.503207346563,-0.184446632265,0.205947122093
1588856750470280602,8656,1588856750470118287,,0.503202751756,-0.184472809321,0.205915816947
1588856750476152483,8657,1588856750476067493,,0.503197982173,-0.184498533958,0.205886718601
1588856750488163765,8658,1588856750488050119,,0.503178395367,-0.184610051412,0.205761263624
1588856750494208363,8659,1588856750494072197,,0.503173245249,-0.184639703914,0.205732465878
1588856750500218602,8660,1588856750500128243,,0.503167898558,-0.184669558653,0.205699194088
1588856750506241607,8661,1588856750506129500,,0.503157510154,-0.18473007203,0.20563838352
1588856750512247357,8662,1588856750512080294,,0.503145808066,-0.184795265793,0.205574858561
1588856750518212412,8663,1588856750518093511,,0.503139488463,-0.184829971037,0.20554276015
1588856750521840337,8664,1588856750521253577,,0.503134239174,-0.184861349283,0.205513707814
1588856750524461767,8665,1588856750524359663,,0.5031282759,-0.18489655221,0.205477950007
1588856750530211517,8666,1588856750530022031,,0.503122004677,-0.184931232305,0.205447707763
1588856750536098068,8667,1588856750535994069,,0.503116451397,-0.184964523045,0.205413259156
1588856750548312995,8668,1588856750548051947,,0.503099932974,-0.185066640066,0.205315521769
1588856750555865288,8669,1588856750555773872,,0.503095068393,-0.185097070594,0.205284473051
1588856750563188492,8670,1588856750563104092,,0.503085102226,-0.185159554472,0.205223721631
1588856750569175241,8671,1588856750569085632,,0.503079480368,-0.185189426436,0.205197677798
1588856750575282128,8672,1588856750575142428,,0.503069598115,-0.185247364041,0.205140689999
1588856750581179187,8673,1588856750581054417,,0.503065459324,-0.185273846248,0.20511251701
1588856750587165207,8674,1588856750587065001,,0.5030566106,-0.185325590751,0.205057957448
1588856750593238553,8675,1588856750593127819,,0.503053113289,-0.185351523665,0.205028838955
1588856750599231024,8676,1588856750599115578,,0.503048971554,-0.185375482566,0.205002864863
1588856750605181955,8677,1588856750605037497,,0.503045784115,-0.185397373743,0.204975122097
1588856750611174851,8678,1588856750611073057,,0.503038127487,-0.185442955572,0.204917193244
1588856750617208971,8679,1588856750617099560,,0.503035095952,-0.18546406606,0.204890598808
1588856750620543447,8680,1588856750620450523,,0.503028563881,-0.185502272795,0.204830448413
1588856750624104056,8681,1588856750623991777,,0.503025771384,-0.185521414171,0.204805439098
1588856750629134672,8682,1588856750629044943,,0.503020407828,-0.185559412285,0.204747391801
1588856750641289048,8683,1588856750641158289,,0.503014838637,-0.185596119099,0.204691570464
1588856750647283469,8684,1588856750647171457,,0.503011377886,-0.185613742924,0.204663728584
1588856750653230876,8685,1588856750653136289,,0.503007964077,-0.185633986611,0.204633019428
1588856750659182069,8686,1588856750659058955,,0.503002189173,-0.185671111213,0.204580154287
1588856750665243404,8687,1588856750665118030,,0.502997630016,-0.18569407322,0.204549582212
1588856750671176324,8688,1588856750671050392,,0.502995002321,-0.185713659882,0.204523128312
1588856750677176084,8689,1588856750677072797,,0.502987960243,-0.185757760293,0.204464911296
1588856750683160820,8690,1588856750683047180,,0.502985205206,-0.185778812447,0.204437406694
1588856750689136820,8691,1588856750689008818,,0.502976725228,-0.185825707131,0.204378728579
1588856750692962888,8692,1588856750692822144,,0.502973285406,-0.185850037217,0.204349909155
1588856750698219647,8693,1588856750698063214,,0.502969490752,-0.185873988302,0.204319594803
1588856750704305303,8694,1588856750704162418,,0.502965760756,-0.185899088919,0.204291833416
1588856750710231480,8695,1588856750710088244,,0.502957427903,-0.185948655338,0.204229717675
1588856750716187843,8696,1588856750716112511,,0.50295312859,-0.185974117738,0.204200485751
1588856750722350120,8697,1588856750722277715,,0.502946074188,-0.186023215343,0.204140787057
1588856750728170732,8698,1588856750728086873,,0.502942213256,-0.186047634667,0.204110905229
1588856750734359697,8699,1588856750734213280,,0.502934150458,-0.186097859477,0.204047993981
1588856750740251385,8700,1588856750740169799,,0.50293107021,-0.186124041266,0.204018087432
1588856750746257494,8701,1588856750746112175,,0.502927855902,-0.186150606239,0.203986262015
1588856750752200371,8702,1588856750752110917,,0.502923729856,-0.186176161952,0.203956653343
1588856750758200265,8703,1588856750758094095,,0.502921137552,-0.186203424407,0.203923490107
1588856750761839113,8704,1588856750761748704,,0.502915999225,-0.186262345445,0.203860485791
1588856750767190463,8705,1588856750767068491,,0.502915408142,-0.186291138054,0.203828231423
1588856750773192634,8706,1588856750773075872,,0.502916149689,-0.18635832433,0.20376596838
1588856750779203954,8707,1588856750779123107,,0.50291796876,-0.186391760525,0.203733712627
1588856750785163611,8708,1588856750785063271,,0.502920666035,-0.186467774309,0.203667650101
1588856750791145244,8709,1588856750791057979,,0.502923009434,-0.186506316825,0.203633785649
1588856750794244687,8710,1588856750794144117,,0.502928568603,-0.186588508993,0.203562470556
1588856750800220261,8711,1588856750800119149,,0.502931183644,-0.186631877637,0.20352658533
1588856750806175999,8712,1588856750806063669,,0.502935942896,-0.186724490661,0.203448963727
1588856750812244738,8713,1588856750812145699,,0.502937100156,-0.186772440411,0.203405717447
1588856750818184806,8714,1588856750818082506,,0.502940713575,-0.186871687424,0.203324363398
1588856750821424889,8715,1588856750821318333,,0.502941989939,-0.186919651971,0.203281355116
1588856750824500700,8716,1588856750824417921,,0.502943718136,-0.186970080942,0.203240117428
1588856750830421307,8717,1588856750830362298,,0.502947892027,-0.187065456501,0.203150613167
1588856750836150974,8718,1588856750836068017,,0.502954117674,-0.187163459464,0.203066640822
1588856750848254711,8719,1588856750848111350,,0.502961744368,-0.187256886884,0.202984881716
1588856750854213294,8720,1588856750854059072,,0.502965994178,-0.18730256376,0.202944577132
1588856750860255454,8721,1588856750860110818,,0.502974619163,-0.187397605598,0.20285846678
1588856750864321632,8722,1588856750864217906,,0.502979002708,-0.187431733739,0.202825268685
1588856750869218949,8723,1588856750869143809,,0.502985137435,-0.1875218266,0.202740959178
1588856750875204967,8724,1588856750875128202,,0.502986990527,-0.187566579788,0.202709230486
1588856750881314924,8725,1588856750881192452,,0.502994285761,-0.187655274968,0.202631796116
1588856750887290556,8726,1588856750887190394,,0.502998498902,-0.18770117772,0.202592225131
1588856750893406931,8727,1588856750893207546,,0.503002284524,-0.187745015956,0.202557719025
1588856750899287742,8728,1588856750899154692,,0.503009199207,-0.187833864946,0.202482965018
1588856750905290697,8729,1588856750905176924,,0.503014647018,-0.187923549579,0.202400594553
1588856750911348284,8730,1588856750911191445,,0.503016772077,-0.187970765644,0.202359241296
1588856750917300782,8731,1588856750917141720,,0.503020800297,-0.188016794764,0.202312148877
1588856750920602542,8732,1588856750920473586,,0.503028430358,-0.188101775605,0.202217183631
1588856750923706749,8733,1588856750923550097,,0.503034909927,-0.188195418336,0.202116060686
1588856750929618400,8734,1588856750929447430,,0.503036111968,-0.188240274482,0.202071046222
1588856750932467178,8735,1588856750932310192,,0.503038924566,-0.188278724709,0.202033615864
1588856750938256461,8736,1588856750938154577,,0.503042329587,-0.188327095573,0.201980635622
1588856750944403628,8737,1588856750944271562,,0.503045260462,-0.18837834136,0.201933513745
1588856750950435336,8738,1588856750950211832,,0.503049136373,-0.188422718373,0.20189262617
1588856750956262936,8739,1588856750956175473,,0.503056017473,-0.188509170108,0.201807674522
1588856750966782509,8740,1588856750966623486,,0.503062862321,-0.18870086367,0.201634143413
1588856750971286197,8741,1588856750971201469,,0.503065928661,-0.188750932903,0.201586741653
1588856750977350392,8742,1588856750977283927,,0.50306776018,-0.188834279578,0.201496275402
1588856750983234748,8743,1588856750983151442,,0.503068626706,-0.188891469298,0.201441380899
1588856750989202587,8744,1588856750989145447,,0.503068247311,-0.188983038615,0.201353939875
1588856751001359455,8745,1588856751001170865,,0.503071531169,-0.189135334537,0.201215345309
1588856751007324434,8746,1588856751007179006,,0.503072752846,-0.189182264099,0.201176025203
1588856751013262856,8747,1588856751013159299,,0.503075759327,-0.189268270349,0.201105404609
1588856751019416777,8748,1588856751019272638,,0.503077821209,-0.189313672982,0.201065748642
1588856751022511597,8749,1588856751022425295,,0.503083506008,-0.189409830342,0.200987361301
1588856751028314620,8750,1588856751028172377,,0.503087539348,-0.189461536029,0.200942749785
1588856751035924501,8751,1588856751035818349,,0.503089086245,-0.189515661557,0.200892977217
1588856751040233835,8752,1588856751040147719,,0.503091833276,-0.189569213826,0.200841816967
1588856751046293300,8753,1588856751046182855,,0.503092393649,-0.189624094315,0.200785079862
1588856751052331778,8754,1588856751052208088,,0.503092333929,-0.189740906637,0.20067319652
1588856751058334117,8755,1588856751058205324,,0.503091647647,-0.189800605491,0.200616008902
1588856751064322783,8756,1588856751064160341,,0.503087627831,-0.189925206718,0.200498188692
1588856751070291017,8757,1588856751070212031,,0.503085280217,-0.189978682332,0.200449772906
1588856751076396115,8758,1588856751076301314,,0.503081525198,-0.190034277403,0.200396800415
1588856751088330595,8759,1588856751088188867,,0.503075475793,-0.190204797837,0.200252394487
1588856751094347190,8760,1588856751094173678,,0.503075732192,-0.19031494053,0.200156448001
1588856751100256283,8761,1588856751100152717,,0.503080474257,-0.190358938878,0.200124245385
1588856751103740622,8762,1588856751103602178,,0.503083494346,-0.19039532445,0.200089583299
1588856751115335549,8763,1588856751115192068,,0.503093233955,-0.190490934515,0.19999038647
1588856751121467504,8764,1588856751121360955,,0.503100231039,-0.190561114729,0.199911380863
1588856751124548154,8765,1588856751124472612,,0.503103785837,-0.190600619314,0.199867258011
1588856751130296672,8766,1588856751130184809,,0.503109029559,-0.190696541795,0.199757578007
1588856751136346788,8767,1588856751136238583,,0.503108746634,-0.190747488852,0.199705586549
1588856751148281258,8768,1588856751148183922,,0.503104631476,-0.190912191836,0.199538368451
1588856751154344780,8769,1588856751154172838,,0.503102864506,-0.19104122073,0.199419581201
1588856751160245895,8770,1588856751160121977,,0.503103005553,-0.191105659382,0.199353618564
1588856751166267580,8771,1588856751166166988,,0.503100332062,-0.191235690959,0.199239619734
1588856751173085986,8772,1588856751172961260,,0.503097353705,-0.191298891207,0.199187571196
1588856751178256898,8773,1588856751178118841,,0.503096132397,-0.191359802688,0.19913582259
1588856751184188912,8774,1588856751184098276,,0.50309721242,-0.191412593352,0.199084390797
1588856751190251769,8775,1588856751190152922,,0.503101268684,-0.191510139897,0.19898044259
1588856751196243562,8776,1588856751196160069,,0.503104861005,-0.191555361107,0.19893324708
1588856751202588123,8777,1588856751202484976,,0.503107934011,-0.191595403838,0.198888453775
1588856751206627563,8778,1588856751206530940,,0.503113700966,-0.191632708448,0.198847509584
1588856751211433677,8779,1588856751211213930,,0.503124168515,-0.191697293592,0.198757633582
1588856751217223466,8780,1588856751217115902,,0.503130656777,-0.191728526311,0.198715637528
1588856751220600649,8781,1588856751220490842,,0.50314073078,-0.191807177651,0.198620141788
1588856751223586684,8782,1588856751223497168,,0.503143181166,-0.191846973183,0.198570702595
1588856751229264058,8783,1588856751229171733,,0.503145708263,-0.191889821211,0.198524142155
1588856751235691637,8784,1588856751235607261,,0.503147081351,-0.19193940311,0.198475613157
1588856751241292859,8785,1588856751241166064,,0.503148238017,-0.1919877261,0.198428439398
1588856751247236072,8786,1588856751247135482,,0.503148583536,-0.192083569253,0.198319570111
1588856751253262587,8787,1588856751253182636,,0.503149081686,-0.192138885591,0.19826740872
1588856751259343494,8788,1588856751259172282,,0.503149628253,-0.192249648882,0.198152180175
1588856751265333234,8789,1588856751265211267,,0.503150587759,-0.19230346705,0.198096482638
1588856751271333128,8790,1588856751271180963,,0.503149304972,-0.192407023719,0.197997948756
1588856751276207758,8791,1588856751276116443,,0.503148781315,-0.192453425202,0.197949285707
1588856751280237625,8792,1588856751280152644,,0.503148687104,-0.19248604371,0.197909724017
1588856751286243137,8793,1588856751286119213,,0.503154030249,-0.192564144398,0.197828471011
1588856751292323942,8794,1588856751292184653,,0.503156991368,-0.192588373006,0.197801267287
1588856751298334335,8795,1588856751298242104,,0.503162582066,-0.192619748042,0.197768389106
1588856751304382795,8796,1588856751304249275,,0.503174170296,-0.192673428319,0.197706547245
1588856751310446930,8797,1588856751310269587,,0.503184463411,-0.192725969234,0.197649955979
1588856751316272581,8798,1588856751316137821,,0.503188029108,-0.192751766052,0.197620363397
1588856751328350136,8799,1588856751328214896,,0.503194006376,-0.192843014069,0.197521561382
1588856751334285384,8800,1588856751334186902,,0.503195019505,-0.192877218811,0.197482390227
1588856751340506827,8801,1588856751340321486,,0.503196561424,-0.192911611111,0.197446747839
1588856751346243509,8802,1588856751346152213,,0.50319778014,-0.192948977785,0.197407010092
1588856751352360082,8803,1588856751352265235,,0.503198867683,-0.192984875572,0.197368756038
1588856751358241466,8804,1588856751358183027,,0.503199872745,-0.193020669287,0.197328767155
1588856751364241012,8805,1588856751364167039,,0.503200468166,-0.193100114112,0.197250816537
1588856751370226046,8806,1588856751370169912,,0.503200296624,-0.193141284998,0.197215326713
1588856751376274345,8807,1588856751376176012,,0.503201994706,-0.193217680254,0.197146185239
1588856751382566251,8808,1588856751382325982,,0.503202199532,-0.19325135088,0.197111193152
1588856751388307024,8809,1588856751388188649,,0.503202211005,-0.193284834576,0.197079816076
1588856751394375739,8810,1588856751394240830,,0.503202862065,-0.193322080285,0.197048710633
1588856751400449291,8811,1588856751400296072,,0.503205281622,-0.19338025885,0.196989408726
1588856751406271859,8812,1588856751406170758,,0.503206962024,-0.193406373854,0.196957685527
1588856751412327240,8813,1588856751412197688,,0.503207784419,-0.193437973817,0.196909314593
1588856751416117962,8814,1588856751416033620,,0.503209677076,-0.193459700773,0.196881482571
1588856751421564385,8815,1588856751421426911,,0.503209533071,-0.193491021586,0.196843094056
1588856751424588392,8816,1588856751424484768,,0.50321129405,-0.193511078089,0.196815777323
1588856751430363386,8817,1588856751430242994,,0.503214690812,-0.19354629789,0.196775893634
1588856751436596014,8818,1588856751436477834,,0.503215599104,-0.193559878899,0.196760798072
1588856751442641276,8819,1588856751442509742,,0.503216170265,-0.193570375869,0.196748066403
1588856751448425570,8820,1588856751448294586,,0.503214713788,-0.193599675585,0.19671320765
1588856751454274135,8821,1588856751454158210,,0.503213768473,-0.193610542632,0.196700854297
1588856751460297679,8822,1588856751460189720,,0.503215251304,-0.193639665474,0.196659806493
1588856751466312918,8823,1588856751466211565,,0.50321571578,-0.193653663704,0.196640519855
1588856751472289418,8824,1588856751472201271,,0.503216396325,-0.193680373382,0.196602662417
1588856751478248465,8825,1588856751478175813,,0.503215860331,-0.193691562699,0.196582248131
1588856751484383238,8826,1588856751484239114,,0.503213668365,-0.193712391825,0.196542217004
1588856751490329371,8827,1588856751490203717,,0.503213086757,-0.193723040706,0.196519973483
1588856751496267688,8828,1588856751496166780,,0.503211738511,-0.193747581983,0.19647896001
1588856751502539315,8829,1588856751502418264,,0.503210424759,-0.19375880703,0.196459028992
1588856751508336145,8830,1588856751508220448,,0.503208465096,-0.193778067307,0.19642127946
