%time,field.header.seq,field.header.stamp,field.header.frame_id,field.vector.x,field.vector.y,field.vector.z
1589273890780285668,7675,1589273890780189261,,0.499743750441,-0.200378587019,0.219983639495
1589273890783401973,7676,1589273890783222572,,0.499743326223,-0.200380155075,0.219984115092
1589273890786346303,7677,1589273890786216191,,0.49974332808,-0.200379186193,0.219983864803
1589273890792409885,7678,1589273890792281122,,0.49974268367,-0.20038154448,0.21998399259
1589273890795399681,7679,1589273890795225397,,0.499742483412,-0.200380465896,0.219984128437
1589273890801386831,7680,1589273890801257327,,0.499742096035,-0.200383091431,0.219983862397
1589273890804361597,7681,1589273890804224348,,0.499742419031,-0.20038244704,0.219984477159
1589273890807310593,7682,1589273890807211097,,0.499742030433,-0.200383090119,0.219984467048
1589273890813399451,7683,1589273890813214403,,0.499741720566,-0.20038438261,0.219984632717
1589273890816370766,7684,1589273890816185756,,0.499741541194,-0.20038490164,0.219985000852
1589273890819385672,7685,1589273890819272102,,0.499740775911,-0.200385480932,0.219984385265
1589273890825323434,7686,1589273890825214868,,0.499740924937,-0.200386397351,0.219984268349
1589273890828324924,7687,1589273890828235400,,0.49974047131,-0.200387446489,0.219984231083
1589273890831288417,7688,1589273890831208066,,0.499740336339,-0.200387317435,0.219984202352
1589273890837396446,7689,1589273890837227974,,0.499740607237,-0.200388943023,0.219985424022
1589273890840399122,7690,1589273890840276363,,0.499739614386,-0.200388619032,0.21998460641
1589273890843324407,7691,1589273890843243870,,0.499740100458,-0.200389553834,0.219985803389
1589273890849505001,7692,1589273890849343516,,0.499740157897,-0.200390421699,0.219984719035
1589273890852318175,7693,1589273890852210840,,0.499739564629,-0.20038973676,0.219983762951
1589273890855451799,7694,1589273890855286191,,0.49974025056,-0.200391100447,0.219985447284
1589273890861398657,7695,1589273890861240089,,0.499739975686,-0.200392950587,0.219984787473
1589273890864416140,7696,1589273890864256512,,0.49973956165,-0.20039302905,0.219983821305
1589273890867349188,7697,1589273890867244222,,0.499739544894,-0.200392904546,0.219984363259
1589273890873370364,7698,1589273890873239738,,0.499739493606,-0.200394772422,0.219984168086
1589273890876529086,7699,1589273890876444154,,0.499739931696,-0.200393910693,0.219983550636
1589273890879264248,7700,1589273890879203646,,0.499739071783,-0.200394033075,0.219983232896
1589273890885353602,7701,1589273890885229506,,0.499739452403,-0.200394817182,0.219983505804
1589273890888480881,7702,1589273890888272298,,0.499739182002,-0.20039645304,0.219983655224
1589273890897348241,7703,1589273890897186559,,0.499739266323,-0.200396824204,0.219982442546
1589273890900295907,7704,1589273890900190672,,0.499740096618,-0.200396312118,0.219982962871
1589273890903381671,7705,1589273890903248368,,0.499739586465,-0.200396466218,0.219981196462
1589273890909462713,7706,1589273890909247243,,0.49973937985,-0.200397813556,0.219981158653
1589273890912495044,7707,1589273890912318792,,0.499740216144,-0.200397328194,0.219981805033
1589273890918341583,7708,1589273890918203484,,0.499740162077,-0.200397299157,0.21998190991
1589273890921351436,7709,1589273890921256473,,0.499740616835,-0.200397348075,0.219982374559
1589273890924299026,7710,1589273890924197124,,0.499740666913,-0.200397526271,0.219981960281
1589273890930250528,7711,1589273890930178553,,0.499740274371,-0.200398559948,0.219980982938
1589273890933305463,7712,1589273890933195468,,0.499740686865,-0.200399215119,0.219981716153
1589273890939329582,7713,1589273890939227703,,0.499740692215,-0.200400351146,0.21998116232
1589273890942272319,7714,1589273890942175700,,0.499740790021,-0.200400530499,0.219980521235
1589273890945442469,7715,1589273890945325832,,0.499741306464,-0.200400715647,0.219981139419
1589273890948346171,7716,1589273890948201984,,0.49974179679,-0.200399958105,0.219980260316
1589273890954472213,7717,1589273890954325623,,0.499741773093,-0.200399958104,0.219980371657
1589273890957320358,7718,1589273890957232879,,0.499741502589,-0.200399145585,0.219979428827
1589273890963344837,7719,1589273890963215790,,0.499741910251,-0.200400281075,0.219979206018
1589273890966305551,7720,1589273890966219324,,0.499742167192,-0.200399534742,0.219979304455
1589273890969363161,7721,1589273890969235569,,0.499742211266,-0.200399686211,0.219978764121
1589273890972383177,7722,1589273890972261815,,0.499742630613,-0.200399325957,0.219977857717
1589273890978731204,7723,1589273890978604238,,0.499742052471,-0.200399233954,0.219976922044
1589273890981453503,7724,1589273890981267582,,0.499743167273,-0.200399569556,0.219977704959
1589273890987380795,7725,1589273890987224235,,0.499742532382,-0.200398857819,0.219975702725
1589273890990401983,7726,1589273890990305572,,0.499743387013,-0.200399134704,0.219976085498
1589273890993431922,7727,1589273890993315174,,0.499744319211,-0.200397544752,0.219976400672
1589273890996430460,7728,1589273890996298085,,0.499744225803,-0.200396971225,0.219975424455
1589273891002508106,7729,1589273891002325584,,0.499744392372,-0.200396221324,0.219974439305
1589273891005449056,7730,1589273891005301999,,0.499744861939,-0.200395647009,0.21997530761
1589273891014501843,7731,1589273891014332950,,0.499745843391,-0.200393470717,0.219973854376
1589273891017384254,7732,1589273891017287479,,0.499746506229,-0.200391344072,0.21997424185
1589273891020443073,7733,1589273891020323471,,0.499747343542,-0.200389541651,0.219972661938
1589273891026508305,7734,1589273891026366370,,0.499747331384,-0.200388349126,0.219972315265
1589273891029464858,7735,1589273891029297545,,0.499747881753,-0.200386475237,0.21997077229
1589273891035441966,7736,1589273891035367913,,0.499748991427,-0.200384153446,0.219970864303
1589273891038377457,7737,1589273891038285618,,0.499749520647,-0.200382920273,0.219970275102
1589273891041422624,7738,1589273891041295741,,0.49975027685,-0.20038157054,0.219970806271
1589273891044379686,7739,1589273891044274900,,0.4997508962,-0.20037966887,0.219969098741
1589273891050429473,7740,1589273891050307591,,0.499751490931,-0.200377831177,0.21996855516
1589273891053445748,7741,1589273891053309144,,0.499751608722,-0.200375760705,0.219966362596
1589273891059463126,7742,1589273891059316060,,0.499752926326,-0.200373369328,0.219966222544
1589273891062427763,7743,1589273891062260765,,0.499753873137,-0.200370586188,0.219964979289
1589273891065377602,7744,1589273891065300858,,0.499754904986,-0.200367807627,0.219963620303
1589273891068402845,7745,1589273891068302302,,0.499755940305,-0.20036575123,0.219962807357
1589273891074873403,7746,1589273891074764856,,0.499756709055,-0.200362741714,0.219961877139
1589273891077770987,7747,1589273891077659500,,0.4997576216,-0.200359540069,0.219960479322
1589273891083388694,7748,1589273891083250988,,0.499758701535,-0.20035658668,0.219959288321
1589273891086339420,7749,1589273891086238372,,0.499759066529,-0.200353427755,0.219957386166
1589273891089382538,7750,1589273891089293285,,0.499760459428,-0.200349031886,0.219957191064
1589273891095376013,7751,1589273891095270668,,0.499760404123,-0.200344279586,0.219954896304
1589273891098441867,7752,1589273891098316734,,0.499761247368,-0.200339445253,0.219953684068
1589273891101456776,7753,1589273891101280634,,0.499761674226,-0.20033323294,0.219951041196
1589273891107420735,7754,1589273891107311845,,0.499761572706,-0.200326709364,0.219948647502
1589273891110454796,7755,1589273891110278010,,0.499761573762,-0.200321599939,0.219945528549
1589273891113421499,7756,1589273891113318231,,0.499761478908,-0.200313860248,0.219941850646
1589273891119464080,7757,1589273891119327801,,0.499760722106,-0.200308687599,0.219938619144
1589273891122468422,7758,1589273891122350025,,0.499760226434,-0.200303333275,0.219934422435
1589273891125413863,7759,1589273891125298888,,0.499758754884,-0.200298857576,0.219930154845
1589273891131522512,7760,1589273891131433478,,0.499757258809,-0.200293153359,0.219925733812
1589273891134509316,7761,1589273891134368858,,0.499755754169,-0.200288378666,0.219922125333
1589273891137426361,7762,1589273891137307310,,0.499753761209,-0.200283764418,0.219917110486
1589273891143465820,7763,1589273891143349696,,0.499753391724,-0.200276576808,0.219914107407
1589273891146386983,7764,1589273891146284306,,0.499751968073,-0.200266501479,0.219908726657
1589273891149336234,7765,1589273891149224373,,0.499751828773,-0.200240218143,0.219900615131
1589273891155451591,7766,1589273891155295379,,0.499750560996,-0.200231063384,0.219895812644
1589273891158364279,7767,1589273891158248149,,0.499749077751,-0.200224489061,0.219891676814
1589273891161364411,7768,1589273891161255261,,0.499747858058,-0.200219938529,0.219889986322
1589273891167450099,7769,1589273891167322388,,0.499746023907,-0.200214454398,0.219889405906
1589273891170382775,7770,1589273891170266035,,0.49974421334,-0.200208403023,0.219893191883
1589273891173385192,7771,1589273891173271766,,0.49974125819,-0.200199162685,0.219906305859
1589273891179439979,7772,1589273891179280704,,0.49973875427,-0.200195232063,0.219906178441
1589273891182450115,7773,1589273891182320198,,0.499736676391,-0.200190166109,0.219905818657
1589273891188443369,7774,1589273891188303979,,0.499735996738,-0.200183756186,0.219907518337
1589273891194572736,7775,1589273891194344197,,0.499733071287,-0.200176076919,0.219907460619
1589273891197406238,7776,1589273891197306748,,0.499733022883,-0.200172871948,0.219907686279
1589273891203398730,7777,1589273891203267163,,0.499732635407,-0.200167432733,0.219907581672
1589273891206470915,7778,1589273891206293926,,0.499731085133,-0.200164380662,0.219906802441
1589273891212405610,7779,1589273891212294342,,0.499730200781,-0.200160267889,0.219906557246
1589273891215443709,7780,1589273891215273179,,0.499729027267,-0.200156587561,0.219905542065
1589273891218443105,7781,1589273891218287944,,0.49972767893,-0.200151914514,0.219903825302
1589273891224407453,7782,1589273891224302803,,0.499727015294,-0.200149724253,0.219903420871
1589273891227625325,7783,1589273891227314071,,0.499726410496,-0.200143677174,0.219902368827
1589273891230396189,7784,1589273891230282882,,0.499725524354,-0.200143105133,0.21990295644
1589273891236387215,7785,1589273891236250022,,0.499724999696,-0.200138433392,0.219903097672
1589273891239621647,7786,1589273891239313129,,0.4997242068,-0.200135406831,0.219903223074
1589273891242383489,7787,1589273891242258132,,0.499723609268,-0.200131421187,0.219903275143
1589273891245402822,7788,1589273891245265078,,0.499722942977,-0.200129997101,0.219904856958
1589273891254515501,7789,1589273891254331876,,0.499722195385,-0.200124052859,0.219904281447
1589273891260388599,7790,1589273891260256038,,0.499721029614,-0.200121666096,0.219904802926
1589273891263437888,7791,1589273891263278483,,0.499720096671,-0.200118684379,0.219903883478
1589273891266411143,7792,1589273891266294268,,0.499719481321,-0.200115926253,0.219903305028
1589273891272503012,7793,1589273891272396341,,0.49971839244,-0.200113214809,0.219901223948
1589273891275738725,7794,1589273891275624643,,0.499717483253,-0.200111403489,0.219899674456
1589273891278737127,7795,1589273891278645594,,0.499716407782,-0.200109672749,0.219899124671
1589273891284405666,7796,1589273891284311763,,0.499716191426,-0.200107327602,0.219897207048
1589273891287424368,7797,1589273891287308969,,0.499715113552,-0.200106269377,0.219896449169
1589273891290411610,7798,1589273891290337769,,0.499714568911,-0.200104528411,0.219895611956
1589273891296557651,7799,1589273891296340094,,0.499713590672,-0.200102722651,0.219894237443
1589273891299392980,7800,1589273891299283984,,0.499712754738,-0.200102029413,0.219892404645
1589273891302437261,7801,1589273891302300605,,0.499712221926,-0.200099947947,0.219892662972
1589273891308441359,7802,1589273891308313635,,0.499711680775,-0.200099010684,0.21989142367
1589273891314424344,7803,1589273891314320053,,0.499710798078,-0.200098333791,0.219889659819
1589273891320462373,7804,1589273891320292473,,0.499709693202,-0.200098013706,0.219888618858
1589273891323456151,7805,1589273891323345108,,0.499709287341,-0.200098918626,0.219889011412
1589273891326441895,7806,1589273891326298473,,0.499708704002,-0.200098197747,0.219887873791
1589273891332534173,7807,1589273891332367326,,0.499708375332,-0.200097253272,0.219886993776
1589273891335447808,7808,1589273891335314265,,0.499707816617,-0.200097306893,0.219885485859
1589273891341446317,7809,1589273891341316098,,0.499707838822,-0.200097306892,0.219885381495
1589273891344427230,7810,1589273891344300580,,0.49970702991,-0.200097803634,0.219885338867
1589273891347399119,7811,1589273891347285103,,0.499706420591,-0.200097093192,0.219883211091
1589273891350380754,7812,1589273891350288632,,0.499706095277,-0.200097690761,0.219883762654
1589273891356433069,7813,1589273891356315040,,0.499705839687,-0.200096414469,0.219882043792
1589273891359535586,7814,1589273891359378486,,0.499705292867,-0.200095401768,0.219880829742
1589273891365380520,7815,1589273891365277313,,0.499704759036,-0.2000966784,0.219881138742
1589273891368447678,7816,1589273891368303235,,0.499704878048,-0.200096275773,0.219880461844
1589273891374506902,7817,1589273891374309114,,0.49970459231,-0.20009602415,0.219880106653
1589273891377602719,7818,1589273891377427325,,0.499703942321,-0.20009459787,0.219878401343
1589273891380454054,7819,1589273891380304075,,0.499703099232,-0.200095222904,0.219877256312
1589273891383403480,7820,1589273891383284065,,0.499702627483,-0.2000957671,0.219876827989
1589273891389432169,7821,1589273891389301558,,0.499702014143,-0.200095074,0.219874687008
1589273891392419574,7822,1589273891392322580,,0.499700747503,-0.2000950632,0.219872871029
1589273891398493477,7823,1589273891398355172,,0.499700447839,-0.200093621632,0.219871838101
1589273891401642154,7824,1589273891401444028,,0.499698437975,-0.2000937709,0.219869245865
1589273891404547845,7825,1589273891404429707,,0.499698323772,-0.200093212494,0.219868162559
1589273891407531774,7826,1589273891407390309,,0.499697764525,-0.200090823169,0.219865908028
1589273891413477841,7827,1589273891413343203,,0.499696279489,-0.20009063784,0.219863091904
1589273891416448999,7828,1589273891416305286,,0.499695024632,-0.200088287477,0.219860047667
1589273891422440092,7829,1589273891422343829,,0.499694521263,-0.200087137448,0.219858097028
1589273891425433969,7830,1589273891425330473,,0.499693124334,-0.200085255896,0.219855007362
1589273891428587879,7831,1589273891428378897,,0.499691632332,-0.200084429036,0.219851882106
1589273891431405695,7832,1589273891431293567,,0.499690521141,-0.200082091569,0.219848276896
1589273891437574053,7833,1589273891437408241,,0.499689058764,-0.200080354562,0.219844345716
1589273891440469162,7834,1589273891440358237,,0.49968803948,-0.200077285709,0.219840676145
1589273891446477207,7835,1589273891446345031,,0.499686950945,-0.200074409597,0.219836467477
1589273891449535018,7836,1589273891449424749,,0.499686076086,-0.200071463874,0.219833555976
1589273891452442721,7837,1589273891452348004,,0.499685284989,-0.200066140305,0.219829774839
1589273891455516593,7838,1589273891455348608,,0.499683703082,-0.200062350211,0.219824078906
1589273891461517058,7839,1589273891461365261,,0.499684008571,-0.200057060915,0.219821879406
1589273891464436931,7840,1589273891464366945,,0.4996838235,-0.200050232631,0.219817470261
1589273891470546177,7841,1589273891470412469,,0.499683569823,-0.200043726468,0.21981410319
1589273891473545962,7842,1589273891473413043,,0.499684108421,-0.200035108585,0.219810810058
1589273891476765952,7843,1589273891476560768,,0.499684507505,-0.200025389989,0.219806838913
1589273891482590476,7844,1589273891482455685,,0.499685056151,-0.200015669992,0.219804314143
1589273891485495679,7845,1589273891485387144,,0.499685922918,-0.200004516142,0.219802235848
1589273891488593455,7846,1589273891488450799,,0.499685655949,-0.199994470361,0.219799343195
1589273891494506074,7847,1589273891494388251,,0.499685148138,-0.199984686925,0.219797151422
1589273891497570800,7848,1589273891497407542,,0.499684704035,-0.199973745364,0.219795131945
1589273891500519165,7849,1589273891500345343,,0.499684506717,-0.19996492388,0.219793228502
1589273891506546200,7850,1589273891506373260,,0.499684073362,-0.199956546539,0.219791477514
1589273891509475639,7851,1589273891509370179,,0.499682691976,-0.199946650665,0.219789415569
1589273891512494436,7852,1589273891512398232,,0.499682073445,-0.19993916449,0.219787418064
1589273891518403502,7853,1589273891518317436,,0.499681587593,-0.19993020918,0.219785735563
1589273891521528203,7854,1589273891521361544,,0.499680786305,-0.199923369376,0.219784175841
1589273891524408485,7855,1589273891524329910,,0.49967929486,-0.199917188707,0.219779718727
1589273891530552731,7856,1589273891530405335,,0.499679289889,-0.199909599966,0.219777803416
1589273891533492851,7857,1589273891533367728,,0.499678321753,-0.199903638089,0.219774765709
1589273891536540577,7858,1589273891536364002,,0.499677242461,-0.199898517784,0.219771344597
1589273891542500055,7859,1589273891542396175,,0.499676239359,-0.199891526536,0.219768171554
1589273891545540687,7860,1589273891545389456,,0.499676212329,-0.1998850062,0.219765719144
1589273891548489566,7861,1589273891548342177,,0.499675472757,-0.199878945046,0.219762338559
1589273891554579772,7862,1589273891554405950,,0.499674736902,-0.199872515613,0.219759769953
1589273891557467564,7863,1589273891557329286,,0.499674223715,-0.199868190009,0.219757924491
1589273891560482252,7864,1589273891560397477,,0.49967364773,-0.199862472827,0.219756004494
1589273891566520167,7865,1589273891566391264,,0.499673289896,-0.199856731786,0.219752114509
1589273891569497948,7866,1589273891569355309,,0.49967241804,-0.199851844185,0.219749670795
1589273891572510800,7867,1589273891572381677,,0.499671807721,-0.199845345295,0.219748377067
1589273891578791613,7868,1589273891578672693,,0.499671060395,-0.1998409953,0.219745333756
1589273891581489216,7869,1589273891581363809,,0.499670467756,-0.199836570784,0.219743656221
1589273891584550088,7870,1589273891584329329,,0.499670032929,-0.199830885997,0.219740878199
1589273891590415309,7871,1589273891590334614,,0.499669382324,-0.199826974764,0.219738877873
1589273891593493841,7872,1589273891593368200,,0.499667799943,-0.199823257865,0.219735771862
1589273891599459845,7873,1589273891599377017,,0.499667575696,-0.199818554239,0.219733033622
1589273891602452976,7874,1589273891602368777,,0.499666392557,-0.199815108458,0.219730994452
1589273891605518050,7875,1589273891605355079,,0.4996655341,-0.199810147452,0.219727643789
1589273891614546270,7876,1589273891614430681,,0.499663911242,-0.199801670113,0.219723219173
1589273891617484893,7877,1589273891617367816,,0.499663165708,-0.199797384035,0.219721054043
1589273891623597060,7878,1589273891623409679,,0.499661928666,-0.199794654407,0.219718987991
1589273891626452256,7879,1589273891626366305,,0.499661131515,-0.199792216173,0.219716402785
1589273891629548452,7880,1589273891629380746,,0.499659857745,-0.199788746458,0.219713832994
1589273891635566473,7881,1589273891635389496,,0.499658784465,-0.199785621643,0.219710930701
1589273891638498870,7882,1589273891638402124,,0.499657049825,-0.199781864089,0.21970712026
1589273891641458290,7883,1589273891641374586,,0.499656024419,-0.19977922935,0.219705101658
1589273891647544048,7884,1589273891647393418,,0.499655265961,-0.19977768243,0.219703293562
1589273891650544946,7885,1589273891650364472,,0.499654485775,-0.199774246201,0.219700823138
1589273891653511225,7886,1589273891653373829,,0.499652943225,-0.199771531084,0.219698840084
1589273891659672795,7887,1589273891659452243,,0.499651751605,-0.199769753238,0.219695854948
1589273891665447955,7888,1589273891665341574,,0.499650858827,-0.199765934787,0.219693722436
1589273891668489355,7889,1589273891668348988,,0.499649825122,-0.199763189067,0.219690671751
1589273891671622986,7890,1589273891671449079,,0.499649783536,-0.199760273501,0.219689386015
1589273891674499623,7891,1589273891674384916,,0.499648405312,-0.199757707133,0.219687030681
1589273891677575952,7892,1589273891677485779,,0.499647789366,-0.199754671742,0.219684540522
1589273891683594852,7893,1589273891683415255,,0.499646368184,-0.199751095759,0.219682419165
1589273891686460773,7894,1589273891686372316,,0.499646213751,-0.199745932439,0.2196798505
1589273891689535604,7895,1589273891689409745,,0.499644704879,-0.199744643218,0.219677952516
1589273891695571501,7896,1589273891695455687,,0.499643511555,-0.199740898811,0.219674716025
1589273891698546528,7897,1589273891698410971,,0.499642371657,-0.199737827843,0.219671606064
1589273891701498909,7898,1589273891701359249,,0.499640194009,-0.199736553382,0.219667756864
1589273891707431008,7899,1589273891707319061,,0.499639433339,-0.199732473339,0.219664895216
1589273891710446208,7900,1589273891710353992,,0.499637594318,-0.199730497403,0.219661879602
1589273891713520845,7901,1589273891713377546,,0.49963581561,-0.199728976869,0.219658564995
1589273891719604251,7902,1589273891719375318,,0.499634015907,-0.199725777144,0.219654525363
1589273891722533023,7903,1589273891722393785,,0.499632949665,-0.199723446074,0.219652368509
1589273891725470094,7904,1589273891725400781,,0.499630602627,-0.199721340352,0.219648614953
1589273891731509216,7905,1589273891731425090,,0.499629077683,-0.199718836549,0.219645089852
1589273891734509410,7906,1589273891734377971,,0.499627245682,-0.199716513518,0.219642477065
1589273891740471242,7907,1589273891740307728,,0.499625512429,-0.199714811556,0.219639392411
1589273891743468476,7908,1589273891743311321,,0.499624082931,-0.199712100599,0.219636731238
1589273891746466626,7909,1589273891746350255,,0.499622346814,-0.199708086115,0.219633746008
1589273891749434313,7910,1589273891749327712,,0.499620721004,-0.199705955434,0.219632389189
1589273891755477672,7911,1589273891755342375,,0.499619774936,-0.199701708606,0.219629248916
1589273891761497684,7912,1589273891761362689,,0.499617677668,-0.199698019452,0.219626686941
1589273891764478718,7913,1589273891764382124,,0.49961572483,-0.199694186853,0.219625548101
1589273891767547427,7914,1589273891767372319,,0.499614450895,-0.199687940476,0.219622335568
1589273891770468405,7915,1589273891770349488,,0.499613228899,-0.199683847869,0.219622395469
1589273891776781340,7916,1589273891776611033,,0.499611695339,-0.199679083874,0.219620116829
1589273891779811840,7917,1589273891779668498,,0.499610174979,-0.199672891,0.219617483999
1589273891785518319,7918,1589273891785369775,,0.499608419125,-0.199667217427,0.219615201043
1589273891788475078,7919,1589273891788376918,,0.499607066134,-0.199660752736,0.219612632893
1589273891794473312,7920,1589273891794366876,,0.499604750804,-0.199646217487,0.219606434691
1589273891800515138,7921,1589273891800382553,,0.499603315173,-0.199637773526,0.219603037161
1589273891803463647,7922,1589273891803392748,,0.499602483324,-0.199629034763,0.219597335957
1589273891809599707,7923,1589273891809420314,,0.499600901978,-0.199619987171,0.219593280747
1589273891812552992,7924,1589273891812445428,,0.499600473757,-0.199610128106,0.21959074654
1589273891815477559,7925,1589273891815401801,,0.499599525349,-0.19960015653,0.219586820345
1589273891818470882,7926,1589273891818337440,,0.499598228392,-0.199589596969,0.219582283933
1589273891824448632,7927,1589273891824347555,,0.499598300165,-0.19957797983,0.219578637916
1589273891827471737,7928,1589273891827342251,,0.499597425171,-0.199568461739,0.219575188162
1589273891833553573,7929,1589273891833337853,,0.499597131217,-0.199556387812,0.219571368513
1589273891836481244,7930,1589273891836368278,,0.499596301039,-0.199544762318,0.219569011468
1589273891839483687,7931,1589273891839370771,,0.499595950088,-0.199534204239,0.219564978244
1589273891842495355,7932,1589273891842370168,,0.499595811066,-0.199520898043,0.219561738781
1589273891848529918,7933,1589273891848368523,,0.499595397599,-0.199508966589,0.219559710095
1589273891851525059,7934,1589273891851428912,,0.499594537447,-0.199499093867,0.219555196048
1589273891857580970,7935,1589273891857444547,,0.499594240402,-0.199489030806,0.219552130975
1589273891860408237,7936,1589273891860321305,,0.499594122829,-0.199477058653,0.219547087043
1589273891863427244,7937,1589273891863348757,,0.499593509264,-0.19946853335,0.219544377656
1589273891866508703,7938,1589273891866421210,,0.49959405613,-0.19945488144,0.21953751836
1589273891872459234,7939,1589273891872370857,,0.499594563393,-0.199438686216,0.219528313491
1589273891875871842,7940,1589273891875761601,,0.499595211156,-0.199420081723,0.219520156584
1589273891881523081,7941,1589273891881431015,,0.499592817373,-0.199404407307,0.219513104561
1589273891884514500,7942,1589273891884429368,,0.499590030724,-0.199390399809,0.219502993883
1589273891887518583,7943,1589273891887405027,,0.499589003938,-0.199379707847,0.219495692734
1589273891893452031,7944,1589273891893328390,,0.499587376286,-0.199364829203,0.219491234049
1589273891896480573,7945,1589273891896355957,,0.49958584767,-0.199352525339,0.219485557541
1589273891899475165,7946,1589273891899369969,,0.49958520138,-0.199337356965,0.219482296937
1589273891905511757,7947,1589273891905364940,,0.49958355012,-0.199325984136,0.219483314584
1589273891908533098,7948,1589273891908432307,,0.499582273691,-0.199313537702,0.219481427529
1589273891917508390,7949,1589273891917390320,,0.499583151298,-0.199287400533,0.219480943147
1589273891920463262,7950,1589273891920381309,,0.499582382524,-0.199271717038,0.219478467646
1589273891923445647,7951,1589273891923346455,,0.499581067686,-0.199255860224,0.219474475573
1589273891929512445,7952,1589273891929445105,,0.499581155427,-0.199235785999,0.219473618011
1589273891932510764,7953,1589273891932389327,,0.4995804466,-0.199213188525,0.219468164624
1589273891935485194,7954,1589273891935392644,,0.499579762815,-0.199191238387,0.219459589407
1589273891941514996,7955,1589273891941399098,,0.499579432786,-0.19917134708,0.219454518478
1589273891944494368,7956,1589273891944373327,,0.499579464143,-0.199153584882,0.219445968068
1589273891947531455,7957,1589273891947387093,,0.499579893154,-0.199129859575,0.219437715062
1589273891953550620,7958,1589273891953430643,,0.499578717588,-0.199107526831,0.219427687874
1589273891956518601,7959,1589273891956355911,,0.499578446399,-0.199083140061,0.219419408448
1589273891959480178,7960,1589273891959382155,,0.499578340687,-0.199053655578,0.219411285427
1589273891965564077,7961,1589273891965410857,,0.499578182725,-0.199019250917,0.219399620548
1589273891968514625,7962,1589273891968383678,,0.499578679321,-0.198984299379,0.219389212324
1589273891971491078,7963,1589273891971416514,,0.49957971771,-0.198953439887,0.219379558517
1589273891977687677,7964,1589273891977586118,,0.499579879255,-0.198924808745,0.219370049418
1589273891980443879,7965,1589273891980359636,,0.499581092288,-0.198897101929,0.219360221147
1589273891986513971,7966,1589273891986353248,,0.499579821449,-0.198871091402,0.219348840681
1589273891989530094,7967,1589273891989386255,,0.499580571145,-0.198842744971,0.219339563253
1589273891992497555,7968,1589273891992378741,,0.499579773986,-0.198817334946,0.219330876649
1589273891995576513,7969,1589273891995419255,,0.499579186578,-0.198793161073,0.219322101513
1589273892001530039,7970,1589273892001394736,,0.499577934936,-0.198773515222,0.21931422156
1589273892004513730,7971,1589273892004409109,,0.499577423436,-0.198755412158,0.219308496583
1589273892010494966,7972,1589273892010404611,,0.499576821747,-0.19873764657,0.21930320724
1589273892013489335,7973,1589273892013426598,,0.49957455718,-0.198721277751,0.219297037597
1589273892016534792,7974,1589273892016423116,,0.499573524556,-0.198702463109,0.219292137369
1589273892019579003,7975,1589273892019477209,,0.499573119308,-0.198680847524,0.219289607841
1589273892025529692,7976,1589273892025405501,,0.499571933975,-0.198658197703,0.219282193617
1589273892028631370,7977,1589273892028510362,,0.499571599347,-0.198633402782,0.219273073787
1589273892034565841,7978,1589273892034454785,,0.499571443493,-0.198610266177,0.219263600654
1589273892037513861,7979,1589273892037415736,,0.499573731278,-0.198584039218,0.219252680754
1589273892040733670,7980,1589273892040502922,,0.499574890644,-0.198556119733,0.219240276576
1589273892046499078,7981,1589273892046398423,,0.499575060276,-0.198529509089,0.219226993558
1589273892049552412,7982,1589273892049396277,,0.499576000922,-0.198502021206,0.219215857418
1589273892052621533,7983,1589273892052415811,,0.49957596699,-0.198471391663,0.219201618784
1589273892058497631,7984,1589273892058411079,,0.499576516924,-0.198436753834,0.219187970218
1589273892061545457,7985,1589273892061467535,,0.499577558953,-0.198401350995,0.219172568638
1589273892064708385,7986,1589273892064519258,,0.499579058976,-0.198367706838,0.219158820744
1589273892070652155,7987,1589273892070548172,,0.499580631573,-0.198333313795,0.219143768206
1589273892073556053,7988,1589273892073479108,,0.49958166165,-0.198295035834,0.219127210716
1589273892076826109,7989,1589273892076678068,,0.499583502515,-0.198256683327,0.219112290508
1589273892082693815,7990,1589273892082502934,,0.499585567465,-0.198217783837,0.219097977295
1589273892085586664,7991,1589273892085462161,,0.499588967727,-0.198175851694,0.219085510827
1589273892088618822,7992,1589273892088523472,,0.499589833103,-0.198138963649,0.219069290099
1589273892094671503,7993,1589273892094539602,,0.499591468666,-0.198103931409,0.219056388556
1589273892097645124,7994,1589273892097506938,,0.499592335922,-0.198070649513,0.219043208538
1589273892100636233,7995,1589273892100525143,,0.49959327935,-0.198035222258,0.219027917898
1589273892106517396,7996,1589273892106392420,,0.499593823244,-0.198001338539,0.219015224037
1589273892109540667,7997,1589273892109456233,,0.49959280077,-0.197975805063,0.219003123122
1589273892112525835,7998,1589273892112415275,,0.499592243205,-0.1979488138,0.21899139689
1589273892118507225,7999,1589273892118429441,,0.499591694219,-0.197921686168,0.218979117566
1589273892121661055,8000,1589273892121522455,,0.499591473403,-0.197895966425,0.218966638051
1589273892124506349,8001,1589273892124387257,,0.499591584034,-0.197870484598,0.218954556705
1589273892130664442,8002,1589273892130511369,,0.499591603068,-0.197842338491,0.218941832949
1589273892133668379,8003,1589273892133519523,,0.499591233529,-0.197815107172,0.218928665332
1589273892139577210,8004,1589273892139501227,,0.499590418439,-0.197785617271,0.218914432233
1589273892142675687,8005,1589273892142513968,,0.499592384347,-0.197753155664,0.218901419866
1589273892148680464,8006,1589273892148508521,,0.499592108257,-0.197722767615,0.218885559452
1589273892154645288,8007,1589273892154450645,,0.499594273835,-0.19764997879,0.218857340734
1589273892157591196,8008,1589273892157439753,,0.499592840371,-0.197611752588,0.218839895952
1589273892163649168,8009,1589273892163494115,,0.499593996973,-0.197574332289,0.218825761996
1589273892166621235,8010,1589273892166499474,,0.499596142296,-0.197528145176,0.218808694878
1589273892172658813,8011,1589273892172546736,,0.49959724148,-0.197480035503,0.218789386648
1589273892175999518,8012,1589273892175883730,,0.499597958827,-0.197438419378,0.218771094642
1589273892178973674,8013,1589273892178831622,,0.499600746841,-0.197388856934,0.218751708232
1589273892181526988,8014,1589273892181418924,,0.49960381353,-0.197345279746,0.218735014145
1589273892187757916,8015,1589273892187521868,,0.499604582613,-0.197300265461,0.218715149823
1589273892190667870,8016,1589273892190480070,,0.499606592743,-0.197250253289,0.218695837671
1589273892196633788,8017,1589273892196462799,,0.499609155315,-0.197208020298,0.218681556217
1589273892199645927,8018,1589273892199499086,,0.499610030444,-0.197165467092,0.218667845402
1589273892202637638,8019,1589273892202501553,,0.499610024163,-0.197117583794,0.218647887276
1589273892205616402,8020,1589273892205474793,,0.499611403706,-0.197081262448,0.218632768487
1589273892211628308,8021,1589273892211478557,,0.499611693822,-0.197047963234,0.218620055742
1589273892214606332,8022,1589273892214454891,,0.499612079948,-0.197015138156,0.218607249397
1589273892220561190,8023,1589273892220450459,,0.499612346327,-0.196983091086,0.218592213481
1589273892223626049,8024,1589273892223471542,,0.499612475131,-0.196955175426,0.218579004484
1589273892226593617,8025,1589273892226496369,,0.499612697714,-0.196927242674,0.21856678753
1589273892229619187,8026,1589273892229496810,,0.499612650222,-0.196898105718,0.218554324529
1589273892235671176,8027,1589273892235483999,,0.499612257684,-0.196864195961,0.218538533291
1589273892238622262,8028,1589273892238497818,,0.499612341768,-0.196831913693,0.218523839708
1589273892247591420,8029,1589273892247486160,,0.499613106589,-0.196757738859,0.218489171849
1589273892250515557,8030,1589273892250436048,,0.499615767053,-0.196721144508,0.218475153974
1589273892253521354,8031,1589273892253431655,,0.499616863017,-0.196680433212,0.21845715726
1589273892259584662,8032,1589273892259428336,,0.499618867943,-0.196637871993,0.218441761469
1589273892262639435,8033,1589273892262470004,,0.499620397169,-0.196590042232,0.218421104637
1589273892268640622,8034,1589273892268478394,,0.499622423155,-0.196540019853,0.21840165913
1589273892271694123,8035,1589273892271595904,,0.499624284759,-0.196490143157,0.218382068709
1589273892275489429,8036,1589273892275386757,,0.499626340607,-0.196447103134,0.218365211014
1589273892280908352,8037,1589273892280820960,,0.499628438092,-0.19639201592,0.218342371665
1589273892283562035,8038,1589273892283456900,,0.499630878542,-0.196335107688,0.21831953228
1589273892286583113,8039,1589273892286461656,,0.499633830082,-0.196289432094,0.218302790231
1589273892292599145,8040,1589273892292488214,,0.499634174577,-0.196235822566,0.218280484847
1589273892295590248,8041,1589273892295475340,,0.499636592219,-0.196182007306,0.218260610035
1589273892298555316,8042,1589273892298467688,,0.499636654462,-0.196136322312,0.218241168181
1589273892304570273,8043,1589273892304477083,,0.499636523997,-0.196091379066,0.218222564836
1589273892307723965,8044,1589273892307528115,,0.499637228588,-0.196051073721,0.218207496959
1589273892310614981,8045,1589273892310471393,,0.499637485241,-0.196016409275,0.218194374048
1589273892316645958,8046,1589273892316481904,,0.49963636308,-0.195982831679,0.21817875232
1589273892319632528,8047,1589273892319483320,,0.499635138843,-0.195948581674,0.218162002963
1589273892322726614,8048,1589273892322574392,,0.499635708964,-0.195917374717,0.218149537953
1589273892328647599,8049,1589273892328515262,,0.499634095491,-0.195883969139,0.218132425762
1589273892331831749,8050,1589273892331707395,,0.499635563186,-0.195844588871,0.218118249629
1589273892334628741,8051,1589273892334503417,,0.499635435908,-0.195808447959,0.218102556136
1589273892340579284,8052,1589273892340489035,,0.49963480317,-0.195771042854,0.218085737942
1589273892343638705,8053,1589273892343518173,,0.499636071594,-0.19572969965,0.218068663169
1589273892346721056,8054,1589273892346574211,,0.499635144916,-0.195690552512,0.21805100471
1589273892352667302,8055,1589273892352556667,,0.499635642334,-0.195644961662,0.218030206642
1589273892355723053,8056,1589273892355571346,,0.499636967024,-0.195597425968,0.21800871587
1589273892358641220,8057,1589273892358530009,,0.499639068103,-0.195544963471,0.217986340234
1589273892367587093,8058,1589273892367456056,,0.499643754807,-0.19543481041,0.217939032271
1589273892370662202,8059,1589273892370527272,,0.499646612353,-0.195373767772,0.217916587104
1589273892377079903,8060,1589273892376928416,,0.499650033025,-0.19531560714,0.217895167415
1589273892380016095,8061,1589273892379849538,,0.499652159175,-0.195257390128,0.21787268571
1589273892382630397,8062,1589273892382462964,,0.499655720563,-0.195199919977,0.217850127604
1589273892388600528,8063,1589273892388457471,,0.499658747009,-0.195141833332,0.217829007426
1589273892391615704,8064,1589273892391522714,,0.499662379381,-0.195086785318,0.217809116899
1589273892394576581,8065,1589273892394484629,,0.499664712629,-0.19504546615,0.217794701759
1589273892400573053,8066,1589273892400492604,,0.499665180292,-0.194994614309,0.217772811347
1589273892403673619,8067,1589273892403528658,,0.499666894221,-0.194943056144,0.21775378245
1589273892406623103,8068,1589273892406517882,,0.499666931435,-0.194913966285,0.217740994596
1589273892412577046,8069,1589273892412515297,,0.499665676856,-0.194881486011,0.217724482286
1589273892415675090,8070,1589273892415526168,,0.499667571839,-0.194844456781,0.217711029087
1589273892421737698,8071,1589273892421572049,,0.499666512083,-0.194814657128,0.217697546053
1589273892425176095,8072,1589273892425107386,,0.499664660469,-0.194787956559,0.217682009974
1589273892427607589,8073,1589273892427538795,,0.499662975382,-0.194760128703,0.217667907162
1589273892433634677,8074,1589273892433537959,,0.499662733293,-0.194730125464,0.217655834834
1589273892436598319,8075,1589273892436528845,,0.499661784179,-0.194697406466,0.217640478516
1589273892439585065,8076,1589273892439510047,,0.49966340851,-0.194661767589,0.217626213194
1589273892445634689,8077,1589273892445553311,,0.499662434667,-0.194626594103,0.217608840129
1589273892448565429,8078,1589273892448471488,,0.499662359548,-0.194588461036,0.217591406933
1589273892451599038,8079,1589273892451523680,,0.49966294196,-0.194547701089,0.217573872421
1589273892457643200,8080,1589273892457564464,,0.499664654085,-0.194501349097,0.21755817007
1589273892460712371,8081,1589273892460549289,,0.499664366509,-0.194453591289,0.217537858296
1589273892463721503,8082,1589273892463507427,,0.499665985436,-0.194402625879,0.217520114646
1589273892469622030,8083,1589273892469530507,,0.49966679195,-0.194346681447,0.217498594129
1589273892472804969,8084,1589273892472586022,,0.499668966411,-0.194288616491,0.217476644909
1589273892475717992,8085,1589273892475548292,,0.499670499982,-0.194232331587,0.217455317583
1589273892481588621,8086,1589273892481475142,,0.499673362885,-0.194175487134,0.217434813318
1589273892487695146,8087,1589273892487525507,,0.499676682547,-0.194053894392,0.217391418732
1589273892493617506,8088,1589273892493527061,,0.499677598228,-0.193995470953,0.217370813778
1589273892496655645,8089,1589273892496580827,,0.499678799347,-0.193937837181,0.217348144118
1589273892499626773,8090,1589273892499513652,,0.499678878637,-0.193885937617,0.217329673489
1589273892505694435,8091,1589273892505579475,,0.499679518195,-0.193835119038,0.217312228181
1589273892508806862,8092,1589273892508640951,,0.499679689012,-0.193788664796,0.217293164206
1589273892511769878,8093,1589273892511652503,,0.499680343898,-0.193750719422,0.217279090291
1589273892517760143,8094,1589273892517576548,,0.499680447909,-0.19372003042,0.217267660674
1589273892520667367,8095,1589273892520565550,,0.499678606153,-0.193686350114,0.217252149664
1589273892523678715,8096,1589273892523517593,,0.499678103937,-0.19365110865,0.217238041251
1589273892529701864,8097,1589273892529569876,,0.499676002319,-0.193630597881,0.217227268297
1589273892532668284,8098,1589273892532552563,,0.499673619599,-0.193602145077,0.217215205153
1589273892538727443,8099,1589273892538561315,,0.499672986281,-0.193568399145,0.217203589834
1589273892541694973,8100,1589273892541543554,,0.499673324637,-0.193533611375,0.217192446888
1589273892547649398,8101,1589273892547507361,,0.499673956833,-0.19347257858,0.217167109284
1589273892553758641,8102,1589273892553594332,,0.499673182567,-0.193440636027,0.217150146707
1589273892559682177,8103,1589273892559538481,,0.499673134028,-0.193405323024,0.217133794465
1589273892562623221,8104,1589273892562553239,,0.499673333685,-0.193362942907,0.217115509999
1589273892565615823,8105,1589273892565551266,,0.499674221711,-0.193320783439,0.217098050676
1589273892568802741,8106,1589273892568588435,,0.499674583713,-0.193274455203,0.217079788932
1589273892574691795,8107,1589273892574544908,,0.499675481403,-0.193230596723,0.217062855454
1589273892583602467,8108,1589273892583550487,,0.499677474304,-0.193137367788,0.217026039428
1589273892586611552,8109,1589273892586519913,,0.499679647288,-0.193082472211,0.21700791546
1589273892589587636,8110,1589273892589496345,,0.499681166601,-0.193032973686,0.216990492651
1589273892592651966,8111,1589273892592549723,,0.499681667254,-0.192983070973,0.216973215606
1589273892598658177,8112,1589273892598547516,,0.499684179978,-0.19292468062,0.216955213088
1589273892601690636,8113,1589273892601562790,,0.49968395619,-0.192879466937,0.216937858955
1589273892607655741,8114,1589273892607565666,,0.499683716555,-0.192832082801,0.216921036424
1589273892610625427,8115,1589273892610541272,,0.499685997539,-0.192793364942,0.216911234673
1589273892613706567,8116,1589273892613592750,,0.499685188097,-0.192753223789,0.216895094627
1589273892616765555,8117,1589273892616608921,,0.499684450736,-0.192714987253,0.216879823687
1589273892622796846,8118,1589273892622590778,,0.499682735085,-0.192689022877,0.216869612711
1589273892625726663,8119,1589273892625566670,,0.499681180909,-0.192661198861,0.216857488393
1589273892634590667,8120,1589273892634493334,,0.499677501848,-0.19259850594,0.216835186538
1589273892637660641,8121,1589273892637561497,,0.4996742534,-0.192573726228,0.216821784828
1589273892640699941,8122,1589273892640592613,,0.49967245542,-0.192547760393,0.216811846961
1589273892646792131,8123,1589273892646650798,,0.49967038222,-0.192520790914,0.216800163115
1589273892649798959,8124,1589273892649637274,,0.499667980569,-0.192490784279,0.216787500161
1589273892655683179,8125,1589273892655578959,,0.499667567777,-0.192460456666,0.216775801473
1589273892658768988,8126,1589273892658686267,,0.499667757884,-0.192428342937,0.216764804975
1589273892661696738,8127,1589273892661585096,,0.499666890142,-0.192402040877,0.216753726857
1589273892670695455,8128,1589273892670565351,,0.499664432769,-0.192326745767,0.216721558672
1589273892673657529,8129,1589273892673534839,,0.499662992428,-0.19229519987,0.216709906421
1589273892679986028,8130,1589273892679851823,,0.499661902942,-0.192252352296,0.216694539059
1589273892682624707,8131,1589273892682525930,,0.499662603076,-0.192205165251,0.216679259337
1589273892685708931,8132,1589273892685529795,,0.499663127301,-0.192161054831,0.216664268839
1589273892694711626,8133,1589273892694598171,,0.499664434371,-0.192071369012,0.216633129612
1589273892697708622,8134,1589273892697595924,,0.499664911401,-0.192035404658,0.216618406938
1589273892703707819,8135,1589273892703561166,,0.499664915194,-0.191988719542,0.216600730922
1589273892706722500,8136,1589273892706611627,,0.499665725358,-0.191935450295,0.216581015085
1589273892709742560,8137,1589273892709569110,,0.499667261969,-0.191895764816,0.216567816738
1589273892715743808,8138,1589273892715609161,,0.499667065428,-0.191846673013,0.216553560118
1589273892718630511,8139,1589273892718562945,,0.499666574321,-0.191805321881,0.216540239176
1589273892721703439,8140,1589273892721574955,,0.499665034304,-0.191772286101,0.216527358612
1589273892727729483,8141,1589273892727615131,,0.499663222694,-0.191735646977,0.216513584961
1589273892730661923,8142,1589273892730553344,,0.499661567202,-0.191704141418,0.216501228297
1589273892733688559,8143,1589273892733576695,,0.499661565483,-0.191679456596,0.216493112789
1589273892739711785,8144,1589273892739599737,,0.499658299197,-0.191654221353,0.216480915099
1589273892742687270,8145,1589273892742528208,,0.499656896002,-0.191625885354,0.216469605586
1589273892745837587,8146,1589273892745659349,,0.499654664143,-0.191600919166,0.216459775871
1589273892754751131,8147,1589273892754579857,,0.499651328609,-0.191550741393,0.216441053867
1589273892757681318,8148,1589273892757536808,,0.499650443707,-0.191522883752,0.216431705267
1589273892763684428,8149,1589273892763556251,,0.49964982645,-0.191492569464,0.216419481591
1589273892766727761,8150,1589273892766611365,,0.499649390733,-0.19146172408,0.216407456544
1589273892769761426,8151,1589273892769582434,,0.499648996323,-0.19142944583,0.216394544579
1589273892775650911,8152,1589273892775565910,,0.499648305613,-0.191393491956,0.216381279506
1589273892778791792,8153,1589273892778665355,,0.499648117636,-0.191356277496,0.216368721742
1589273892781678429,8154,1589273892781563734,,0.499647782511,-0.191326911169,0.216357070323
1589273892787687120,8155,1589273892787550421,,0.499648534701,-0.191288131005,0.216343257528
1589273892790796786,8156,1589273892790606840,,0.499648514326,-0.191239693502,0.216325085562
1589273892793694548,8157,1589273892793540159,,0.499649466892,-0.191204726525,0.216311289904
1589273892799678348,8158,1589273892799597169,,0.499649243614,-0.191163163845,0.216296564071
1589273892802733081,8159,1589273892802641420,,0.499650679516,-0.191113280081,0.216282364809
1589273892805652533,8160,1589273892805568132,,0.499652234716,-0.191065269106,0.216267384661
1589273892811831215,8161,1589273892811603748,,0.499652701255,-0.191023785362,0.216253324023
1589273892814673341,8162,1589273892814565824,,0.499653749069,-0.190980784064,0.216239894746
1589273892820667660,8163,1589273892820580069,,0.499654206119,-0.190941919716,0.216225416128
1589273892823815810,8164,1589273892823629138,,0.499653476598,-0.190902909645,0.216210849298
1589273892826749421,8165,1589273892826571942,,0.499654502761,-0.190866694085,0.216200255241
1589273892832789878,8166,1589273892832607525,,0.499654018278,-0.19082981044,0.216187807136
1589273892835814028,8167,1589273892835616596,,0.499652128885,-0.190800114348,0.21617577462
1589273892838696743,8168,1589273892838595457,,0.499651535901,-0.19077163612,0.216165952727
1589273892844868854,8169,1589273892844615833,,0.499651330374,-0.190743945099,0.216156134756
1589273892847677517,8170,1589273892847563135,,0.499649461009,-0.190714747147,0.216145239843
1589273892850675059,8171,1589273892850579221,,0.499647675972,-0.190689615188,0.216134418311
1589273892856748364,8172,1589273892856632290,,0.499645752134,-0.190665609769,0.21612515865
1589273892859714680,8173,1589273892859557850,,0.499645013405,-0.190638190563,0.216113381877
1589273892862813264,8174,1589273892862662628,,0.499643404005,-0.190609297242,0.216102154626
1589273892868920928,8175,1589273892868661705,,0.499641748544,-0.190583745753,0.216089676957
1589273892871728707,8176,1589273892871608817,,0.499642482294,-0.190551814233,0.216078491576
1589273892874768782,8177,1589273892874609925,,0.499642025884,-0.190519747466,0.216066291977
1589273892881072773,8178,1589273892880894176,,0.499640245356,-0.190490670124,0.216052810516
1589273892883688443,8179,1589273892883555566,,0.49964010574,-0.190460054525,0.216040478527
1589273892886706308,8180,1589273892886563769,,0.499640281123,-0.190424489707,0.216027432591
1589273892892684792,8181,1589273892892582600,,0.499641553053,-0.190381596265,0.216013919378
1589273892895708961,8182,1589273892895572381,,0.499640014631,-0.19034699928,0.215996350992
1589273892898710642,8183,1589273892898586801,,0.499641302619,-0.190310492415,0.215983785415
1589273892904720245,8184,1589273892904638943,,0.49964331924,-0.190271933793,0.215969241463
1589273892907719102,8185,1589273892907574377,,0.49964399137,-0.190233753088,0.215952977749
1589273892910773303,8186,1589273892910597894,,0.499644776417,-0.190193123137,0.21593814019
1589273892916728409,8187,1589273892916571001,,0.49964611692,-0.190152308241,0.215924746382
1589273892919748625,8188,1589273892919604273,,0.499648152649,-0.190112326541,0.215911829493
1589273892922685656,8189,1589273892922549744,,0.499648389846,-0.190071811586,0.215896746184
1589273892928800790,8190,1589273892928629197,,0.499649137979,-0.190036866526,0.215884042796
1589273892932715412,8191,1589273892932599139,,0.499649491313,-0.190004408531,0.215872472478
1589273892937798524,8192,1589273892937627977,,0.499649815499,-0.1899728386,0.215861124239
1589273892940689868,8193,1589273892940605258,,0.499649723326,-0.189943445282,0.215849906498
1589273892943716975,8194,1589273892943556245,,0.499650274395,-0.189914416286,0.215840650786
1589273892949678755,8195,1589273892949584110,,0.499649174395,-0.1898899079,0.21583020212
1589273892952684250,8196,1589273892952565474,,0.49964802633,-0.189865806181,0.215818988163
1589273892955636863,8197,1589273892955549481,,0.499647525689,-0.189838920532,0.215808979167
1589273892961637381,8198,1589273892961545780,,0.499647280106,-0.189816466928,0.215800222881
1589273892967742726,8199,1589273892967574845,,0.499646343404,-0.189770437935,0.215782596005
1589273892973650871,8200,1589273892973534914,,0.499646027853,-0.189744348177,0.215772066371
1589273892977011780,8201,1589273892976910792,,0.499645376503,-0.189719393733,0.215762292485
1589273892980051911,8202,1589273892979917057,,0.499644664665,-0.18969356052,0.215753646621
1589273892985736890,8203,1589273892985596451,,0.499644235844,-0.189666516293,0.215742705078
1589273892988697288,8204,1589273892988624563,,0.499645646682,-0.189636405876,0.215734299862
1589273892994707495,8205,1589273892994602168,,0.499645468653,-0.18961034518,0.215724651904
1589273892997749505,8206,1589273892997666344,,0.499645832283,-0.189587154497,0.215716097961
1589273893000798336,8207,1589273893000667658,,0.499646692046,-0.18955572855,0.215708287299
1589273893003850055,8208,1589273893003691326,,0.499646693106,-0.189523135977,0.215698272906
1589273893009752455,8209,1589273893009630891,,0.499647898983,-0.189495759576,0.215691907569
1589273893012709616,8210,1589273893012586857,,0.499647707224,-0.189464279648,0.215681506041
1589273893018750058,8211,1589273893018671131,,0.499647686764,-0.189429053742,0.215670495321
1589273893021733418,8212,1589273893021604201,,0.499649033355,-0.189395996326,0.215660942455
1589273893027768483,8213,1589273893027606321,,0.499650691766,-0.189336059313,0.215643776422
1589273893033747733,8214,1589273893033647332,,0.49965102139,-0.189306687338,0.215634871021
1589273893036722450,8215,1589273893036628840,,0.499651453251,-0.189278598571,0.215625618956
1589273893042744151,8216,1589273893042639789,,0.499652278309,-0.189249217033,0.215616317333
1589273893045703220,8217,1589273893045594954,,0.499653230521,-0.189220281427,0.215608760062
1589273893048726932,8218,1589273893048613858,,0.499652464529,-0.189194687061,0.215599425317
1589273893057743908,8219,1589273893057669278,,0.499652201665,-0.18915068866,0.21558781745
1589273893060770999,8220,1589273893060655573,,0.499652283488,-0.189129473654,0.215582645744
1589273893066859230,8221,1589273893066725897,,0.499651782733,-0.189106822504,0.215576886116
1589273893069754925,8222,1589273893069671370,,0.499651706421,-0.189088874825,0.215572633848
1589273893072757446,8223,1589273893072682802,,0.49965137772,-0.189068829612,0.215568524437
1589273893078973353,8224,1589273893078804691,,0.499651191112,-0.189045786812,0.215563061258
1589273893081784617,8225,1589273893081655688,,0.499650845633,-0.189025563519,0.215558293023
1589273893084697494,8226,1589273893084603627,,0.499650675419,-0.189011201547,0.215552916089
1589273893090759453,8227,1589273893090625068,,0.499650106573,-0.18899473057,0.215545991089
1589273893093730844,8228,1589273893093632302,,0.499651066229,-0.188972897811,0.215538205288
1589273893096735345,8229,1589273893096607836,,0.499650996733,-0.188955888411,0.215530948582
1589273893102784111,8230,1589273893102620382,,0.499650670328,-0.188934890771,0.215521258274
1589273893105733341,8231,1589273893105608601,,0.499650151948,-0.18891186639,0.215512936318
1589273893108790741,8232,1589273893108636476,,0.499650738513,-0.188890356159,0.215505973128
1589273893114782620,8233,1589273893114623062,,0.499650522866,-0.188868429771,0.215498796673
1589273893117829904,8234,1589273893117632093,,0.499651042156,-0.188845524692,0.215493426774
1589273893120732083,8235,1589273893120645517,,0.499651776494,-0.188819845324,0.215487915802
1589273893126801035,8236,1589273893126661874,,0.499652373528,-0.188796198118,0.215481391368
1589273893129804051,8237,1589273893129664094,,0.499653340336,-0.188771235433,0.215476368901
1589273893132859171,8238,1589273893132644080,,0.499653567424,-0.188743693526,0.215469984267
1589273893138835602,8239,1589273893138704918,,0.499654523917,-0.188718838631,0.215466407267
1589273893141792885,8240,1589273893141624212,,0.499655375502,-0.188690618756,0.215460429491
1589273893150736050,8241,1589273893150595251,,0.499656667719,-0.188634142809,0.215447488202
1589273893153808883,8242,1589273893153663297,,0.499656440438,-0.188606875062,0.215440305547
1589273893156783908,8243,1589273893156637208,,0.499656767334,-0.188580119702,0.215431713963
1589273893162810003,8244,1589273893162650301,,0.49965713223,-0.188549552762,0.215425329109
1589273893165769343,8245,1589273893165627197,,0.499657111032,-0.188521843971,0.215417552488
1589273893168754689,8246,1589273893168618823,,0.499656133218,-0.188495903055,0.21540880784
1589273893174753151,8247,1589273893174601074,,0.499654442023,-0.188470082394,0.215401128736
1589273893177976733,8248,1589273893177823744,,0.499655026385,-0.188450044073,0.215394582568
1589273893181032382,8249,1589273893180934890,,0.499654463383,-0.188428157116,0.215387854274
1589273893186781414,8250,1589273893186653647,,0.499653621851,-0.188405456863,0.215380856675
1589273893189771184,8251,1589273893189648419,,0.499653160115,-0.188386192998,0.215375536594
1589273893192758331,8252,1589273893192640120,,0.499652359648,-0.188369582606,0.215370196118
1589273893198915716,8253,1589273893198821985,,0.499651471504,-0.18834903295,0.215366347295
1589273893201736420,8254,1589273893201642518,,0.499650786056,-0.188331237957,0.215361975131
1589273893210923342,8255,1589273893210661514,,0.49965005473,-0.18829509893,0.215355884751
1589273893213702320,8256,1589273893213609966,,0.49964951291,-0.188278211681,0.215351452324
1589273893219764455,8257,1589273893219629280,,0.499648928068,-0.188261222816,0.215346906412
1589273893222787824,8258,1589273893222645600,,0.49964919009,-0.188243923362,0.215342330883
1589273893225746297,8259,1589273893225617309,,0.499648769029,-0.188226019812,0.215336443332
1589273893234763100,8260,1589273893234622091,,0.499648552562,-0.188187688948,0.215323579503
1589273893237784477,8261,1589273893237599960,,0.499648067129,-0.188167464545,0.215316062099
1589273893243782288,8262,1589273893243642430,,0.499648410904,-0.188145059084,0.215311433599
1589273893249727962,8263,1589273893249635254,,0.499649235973,-0.188119431461,0.215305705152
1589273893252697334,8264,1589273893252586654,,0.499650311524,-0.188098416526,0.215299849737
1589273893255798242,8265,1589273893255694588,,0.499651672521,-0.188075137727,0.215294092025
1589273893258793724,8266,1589273893258704534,,0.499652887429,-0.188049705937,0.215289161292
1589273893261788029,8267,1589273893261638687,,0.499653556199,-0.188024851519,0.215282451954
1589273893267748401,8268,1589273893267650643,,0.499654932464,-0.18800141274,0.215276707743
1589273893270713514,8269,1589273893270600833,,0.499656094734,-0.187973860732,0.215270370213
1589273893273849710,8270,1589273893273669451,,0.499657113067,-0.187951887932,0.215265463428
1589273893279845958,8271,1589273893279768315,,0.499658848578,-0.187925551004,0.215260287614
1589273893282765026,8272,1589273893282675449,,0.499658736068,-0.187899122964,0.21525338499
1589273893285828587,8273,1589273893285666505,,0.499659421774,-0.18787381737,0.215246865559
1589273893291828199,8274,1589273893291749605,,0.49965935772,-0.18784810909,0.215239608926
1589273893294735207,8275,1589273893294630117,,0.499659877907,-0.18782220772,0.215231873776
1589273893297800262,8276,1589273893297647031,,0.499660305736,-0.187800904722,0.215225126861
1589273893303718192,8277,1589273893303602616,,0.499661213351,-0.187778574218,0.215219019653
1589273893306777228,8278,1589273893306644427,,0.499661051538,-0.187759117567,0.215212066859
1589273893312755457,8279,1589273893312641438,,0.499661743304,-0.187735715755,0.215206876788
1589273893315712635,8280,1589273893315618373,,0.499661096965,-0.187715752675,0.215202158429
1589273893318725680,8281,1589273893318626997,,0.499660674372,-0.187695684724,0.215197175442
1589273893321733026,8282,1589273893321620525,,0.499660098612,-0.187675041142,0.215192354224
1589273893327687808,8283,1589273893327604988,,0.499659513801,-0.187656984405,0.215187450474
1589273893330778724,8284,1589273893330666866,,0.499659134594,-0.187638011468,0.21518268493
1589273893333750430,8285,1589273893333667836,,0.499658951617,-0.18761938929,0.215177306387
1589273893339749166,8286,1589273893339637642,,0.499659007749,-0.187601286335,0.215171731248
1589273893342827035,8287,1589273893342677330,,0.49965950357,-0.187579588244,0.215166227656
1589273893345701453,8288,1589273893345607554,,0.499658527958,-0.187556888409,0.215160433119
1589273893354811602,8289,1589273893354693382,,0.499658112934,-0.187533736116,0.215155229924
1589273893357852799,8290,1589273893357697413,,0.499657287041,-0.187512291555,0.21514915361
1589273893360795271,8291,1589273893360674750,,0.499657779734,-0.187488456741,0.215143913242
1589273893364065536,8292,1589273893363978408,,0.499658075314,-0.18746662001,0.215137969411
1589273893366718778,8293,1589273893366627964,,0.49965863745,-0.187443922145,0.21513253856
1589273893372850288,8294,1589273893372669802,,0.499659114349,-0.18741971218,0.215126492692
1589273893375846519,8295,1589273893375722402,,0.499659711899,-0.187392770433,0.215121049292
1589273893382138699,8296,1589273893382050963,,0.499660154228,-0.187367538186,0.215114012272
1589273893387753660,8297,1589273893387639020,,0.499661866044,-0.187312417081,0.215100407906
1589273893390753358,8298,1589273893390672974,,0.499662831095,-0.187283300991,0.215094379139
1589273893396807400,8299,1589273893396639568,,0.499663512067,-0.187257948035,0.215088794784
1589273893399769259,8300,1589273893399644076,,0.499664284348,-0.187235466375,0.215083626308
1589273893405849403,8301,1589273893405745863,,0.499664041214,-0.187214551133,0.215079080057
1589273893408815144,8302,1589273893408730315,,0.499664227586,-0.187193019631,0.215074515037
1589273893412032864,8303,1589273893411952194,,0.499664118202,-0.187171631685,0.215067921144
1589273893414821126,8304,1589273893414703542,,0.499663699857,-0.187151427014,0.215061100184
1589273893420966951,8305,1589273893420727996,,0.499664020259,-0.187131155745,0.215054750999
1589273893423832021,8306,1589273893423738323,,0.4996645547,-0.187107815837,0.215047863311
1589273893429829654,8307,1589273893429733226,,0.49966411877,-0.187090637477,0.215042461237
1589273893432880523,8308,1589273893432730228,,0.499664024429,-0.187072816197,0.215036444291
1589273893435879632,8309,1589273893435726654,,0.499663479775,-0.187057544935,0.215030658513
1589273893439005857,8310,1589273893438891093,,0.499663427884,-0.187042367412,0.215026384841
1589273893447761864,8311,1589273893447624731,,0.499664003544,-0.187013531502,0.215018144541
1589273893453794846,8312,1589273893453691103,,0.499664452328,-0.186998795778,0.215012906826
1589273893456782899,8313,1589273893456661964,,0.499665190731,-0.186984823385,0.215007978846
1589273893459785586,8314,1589273893459701417,,0.499665975195,-0.186968477773,0.21500346603
1589273893462799677,8315,1589273893462679111,,0.499666142094,-0.186954976423,0.214998441664
1589273893468821287,8316,1589273893468679454,,0.499666080194,-0.18693923871,0.214992857894
1589273893471855187,8317,1589273893471757298,,0.499666501125,-0.186923556072,0.214988879803
1589273893481120508,8318,1589273893481018540,,0.499666214305,-0.186897085191,0.214979808335
1589273893483884059,8319,1589273893483714429,,0.499666132376,-0.186879995213,0.214972849457
1589273893486768485,8320,1589273893486695080,,0.499666764316,-0.186865243911,0.21496865423
1589273893492853679,8321,1589273893492734306,,0.499667173868,-0.186847095192,0.214964401385
1589273893495811354,8322,1589273893495671312,,0.4996682889,-0.1868275172,0.214958172302
1589273893501869412,8323,1589273893501702033,,0.499669149603,-0.186809635191,0.21495428331
1589273893507816604,8324,1589273893507705733,,0.499669886689,-0.186780353781,0.21494337779
1589273893513888218,8325,1589273893513663701,,0.499670852709,-0.186762332043,0.214937804532
1589273893516780163,8326,1589273893516685299,,0.499671556668,-0.186745313634,0.21493212834
1589273893519874485,8327,1589273893519697852,,0.499672169295,-0.186729138044,0.214926661638
