%time,field.header.seq,field.header.stamp,field.header.frame_id,field.vector.x,field.vector.y,field.vector.z
1588857150402298137,7520,1588857150402199031,,-0.0198232557642,-0.643013002378,0.762560610239
1588857150408116993,7521,1588857150408034476,,-0.0195499999903,-0.679338605184,0.777482649778
1588857150414132324,7522,1588857150414042993,,-0.0194440429635,-0.716443653795,0.79428029025
1588857150420258942,7523,1588857150420168259,,-0.0192105805045,-0.75428020445,0.80962452653
1588857150426446052,7524,1588857150426320332,,-0.0191203061458,-0.787644726703,0.824564750471
1588857150432445961,7525,1588857150432305725,,-0.0190209364167,-0.792842818267,0.825354552444
1588857150438527486,7526,1588857150438341803,,-0.0187873449152,-0.832061183171,0.84172122046
1588857150444435407,7527,1588857150444293639,,-0.0185835698493,-0.871820630953,0.858410166192
1588857150450411002,7528,1588857150450265459,,-0.0185329999503,-0.912164019881,0.876456308376
1588857150456713804,7529,1588857150456585272,,-0.0183775177375,-0.953037235981,0.895374498074
1588857150462300319,7530,1588857150462094339,,-0.0181696816654,-0.994723505673,0.913252679711
1588857150468294020,7531,1588857150468201050,,-0.0180216342909,-1.03712597794,0.930873133331
1588857150474276241,7532,1588857150474183370,,-0.0178567373761,-1.07951185419,0.950606004009
1588857150480300326,7533,1588857150480201811,,-0.0177053010239,-1.12289996117,0.970759592596
1588857150486199832,7534,1588857150486121438,,-0.0175288846404,-1.1230185722,0.967793891036
1588857150492356956,7535,1588857150492231242,,-0.0173405873256,-1.16692543874,0.986567526247
1588857150498357633,7536,1588857150498206796,,-0.017287019625,-1.21127175902,1.00688319949
1588857150504312074,7537,1588857150504183627,,-0.0171733805052,-1.25591627474,1.02779430952
1588857150510481624,7538,1588857150510359734,,-0.0170685440587,-1.30133241391,1.04717791286
1588857150516232151,7539,1588857150516144910,,-0.0168507889564,-1.34684866581,1.06863699901
1588857150522371481,7540,1588857150522266655,,-0.0166989445336,-1.39314644347,1.0886093793
1588857150528329154,7541,1588857150528202675,,-0.0166155347554,-1.43968481902,1.11040571169
1588857150534284521,7542,1588857150534206361,,-0.0164533008529,-1.48680557889,1.13074046985
1588857150540445156,7543,1588857150540321165,,-0.0162973176783,-1.53397978702,1.15284102436
1588857150546421481,7544,1588857150546323418,,-0.0161311627516,-1.57248545626,1.16904637049
1588857150552332859,7545,1588857150552189589,,-0.0160012501745,-1.58199456052,1.17224101583
1588857150558227971,7546,1588857150558142715,,-0.0157988768614,-1.6300494443,1.19344364687
1588857150564442993,7547,1588857150564325463,,-0.0156964279871,-1.67837670909,1.21627447748
1588857150570345245,7548,1588857150570199912,,-0.0154434787646,-1.7270911378,1.23780160733
1588857150576331317,7549,1588857150576221634,,-0.0153261565413,-1.77592947784,1.26090882363
1588857150582319097,7550,1588857150582210129,,-0.0150339383047,-1.82519521543,1.28267795516
1588857150588435538,7551,1588857150588306609,,-0.0149962138858,-1.87477134178,1.30601601977
1588857150594433209,7552,1588857150594319670,,-0.0147579760226,-1.92435673343,1.32793609322
1588857150600585690,7553,1588857150600443259,,-0.0146245320723,-1.97433128564,1.35182618068
1588857150606462934,7554,1588857150606359233,,-0.0144032563697,-2.0129064865,1.36834947957
1588857150612470810,7555,1588857150612356042,,-0.0143348852216,-2.0247681613,1.37271217068
1588857150618525906,7556,1588857150618412590,,-0.0141930999706,-2.07508319152,1.39657586186
1588857150624430828,7557,1588857150624335047,,-0.0139712950262,-2.12563338648,1.41906943028
1588857150630465492,7558,1588857150630366018,,-0.0139615829205,-2.17644377782,1.44312700892
1588857150636394727,7559,1588857150636261383,,-0.0137444420654,-2.22752069811,1.46636838429
1588857150642341214,7560,1588857150642207060,,-0.01366014561,-2.27860113369,1.49062874805
1588857150648365417,7561,1588857150648278420,,-0.0135907899462,-2.32982557996,1.51518201351
1588857150654588818,7562,1588857150654500452,,-0.0134374179751,-2.38132251777,1.53823909791
1588857150663471833,7563,1588857150663332170,,-0.0131697087567,-2.43289854128,1.56070557649
1588857150669785501,7564,1588857150669659268,,-0.0130590508451,-2.48455550962,1.5852887033
1588857150675297325,7565,1588857150675220950,,-0.0130109105803,-2.53613595861,1.60993486457
1588857150681314173,7566,1588857150681218390,,-0.0128685599513,-2.58805828142,1.63315357091
1588857150687600132,7567,1588857150687469681,,-0.0128048321691,-2.63979265953,1.65773226924
1588857150693728784,7568,1588857150693625987,,-0.0125600009615,-2.69168359755,1.68108166263
1588857150699638249,7569,1588857150699519116,,-0.0124752884102,-2.69178768858,1.67980186464
1588857150705653431,7570,1588857150705472715,,-0.0124068304208,-2.74358937892,1.70410373107
1588857150711419147,7571,1588857150711213858,,-0.0122071436694,-2.79530639114,1.72736962586
1588857150717268137,7572,1588857150717154760,,-0.0121017730333,-2.84695372705,1.75061991579
1588857150723635366,7573,1588857150723472567,,-0.0119743337035,-2.89857237833,1.77504695518
1588857150729592585,7574,1588857150729437008,,-0.0119548825853,-2.95029221868,1.79948405037
1588857150735152398,7575,1588857150735058413,,-0.011918432909,-3.00177070282,1.82395097322
1588857150741118100,7576,1588857150741056615,,-0.0117781903622,-3.05256178783,1.84739857582
1588857150747119025,7577,1588857150747050606,,-0.0117336711818,-3.10350686854,1.87193345498
1588857150756547997,7578,1588857150756451821,,-0.0114522064025,-3.15299798091,1.89337864526
1588857150762212408,7579,1588857150762127945,,-0.0111857929149,-3.20313122329,1.91620680614
1588857150768292811,7580,1588857150768134352,,-0.0110767973453,-3.25374269899,1.94048160936
1588857150774370941,7581,1588857150774259733,,-0.0109637279359,-3.30403490532,1.96475007497
1588857150783453695,7582,1588857150783340118,,-0.0107141678094,-3.35348427116,1.98723358781
1588857150789423674,7583,1588857150789313259,,-0.0105752612938,-3.40342175705,2.01104216824
1588857150795445699,7584,1588857150795323278,,-0.0104122486369,-3.45314636666,2.03501589861
1588857150801401160,7585,1588857150801310013,,-0.0102551178714,-3.5019046669,2.05730567057
1588857150807315556,7586,1588857150807221911,,-0.0101394764193,-3.55133836749,2.08105897764
1588857150813362241,7587,1588857150813284729,,-0.00997366793328,-3.58072200966,2.09357562217
1588857150819448129,7588,1588857150819264168,,-0.00981293085195,-3.59876649454,2.10161152663
1588857150825378150,7589,1588857150825293765,,-0.00960186531311,-3.64670548899,2.12339280603
1588857150831349034,7590,1588857150831255456,,-0.00942829589833,-3.69535809844,2.14676217484
1588857150837394897,7591,1588857150837269654,,-0.0091251373464,-3.74274222706,2.16874343994
1588857150843420557,7592,1588857150843310630,,-0.00892126841393,-3.7906843019,2.19199718216
1588857150849285954,7593,1588857150849203767,,-0.00859685936498,-3.83705307524,2.21387500557
1588857150855524272,7594,1588857150855416479,,-0.00844970513648,-3.88461240579,2.23689018934
1588857150861232957,7595,1588857150861088582,,-0.00817933847391,-3.93039169145,2.25867221891
1588857150867260651,7596,1588857150867181511,,-0.00802598481863,-3.97721856008,2.28148564907
1588857150873326855,7597,1588857150873235543,,-0.00762592415489,-4.02216395973,2.30333714299
1588857150879290902,7598,1588857150879199494,,-0.00745791273939,-4.02066975204,2.30225259698
1588857150885209503,7599,1588857150885132231,,-0.00714294202152,-4.06486756331,2.32374455965
1588857150891261875,7600,1588857150891116465,,-0.00701857644944,-4.11042470149,2.34616214371
1588857150897252534,7601,1588857150897171782,,-0.00676689189435,-4.15360550664,2.36733903762
1588857150903226169,7602,1588857150903142364,,-0.0067513854313,-4.19837780936,2.38941997191
1588857150909259050,7603,1588857150909171556,,-0.0067172067424,-4.24077950573,2.41023957404
1588857150915276762,7604,1588857150915186706,,-0.00670444947504,-4.28460616014,2.43202731956
1588857150921228244,7605,1588857150921098508,,-0.00651935704828,-4.32610084017,2.45265958611
1588857150927165185,7606,1588857150927085484,,-0.00641135947694,-4.36917104478,2.47413711555
1588857150933636102,7607,1588857150933511695,,-0.00630207419525,-4.40961462477,2.49405438301
1588857150939295253,7608,1588857150939179740,,-0.00618790263875,-4.40729867383,2.49286851062
1588857150945202504,7609,1588857150945123210,,-0.00612084267487,-4.44698616679,2.51275723395
1588857150951206235,7610,1588857150951116257,,-0.00596547715607,-4.48830680999,2.53338466856
1588857150957576097,7611,1588857150957486562,,-0.00586362661259,-4.52722129206,2.55270838524
1588857150963424251,7612,1588857150963332054,,-0.00579983880046,-4.56773293316,2.57302085289
1588857150969290739,7613,1588857150969220722,,-0.0058291301466,-4.60538484818,2.59184188573
1588857150975263146,7614,1588857150975165789,,-0.00584604526742,-4.64491179474,2.61161809105
1588857150981391381,7615,1588857150981211567,,-0.00583690789056,-4.68160916708,2.63001580997
1588857150987262927,7616,1588857150987177773,,-0.00587093979926,-4.72033751148,2.6495219187
1588857150993467444,7617,1588857150993391212,,-0.0059266953386,-4.75582069947,2.66763440912
1588857150999275017,7618,1588857150999173629,,-0.00585095293045,-4.75300220465,2.66672684353
1588857151002318998,7619,1588857151002135547,,-0.00602077084907,-4.78822665408,2.68494730604
1588857151008192220,7620,1588857151008100176,,-0.00606502762958,-4.82548843153,2.70399341542
1588857151014406230,7621,1588857151014322290,,-0.00601941673705,-4.85891867249,2.72193855606
1588857151023260580,7622,1588857151023144154,,-0.00576106131736,-4.88871692909,2.73814832709
1588857151029426940,7623,1588857151029285971,,-0.00582102450066,-4.92392544518,2.75593473917
1588857151035395093,7624,1588857151035241532,,-0.006030145562,-4.95572534251,2.77248491951
1588857151041327180,7625,1588857151041230102,,-0.00597006857056,-4.98937734899,2.78966597847
1588857151047390689,7626,1588857151047287022,,-0.00579628839998,-5.02265860001,2.80644203816
1588857151056618209,7627,1588857151056525280,,-0.00583092404944,-5.04923761882,2.82040446176
1588857151062248979,7628,1588857151062150556,,-0.0055281238199,-5.07852766798,2.83577097361
1588857151068266224,7629,1588857151068170001,,-0.00544507666383,-5.11027961849,2.85157925148
1588857151074217132,7630,1588857151074134684,,-0.00531827953893,-5.13797333014,2.86593352336
1588857151083210718,7631,1588857151083093822,,-0.0050964772028,-5.1642756151,2.87978336514
1588857151089247399,7632,1588857151089143785,,-0.00484754986131,-5.18969919478,2.89286243712
1588857151095172524,7633,1588857151095090916,,-0.00474124256121,-5.21768537698,2.90668806454
1588857151101430527,7634,1588857151101345762,,-0.00445887039995,-5.23971177624,2.91799581455
1588857151107488079,7635,1588857151107401441,,-0.00428394189532,-5.2660050185,2.93127361716
1588857151113213112,7636,1588857151113068866,,-0.00410601732881,-5.25667185005,2.92669257724
1588857151119422197,7637,1588857151119322802,,-0.00383881012416,-5.28138712244,2.93925315605
1588857151125342372,7638,1588857151125255463,,-0.0035082871494,-5.3010030342,2.94995801205
1588857151131213904,7639,1588857151131110379,,-0.00322988288469,-5.32382996026,2.96217194871
1588857151137177644,7640,1588857151137089114,,-0.00299000008859,-5.34762639574,2.97432595201
1588857151143428973,7641,1588857151143330815,,-0.00257260877834,-5.35572395795,2.97994171296
1588857151149364395,7642,1588857151149297480,,-0.00233593017729,-5.37834577624,2.99152963642
1588857151155532109,7643,1588857151155446124,,-0.00221429348879,-5.40023905183,3.00249795406
1588857151161363112,7644,1588857151161261587,,-0.00194343920337,-5.41684003354,3.01123895168
1588857151167320232,7645,1588857151167250083,,-0.00189524741932,-5.43745117188,3.02167199362
1588857151173552665,7646,1588857151173486800,,-0.00161661322771,-5.45217147221,3.02940856258
1588857151179580171,7647,1588857151179436710,,-0.00136578624559,-5.44650875191,3.0269890936
1588857151185082391,7648,1588857151185025698,,-0.00115486437461,-5.46502809679,3.03636213553
1588857151191285372,7649,1588857151191213715,,-0.000831943910101,-5.4761464616,3.04258381677
1588857151197284307,7650,1588857151197228991,,-0.000477480274858,-5.49245537551,3.05122252684
1588857151203143924,7651,1588857151203053504,,-0.000212841980796,-5.50941577555,3.05992960004
1588857151209327511,7652,1588857151209241427,,0.000126087540553,-5.52354683888,3.06759223687
1588857151215319817,7653,1588857151215252764,,0.000963266463416,-5.53037311815,3.07255745135
1588857151221225832,7654,1588857151221146348,,0.00129443188165,-5.54307628502,3.08000258688
1588857151227068438,7655,1588857151226976797,,0.00188058114206,-5.54694144785,3.08441146732
1588857151230473823,7656,1588857151230376018,,0.00210237911831,-5.54202618504,3.08276393133
1588857151236463546,7657,1588857151236386403,,0.00285330364883,-5.54644975091,3.08725720543
1588857151242507043,7658,1588857151242397816,,0.00316740930871,-5.55927402002,3.09425511185
1588857151248508573,7659,1588857151248396150,,0.00378215783976,-5.56324099096,3.09742664273
1588857151254508389,7660,1588857151254422811,,0.00405336820953,-5.57308933432,3.10308428624
1588857151263388866,7661,1588857151263266589,,0.00459761304279,-5.57152015564,3.10301985261
1588857151269247978,7662,1588857151269163215,,0.00523836144478,-5.57407375983,3.10462195651
1588857151275226814,7663,1588857151275149069,,0.00561142579075,-5.58140860325,3.10861180711
1588857151281074592,7664,1588857151280987740,,0.00648318093327,-5.57979010775,3.10887194325
1588857151284509043,7665,1588857151284426862,,0.00716995774757,-5.57207473132,3.10589796058
1588857151290401899,7666,1588857151290307738,,0.00841965283298,-5.56781579661,3.10576388883
1588857151296362483,7667,1588857151296277396,,0.00905045314146,-5.57106344309,3.10841557262
1588857151302447682,7668,1588857151302387626,,0.0106825938297,-5.56422324456,3.10813207929
1588857151308421843,7669,1588857151308326395,,0.0115345040524,-5.56551160658,3.11040896942
1588857151314296592,7670,1588857151314200881,,0.0132564709235,-5.55661940797,3.10916193589
1588857151320389703,7671,1588857151320304260,,0.0140717703004,-5.55666653913,3.11055500226
1588857151326477228,7672,1588857151326364902,,0.0158394447812,-5.53860198623,3.10405659626
1588857151332239944,7673,1588857151332139810,,0.0167741256315,-5.53859146046,3.10516857675
1588857151338533786,7674,1588857151338410044,,0.0184738913371,-5.5296016465,3.10234005661
1588857151344559475,7675,1588857151344432536,,0.0193524671547,-5.52862066646,3.10258111743
1588857151350592061,7676,1588857151350490366,,0.0210897267216,-5.51929514187,3.09916206635
1588857151356723937,7677,1588857151356583313,,0.0221383856984,-5.51685619342,3.09874694574
1588857151362319324,7678,1588857151362137985,,0.0230187186307,-5.51373706672,3.09779582778
1588857151368306137,7679,1588857151368208374,,0.0252122009253,-5.50134218712,3.09347994987
1588857151374236847,7680,1588857151374116683,,0.0278918141099,-5.4871653537,3.08904982172
1588857151383588477,7681,1588857151383472534,,0.0302354233235,-5.47165209277,3.08371071134
1588857151389606714,7682,1588857151389471018,,0.0333372977898,-5.45460259384,3.07804600527
1588857151395619977,7683,1588857151395496087,,0.034723450072,-5.44623569716,3.07528604231
1588857151401515250,7684,1588857151401396054,,0.0376946238862,-5.4270484209,3.06844237405
1588857151407629982,7685,1588857151407419781,,0.0393246649499,-5.4174402569,3.06459778416
1588857151413822221,7686,1588857151413703947,,0.0422962234828,-5.39751903987,3.05507497166
1588857151419423825,7687,1588857151419327000,,0.044096840518,-5.38848282997,3.05184283021
1588857151425507515,7688,1588857151425367913,,0.0454402118988,-5.37783915201,3.04693386839
1588857151431484698,7689,1588857151431343958,,0.0480228883603,-5.35763375672,3.03796994463
1588857151437434507,7690,1588857151437345049,,0.0493482752822,-5.3465887989,3.03315970169
1588857151443241493,7691,1588857151443099800,,0.0503900586533,-5.33448229396,3.02735323379
1588857151449204054,7692,1588857151449074788,,0.0516833815151,-5.32184447652,3.02127676941
1588857151455671620,7693,1588857151455577355,,0.0546781538321,-5.30026802023,3.01109302994
1588857151461511048,7694,1588857151461407935,,0.0562539857157,-5.28657717644,3.00452828139
1588857151467378366,7695,1588857151467264958,,0.0589910934476,-5.26546217918,2.99451510658
1588857151473504006,7696,1588857151473423805,,0.0606915587277,-5.22740115149,2.97699431248
1588857151479527129,7697,1588857151479421157,,0.0617804878935,-5.24175539388,2.98449029445
1588857151485403576,7698,1588857151485318994,,0.0648131813441,-5.21377096591,2.97329809858
1588857151491475070,7699,1588857151491386206,,0.0662102112212,-5.19676131623,2.96600433321
1588857151497420362,7700,1588857151497339634,,0.0677047905255,-5.17896484678,2.95828539118
1588857151503342089,7701,1588857151503229412,,0.0701788352882,-5.15473379168,2.94714408362
1588857151509286409,7702,1588857151509213186,,0.0717323742196,-5.13504789489,2.93847791613
1588857151515538035,7703,1588857151515454148,,0.0734173185912,-5.11380865356,2.92943533544
1588857151521413239,7704,1588857151521312690,,0.0744105051745,-5.09564326212,2.92067357965
1588857151527370827,7705,1588857151527290135,,0.077546481455,-5.06467969702,2.90756922121
1588857151533786019,7706,1588857151533698776,,0.0798275719817,-5.01956307994,2.88554197897
1588857151539649880,7707,1588857151539533296,,0.0816419489206,-5.02849702421,2.89154666548
1588857151545534939,7708,1588857151545475088,,0.0839008444473,-5.00246285331,2.87912414784
1588857151551347069,7709,1588857151551280722,,0.0854983298157,-4.97912880599,2.86870192117
1588857151557669764,7710,1588857151557600913,,0.0880980473341,-4.94943882472,2.85500036964
1588857151563427967,7711,1588857151563324972,,0.0894242941679,-4.92653133047,2.84424969231
1588857151569370087,7712,1588857151569293340,,0.0908045621287,-4.90268721372,2.83288949368
1588857151575285140,7713,1588857151575222710,,0.0923056463919,-4.87767031258,2.82132906042
1588857151581492042,7714,1588857151581432590,,0.0939328849015,-4.85165600916,2.80967918241
1588857151587536032,7715,1588857151587463988,,0.0971923668277,-4.81463467294,2.79407726312
1588857151596464580,7716,1588857151596370761,,0.0999800431989,-4.77957942467,2.77868811921
1588857151602201329,7717,1588857151602112736,,0.103457641253,-4.73814318971,2.76224386525
1588857151608264834,7718,1588857151608198691,,0.106182466761,-4.7011714578,2.74653610512
1588857151614274427,7719,1588857151614169526,,0.108025295006,-4.67025449324,2.73353514956
1588857151620528251,7720,1588857151620461760,,0.109632022635,-4.64096209229,2.72061805351
1588857151626623174,7721,1588857151626553957,,0.112603826104,-4.62291031005,2.71408192686
1588857151632518171,7722,1588857151632380911,,0.114034949708,-4.5939873579,2.70063220118
1588857151638576821,7723,1588857151638436391,,0.117184586016,-4.55519804757,2.68389083288
1588857151644630011,7724,1588857151644534149,,0.118668451273,-4.52505136315,2.66993042788
1588857151650608353,7725,1588857151650535298,,0.121859933949,-4.48509898608,2.65248637737
1588857151656823425,7726,1588857151656634630,,0.123570296885,-4.45364183079,2.63797635136
1588857151662255547,7727,1588857151662200539,,0.125363703276,-4.42166076268,2.6232206437
1588857151668289774,7728,1588857151668213778,,0.129095303554,-4.37914937392,2.60529059842
1588857151674588267,7729,1588857151674508334,,0.130714448587,-4.34625751024,2.59006006509
1588857151683626175,7730,1588857151683550173,,0.136126467588,-4.2912011919,2.56876757182
1588857151689560069,7731,1588857151689478442,,0.137990549363,-4.25574325992,2.55345623241
1588857151695471371,7732,1588857151695350509,,0.139777101012,-4.22040178332,2.53795129601
1588857151701574074,7733,1588857151701473723,,0.143717417807,-4.17310165807,2.5192938375
1588857151707612139,7734,1588857151707461504,,0.145688265433,-4.1367195106,2.50362034837
1588857151713615849,7735,1588857151713412181,,0.149440320851,-4.11529196111,2.49783021064
1588857151719452596,7736,1588857151719336117,,0.150744851643,-4.08221509398,2.48250594686
1588857151725434249,7737,1588857151725344689,,0.152601143328,-4.04549515404,2.46656243319
1588857151731361927,7738,1588857151731277706,,0.155803247943,-4.0015446736,2.44818373102
1588857151737428070,7739,1588857151737346043,,0.157500058733,-3.96589268175,2.43217366037
1588857151743490367,7740,1588857151743409270,,0.160675013391,-3.92146506315,2.41324078939
1588857151749491862,7741,1588857151749398717,,0.162231733348,-3.88699935217,2.39740851587
1588857151755703076,7742,1588857151755573860,,0.165241065121,-3.84510346947,2.37874529042
1588857151761428856,7743,1588857151761272149,,0.16678807389,-3.80976480256,2.36242113322
1588857151767335531,7744,1588857151767216718,,0.16833192048,-3.77409605982,2.34597301871
1588857151773549744,7745,1588857151773464336,,0.171796014617,-3.72919741796,2.32750689242
1588857151779578419,7746,1588857151779503527,,0.175405760244,-3.71165680047,2.32295460537
1588857151785592496,7747,1588857151785487363,,0.177160384954,-3.67415112712,2.30644372794
1588857151791638267,7748,1588857151791543651,,0.180917999352,-3.62602303289,2.2872436961
1588857151797607576,7749,1588857151797497134,,0.182913938031,-3.58760011716,2.27062855825
1588857151803679944,7750,1588857151803575403,,0.184954521988,-3.54820998399,2.25372687334
1588857151809457271,7751,1588857151809346737,,0.188776402397,-3.49916272789,2.23438423215
1588857151815442462,7752,1588857151815326630,,0.190716160794,-3.4602075586,2.21757266316
1588857151821471095,7753,1588857151821403253,,0.192475306624,-3.42168031493,2.20050866835
1588857151827641198,7754,1588857151827544925,,0.196288169602,-3.37318368394,2.1811831527
1588857151833500474,7755,1588857151833434985,,0.19788515241,-3.3352412803,2.16421246131
1588857151839730017,7756,1588857151839608369,,0.201234036283,-3.31902395755,2.1602340522
1588857151845672110,7757,1588857151845578820,,0.202386158487,-3.28460976816,2.1438977472
1588857151851669629,7758,1588857151851589293,,0.205837172649,-3.23881625763,2.12555435355
1588857151857895679,7759,1588857151857810784,,0.20683733578,-3.20528757832,2.10944203214
1588857151863565208,7760,1588857151863490235,,0.210190166311,-3.16093058103,2.09156833849
1588857151869429391,7761,1588857151869337657,,0.211518245562,-3.12558138124,2.07522778476
1588857151875600780,7762,1588857151875483227,,0.214140819051,-3.08430738347,2.0574307719
1588857151881447220,7763,1588857151881362327,,0.215286752741,-3.04919950298,2.04116530875
1588857151887270572,7764,1588857151887178182,,0.216710542582,-3.01321440949,2.02512839487
1588857151893472011,7765,1588857151893282521,,0.219580053496,-2.99918778768,2.022247894
1588857151899163704,7766,1588857151899086260,,0.222624523816,-2.95487379432,2.00473577177
1588857151902346386,7767,1588857151902282292,,0.224146443143,-2.91852676431,1.98890210609
1588857151908391460,7768,1588857151908276100,,0.227118615707,-2.87441648627,1.97168222742
1588857151914407092,7769,1588857151914320461,,0.228632690957,-2.8384097886,1.95609284933
1588857151923288140,7770,1588857151923203667,,0.232923387913,-2.78814437007,1.93812695257
1588857151929205561,7771,1588857151929147328,,0.234252474174,-2.75325643971,1.9228442269
1588857151935459669,7772,1588857151935313291,,0.236632049066,-2.71255319803,1.90649227112
1588857151941429311,7773,1588857151941318289,,0.237882745583,-2.67904270333,1.89173458831
1588857151947350236,7774,1588857151947269260,,0.240215571758,-2.64028172411,1.87604433891
1588857151953729342,7775,1588857151953638130,,0.241364854211,-2.60806329318,1.86186498437
1588857151959517184,7776,1588857151959377613,,0.243531906648,-2.59703304955,1.85970646408
1588857151965283926,7777,1588857151965211794,,0.244636906653,-2.56543399896,1.84574368161
1588857151971295755,7778,1588857151971191073,,0.246826697579,-2.52851943467,1.83093198733
1588857151977238691,7779,1588857151977160764,,0.247849102504,-2.49783602015,1.81713437685
1588857151980220760,7780,1588857151980131923,,0.250011737974,-2.46175303081,1.80283573127
1588857151986874392,7781,1588857151986744965,,0.251058099715,-2.45579916214,1.80174460857
1588857151992746291,7782,1588857151992599615,,0.25315358463,-2.42037430826,1.78770882649
1588857151998659488,7783,1588857151998555980,,0.254187627372,-2.39068198313,1.77473508764
1588857152004550430,7784,1588857152004464616,,0.25605237205,-2.35686124012,1.76138729774
1588857152010535507,7785,1588857152010462903,,0.256965546375,-2.32860412921,1.74929356839
1588857152016698762,7786,1588857152016595985,,0.258600276749,-2.29672433108,1.73710231497
1588857152022591587,7787,1588857152022499703,,0.259338493116,-2.27056149219,1.72587614341
1588857152028624618,7788,1588857152028554577,,0.25999751564,-2.2453618348,1.71513620949
1588857152034639217,7789,1588857152034527703,,0.260780207266,-2.22082225504,1.70463615556
1588857152043181785,7790,1588857152043114629,,0.262709845931,-2.1904128278,1.69422885917
1588857152049217215,7791,1588857152049140151,,0.263857375236,-2.16499034893,1.68476839999
1588857152055847116,7792,1588857152055713029,,0.264398335131,-2.14365328164,1.67556079011
1588857152061638327,7793,1588857152061572495,,0.265309820799,-2.120124687,1.66700074241
1588857152067392651,7794,1588857152067306453,,0.265768059815,-2.10082416682,1.65883187141
1588857152073713476,7795,1588857152073634439,,0.266809646254,-2.07928396571,1.65098220275
1588857152079205506,7796,1588857152079131193,,0.267166067607,-2.0767851524,1.65091535271
1588857152085505236,7797,1588857152085413124,,0.268040387683,-2.05606539207,1.643768122
1588857152091544938,7798,1588857152091462030,,0.268420702064,-2.03921794276,1.63728631949
1588857152097629463,7799,1588857152097537968,,0.268916766022,-2.02130694916,1.63136090598
1588857152103655947,7800,1588857152103573172,,0.269183244823,-2.00683086257,1.62550447283
1588857152109404506,7801,1588857152109292343,,0.269652114915,-1.99109436517,1.62059812773
1588857152115516845,7802,1588857152115452077,,0.269850452334,-1.97905699984,1.61582860536
1588857152121677387,7803,1588857152121582975,,0.270004246748,-1.9681049672,1.61171585426
1588857152127420046,7804,1588857152127332834,,0.270300989305,-1.95606964349,1.60875603042
1588857152133674674,7805,1588857152133603130,,0.270378739038,-1.9477687824,1.60595192607
1588857152139637917,7806,1588857152139534128,,0.270330791685,-1.94522812064,1.60669334494
1588857152145624886,7807,1588857152145557690,,0.270316532302,-1.93817264316,1.60440236396
1588857152151635728,7808,1588857152151504634,,0.27018493047,-1.93189429691,1.60294044434
1588857152157987023,7809,1588857152157888212,,0.270187743809,-1.92768941971,1.60186491098
1588857152163492696,7810,1588857152163380522,,0.270100456265,-1.92479267852,1.60100635437
1588857152169554520,7811,1588857152169374808,,0.269921898932,-1.92310729739,1.60124884139
1588857152175859473,7812,1588857152175772897,,0.269700275231,-1.92224653157,1.60223923424
1588857152181591539,7813,1588857152181488298,,0.269560069198,-1.92126572955,1.60310181804
1588857152187609710,7814,1588857152187485167,,0.269443320355,-1.9190452195,1.60453318098
1588857152196597884,7815,1588857152196468313,,0.269149504961,-1.91524554585,1.60751818391
1588857152202680010,7816,1588857152202560003,,0.268923999754,-1.91047252493,1.61077626592
1588857152208737753,7817,1588857152208662037,,0.268743896628,-1.9044107887,1.61450426679
1588857152214392126,7818,1588857152214308127,,0.26864991519,-1.89737651627,1.61839376515
1588857152220432632,7819,1588857152220338195,,0.268590079976,-1.88892269449,1.62290270406
1588857152226556939,7820,1588857152226451095,,0.268429821603,-1.88876134398,1.6237908611
1588857152232450663,7821,1588857152232356501,,0.268375974186,-1.87921136167,1.62908003767
1588857152238652322,7822,1588857152238501748,,0.268176870172,-1.86857116587,1.63519687837
1588857152244722364,7823,1588857152244598970,,0.268131130638,-1.85669957162,1.64148984916
1588857152250712028,7824,1588857152250538131,,0.268072420259,-1.84383487733,1.64881283017
1588857152256834771,7825,1588857152256713018,,0.267954093429,-1.82981597644,1.65626715912
1588857152262831190,7826,1588857152262693244,,0.267880883322,-1.81471858307,1.66456589934
1588857152268774604,7827,1588857152268656841,,0.267868345722,-1.79850057478,1.67313106615
1588857152274660820,7828,1588857152274578581,,0.267694518865,-1.78156035347,1.6822931399
1588857152280976165,7829,1588857152280874608,,0.267666547668,-1.76316046184,1.69200221462
1588857152286896146,7830,1588857152286759697,,0.267536934425,-1.74433340719,1.70256570613
1588857152292700360,7831,1588857152292610490,,0.26746805474,-1.74477040002,1.70291394845
1588857152298706845,7832,1588857152298590052,,0.267477128941,-1.72472736963,1.71366212536
1588857152304942902,7833,1588857152304783136,,0.267328353419,-1.70429591038,1.72499443739
1588857152310753200,7834,1588857152310598043,,0.267378747552,-1.68316375795,1.73724734189
1588857152316780917,7835,1588857152316642954,,0.267298403677,-1.66040272866,1.74940142794
1588857152322957008,7836,1588857152322805892,,0.267416407738,-1.63684141462,1.76229626158
1588857152328701029,7837,1588857152328572087,,0.26775909226,-1.61377508432,1.77669954023
1588857152334797957,7838,1588857152334700882,,0.268041517912,-1.58854859424,1.7908211867
1588857152343869555,7839,1588857152343733365,,0.269331010154,-1.56495261825,1.80799506332
1588857152350106257,7840,1588857152349948314,,0.269724155901,-1.53776161109,1.82321707661
1588857152356138923,7841,1588857152356040023,,0.270196146965,-1.50977039736,1.83899291178
1588857152361613403,7842,1588857152361513590,,0.271249097672,-1.48173491615,1.85634622856
1588857152367647678,7843,1588857152367548341,,0.271692074985,-1.45187204281,1.87282134768
1588857152376410275,7844,1588857152376340170,,0.273000643706,-1.42220907554,1.8915978572
1588857152382550305,7845,1588857152382418111,,0.273866936232,-1.39081819931,1.90947995697
1588857152388438911,7846,1588857152388370034,,0.274323434338,-1.35792278881,1.9269150662
1588857152394506084,7847,1588857152394421328,,0.274794198496,-1.3242092064,1.94467416829
1588857152403471795,7848,1588857152403368449,,0.276157521316,-1.29019399919,1.96435328812
1588857152409396900,7849,1588857152409315313,,0.276585148268,-1.25476116987,1.98279259032
1588857152415651721,7850,1588857152415550534,,0.277326521012,-1.21863823311,2.00202391379
1588857152421561062,7851,1588857152421467349,,0.277712877305,-1.181836422,2.02109811547
1588857152427678449,7852,1588857152427582116,,0.278435389284,-1.1440555834,2.04098544925
1588857152436510245,7853,1588857152436400488,,0.279576855333,-1.10490097392,2.06146252679
1588857152439513553,7854,1588857152439413785,,0.279927975596,-1.10463195825,2.06188685244
1588857152445523746,7855,1588857152445378102,,0.280787732776,-1.06454208025,2.08223986082
1588857152451537101,7856,1588857152451392807,,0.281278710157,-1.02393221242,2.10245909723
1588857152457622283,7857,1588857152457534207,,0.282586803901,-0.981356311183,2.12359338357
1588857152463441238,7858,1588857152463350400,,0.283185925847,-0.939441142906,2.14435043365
1588857152469468285,7859,1588857152469365413,,0.283776229396,-0.896792172858,2.16556027226
1588857152475823683,7860,1588857152475698095,,0.28437331625,-0.853516189695,2.18701937467
1588857152481514252,7861,1588857152481400911,,0.285557559108,-0.80826186137,2.2094382822
1588857152487488130,7862,1588857152487328078,,0.286099386265,-0.763690172291,2.2316240301
1588857152496515149,7863,1588857152496407928,,0.287633624709,-0.715671791625,2.25582442764
1588857152502551451,7864,1588857152502480774,,0.288384514544,-0.668558121918,2.279180124
1588857152508454600,7865,1588857152508380196,,0.288782853048,-0.622507264247,2.30219807565
1588857152514478107,7866,1588857152514346906,,0.28944481415,-0.574237618617,2.32569839174
1588857152520596064,7867,1588857152520501356,,0.289740984704,-0.527386791309,2.34886487577
1588857152527084324,7868,1588857152526800050,,0.290271516417,-0.525201195118,2.34993432282
1588857152532733968,7869,1588857152532582483,,0.290482181466,-0.478385445919,2.37327337846
1588857152538451822,7870,1588857152538374366,,0.290816067895,-0.429813554061,2.39768273306
1588857152544451861,7871,1588857152544367821,,0.291055488237,-0.382074369492,2.42196368288
1588857152550361796,7872,1588857152550291242,,0.291229274108,-0.333126688828,2.44734965606
1588857152556760326,7873,1588857152556532229,,0.291341421343,-0.284706236177,2.47210266829
1588857152562519941,7874,1588857152562414557,,0.291428054529,-0.235276995242,2.4980531977
1588857152568652411,7875,1588857152568539286,,0.291482634666,-0.18662100077,2.52326429004
1588857152574529307,7876,1588857152574466909,,0.291440664958,-0.136710971531,2.54963609515
1588857152580651344,7877,1588857152580554904,,0.291403124733,-0.0873582561076,2.57495328031
1588857152586500877,7878,1588857152586381535,,0.291320477197,-0.0861796702676,2.57682349414
1588857152592386986,7879,1588857152592302311,,0.291265016415,-0.0366183950696,2.60215973189
1588857152598645651,7880,1588857152598416205,,0.291170238302,0.0138304586891,2.62860344616
1588857152604671879,7881,1588857152604560286,,0.29100009516,0.0639692152428,2.65420155119
1588857152610551677,7882,1588857152610439440,,0.29080200894,0.115253201605,2.6817564965
1588857152616464527,7883,1588857152616365719,,0.290683364014,0.165900944374,2.70755060443
1588857152622441781,7884,1588857152622353947,,0.290494961518,0.216837995472,2.73354709226
1588857152628542392,7885,1588857152628438746,,0.290368056081,0.268047292386,2.75939832624
1588857152634610462,7886,1588857152634501952,,0.290071128927,0.319932984424,2.78584362224
1588857152640454074,7887,1588857152640379971,,0.289838275688,0.371580374876,2.81166724749
1588857152646497795,7888,1588857152646318291,,0.289115760901,0.37304869115,2.81194461067
1588857152652499954,7889,1588857152652395703,,0.288675421977,0.424800071941,2.83741951032
1588857152659043735,7890,1588857152658928714,,0.287887991369,0.477493172461,2.86297849865
1588857152664524764,7891,1588857152664406702,,0.287664194936,0.5295678051,2.88887729634
1588857152670911917,7892,1588857152670704999,,0.287164491384,0.582815377175,2.91442539573
1588857152676645917,7893,1588857152676513720,,0.286953782986,0.635231974288,2.94032005575
1588857152682384712,7894,1588857152682250870,,0.286668483594,0.688803545019,2.96618737444
1588857152688354365,7895,1588857152688293357,,0.286473246473,0.741677407924,2.99213597862
1588857152694461592,7896,1588857152694388517,,0.286253481665,0.795681585496,3.01844036514
1588857152700553050,7897,1588857152700488199,,0.286185602631,0.848916380228,3.04438616116
1588857152706530742,7898,1588857152706407283,,0.286062903307,0.850215375527,3.04426546366
1588857152712299103,7899,1588857152712209300,,0.28595836698,0.904984736999,3.07014978054
1588857152718351883,7900,1588857152718284321,,0.285867336538,0.959862419475,3.09569964827
1588857152724348954,7901,1588857152724233382,,0.285764035493,1.01324642585,3.12146025408
1588857152727558721,7902,1588857152727460194,,0.285632563212,1.06804306496,3.14691008246
1588857152736641435,7903,1588857152736554737,,0.285593822043,1.12401712232,3.17236870975
1588857152742697568,7904,1588857152742612415,,0.285716990596,1.17699233007,3.19833062455
1588857152748723536,7905,1588857152748625277,,0.285780555699,1.23009820967,3.22397669307
1588857152754644581,7906,1588857152754525373,,0.28592087798,1.28385259727,3.24956966089
1588857152761248631,7907,1588857152761132910,,0.286043775973,1.33635678821,3.27522559363
1588857152766727253,7908,1588857152766483995,,0.286065633929,1.33713025687,3.27503845871
1588857152772448771,7909,1588857152772357014,,0.286122900797,1.38958820718,3.30034107482
1588857152778457860,7910,1588857152778324533,,0.286218741084,1.44128093424,3.32602541311
1588857152784392637,7911,1588857152784316799,,0.286226691914,1.49304902896,3.35127191849
1588857152790693774,7912,1588857152790516773,,0.286290165293,1.54428443918,3.37678498249
1588857152796296983,7913,1588857152796238481,,0.286289584393,1.59520780705,3.40194083344
1588857152802390388,7914,1588857152802315235,,0.286282780509,1.64599730453,3.42724340293
1588857152808376654,7915,1588857152808267271,,0.286276007995,1.69638127373,3.45238868349
1588857152814502196,7916,1588857152814427556,,0.286229168256,1.74658472281,3.47741244799
1588857152823326294,7917,1588857152823238057,,0.286234658477,1.79633650386,3.50185888876
1588857152829959932,7918,1588857152829805552,,0.286233540191,1.84605525107,3.52656375877
1588857152835828442,7919,1588857152835750216,,0.286124954291,1.89493104632,3.55076336261
1588857152841583498,7920,1588857152841512395,,0.286110585239,1.94398427236,3.57496256955
1588857152847749639,7921,1588857152847676709,,0.286089577507,1.99181860552,3.59647505375
1588857152857039726,7922,1588857152856938830,,0.285962264269,2.0393714516,3.61908607025
1588857152862741487,7923,1588857152862639116,,0.285884694159,2.08722597376,3.64246944721
1588857152868693694,7924,1588857152868599997,,0.285740815582,2.13470053306,3.66550076319
1588857152874635010,7925,1588857152874566564,,0.285450635539,2.18016833968,3.68766435521
1588857152883798578,7926,1588857152883720286,,0.284771627683,2.22195098059,3.70811457603
1588857152889916654,7927,1588857152889815866,,0.284763080827,2.26755497109,3.73083089806
1588857152895936615,7928,1588857152895791673,,0.28529254282,2.31088724085,3.7535194307
1588857152901811869,7929,1588857152901714420,,0.285859195641,2.35554158889,3.77643487341
1588857152908107203,7930,1588857152907982424,,0.286637213206,2.39751997299,3.79767820431
1588857152914608013,7931,1588857152914468697,,0.287039278797,2.44151168833,3.81990154452
1588857152919855409,7932,1588857152919707820,,0.287327318224,2.43939066281,3.81928474281
1588857152925723526,7933,1588857152925617874,,0.287627227902,2.48308930091,3.84146739534
1588857152931769153,7934,1588857152931646327,,0.288379919966,2.52433165501,3.86249474464
1588857152937725289,7935,1588857152937638890,,0.288700084733,2.5673094571,3.88361131595
1588857152943818499,7936,1588857152943713977,,0.289419338279,2.60725922283,3.90331186972
1588857152949705904,7937,1588857152949570461,,0.289811286885,2.64961287263,3.92464734244
1588857152956209141,7938,1588857152956097671,,0.29088565568,2.68939579773,3.9443495496
1588857152961581554,7939,1588857152961479438,,0.29125776319,2.73110649206,3.96473925868
1588857152967693284,7940,1588857152967591959,,0.292064929021,2.77042399601,3.983243353
1588857152976954659,7941,1588857152976848430,,0.293203507399,2.80760724465,4.00068762899
1588857152982630167,7942,1588857152982550977,,0.293596308089,2.84812133283,4.01998059465
1588857152988739751,7943,1588857152988641909,,0.294352965809,2.88694035568,4.03772764629
1588857152994534103,7944,1588857152994466372,,0.294787524706,2.92669161784,4.05629926639
1588857153000882901,7945,1588857153000783308,,0.295730580322,2.96417324636,4.07322759651
1588857153007015555,7946,1588857153006753956,,0.296224031589,2.96264328684,4.07128164236
1588857153012476883,7947,1588857153012410179,,0.297175306885,2.99950147133,4.0876444644
1588857153018696644,7948,1588857153018592629,,0.297582682593,3.03791925055,4.10589382408
1588857153024886014,7949,1588857153024800929,,0.298088681778,3.07560736244,4.12315609362
1588857153030833384,7950,1588857153030739250,,0.29896448518,3.11127422027,4.13869882567
1588857153036740209,7951,1588857153036639635,,0.299793886182,3.1463125863,4.15367159514
1588857153042684642,7952,1588857153042611611,,0.300087198763,3.18205775293,4.17009665207
1588857153048588777,7953,1588857153048501171,,0.300426093292,3.2173462917,4.1865087174
1588857153054520442,7954,1588857153054442410,,0.301096023913,3.2503374873,4.20038867026
1588857153063585276,7955,1588857153063501524,,0.301796711883,3.28075894861,4.21161745724
1588857153069578652,7956,1588857153069477976,,0.30201577726,3.31396749857,4.22716710156
1588857153075587363,7957,1588857153075488961,,0.302303430255,3.34429482618,4.24000011838
1588857153081643322,7958,1588857153081546670,,0.302567698288,3.37401166942,4.25258635253
1588857153087808558,7959,1588857153087678525,,0.302649757374,3.40518638787,4.26707895923
1588857153096590140,7960,1588857153096500078,,0.302623920473,3.43055320216,4.27668283266
1588857153102585766,7961,1588857153102448886,,0.302615626049,3.46033762086,4.29026413295
1588857153108556698,7962,1588857153108466407,,0.302544675706,3.48686637755,4.30129981605
1588857153114395551,7963,1588857153114317296,,0.302480402446,3.51519867466,4.31427196905
1588857153120627934,7964,1588857153120556010,,0.302449314696,3.53974955159,4.32466083778
1588857153126664468,7965,1588857153126545020,,0.302472663807,3.53698207527,4.32256113681
1588857153132627885,7966,1588857153132555659,,0.302356215531,3.56032369307,4.33233391405
1588857153138864248,7967,1588857153138747199,,0.302370191725,3.58626782412,4.34490953224
1588857153144819655,7968,1588857153144702566,,0.302431691674,3.60893708125,4.35431740719
1588857153150899238,7969,1588857153150742899,,0.302339716092,3.63345956885,4.36613206998
1588857153156901858,7970,1588857153156815188,,0.302282427695,3.65791776088,4.37707888137
1588857153162911351,7971,1588857153162809184,,0.302326649324,3.68130225998,4.387823082
1588857153168637081,7972,1588857153168507613,,0.302346132642,3.70415574252,4.39838598545
1588857153174572471,7973,1588857153174477905,,0.302186648446,3.72315170435,4.40531512025
1588857153183661992,7974,1588857153183539700,,0.302201102979,3.73933074662,4.40972027682
1588857153189758302,7975,1588857153189644181,,0.302106783011,3.76000572819,4.41869743078
1588857153195822855,7976,1588857153195730528,,0.30216299941,3.77776549884,4.425273478
1588857153201603992,7977,1588857153201506786,,0.302204011162,3.79722950267,4.43397502207
1588857153207836665,7978,1588857153207753092,,0.302256440251,3.81339036547,4.43973323866
1588857153216529471,7979,1588857153216461087,,0.302495340015,3.82652566601,4.44289042463
1588857153222892382,7980,1588857153222799891,,0.302652116681,3.84450421465,4.45066453239
1588857153228800070,7981,1588857153228710969,,0.30291905332,3.85906925931,4.45496709246
1588857153234690962,7982,1588857153234608474,,0.303089748549,3.8754466499,4.461931416
1588857153243803096,7983,1588857153243718778,,0.303492016391,3.88854196295,4.46534493
1588857153249697360,7984,1588857153249604859,,0.303911611965,3.90077838588,4.46862581624
1588857153256159719,7985,1588857153256083932,,0.304157000926,3.91488993942,4.47447585942
1588857153261642807,7986,1588857153261562907,,0.304632804064,3.92591287449,4.47732896881
1588857153268112811,7987,1588857153267990772,,0.304711923973,3.93922340798,4.48315592633
1588857153276532631,7988,1588857153276458703,,0.305334388447,3.94578646495,4.483319241
1588857153282542455,7989,1588857153282445497,,0.30561473479,3.95697748108,4.48791106618
1588857153288550231,7990,1588857153288457202,,0.306142307492,3.96412811713,4.48984102984
1588857153294784913,7991,1588857153294701943,,0.306375473573,3.97429916785,4.49422683466
1588857153303583409,7992,1588857153303461693,,0.306629061156,3.98126788789,4.49591261724
1588857153309597481,7993,1588857153309485260,,0.30666182041,3.98704571823,4.49783762266
1588857153315645288,7994,1588857153315564890,,0.306681280124,3.99438085994,4.50037458746
1588857153321698781,7995,1588857153321577106,,0.306879477712,3.99802800678,4.50106903295
1588857153327949770,7996,1588857153327876939,,0.306864166065,4.00485817484,4.50401706236
1588857153336692191,7997,1588857153336614075,,0.306471791062,4.00327590795,4.50223482003
1588857153339626010,7998,1588857153339528621,,0.306447785258,3.99557454912,4.49781316242
1588857153345534898,7999,1588857153345451137,,0.306402938274,3.99973193933,4.49941293477
1588857153351597683,8000,1588857153351490176,,0.306223436493,3.9990728061,4.49888489018
1588857153356009548,8001,1588857153355896182,,0.306205284708,4.00168589388,4.50006807341
1588857153361255729,8002,1588857153361166192,,0.305931193663,3.999554321,4.49881040812
1588857153366805841,8003,1588857153366538305,,0.305813169142,3.99540659587,4.49603636351
1588857153372587700,8004,1588857153372493571,,0.305550433045,3.99165893445,4.49370326327
1588857153378559162,8005,1588857153378481176,,0.305349493794,3.99139225457,4.4929294462
1588857153384560165,8006,1588857153384482611,,0.305281506035,3.99055692138,4.49229682553
1588857153390542303,8007,1588857153390469903,,0.305113146398,3.98863746066,4.49118239413
1588857153396546348,8008,1588857153396445050,,0.304686116193,3.98168402553,4.48716333712
1588857153402758174,8009,1588857153402626535,,0.304449396846,3.97848685664,4.48518321977
1588857153408560439,8010,1588857153408440851,,0.304116936216,3.9699137926,4.48014847569
1588857153414640872,8011,1588857153414563737,,0.304133948208,3.96631479848,4.47811600365
1588857153417517802,8012,1588857153417425090,,0.303597027732,3.95720308213,4.47272426198
1588857153423545658,8013,1588857153423412853,,0.30335317872,3.95323605933,4.47046625694
1588857153429852068,8014,1588857153429764980,,0.30285102064,3.94321988568,4.46518356185
1588857153435983006,8015,1588857153435816694,,0.302679561949,3.93725265225,4.46197545098
1588857153441855014,8016,1588857153441722909,,0.302087896867,3.92717149533,4.4566145855
1588857153447885580,8017,1588857153447790300,,0.301925476411,3.92027786779,4.45279352447
1588857153457119130,8018,1588857153457034597,,0.300785365686,3.9060006296,4.44478277116
1588857153462790325,8019,1588857153462682494,,0.300458933329,3.89767246302,4.44015231903
1588857153468814467,8020,1588857153468734808,,0.299751352676,3.88480642364,4.43308719729
1588857153474767543,8021,1588857153474691407,,0.299366096678,3.8747791204,4.42761111367
1588857153483763975,8022,1588857153483655229,,0.29835025671,3.85640225901,4.41757797183
1588857153490043162,8023,1588857153489919064,,0.297923848095,3.84518489995,4.41203011093
1588857153495839107,8024,1588857153495734818,,0.297196851552,3.83014978971,4.40392698556
1588857153501827122,8025,1588857153501646426,,0.296770822881,3.81681792313,4.39726672766
1588857153507738890,8026,1588857153507664068,,0.296359242285,3.80424308308,4.39108151008
1588857153516810359,8027,1588857153516703610,,0.295147258733,3.78187305719,4.380654791
1588857153522740020,8028,1588857153522645917,,0.294833342716,3.7674534786,4.37405974198
1588857153528899878,8029,1588857153528764860,,0.29401687642,3.74873033739,4.36497704694
1588857153534819004,8030,1588857153534708416,,0.293560772767,3.73308682249,4.35767469725
1588857153540991629,8031,1588857153540916323,,0.292692866154,3.71297508049,4.34797943583
1588857153547035606,8032,1588857153546832573,,0.291758626545,3.70629308527,4.34469912726
1588857153552682985,8033,1588857153552574126,,0.29133673941,3.68952646425,4.33624901637
1588857153558882211,8034,1588857153558750409,,0.290824144925,3.67209743697,4.3273638507
1588857153564867104,8035,1588857153564727090,,0.289879098129,3.65067025068,4.3167723897
1588857153570789145,8036,1588857153570681342,,0.288961033076,3.62873985905,4.30564642279
1588857153576720079,8037,1588857153576616237,,0.288576755293,3.60988846916,4.29606433791
1588857153582789786,8038,1588857153582696910,,0.288198919426,3.5904835667,4.2860759246
1588857153588826406,8039,1588857153588631685,,0.287265534094,3.56688738747,4.27403789266
1588857153594795242,8040,1588857153594706592,,0.286863510786,3.54592518271,4.26333092073
1588857153600870545,8041,1588857153600776454,,0.286368520284,3.52428223418,4.25258074627
1588857153607052213,8042,1588857153606879006,,0.28552533256,3.517037323,4.24884490327
1588857153612685332,8043,1588857153612585934,,0.285132885512,3.49498872412,4.2377589455
1588857153618702773,8044,1588857153618623969,,0.284425381382,3.46922121307,4.22478958304
1588857153624763121,8045,1588857153624679218,,0.283961724454,3.44527556435,4.2130765693
1588857153630745616,8046,1588857153630658209,,0.283634582265,3.42230104387,4.2016416001
1588857153636666168,8047,1588857153636591209,,0.283243219427,3.39794649475,4.19001461609
1588857153639993242,8048,1588857153639840597,,0.282615538826,3.39035813271,4.18650743059
1588857153645949558,8049,1588857153645803040,,0.282288102707,3.36596266017,4.17465521631
1588857153651896155,8050,1588857153651799128,,0.281806447064,3.33862093028,4.161413346
1588857153658137014,8051,1588857153658057037,,0.281415204143,3.3129021055,4.14892649609
1588857153664029667,8052,1588857153663879014,,0.281179622198,3.28783452084,4.13692610713
1588857153669996503,8053,1588857153669857601,,0.28077660409,3.25816122032,4.12278007274
1588857153675800099,8054,1588857153675719056,,0.280520460629,3.23164797138,4.10962832075
1588857153681910260,8055,1588857153681770416,,0.280098526085,3.20244212177,4.09533604659
1588857153688181619,8056,1588857153688089560,,0.2798072558,3.174987027,4.08184883444
1588857153696923371,8057,1588857153696843758,,0.279331841337,3.14464573779,4.06722912061
1588857153702894600,8058,1588857153702814784,,0.279242063398,3.11320310818,4.05252651151
1588857153709053248,8059,1588857153708953361,,0.279216776076,3.08487305535,4.03848407557
1588857153715170416,8060,1588857153715021645,,0.278926340296,3.05384256388,4.0233477146
1588857153721044839,8061,1588857153720933046,,0.278857660313,3.02463816173,4.00947928598
1588857153727404432,8062,1588857153727046914,,0.278796705095,3.02224606287,4.00868892708
1588857153732932317,8063,1588857153732830383,,0.278760657075,2.99292284632,3.99440591055
1588857153738940828,8064,1588857153738767503,,0.278714706506,2.95980842262,3.97846217853
1588857153744843185,8065,1588857153744747369,,0.278853803646,2.92808793436,3.96318680208
1588857153750796443,8066,1588857153750700979,,0.278743859724,2.89777043306,3.94852503897
1588857153757040499,8067,1588857153756961269,,0.278767231252,2.86815117479,3.93428911476
1588857153762960345,8068,1588857153762812488,,0.278649561226,2.8374331256,3.91918407556
1588857153768981587,8069,1588857153768885443,,0.278748939954,2.80656539439,3.90441388274
1588857153774800561,8070,1588857153774716074,,0.278753602172,2.77549271023,3.88915590725
1588857153783951777,8071,1588857153783832597,,0.278788573523,2.73928498495,3.87192269982
1588857153790047743,8072,1588857153789896690,,0.278663349611,2.70737910359,3.85645455217
1588857153795983143,8073,1588857153795864661,,0.278624723849,2.6765514628,3.84162944285
1588857153801989234,8074,1588857153801824713,,0.278716053622,2.64174407034,3.8246882934
1588857153808174770,8075,1588857153808058781,,0.278807139328,2.60724558644,3.8081274889
1588857153816909138,8076,1588857153816823085,,0.279007178748,2.57283082304,3.79132866917
1588857153822840136,8077,1588857153822756340,,0.279143246612,2.53855997225,3.77473544308
1588857153828763466,8078,1588857153828666222,,0.27919726867,2.50655419953,3.7588085943
1588857153834864961,8079,1588857153834786421,,0.279455904419,2.47164314605,3.74175593103
1588857153841423943,8080,1588857153841306245,,0.279496545977,2.43982807634,3.7258101025
1588857153847279320,8081,1588857153846880367,,0.279752461907,2.4367969296,3.72462675851
1588857153853000809,8082,1588857153852863798,,0.27991217283,2.40186988635,3.70759097435
1588857153859040386,8083,1588857153858911330,,0.280037238931,2.36964508325,3.69171491831
1588857153865055163,8084,1588857153864919830,,0.2802031327,2.33768752759,3.67605218832
1588857153870887156,8085,1588857153870755322,,0.280452316561,2.30331289364,3.65903038861
1588857153876969351,8086,1588857153876860239,,0.280637346113,2.26895583478,3.64219609583
1588857153882948482,8087,1588857153882831807,,0.280728624508,2.23726411842,3.62636364774
1588857153888909365,8088,1588857153888808561,,0.280748530798,2.20578721798,3.61086755318
1588857153894849688,8089,1588857153894748108,,0.280832871759,2.17408189567,3.59525766828
1588857153901359719,8090,1588857153901242086,,0.281031703069,2.14076557104,3.57874509141
1588857153907581561,8091,1588857153907091570,,0.28106530991,2.1388879046,3.57781681325
1588857153913213694,8092,1588857153912937612,,0.281095603542,2.10814808762,3.56235232894
1588857153919093575,8093,1588857153918974991,,0.281140690899,2.07773219507,3.54698461644
1588857153924808254,8094,1588857153924728820,,0.281020358441,2.04594349698,3.530782075
1588857153930779810,8095,1588857153930678211,,0.281094966664,2.01428272663,3.51479536487
1588857153936772838,8096,1588857153936683763,,0.281107535871,1.98503017238,3.5001691598
1588857153942869700,8097,1588857153942774824,,0.281227915228,1.95608668461,3.48561726786
1588857153948874474,8098,1588857153948792656,,0.281202644762,1.92751798685,3.47098853397
1588857153954840006,8099,1588857153954767786,,0.281335099751,1.89864412071,3.45653735974
1588857153961161414,8100,1588857153961084794,,0.28135506698,1.87092989715,3.44235314416
1588857153967282471,8101,1588857153966955307,,0.281608939343,1.86916448335,3.44118589712
1588857153972795813,8102,1588857153972706865,,0.281745240888,1.84226691655,3.42759543209
1588857153978889395,8103,1588857153978807611,,0.282016093245,1.81506989745,3.41340553185
1588857153984891311,8104,1588857153984747833,,0.282131326685,1.78909232939,3.4001374246
1588857153990840290,8105,1588857153990754266,,0.282394440936,1.76300649362,3.38639342685
1588857153996928887,8106,1588857153996815117,,0.282542484255,1.73795393231,3.37344770951
1588857154002912742,8107,1588857154002826126,,0.282709636858,1.71274818358,3.36024421217
1588857154008838612,8108,1588857154008747165,,0.28286404132,1.68891795797,3.34803203718
1588857154014947811,8109,1588857154014831756,,0.283005867175,1.66513643018,3.33549887958
1588857154023870653,8110,1588857154023779138,,0.283440335065,1.64161391538,3.32280107958
1588857154029903283,8111,1588857154029804717,,0.283539869064,1.61952842109,3.31137406148
1588857154035782141,8112,1588857154035699712,,0.283788604507,1.59801390864,3.29992008953
1588857154041764689,8113,1588857154041673878,,0.283966187598,1.57738713745,3.28939742648
1588857154047836514,8114,1588857154047728288,,0.284324949195,1.55754114269,3.27860034418
1588857154054626073,8115,1588857154054502915,,0.284508236801,1.53833500656,3.26876280997
1588857154060600651,8116,1588857154060512048,,0.285003737814,1.53801885399,3.26806524485
1588857154065768416,8117,1588857154065665914,,0.285245161757,1.5196599894,3.25877010749
1588857154071752019,8118,1588857154071657931,,0.28550206806,1.50209067656,3.24999212432
1588857154077815986,8119,1588857154077708788,,0.285692864184,1.4853390618,3.24149085868
1588857154083787793,8120,1588857154083709399,,0.286288864187,1.46945998936,3.23329183856
1588857154089828991,8121,1588857154089715913,,0.286554156494,1.45441889597,3.22571501664
1588857154095836881,8122,1588857154095750333,,0.287189264912,1.44022101929,3.21858958107
1588857154101841092,8123,1588857154101740773,,0.287557485845,1.42735813183,3.21213397577
1588857154108047229,8124,1588857154107966659,,0.288182891167,1.41532961239,3.20632723801
1588857154116765557,8125,1588857154116654857,,0.289114001777,1.40455671162,3.20108604498
1588857154122797541,8126,1588857154122720488,,0.289508320679,1.3948577723,3.1963345256
1588857154128767947,8127,1588857154128684820,,0.289875932158,1.3860066741,3.19222853377
1588857154134962228,8128,1588857154134840538,,0.290251119276,1.37840982457,3.18854856022
1588857154141105722,8129,1588857154141021812,,0.291229623628,1.37318446385,3.18594852867
1588857154146979682,8130,1588857154146637691,,0.292193940864,1.37502952569,3.18666010311
1588857154152940823,8131,1588857154152853703,,0.292776121175,1.37052418834,3.18425273782
1588857154158642566,8132,1588857154158572229,,0.293712015106,1.36819830367,3.18242706255
1588857154164931709,8133,1588857154164794590,,0.294283349104,1.36612756362,3.18106017842
1588857154170785004,8134,1588857154170703139,,0.294794698098,1.3653264735,3.1803529549
1588857154176547526,8135,1588857154176477718,,0.295832673703,1.36676136777,3.18064770647
1588857154182649063,8136,1588857154182566648,,0.296386065849,1.36782497302,3.18101516034
1588857154188634218,8137,1588857154188536686,,0.297402066915,1.36947518697,3.18211570339
1588857154194790052,8138,1588857154194648281,,0.297838785634,1.36871816473,3.18364136315
1588857154200727647,8139,1588857154200648806,,0.298741740801,1.36771516228,3.18636705784
1588857154207312675,8140,1588857154207203039,,0.299043086248,1.3642415877,3.18912081412
1588857154213197964,8141,1588857154212930099,,0.299430158271,1.36555868049,3.18993557927
1588857154219078380,8142,1588857154218942887,,0.300057361049,1.36198401612,3.19422707043
1588857154224988274,8143,1588857154224891512,,0.300385349228,1.35588949167,3.19847616498
1588857154230893063,8144,1588857154230802667,,0.300857883642,1.34953274974,3.20406294302
1588857154236954439,8145,1588857154236827911,,0.301079858499,1.34102274458,3.20977918676
1588857154242987849,8146,1588857154242888947,,0.301370447184,1.33206631234,3.21682605912
1588857154249044582,8147,1588857154248936692,,0.301484612521,1.32101659659,3.22364982166
1588857154254550913,8148,1588857154254469099,,0.301574918461,1.30883293043,3.23108916865
1588857154257855500,8149,1588857154257669223,,0.301644942084,1.30953073724,3.23204147826
1588857154263732216,8150,1588857154263637391,,0.30170333234,1.29621410563,3.24016001896
1588857154269862466,8151,1588857154269794729,,0.301733781164,1.28225505045,3.24979641111
1588857154276062276,8152,1588857154275971231,,0.301817816793,1.26739050162,3.26016391366
1588857154282034086,8153,1588857154281932026,,0.301764511058,1.25058621669,3.27006991936
1588857154287693232,8154,1588857154287618843,,0.301742803695,1.23341280628,3.28169680908
1588857154296650174,8155,1588857154296584896,,0.301569568255,1.21575569631,3.29542065954
1588857154302867477,8156,1588857154302787234,,0.30152376683,1.19588638071,3.30722423275
1588857154308773780,8157,1588857154308610105,,0.301448401537,1.17480473295,3.31943274824
1588857154314785050,8158,1588857154314710395,,0.301296369837,1.15351227916,3.33319931295
1588857154320913217,8159,1588857154320832518,,0.301013496096,1.13146053568,3.34768580226
1588857154329993543,8160,1588857154329858509,,0.300439541648,1.1094511153,3.36354438669
1588857154335788639,8161,1588857154335716681,,0.300166178428,1.08491193809,3.37742708476
1588857154341881232,8162,1588857154341808404,,0.299172573835,1.06050095849,3.39191686738
1588857154347957554,8163,1588857154347875656,,0.298585303729,1.03435820378,3.4060246812
1588857154357419852,8164,1588857154357329417,,0.297181108007,1.0092350521,3.42209673072
1588857154363377751,8165,1588857154363258881,,0.2968071769,0.981361313433,3.43701845661
1588857154368996143,8166,1588857154368889530,,0.296151450508,0.953779086077,3.45272903841
1588857154375100142,8167,1588857154374995755,,0.295795706202,0.924064672364,3.46879484438
1588857154381328522,8168,1588857154381252932,,0.295436367166,0.894842037114,3.48616306594
1588857154387519941,8169,1588857154387419754,,0.295072113765,0.868030704532,3.50192874955
1588857154393070075,8170,1588857154392874715,,0.295013599804,0.865957588404,3.50416612499
1588857154398546963,8171,1588857154398445826,,0.294941166152,0.833925763817,3.52131390622
1588857154401783522,8172,1588857154401691303,,0.294815698361,0.802235532593,3.53974093453
1588857154408055636,8173,1588857154407975124,,0.294712282864,0.768591034422,3.55756170409
1588857154414025038,8174,1588857154413945420,,0.29452463686,0.735032555105,3.57610760517
1588857154419601340,8175,1588857154419476647,,0.294539044908,0.735904543838,3.57654952085
1588857154425899540,8176,1588857154425826004,,0.294415833709,0.701357067869,3.59548117947
1588857154431512606,8177,1588857154431437706,,0.294469657549,0.665362290579,3.61454441284
1588857154434552550,8178,1588857154434476906,,0.294435161873,0.629124173984,3.6347444056
1588857154437595161,8179,1588857154437508162,,0.294402384493,0.629690677807,3.63547930067
1588857154441200647,8180,1588857154441121968,,0.29442529993,0.592031583558,3.6554696547
1588857154446949115,8181,1588857154446767255,,0.294459405715,0.592979315861,3.65715712623
1588857154452882152,8182,1588857154452830835,,0.294531942033,0.554447114573,3.67743175205
1588857154459399523,8183,1588857154459267753,,0.294476260784,0.51517771147,3.69795738174
1588857154464901542,8184,1588857154464810054,,0.294441172736,0.475547677862,3.71942389848
