%time,field.header.seq,field.header.stamp,field.header.frame_id,field.wrench.force.x,field.wrench.force.y,field.wrench.force.z,field.wrench.torque.x,field.wrench.torque.y,field.wrench.torque.z
1588857150402007216,7520,1588857150401871567,,-0.00652402163635,-0.236753063419,0.332296157554,0.0517712408168,0.00158655273792,0.000163767186358
1588857150407803214,7521,1588857150407716969,,0.0137000194036,-0.239106364401,0.377798677193,0.0624634462813,0.00161162507887,0.000462588474643
1588857150413857340,7522,1588857150413742390,,0.0137002351225,-0.239105473004,0.377799233528,0.0624634525897,0.00161142795511,0.000462423338534
1588857150419933873,7523,1588857150419801454,,0.0347582237686,-0.239240072843,0.37831896151,0.0661578070308,0.00219984746365,-0.000946294497161
1588857150425976611,7524,1588857150425850715,,0.0130547438864,-0.241113906338,0.423290434294,0.0695091527657,0.00162136811493,-0.000224841518116
1588857150431979308,7525,1588857150431859680,,0.0125968957132,-0.367111460777,0.45118114156,0.0739243070886,0.00221490120211,0.000654580971774
1588857150437993422,7526,1588857150437891398,,0.0123685965158,-0.242878547674,0.468930132993,0.0811013355001,0.00222450762374,0.000778984074335
1588857150443967575,7527,1588857150443847695,,0.0123665499665,-0.242880921691,0.468928957359,0.0811013208548,0.00222485056251,0.000779529250938
1588857150449963227,7528,1588857150449831144,,0.0118767170402,-0.368869639922,0.496518668734,0.0873568475504,0.00222982444132,0.00171053862359
1588857150456315633,7529,1588857150456177437,,0.0115041296217,-0.369697962446,0.519218610401,0.0908748828295,0.00223171334064,0.00177615175328
1588857150461908479,7530,1588857150461795823,,0.0115046345929,-0.369696968587,0.519219306866,0.0908749068756,0.00223113682079,0.00177564568866
1588857150468007579,7531,1588857150467895543,,0.0107687156316,-0.371247898533,0.564761862486,0.0960715458716,0.00223199962623,0.00186974143614
1588857150473912507,7532,1588857150473796315,,0.0107748901077,-0.371250381547,0.564760112494,0.0988109354385,0.00223299906898,0.00191894691241
1588857150479936835,7533,1588857150479830142,,0.0101946367009,-0.499276812825,0.591662004436,0.104147264527,0.00223195533933,0.00285567554478
1588857150485847458,7534,1588857150485751180,,0.0101862689781,-0.499277494451,0.591661573364,0.104147217971,0.00223209011285,0.00285726765666
1588857150491964245,7535,1588857150491870247,,-0.0121929938177,-0.499915079299,0.613974101839,0.111326895605,0.00222989269701,0.00285492975191
1588857150497946297,7536,1588857150497824841,,-0.0121855513977,-0.499918123347,0.613971771032,0.111326937554,0.0022296987341,0.00285344506846
1588857150503962641,7537,1588857150503848782,,-0.0125998932918,-0.500596485731,0.636733496457,0.117607170373,0.00160990210358,0.00212282853992
1588857150510034003,7538,1588857150509941339,,-0.0133700820381,-0.6298742449,0.663019289274,0.12111769014,0.00222537946175,0.00218816589109
1588857150515881623,7539,1588857150515781336,,-0.0133730025501,-0.62987268019,0.663020716859,0.121117683255,0.00222530706654,0.00218862051937
1588857150521949856,7540,1588857150521864406,,-0.0145410849996,-0.76062373883,0.711733367009,0.125421351086,0.00160177143683,0.00141313505773
1588857150527990649,7541,1588857150527849876,,-0.0145443013116,-0.760624122976,0.711732890758,0.12542134721,0.00160166943149,0.00141359455375
1588857150533954210,7542,1588857150533840314,,-0.0152969966197,-0.891411733061,0.737262454993,0.131693269272,0.000962264098385,0.000667937434609
1588857150540048780,7543,1588857150539956426,,0.00737510839298,-0.761218377546,0.734886738247,0.1335303462,0.00095928918822,0.000838488929962
1588857150546098727,7544,1588857150545898222,,0.00738109616494,-0.761216463388,0.73488866087,0.133530354126,0.000959211079019,0.000837315263596
1588857150551938560,7545,1588857150551817143,,-0.0152945253857,-0.891407486417,0.737267640778,0.134442818853,0.000957781941527,0.000714440002174
1588857150557858450,7546,1588857150557763747,,0.00672307571327,-0.891944653507,0.760415189708,0.137993636296,0.00158643614667,-0.000801176829906
1588857150564009799,7547,1588857150563914455,,0.0287735956843,-0.89248788756,0.783699097036,0.142459019507,0.00220692386434,-0.00231877045029
1588857150569894230,7548,1588857150569792370,,0.0287734874323,-0.892487402086,0.783699653875,0.142459018007,0.0022063250475,-0.00231943237742
1588857150575964048,7549,1588857150575825571,,0.00564695199283,-1.02356929994,0.808500894964,0.145977936895,0.00157464727465,-0.00240184452337
1588857150581921429,7550,1588857150581801834,,0.00564478711998,-1.02357096944,0.808498796485,0.145977936604,0.00157398303713,-0.00240229756089
1588857150587952359,7551,1588857150587869898,,0.00670982052899,-0.891936054175,0.760425393431,0.141742593696,0.00158027882961,-0.00505729347548
1588857150594010962,7552,1588857150593916308,,0.00671761928835,-0.891937780764,0.760423299381,0.141742538713,0.00158018905877,-0.00505886231058
1588857150600134614,7553,1588857150600038933,,0.0291473199552,-0.892006552805,0.760849499341,0.141795411959,0.000945896824894,-0.00749779822271
1588857150606029307,7554,1588857150605924165,,0.0291491928091,-0.892005207124,0.760851005242,0.141795402962,0.000946054882741,-0.00749794844046
1588857150611999872,7555,1588857150611917714,,0.0300881376533,-0.760735335465,0.712594369347,0.132042676795,0.000961775903378,-0.00849112313818
1588857150617991507,7556,1588857150617919650,,0.0300862431343,-0.760737257495,0.712592397455,0.132042727845,0.000962264145091,-0.00849027391483
1588857150624032935,7557,1588857150623916425,,0.0300875097805,-0.76073953649,0.712589910996,0.135719828515,0.000324545217635,-0.00930122924659
1588857150630003448,7558,1588857150629899288,,0.00775752383745,-0.760663771702,0.712163769641,0.13757326685,0.000321810333547,-0.0102735578485
1588857150636015857,7559,1588857150635878101,,0.0521361443326,-0.761365057058,0.735777015158,0.138379628724,0.000954919856653,-0.0117077145573
1588857150641950354,7560,1588857150641814264,,0.0520543731348,-0.891610692042,0.738554695912,0.140218229842,0.000951838017349,-0.0116874078936
1588857150647969893,7561,1588857150647886917,,0.0287426989242,-0.89248509332,0.783703412909,0.147207987762,0.00157592372835,-0.0100154702732
1588857150654199691,7562,1588857150654101917,,0.0281742093879,-1.02364109139,0.80891710153,0.149765119717,0.00157213060792,-0.00825976012514
1588857150662984374,7563,1588857150662876283,,0.0500449657931,-1.02458118378,0.855002592482,0.153131441629,0.00156773721226,-0.00807034749117
1588857150669278857,7564,1588857150669065702,,0.0266049990463,-1.02534271127,0.90020420332,0.157401319768,0.00156037997266,-0.00728208679761
1588857150675031899,7565,1588857150674861934,,0.0266077236631,-1.0253465199,0.900199784704,0.157401309861,0.00156069479294,-0.00728223346354
1588857150681028755,7566,1588857150680875025,,0.0491087136325,-1.15637792364,0.902787574166,0.164772055726,0.000909418108556,-0.00965276347875
1588857150687053657,7567,1588857150686935513,,0.0491107327277,-1.15638009044,0.902784688878,0.164772032219,0.000909413593747,-0.00965316516623
1588857150693203172,7568,1588857150693051993,,0.00335238473061,-1.15661834876,0.924768151447,0.169213675589,0.00025880203701,-0.00986802371537
1588857150699063301,7569,1588857150698960606,,0.0255705027337,-1.15706247302,0.948127291353,0.170931834924,0.000255343993327,-0.0114515972337
1588857150705091168,7570,1588857150704956254,,0.0496388006096,-1.02500028327,0.877814249915,0.168790547772,0.000904606757382,-0.0183165438899
1588857150711016869,7571,1588857150710843022,,0.0496331997194,-1.02499302205,0.877823045282,0.168790655548,0.000904379889191,-0.0183155618903
1588857150716890498,7572,1588857150716793622,,0.0937399121515,-1.02641593222,0.947329805538,0.17305362362,0.000255382571827,-0.0232250450429
1588857150723084464,7573,1588857150722972995,,0.0933629910894,-1.02682091756,0.970198549334,0.173843347444,-0.000380559534934,-0.0240886304483
1588857150729160595,7574,1588857150728937267,,0.0707867379574,-0.896302875438,0.967471257436,0.177512107685,-0.000389482213489,-0.024190380928
1588857150734948724,7575,1588857150734757637,,0.0707966703704,-0.896306781341,0.967466912065,0.177511912193,-0.000388968891669,-0.0241918236925
1588857150740844865,7576,1588857150740768936,,0.0706744736798,-1.02674333314,0.969731575715,0.182111217533,0.000237782620709,-0.0250256855092
1588857150746861606,7577,1588857150746758525,,0.0706867859057,-1.02673838119,0.969735921374,0.182111120419,0.00023920027086,-0.0250263786859
1588857150756239008,7578,1588857150756158001,,0.0925788349906,-1.15843893433,1.01801344951,0.184551808921,0.00023761425961,-0.0248564517356
1588857150761931348,7579,1588857150761848809,,0.0918287881209,-1.1591772682,1.06389888153,0.187918877431,0.000231650686759,-0.0248216347877
1588857150767949892,7580,1588857150767834972,,0.069434933277,-1.15872563276,1.04055456169,0.189901622888,0.000227688576862,-0.0249465403732
1588857150773961792,7581,1588857150773859541,,0.069436269419,-1.15871851992,1.0405623931,0.191774921,0.000226022815647,-0.0266764507054
1588857150783140156,7582,1588857150782982679,,0.114124860588,-1.15963115239,1.08726072294,0.196140845012,-0.000418411752586,-0.0298666148602
1588857150789086021,7583,1588857150788909689,,0.114137118419,-1.15963321971,1.08725723129,0.196140736721,-0.000416944461061,-0.0298673465453
1588857150795036420,7584,1588857150794938597,,0.137279054158,-1.15936941409,1.06480520451,0.200180420679,-0.00105902056745,-0.0384865320837
1588857150801122547,7585,1588857150800920723,,0.137280216365,-1.15935619763,1.0648194447,0.200180603296,-0.0010584256917,-0.0384855985882
1588857150806990636,7586,1588857150806885376,,0.181980104382,-1.2913154971,1.11341700628,0.206440422652,-0.00171854828384,-0.0443175834919
1588857150813125046,7587,1588857150812960793,,0.181985812068,-1.2913143386,1.113417417,0.206440417147,-0.001717702598,-0.0443176419212
1588857150819005269,7588,1588857150818907930,,0.181965632064,-1.16028174365,1.11158789506,0.210202879592,-0.00172555625113,-0.0478323437485
1588857150825058496,7589,1588857150824959017,,0.181977685875,-1.1602822357,1.11158540819,0.210202555351,-0.00172471429077,-0.0478337989956
1588857150831011013,7590,1588857150830911391,,0.158569180251,-1.16088027905,1.15708675335,0.212675291882,-0.00237887410088,-0.0488402879968
1588857150837026892,7591,1588857150836917618,,0.204455276342,-1.16074788576,1.13509104335,0.213829197954,-0.00172942467255,-0.0520894231623
1588857150843083009,7592,1588857150842993142,,0.203803469305,-1.29240063389,1.18276983827,0.216330576913,-0.00238377814787,-0.0538366213763
1588857150848949028,7593,1588857150848857196,,0.203811140165,-1.29240936459,1.18275897646,0.216381874808,-0.0030221042677,-0.055611817087
1588857150855138560,7594,1588857150855045932,,0.226627843183,-1.4237481743,1.18490195257,0.219330480567,-0.00302783845415,-0.062540713423
1588857150860862231,7595,1588857150860782625,,0.226261444965,-1.42405637358,1.20783343432,0.221109640229,-0.00368445104579,-0.0660804073794
1588857150866913554,7596,1588857150866816346,,0.226249613708,-1.42405484197,1.20783745638,0.221109038403,-0.00368810916569,-0.0660822170374
1588857150873150521,7597,1588857150872864625,,0.249478847601,-1.42388263329,1.18535597208,0.222298133695,-0.00369357481533,-0.0703730324606
1588857150878906897,7598,1588857150878824257,,0.294815906004,-1.42442746958,1.20924417203,0.225985649276,-0.0043563386899,-0.0762858030824
1588857150885025901,7599,1588857150884847780,,0.317599482103,-1.42455917174,1.20972779816,0.227914983668,-0.00436383333871,-0.0796903149695
1588857150890910088,7600,1588857150890828851,,0.317238941035,-1.42485438714,1.23277561414,0.231503521819,-0.00501908302201,-0.0823457284224
1588857150897006131,7601,1588857150896891329,,0.317228142477,-1.42485528113,1.23277735968,0.23252135379,-0.00502308562942,-0.0859045148518
1588857150902942416,7602,1588857150902863470,,0.33957288913,-1.55694094578,1.28066652548,0.236895189571,-0.0050371067482,-0.0893108238016
1588857150909015344,7603,1588857150908910070,,0.36244566072,-1.55708285748,1.28112382127,0.238877569285,-0.00569648008156,-0.0945130886724
1588857150914936120,7604,1588857150914849056,,0.407929954927,-1.5576323247,1.3051378421,0.244388896415,-0.0057109145307,-0.100462076149
1588857150920905315,7605,1588857150920836971,,0.407928981646,-1.55763122547,1.3051394582,0.244388280783,-0.00571251531117,-0.100463482741
1588857150926893109,7606,1588857150926823373,,0.407579694329,-1.5579062475,1.32810093141,0.246151072683,-0.00637450247105,-0.103142065161
1588857150933218276,7607,1588857150933089301,,0.384272971976,-1.55803380799,1.35059550383,0.252545003885,-0.00705157233855,-0.108620846213
1588857150938998375,7608,1588857150938884982,,0.384280278806,-1.55803766019,1.35058898097,0.252544392776,-0.00705131275782,-0.108622283891
1588857150944936386,7609,1588857150944843959,,0.407250641131,-1.55818204241,1.35106122541,0.253595549017,-0.00705458424193,-0.112964372529
1588857150950929114,7610,1588857150950832646,,0.407407140704,-1.68968448801,1.35241351918,0.254525774423,-0.00770329219204,-0.11385770592
1588857150957318843,7611,1588857150957226313,,0.407060383701,-1.68994218515,1.37538229059,0.253496924674,-0.00835881797396,-0.114760525575
1588857150963066412,7612,1588857150962955084,,0.406813195787,-1.82183060932,1.39973793886,0.256083030548,-0.00771010559104,-0.114749891544
1588857150969026529,7613,1588857150968908019,,0.406835207077,-1.82183960477,1.39971983324,0.256081106904,-0.00770958764177,-0.114754219171
1588857150974963247,7614,1588857150974872160,,0.429756076423,-1.82197910358,1.40016991527,0.256103896794,-0.00771035061631,-0.115506343047
1588857150981048444,7615,1588857150980931492,,0.42976663317,-1.82198133081,1.40016377682,0.25610234897,-0.00771141589224,-0.115509703751
1588857150987006622,7616,1588857150986903020,,0.430136141655,-1.82175142448,1.37706988305,0.258152206319,-0.00771559808899,-0.118193718919
1588857150993146790,7617,1588857150992974706,,0.430149980536,-1.82174537885,1.37707355818,0.258151223146,-0.00771574899725,-0.118195856437
1588857150998976756,7618,1588857150998885956,,0.452470482211,-1.82234702546,1.42361020762,0.259791256071,-0.00771954209681,-0.121635999168
1588857151001929969,7619,1588857151001856468,,0.475387457859,-1.82248045294,1.42408342394,0.258900073815,-0.00903110444154,-0.122390283208
1588857151007937825,7620,1588857151007824240,,0.475020285432,-1.82269989199,1.44709841921,0.260665342402,-0.00838078203688,-0.125073890514
1588857151014092819,7621,1588857151014001837,,0.475053039866,-1.82266872905,1.44712691778,0.261608586422,-0.00903501102782,-0.125961932565
1588857151022939078,7622,1588857151022848692,,0.497614099435,-1.69140567093,1.46940779764,0.266148922934,-0.00838545304476,-0.130282582966
1588857151029043311,7623,1588857151028936588,,0.475070731091,-1.82265959475,1.4471326148,0.265389662931,-0.00838155764251,-0.130426899651
1588857151035011262,7624,1588857151034932256,,0.474740319507,-1.82285261809,1.4701720122,0.266184353868,-0.00837971422644,-0.131324440531
1588857151041028352,7625,1588857151040889344,,0.497575498704,-1.95486272561,1.49499634861,0.26882031442,-0.00904677354141,-0.132963856068
1588857151047046793,7626,1588857151046946378,,0.497588620223,-1.95485751512,1.49499879461,0.268819639954,-0.00904639388829,-0.132965245494
1588857151056281214,7627,1588857151056210461,,0.49760042005,-1.95497345324,1.49484325411,0.274301471667,-0.00905029942716,-0.133835404276
1588857151061921454,7628,1588857151061854648,,0.52050213787,-1.9551266933,1.4952993298,0.276117419106,-0.00905851219897,-0.133677268601
1588857151067949954,7629,1588857151067873061,,0.474117776672,-1.95507464611,1.51739327004,0.276889584668,-0.00971277203593,-0.133958062881
1588857151073907069,7630,1588857151073841700,,0.496769259433,-1.95542383582,1.54088179834,0.279537098513,-0.00907343588547,-0.135600023794
1588857151082925936,7631,1588857151082815534,,0.519289477522,-1.95575130605,1.56441601446,0.283131266273,-0.00974443128334,-0.139020602056
1588857151088965717,7632,1588857151088891005,,0.518849381501,-1.95595223931,1.58758167115,0.285775910586,-0.00976068551281,-0.140803270853
1588857151094860082,7633,1588857151094779281,,0.4962118691,-1.95561594575,1.56399326753,0.287772961616,-0.00977192298428,-0.141844449459
1588857151101070435,7634,1588857151100955462,,0.518122296842,-1.95639269424,1.63362703042,0.295637634387,-0.00979585064429,-0.145250423823
1588857151107126836,7635,1588857151107038368,,0.51811580883,-1.95637373838,1.63365178893,0.295637559729,-0.00979874767344,-0.145250380372
1588857151112921760,7636,1588857151112828895,,0.518131204682,-1.95637122831,1.63364991196,0.297458168612,-0.00979866480318,-0.145236194889
1588857151119045755,7637,1588857151118821003,,0.540790823371,-1.95671406478,1.65713746621,0.300061923525,-0.009803510215,-0.145979168823
1588857151125012488,7638,1588857151124920883,,0.540499816696,-1.95682334057,1.6803741775,0.302702650242,-0.0104682640847,-0.147769050915
1588857151130960456,7639,1588857151130858916,,0.540225694427,-1.95704624789,1.70337637487,0.305337829834,-0.0111246762133,-0.149564343091
1588857151136938431,7640,1588857151136850171,,0.540608962743,-1.95687304119,1.68028118614,0.306392316557,-0.0111203124338,-0.14955888006
1588857151143022721,7641,1588857151142938540,,0.540412220241,-2.08886925189,1.70432248403,0.308979267302,-0.0111052417992,-0.149537254081
1588857151149044618,7642,1588857151148936388,,0.563144172221,-2.08915775649,1.72787610985,0.31068080281,-0.0111136106867,-0.150284005888
1588857151155153905,7643,1588857151155042561,,0.562784411401,-2.08937821105,1.75100003546,0.313375124736,-0.0104592690696,-0.15387424254
1588857151160979661,7644,1588857151160893221,,0.585414317494,-2.2215875708,1.77546666214,0.318715945319,-0.0111413405377,-0.154591101559
1588857151167015663,7645,1588857151166906500,,0.608468933318,-2.22170098863,1.77596156289,0.321580119707,-0.0111563439782,-0.158935964945
1588857151173217300,7646,1588857151173085368,,0.607244392447,-2.09047856658,1.84426387503,0.32946746876,-0.0125023710189,-0.163389579446
1588857151179086440,7647,1588857151178996294,,0.607218771486,-2.09045832792,1.84429525105,0.329468156202,-0.0125072315559,-0.163387821245
1588857151184886238,7648,1588857151184790477,,0.607178918542,-2.09041513907,1.8443573237,0.332254860999,-0.0125272022846,-0.165179201665
1588857151191115212,7649,1588857151190951661,,0.606769906359,-2.09060281387,1.86744899824,0.334891751539,-0.0125441339338,-0.166960660744
1588857151197081841,7650,1588857151196959654,,0.606403701793,-2.09082093837,1.89049541393,0.339373556366,-0.01189803805,-0.169643960626
1588857151202926897,7651,1588857151202813480,,0.606337356402,-2.09080248983,1.89053709689,0.339373293964,-0.0119119613782,-0.169643508474
1588857151208978878,7652,1588857151208893674,,0.629365679096,-2.09092907381,1.89099962876,0.341265368749,-0.0125787909663,-0.172200683512
1588857151215006810,7653,1588857151214929227,,0.629391997094,-2.09083862953,1.89109087168,0.344025415788,-0.0125919220429,-0.173082484488
1588857151220908185,7654,1588857151220797566,,0.606067860333,-2.09088268039,1.91370635499,0.347554481517,-0.0132582181279,-0.174102342068
1588857151226851258,7655,1588857151226777776,,0.605495623754,-2.2230406197,1.96090111277,0.350045053714,-0.0132419582969,-0.175896478417
1588857151230029897,7656,1588857151229891824,,0.605420244563,-2.22300715748,1.96096232155,0.35004825089,-0.0132517372601,-0.175889379205
1588857151236105039,7657,1588857151235988704,,0.628548856452,-2.35503957933,1.96227815442,0.35280655557,-0.0132400182197,-0.176623423612
1588857151242117731,7658,1588857151242040663,,0.628541163424,-2.35499411589,1.96233518046,0.352808387957,-0.0132420380545,-0.176619611933
1588857151248017223,7659,1588857151247916789,,0.628563625088,-2.3549889089,1.96233423468,0.354651619294,-0.013910528251,-0.177511036827
1588857151254170534,7660,1588857151254091577,,0.628164781575,-2.35521240346,1.9853671184,0.358203501548,-0.0139215997104,-0.179296565981
1588857151263060519,7661,1588857151262980109,,0.650069867815,-2.35592878105,2.05514152142,0.363350519011,-0.0139530251062,-0.183634335098
1588857151268963057,7662,1588857151268859059,,0.650345244771,-2.3557271031,2.03211382075,0.363495091878,-0.0139817734081,-0.183642311758
1588857151274959121,7663,1588857151274864519,,0.673008100571,-2.35600073328,2.05569090597,0.368023254141,-0.0146535530923,-0.1879833478
1588857151280912751,7664,1588857151280788953,,0.672979771235,-2.35600431908,2.0556960708,0.368021634196,-0.0146610855566,-0.187985931896
1588857151284192548,7665,1588857151284072888,,0.672586344508,-2.35620422028,2.07876507314,0.370632046057,-0.0153340021351,-0.188866179767
1588857151290034577,7666,1588857151289956081,,0.672649742528,-2.35619873896,2.07875077251,0.370633205113,-0.0153214780741,-0.188864921633
1588857151296063451,7667,1588857151295980185,,0.672336564038,-2.22453683316,2.10092831922,0.373243442729,-0.0153221075588,-0.189758119067
1588857151302162921,7668,1588857151302053538,,0.672411117359,-2.22453410946,2.10090734327,0.37603511455,-0.0153060611573,-0.191532417046
1588857151308055936,7669,1588857151307948603,,0.672436857841,-2.22454572155,2.10088680916,0.37603771934,-0.0152950739205,-0.191528180719
1588857151314031096,7670,1588857151313916762,,0.672121157488,-2.22474915961,2.1240444109,0.37863193082,-0.0152812179059,-0.191497514264
1588857151320179058,7671,1588857151320013768,,0.672165049103,-2.3565657504,2.12493737044,0.379525118304,-0.015273689607,-0.190581593608
1588857151326154378,7672,1588857151325975758,,0.672215918098,-2.35658208151,2.12490316721,0.381324786546,-0.0145986601512,-0.189657769313
1588857151331942015,7673,1588857151331863593,,0.649119923601,-2.48836194237,2.12533792837,0.382171308165,-0.0152689297174,-0.187069863181
1588857151338118192,7674,1588857151338019771,,0.625505153378,-2.62042649986,2.14879741966,0.384688615144,-0.0152808204283,-0.184466223761
1588857151344056023,7675,1588857151343969888,,0.62509804084,-2.62056819459,2.17192969787,0.388157361518,-0.0152960764873,-0.183529978497
1588857151350123996,7676,1588857151349913138,,0.64775339312,-2.62080306085,2.19566569354,0.391590182518,-0.0146598794983,-0.180628481575
1588857151356317583,7677,1588857151356197813,,0.647319796386,-2.62095111687,2.21880021489,0.395977016838,-0.0146800585649,-0.179680920679
1588857151361949981,7678,1588857151361852917,,0.647275635184,-2.620925389,2.21884348857,0.395977530619,-0.0146881931083,-0.179679123629
1588857151368074716,7679,1588857151367952743,,0.623990027236,-2.62078522391,2.21845876009,0.396877337683,-0.014703201496,-0.178899010167
1588857151373969118,7680,1588857151373862703,,0.600044345386,-2.6209865582,2.26426447923,0.401158046802,-0.0140682603329,-0.178989766177
1588857151383184309,7681,1588857151383059437,,0.622898398784,-2.62108616577,2.28807250712,0.411115052674,-0.0140725432382,-0.181457272018
1588857151389222973,7682,1588857151389074355,,0.622693535018,-2.62106914857,2.28814776212,0.41111985242,-0.0140976426868,-0.181444448782
1588857151395248996,7683,1588857151395053336,,0.622429153275,-2.48922503589,2.31046500748,0.415567563938,-0.0147532566177,-0.182298288686
1588857151401154329,7684,1588857151401014281,,0.622530568348,-2.4891338564,2.31053591561,0.415569286683,-0.0147390491745,-0.182295510726
1588857151407091395,7685,1588857151406962340,,0.622101340831,-2.62128560617,2.33443809874,0.419932388043,-0.0147492500817,-0.180436297454
1588857151413381251,7686,1588857151413189007,,0.622363095091,-2.62131921755,2.33433058537,0.419921265817,-0.0147270331232,-0.180463994622
1588857151419046426,7687,1588857151418953262,,0.622340851184,-2.48942712288,2.33346062816,0.421747221461,-0.014733819745,-0.180439024754
1588857151425122272,7688,1588857151424988095,,0.599257203413,-2.62118978306,2.3339173371,0.422591815208,-0.014745284829,-0.177874597761
1588857151431120110,7689,1588857151430987451,,0.575676777311,-2.62136770504,2.35645188666,0.421339170122,-0.014081051561,-0.170782703667
1588857151437117099,7690,1588857151437002956,,0.575633399815,-2.62138664279,2.35644141644,0.421342090714,-0.0140801853757,-0.170775569495
1588857151442960713,7691,1588857151442878284,,0.552486979434,-2.75329110506,2.35680363188,0.422167674507,-0.0140824696522,-0.167290903426
1588857151449006037,7692,1588857151448864071,,0.575574353958,-2.75339488482,2.35724184253,0.422114611521,-0.0134232513344,-0.165337270085
1588857151455324387,7693,1588857151455220209,,0.551978795435,-2.75347696783,2.38001108371,0.42375893759,-0.0134437777519,-0.163656039034
1588857151461163207,7694,1588857151461062704,,0.551448714998,-2.88567529185,2.40393498112,0.425383814135,-0.0134601636156,-0.161826781708
1588857151467110619,7695,1588857151466922695,,0.551263039173,-2.88564161182,2.40401799464,0.42538572957,-0.0134859949591,-0.161819595934
1588857151473123272,7696,1588857151472966988,,0.551379749168,-2.8856694498,2.40395781315,0.42625797238,-0.0128028008998,-0.160004365497
1588857151479170318,7697,1588857151479083860,,0.551312452579,-2.88563047081,2.40402003617,0.427188515757,-0.0128179946851,-0.160896167565
1588857151485026673,7698,1588857151484929448,,0.551583919071,-2.88578195725,2.40377591389,0.427142240942,-0.0127667411079,-0.159094435464
1588857151491138100,7699,1588857151491052157,,0.551625441341,-2.88579533365,2.40375032677,0.42894280921,-0.0127661932164,-0.15816432149
1588857151497120525,7700,1588857151496972447,,0.551678963094,-2.88578047337,2.40375588401,0.428941753202,-0.0127615102281,-0.158167563271
1588857151503007760,7701,1588857151502930650,,0.551245029547,-2.88586566643,2.42696213283,0.430603539738,-0.0127750346569,-0.157243461147
1588857151509070842,7702,1588857151508960270,,0.505032176107,-2.88569016533,2.42604879945,0.431460082746,-0.0127634880688,-0.154810960547
1588857151515131958,7703,1588857151515036105,,0.505216827976,-2.88571909808,2.42597593767,0.43145924971,-0.0127358537847,-0.154815558017
1588857151521073114,7704,1588857151520999149,,0.527406277949,-3.01811525224,2.47362458371,0.433877559062,-0.0127495024139,-0.153728155746
1588857151527067937,7705,1588857151526964138,,0.458059578029,-3.01800854397,2.47210927243,0.435577431451,-0.012734348962,-0.148713522272
1588857151533309227,7706,1588857151533221219,,0.457566653877,-3.01811280695,2.49530199902,0.438952590039,-0.01144228619,-0.143250233889
1588857151539202122,7707,1588857151539090918,,0.457656053447,-3.0181417082,2.49525064682,0.438954111015,-0.0114238686163,-0.143247043155
1588857151545163209,7708,1588857151545069274,,0.434431141181,-3.01792310863,2.49499944022,0.439797253068,-0.0114536393345,-0.140664764381
1588857151551054340,7709,1588857151550979270,,0.411163126678,-3.15001253287,2.49525494748,0.439602014716,-0.010111119297,-0.132666991812
1588857151557395410,7710,1588857151557319744,,0.411014822808,-3.1499812118,2.49531891903,0.439602119795,-0.0101329990006,-0.132664974258
1588857151563036992,7711,1588857151562970032,,0.433750394769,-3.15020535889,2.51889005143,0.44126264939,-0.010144987352,-0.131587374125
1588857151569073873,7712,1588857151569004793,,0.40993222912,-3.28242000354,2.54233651851,0.446472171006,-0.0101685460008,-0.126242198867
1588857151575006031,7713,1588857151574925248,,0.409910085683,-3.2823860526,2.5423839224,0.44647175254,-0.0101743242806,-0.126243213262
1588857151581190354,7714,1588857151581083826,,0.386929735403,-3.15009155322,2.54127555859,0.44731868905,-0.0101797414431,-0.123658256231
1588857151587205924,7715,1588857151587125939,,0.386301469929,-3.28239834843,2.56524733515,0.448967901637,-0.0101831993382,-0.121820724027
1588857151596101415,7716,1588857151596015870,,0.385744154315,-3.28252375676,2.58841100725,0.448775705359,-0.0101974222432,-0.119999516266
1588857151601979192,7717,1588857151601887150,,0.386222089789,-3.15045684225,2.58751353816,0.449674106256,-0.00949471276029,-0.119087997466
1588857151608041187,7718,1588857151607963638,,0.363310972329,-3.28233512643,2.56476160885,0.447905372667,-0.0101381955545,-0.115629016312
1588857151614023751,7719,1588857151613944609,,0.363460817837,-3.28241927832,2.56463267744,0.447886154972,-0.0094551171998,-0.114724423661
1588857151620162349,7720,1588857151620084868,,0.340387205786,-3.28235073301,2.56418810114,0.448787475242,-0.00878623793503,-0.113956872444
1588857151626166682,7721,1588857151626063165,,0.317012548,-3.15027020538,2.58613379713,0.449430819517,-0.00878712418517,-0.108669532834
1588857151632119409,7722,1588857151632024943,,0.31700203674,-3.15022690336,2.58618783255,0.44942974362,-0.00879391852059,-0.108673432801
1588857151638165587,7723,1588857151638071244,,0.316798032389,-3.28232947328,2.58700267697,0.449386626973,-0.00880361691641,-0.106861392211
1588857151644299748,7724,1588857151644118507,,0.293880805564,-3.2820866308,2.5634992223,0.447641285881,-0.00881015207586,-0.104303001034
1588857151650211130,7725,1588857151650111343,,0.294128508994,-3.28194874166,2.54029342877,0.444978779088,-0.00882686192099,-0.101633218335
1588857151656338008,7726,1588857151656224785,,0.294039142281,-3.28195426455,2.54029663921,0.444978697133,-0.00883856122138,-0.101632560397
1588857151662030126,7727,1588857151661971249,,0.247433459088,-3.41405524953,2.5401277578,0.442142274211,-0.00884402236251,-0.0974437497662
1588857151668108741,7728,1588857151667934407,,0.247324633373,-3.41403702963,2.54016284429,0.442142263124,-0.00885824193708,-0.0974425084548
1588857151674199277,7729,1588857151674088359,,0.247278465015,-3.41403006303,2.54017670232,0.442141138833,-0.00886786076622,-0.0974467348946
1588857151683290720,7730,1588857151683172475,,0.270470467603,-3.41415182907,2.54054312056,0.440303221626,-0.00819387324276,-0.0973215351368
1588857151689230026,7731,1588857151689124599,,0.247946070938,-3.54608949077,2.49454224564,0.436901594134,-0.00817293028018,-0.0956934125044
1588857151695086250,7732,1588857151695003564,,0.247969655291,-3.54607831582,2.49455578693,0.43690273922,-0.0081670131522,-0.0956886895169
1588857151701204388,7733,1588857151701072984,,0.2483538323,-3.41375755512,2.49391669352,0.435994691706,-0.00814181657183,-0.0956991990973
1588857151707155067,7734,1588857151707072295,,0.225703588934,-3.41354247425,2.47038223983,0.43427044112,-0.00812725465617,-0.0940601155165
1588857151713256287,7735,1588857151712994453,,0.226301931814,-3.41338809074,2.44717694397,0.431652296285,-0.00809380934611,-0.0931881402502
1588857151719143726,7736,1588857151719045167,,0.249351839759,-3.41339355931,2.44769794404,0.428903071183,-0.00809530104891,-0.0930655656582
1588857151725109918,7737,1588857151725006649,,0.22637940212,-3.41330966859,2.44727916063,0.427976669792,-0.00807542927093,-0.092322657114
1588857151731081958,7738,1588857151730973062,,0.226026392661,-3.41337886275,2.4705787892,0.426002347586,-0.00806252014255,-0.0923453608781
1588857151737122575,7739,1588857151737021167,,0.226462093597,-3.41324214679,2.44736568273,0.424344728257,-0.00805352843024,-0.09327389664
1588857151743186504,7740,1588857151743090997,,0.250482661415,-3.41314409245,2.40141347416,0.421008672312,-0.00870092399746,-0.0949799053068
1588857151749176293,7741,1588857151749090622,,0.250452780234,-3.41312028862,2.40145042289,0.421008377135,-0.00870629469813,-0.0949807215556
1588857151755389222,7742,1588857151755243597,,0.250330566559,-3.41310909081,2.4014790807,0.420166163328,-0.00739976087731,-0.097701519093
1588857151761071643,7743,1588857151760984594,,0.274064468002,-3.28077692718,2.37810127617,0.418497633893,-0.00740473450395,-0.0984825671235
1588857151767022893,7744,1588857151766943499,,0.273163230668,-3.28098768015,2.42442349546,0.419103310819,-0.00741730881096,-0.0975719769619
1588857151773231999,7745,1588857151773137515,,0.273880164924,-3.28071454708,2.37820856405,0.413924647069,-0.00807032505822,-0.098534872173
1588857151779175227,7746,1588857151779082958,,0.273786044499,-3.28068634093,2.37825831073,0.413924469945,-0.00808353308219,-0.0985345335684
1588857151785204083,7747,1588857151785102500,,0.29685442705,-3.28073788909,2.37872329547,0.413078998672,-0.00808335953542,-0.101095775895
1588857151791253458,7748,1588857151791138854,,0.296904807184,-3.28069407194,2.37877743937,0.411231380669,-0.00807085139048,-0.100214338125
1588857151797225413,7749,1588857151797031202,,0.274208176458,-3.28048406546,2.3551385075,0.409589893636,-0.00872700132356,-0.102184477306
1588857151803194157,7750,1588857151803108959,,0.297783882489,-3.28040830913,2.332471339,0.406992191659,-0.00871358627407,-0.102071508776
1588857151809130646,7751,1588857151809010003,,0.298045126146,-3.14821060182,2.33166768906,0.406097205562,-0.00803200237069,-0.102982296213
1588857151815094124,7752,1588857151815005036,,0.298474604487,-3.14808679024,2.30853430698,0.40537519238,-0.00802339996335,-0.104786932364
1588857151821150386,7753,1588857151821071763,,0.32214672556,-3.14802266269,2.28585089179,0.401891143683,-0.00800757493478,-0.105589826872
1588857151827251238,7754,1588857151827180085,,0.322113096518,-3.28030196302,2.28652059169,0.400973982022,-0.00798749998031,-0.105598039273
1588857151833173682,7755,1588857151833100050,,0.322124253771,-3.28030308306,2.28651741304,0.40097453112,-0.00798467284622,-0.105596168041
1588857151839295115,7756,1588857151839184616,,0.322088953016,-3.28032145003,2.28649603598,0.399149580732,-0.00797948334947,-0.105612238036
1588857151845320422,7757,1588857151845150426,,0.322116745222,-3.14804377395,2.28582604256,0.399194484242,-0.00734353534801,-0.107424055747
1588857151851268541,7758,1588857151851170933,,0.345272001062,-3.14813705312,2.28622685139,0.397386115848,-0.00798498713067,-0.108201295169
1588857151857530283,7759,1588857151857439809,,0.345125708166,-3.1480979312,2.28630280959,0.396534716482,-0.00866729400432,-0.110920740585
1588857151863184026,7760,1588857151863099119,,0.368233869723,-3.14821808383,2.28667758725,0.394706352262,-0.00799457407302,-0.110796073464
1588857151869200920,7761,1588857151869049374,,0.34562029637,-3.01580745722,2.26227111609,0.393052185418,-0.00866342972812,-0.111862697669
1588857151875149000,7762,1588857151875053641,,0.368771099384,-2.88371176396,2.26195678087,0.391288818493,-0.00867498216442,-0.114455382698
1588857151881175727,7763,1588857151881078423,,0.369560994325,-2.88336769207,2.21580912611,0.38705377373,-0.0093376653285,-0.116309825339
1588857151887044873,7764,1588857151886960765,,0.369555886046,-2.88334833273,2.21583516958,0.387053587135,-0.00933983173237,-0.116310272339
1588857151893208931,7765,1588857151892936451,,0.393200248367,-2.75114442257,2.19238765166,0.385364885339,-0.00934409145168,-0.116187824933
1588857151898988964,7766,1588857151898906936,,0.393210117431,-2.75113243913,2.19240091913,0.382631013739,-0.00933727623982,-0.116219854773
1588857151902100108,7767,1588857151902006272,,0.393719263306,-2.61891299337,2.16834352366,0.380966013036,-0.00933346936528,-0.117138536037
1588857151908052252,7768,1588857151907980257,,0.393770509227,-2.61892923796,2.16831459765,0.380047980175,-0.00932362883365,-0.117150289513
1588857151914115126,7769,1588857151914024662,,0.371499504613,-2.48653479579,2.12074814834,0.375785852562,-0.00865015476228,-0.117347931273
1588857151923104420,7770,1588857151923026145,,0.395098232068,-2.48647889811,2.09796303088,0.373186912165,-0.008632494982,-0.117224355764
1588857151929046437,7771,1588857151928969157,,0.3951268421,-2.48648387382,2.09795174553,0.370466408278,-0.00928548703796,-0.118165093775
1588857151935118484,7772,1588857151935019761,,0.372472320333,-2.3543576798,2.07338247061,0.366005315595,-0.00926930948343,-0.11654686877
1588857151941107497,7773,1588857151941007817,,0.396044443306,-2.22242612751,2.04974824185,0.359751636121,-0.00793050950339,-0.116471361389
1588857151947057416,7774,1588857151946980432,,0.396037768402,-2.22240500916,2.04977242872,0.359752294754,-0.00793091383126,-0.116469299482
1588857151953401782,7775,1588857151953169695,,0.396418191252,-2.22226579137,2.02663304938,0.35622956168,-0.00792028075581,-0.115606654667
1588857151959246774,7776,1588857151959122952,,0.373701477877,-2.22194615303,2.0030330369,0.352671456602,-0.0085755754724,-0.113979292435
1588857151965155822,7777,1588857151965025817,,0.443332494893,-2.22201959556,1.98134943135,0.352849794275,-0.00791704768468,-0.115347190967
1588857151971029808,7778,1588857151970920503,,0.420254670857,-2.09014592513,1.97985136955,0.351006230497,-0.00725752746679,-0.114607239487
1588857151977113413,7779,1588857151976964374,,0.397241572318,-2.09002587871,1.97941803089,0.347310876073,-0.00790474628645,-0.112994578834
1588857151980045357,7780,1588857151979942768,,0.397655037014,-2.08981407335,1.95634658299,0.346519957214,-0.00789942930051,-0.112105110864
1588857151986326565,7781,1588857151986227755,,0.375012673886,-1.95783654207,1.93170147692,0.3430144638,-0.00788696074623,-0.112283835383
1588857151992272189,7782,1588857151992125928,,0.375018580109,-1.95781487973,1.93172228548,0.342990553674,-0.00723701514682,-0.111387766784
1588857151998279274,7783,1588857151998169200,,0.352483274177,-1.82595847029,1.90690743795,0.33852606153,-0.00722134146182,-0.109773183381
1588857152004228025,7784,1588857152004117419,,0.352504820588,-1.82595408673,1.90690765255,0.338525044732,-0.00722087972018,-0.109776349378
1588857152010207372,7785,1588857152010129578,,0.375489942221,-1.82604867816,1.90737048364,0.336721185217,-0.00721327810036,-0.11054694797
1588857152016270460,7786,1588857152016197199,,0.375506284775,-1.82604617166,1.90736966597,0.336721919562,-0.0072080909361,-0.110545049515
1588857152022178407,7787,1588857152022103987,,0.398940725517,-1.95749825572,1.88591720361,0.335952435119,-0.00720608090301,-0.110408865576
1588857152028262735,7788,1588857152028169264,,0.3989368281,-1.95749350078,1.88592296345,0.335953234851,-0.00720467320935,-0.110406523986
1588857152034244204,7789,1588857152034156104,,0.375845697749,-1.82582291916,1.8843035388,0.334084460767,-0.00720168641251,-0.108768846692
1588857152043003962,7790,1588857152042926150,,0.352795961645,-1.82573489211,1.88384568552,0.327553279766,-0.00718950691189,-0.103566488471
1588857152049125169,7791,1588857152048928822,,0.35271040321,-1.82573936337,1.88385737309,0.327555813869,-0.00719625859277,-0.103558004482
1588857152055564590,7792,1588857152055460634,,0.306650780796,-1.82555896124,1.88292871094,0.325594094161,-0.00653188317316,-0.0984709649687
1588857152061270200,7793,1588857152061185456,,0.3288502014,-1.9576477913,1.93081921625,0.325257793385,-0.00520809886306,-0.0965233834322
1588857152067142046,7794,1588857152067034130,,0.328813283235,-1.95765769791,1.93081545938,0.325259265491,-0.0052088415827,-0.0965183826118
1588857152073363014,7795,1588857152073281727,,0.283181473501,-1.82573197115,1.90552663128,0.32345827011,-0.00586708591058,-0.0923392277005
1588857152079005582,7796,1588857152078930826,,0.283084167517,-1.95729246277,1.90670734504,0.321561721346,-0.00520513246748,-0.0896614374807
1588857152085214700,7797,1588857152085124308,,0.237013346783,-1.95715131238,1.90577350277,0.318705660042,-0.00585699095183,-0.085488226339
1588857152091198326,7798,1588857152091117412,,0.214430607583,-1.82528800605,1.88105466288,0.31515235276,-0.00584684432918,-0.0838717177245
1588857152097253136,7799,1588857152097172986,,0.237888246116,-1.82513749196,1.85844180543,0.312508417434,-0.00518207168973,-0.0819611006995
1588857152103270504,7800,1588857152103176120,,0.237920760479,-1.82514462375,1.85843063914,0.312506649854,-0.00518301466618,-0.0819677803649
1588857152109073089,7801,1588857152108997989,,0.19201387453,-1.82499441495,1.85750300414,0.312413138797,-0.00584299225826,-0.0786853070283
1588857152115213225,7802,1588857152115132159,,0.237647032721,-1.82535281432,1.88150657896,0.312335713457,-0.00518698863195,-0.0810992706757
1588857152121319639,7803,1588857152121168479,,0.237652778576,-1.82535443467,1.88150428122,0.312334765579,-0.0051896119431,-0.0811027533105
1588857152127158029,7804,1588857152127065228,,0.238090286914,-1.82514944901,1.85840418919,0.311565979362,-0.0051862276033,-0.0811171759925
1588857152133375544,7805,1588857152133183479,,0.238075253731,-1.82515108834,1.85840450512,0.310648932007,-0.00453717336832,-0.0811270632583
1588857152139268817,7806,1588857152139158878,,0.238479042283,-1.82493068772,1.83532629632,0.305333996096,-0.00517732584647,-0.0820815352461
1588857152145266053,7807,1588857152145175001,,0.23848450318,-1.82493480676,1.83532149101,0.305333940917,-0.00517645333423,-0.0820817955346
1588857152151270871,7808,1588857152151106658,,0.261863409368,-1.82479719798,1.81260003639,0.30278097613,-0.0051710710959,-0.0837574796303
1588857152157691502,7809,1588857152157564755,,0.284984947083,-1.69343001949,1.81181191881,0.300975996941,-0.00516573030065,-0.0845294496307
1588857152163257109,7810,1588857152163093700,,0.261964363743,-1.69336233899,1.81132598153,0.300120553119,-0.00516232294424,-0.0864786386255
1588857152169203806,7811,1588857152169102641,,0.261984507598,-1.69337228461,1.81131377012,0.299202115242,-0.00515954019869,-0.0864907988028
1588857152175338473,7812,1588857152175226413,,0.262368118554,-1.69315122259,1.78822848663,0.297541946989,-0.00581271386982,-0.0873993825169
1588857152181309490,7813,1588857152181185201,,0.262432391976,-1.56183280253,1.78693930018,0.295692485629,-0.00580787974456,-0.086522960184
1588857152187285316,7814,1588857152187191798,,0.262769392565,-1.69291916053,1.76515372469,0.293075545844,-0.00580098022322,-0.0856563720944
1588857152196235895,7815,1588857152196123520,,0.286245107056,-1.56144095155,1.74124545931,0.287736416997,-0.00578966281897,-0.0855608245993
1588857152202314097,7816,1588857152202169962,,0.263610566237,-1.56110537761,1.71760499395,0.285096667245,-0.00512598138933,-0.0839394782452
1588857152208385984,7817,1588857152208296553,,0.263625884781,-1.56110768424,1.71760054638,0.285095934296,-0.00512581127018,-0.0839419780214
1588857152214091160,7818,1588857152214016811,,0.263670379482,-1.42993088883,1.71625056634,0.281470987058,-0.00577564228092,-0.0848675574127
1588857152220120605,7819,1588857152220043911,,0.263684699709,-1.42993204119,1.71624740612,0.281470455705,-0.00577490459151,-0.0848693698721
1588857152226216416,7820,1588857152226115255,,0.264021700118,-1.56085875409,1.69453352253,0.279812229836,-0.00577057393787,-0.0857866847369
1588857152232144035,7821,1588857152232039298,,0.264072918111,-1.42967725017,1.69316786146,0.280703497192,-0.00577213133768,-0.0848776061943
1588857152238257210,7822,1588857152238142133,,0.287076762301,-1.42976925164,1.69364200282,0.279858303091,-0.00576945056277,-0.0874338507511
1588857152244298192,7823,1588857152244179175,,0.287087592299,-1.42976886919,1.69364048993,0.281706495702,-0.00643116451581,-0.0883123055306
1588857152250248079,7824,1588857152250161054,,0.287101948537,-1.42977603673,1.69363200549,0.281705836119,-0.00643046468671,-0.0883144604588
1588857152256418046,7825,1588857152256287380,,0.264122245963,-1.42968033295,1.6931575643,0.282651064026,-0.00709115819292,-0.0893514029032
1588857152262380559,7826,1588857152262300008,,0.355567857138,-1.43032128467,1.7181452938,0.283528435124,-0.00643504776573,-0.0932462025849
1588857152268359577,7827,1588857152268204843,,0.355587652615,-1.43032861636,1.71813509351,0.283527647426,-0.00643361722467,-0.0932486963697
1588857152274293795,7828,1588857152274197422,,0.286469003845,-1.43032669976,1.73983565803,0.283311992834,-0.0070898768888,-0.0910076688492
1588857152280599392,7829,1588857152280486183,,0.309368001673,-1.56162826627,1.74159566496,0.28150938011,-0.00708151707226,-0.0917736248708
1588857152286445397,7830,1588857152286319389,,0.30940049455,-1.56172324632,1.74150472252,0.281507632626,-0.0070766289827,-0.0917793620102
1588857152292317939,7831,1588857152292218390,,0.286504903907,-1.56165892912,1.74100723295,0.283333918,-0.00708086832696,-0.0919124118451
1588857152298244336,7832,1588857152298158604,,0.309437096245,-1.56177134646,1.7414550834,0.285188843619,-0.00642754174435,-0.092649612366
1588857152304433010,7833,1588857152304276376,,0.28655124249,-1.56173475215,1.74093159125,0.285138940025,-0.00708475084639,-0.091014518945
1588857152310303778,7834,1588857152310207960,,0.286500116415,-1.69311254523,1.74217108263,0.286912556301,-0.00643298115029,-0.0892046160407
1588857152316399057,7835,1588857152316263604,,0.286510237424,-1.69313214595,1.74215036919,0.286911818109,-0.00643268981005,-0.0892070112945
1588857152322421975,7836,1588857152322280043,,0.286116762976,-1.69339135199,1.76519989346,0.287654087226,-0.00577854045574,-0.0883071535891
1588857152328275302,7837,1588857152328193544,,0.286072657462,-1.693409059,1.76519005506,0.287654668388,-0.00578307788242,-0.0883049634365
1588857152334331274,7838,1588857152334232345,,0.286059441655,-1.6934064605,1.76519468963,0.287629925452,-0.00578474979479,-0.087411114478
1588857152343401703,7839,1588857152343248809,,0.262919451621,-1.82475331412,1.76601071729,0.287584808635,-0.0057895250535,-0.0857627522067
1588857152349466381,7840,1588857152349360744,,0.262544687336,-1.82496915764,1.78908663392,0.290174837708,-0.00645433706801,-0.0857407994252
1588857152355764061,7841,1588857152355658611,,0.2626078829,-1.69348167265,1.78788034745,0.29202403782,-0.00711830847547,-0.0866151655469
1588857152361283488,7842,1588857152361198596,,0.285199110836,-1.82522742661,1.81267028811,0.293780411469,-0.00646219453568,-0.0891354198844
1588857152367234902,7843,1588857152367116753,,0.28522024332,-1.82521483806,1.81267963876,0.293780323209,-0.0064597714576,-0.0891358864168
1588857152376139929,7844,1588857152376065429,,0.308243620179,-1.69381297428,1.81194997462,0.294759576452,-0.00645686987788,-0.0916712926935
1588857152382231166,7845,1588857152382143962,,0.308238757305,-1.69380743284,1.811955982,0.296658257448,-0.00712075770033,-0.0943462598236
1588857152388233673,7846,1588857152388089947,,0.308246683991,-1.69379450698,1.81196671649,0.296657797375,-0.00712158604118,-0.0943476439213
1588857152394222549,7847,1588857152394149521,,0.331692570573,-1.56233131484,1.7881061811,0.295080206379,-0.00776605610733,-0.0978092876641
1588857152403261284,7848,1588857152403077951,,0.354273038056,-1.56261939923,1.81170067536,0.296823978371,-0.00777390579105,-0.10033783139
1588857152409140319,7849,1588857152409051886,,0.35429095992,-1.56261007958,1.811705209,0.296823309634,-0.00777333541441,-0.100339853843
1588857152415267229,7850,1588857152415170537,,0.353948458914,-1.56282538082,1.83490592494,0.297642370336,-0.00777671835146,-0.102136385313
1588857152421329915,7851,1588857152421126838,,0.354319693026,-1.56257974368,1.81172575441,0.298721554066,-0.00777999603138,-0.103022921238
1588857152427280992,7852,1588857152427171102,,0.354329640853,-1.56257827089,1.81172507914,0.298694356174,-0.00844055476829,-0.10213123228
1588857152436249313,7853,1588857152436120313,,0.354731145623,-1.56235028142,1.78862599249,0.304314255722,-0.00779689248426,-0.102090162349
1588857152439153672,7854,1588857152439080020,,0.331439070927,-1.56249768118,1.81123215878,0.305082575226,-0.00846107386557,-0.102230810995
1588857152445179298,7855,1588857152445100190,,0.331060920482,-1.56276756813,1.8343938309,0.307650307574,-0.00847094054191,-0.101315372545
1588857152451165309,7856,1588857152451092742,,0.354369757968,-1.43151746351,1.81037587466,0.310608426507,-0.00847914922859,-0.10383406922
1588857152457346921,7857,1588857152457269759,,0.353965694645,-1.43184658323,1.83351521275,0.314133365132,-0.00849570088551,-0.104710020432
1588857152463189041,7858,1588857152463088649,,0.376524874974,-1.30125119354,1.85583573322,0.319534875082,-0.00785557100308,-0.10720823974
1588857152469213409,7859,1588857152469103308,,0.376506463369,-1.30128565335,1.85581530609,0.319534264401,-0.0078604622456,-0.107209701355
1588857152475463378,7860,1588857152475291469,,0.353918498487,-1.30098601947,1.83218778907,0.318770749945,-0.00852375160312,-0.107360895345
1588857152481209362,7861,1588857152481110405,,0.376423631212,-1.17048710598,1.85461170883,0.32234907163,-0.00855201980214,-0.109880510712
1588857152487133090,7862,1588857152487054842,,0.376723537138,-1.17025233698,1.83148472853,0.32338316082,-0.00856131755468,-0.10897069787
1588857152496230170,7863,1588857152496154821,,0.399618590097,-1.03975849138,1.83079432355,0.326148773969,-0.00858293739904,-0.109688962273
1588857152502300570,7864,1588857152502216470,,0.399594918275,-1.03974926148,1.83080473225,0.327056824524,-0.00858836315121,-0.109677465112
1588857152508223089,7865,1588857152508085704,,0.399274960761,-0.909580354203,1.85280418822,0.329732521438,-0.0085955889917,-0.112349765631
1588857152514144653,7866,1588857152514066771,,0.422198888615,-0.779481545357,1.85224398994,0.334332699444,-0.00860505665376,-0.113958105556
1588857152520301593,7867,1588857152520217668,,0.399011196224,-0.779581421388,1.87491317772,0.338712393529,-0.00927849161103,-0.112264390577
1588857152526674200,7868,1588857152526312855,,0.399018158012,-0.779590557752,1.87490789723,0.338712049278,-0.00927747408385,-0.112265513303
1588857152532555221,7869,1588857152532262775,,0.399045541902,-0.779590239382,1.87490220156,0.344208016922,-0.00929378807434,-0.113114863516
1588857152538180376,7870,1588857152538090015,,0.399056791014,-0.779598440729,1.87489639715,0.344207853574,-0.00928992384383,-0.113115678008
1588857152544266303,7871,1588857152544142004,,0.39904130051,-0.779594068889,1.87490151195,0.348727622515,-0.00930301047699,-0.11126185004
1588857152550131136,7872,1588857152550057715,,0.399019576465,-0.779584476546,1.87491012392,0.348729282677,-0.00930109293721,-0.111256806788
1588857152556412332,7873,1588857152556273609,,0.375506061619,-0.649825694453,1.91995379138,0.350199738004,-0.00864164735261,-0.108688911293
1588857152562182598,7874,1588857152562091007,,0.375502061346,-0.649807734835,1.91996065226,0.352895775884,-0.00864782850919,-0.106853514284
1588857152568245685,7875,1588857152568160880,,0.375162537674,-0.64996786219,1.94318876538,0.359046957051,-0.00866661719863,-0.103182874408
1588857152574351596,7876,1588857152574218068,,0.375129301985,-0.649955003441,1.94319948275,0.359048985963,-0.00866498136594,-0.103175951507
1588857152580375322,7877,1588857152580300591,,0.35193602879,-0.65003350437,1.96591022767,0.362541734746,-0.00801108375793,-0.102383323913
1588857152586289597,7878,1588857152586117016,,0.351760233686,-0.520238808034,1.98837409737,0.3714387945,-0.0086974751245,-0.098681915902
1588857152592146532,7879,1588857152592074547,,0.351764432609,-0.520222211852,1.9883776967,0.371438682244,-0.00869721562467,-0.0986823613026
1588857152598299634,7880,1588857152598136781,,0.328904085189,-0.520142588612,1.98786596751,0.375006585414,-0.00804241538119,-0.0951811413957
1588857152604357991,7881,1588857152604252387,,0.3052793709,-0.520336150276,2.03395504329,0.382881535582,-0.0074092986828,-0.0925342116314
1588857152610234563,7882,1588857152610133119,,0.305240316909,-0.520318182065,2.03396550119,0.382883891574,-0.00740271952639,-0.0925249892484
1588857152616202554,7883,1588857152616091722,,0.305088428094,-0.390553104075,2.05663428428,0.387327523344,-0.00741211355462,-0.093369406766
1588857152622203478,7884,1588857152622091080,,0.304889812214,-0.520438120878,2.05722157777,0.390992453447,-0.00741743007499,-0.0933210539137
1588857152628224142,7885,1588857152628138545,,0.304548893535,-0.520575326524,2.08047234615,0.394474029401,-0.00742488693652,-0.092378956578
1588857152634362828,7886,1588857152634247259,,0.30405913136,-0.390862744747,2.12653215663,0.405179327483,-0.00810350637326,-0.0931449289555
1588857152640202446,7887,1588857152640121262,,0.304075950046,-0.390883495353,2.12652593763,0.405178561858,-0.00810307742444,-0.0931482966677
1588857152646168249,7888,1588857152646067693,,0.303448490692,-0.39111955851,2.17314611835,0.414964131782,-0.00812807709774,-0.0939359859119
1588857152652259415,7889,1588857152652102234,,0.303490592965,-0.391147442885,2.17313522017,0.41496212412,-0.00813008046937,-0.0939446810071
1588857152658727477,7890,1588857152658617828,,0.303426362209,-0.261342771152,2.19602790689,0.423068188892,-0.00815759797132,-0.0947527199042
1588857152664248151,7891,1588857152664154238,,0.303419587826,-0.261358030854,2.19602702684,0.423068308424,-0.0081608165737,-0.09475190904
1588857152670453754,7892,1588857152670270685,,0.280204730606,-0.261414671927,2.21880587322,0.427472050721,-0.0081784917491,-0.0939453821715
1588857152676256496,7893,1588857152676158890,,0.303119173331,-0.261475619522,2.21929338042,0.430203107761,-0.00885399960438,-0.093768676917
1588857152682156397,7894,1588857152682037787,,0.280163627623,-0.131532315902,2.24189248152,0.432810285925,-0.0088679601267,-0.0938865554259
1588857152688162475,7895,1588857152688089052,,0.303065982304,-0.131589823617,2.24238113763,0.434655351627,-0.00887524248966,-0.0946188497131
1588857152694218752,7896,1588857152694115801,,0.302700938054,-0.131647839846,2.26576640454,0.439980596039,-0.0088956788155,-0.0936445615267
1588857152700313492,7897,1588857152700226366,,0.279802500132,-0.131593489686,2.26527768697,0.4436380521,-0.00957116014883,-0.0937419655978
1588857152706239147,7898,1588857152706094663,,0.303007369684,-0.00169182173927,2.26574081312,0.445503402684,-0.00957969052496,-0.095387776047
1588857152712116149,7899,1588857152712007261,,0.303010672837,-0.00168074002053,2.26574037962,0.450077782629,-0.00959578264829,-0.0953268981418
1588857152718155108,7900,1588857152718078187,,0.302709565639,-0.00170391941935,2.28902038674,0.453630565295,-0.0102608985479,-0.0970919915691
1588857152724090013,7901,1588857152724013831,,0.326037982769,0.128223645202,2.289647768,0.457304363305,-0.00961303055685,-0.0978047801957
1588857152727289948,7902,1588857152727221092,,0.32607668745,0.128230247559,2.2896418865,0.459192571421,-0.00961861897638,-0.100502361423
1588857152736333953,7903,1588857152736188072,,0.348997376264,0.258254118002,2.31370003644,0.463652066826,-0.0102805924053,-0.102105987369
1588857152742313716,7904,1588857152742209677,,0.326061942514,0.388456202178,2.33691445603,0.468119700944,-0.0109557743474,-0.104003104936
1588857152748355130,7905,1588857152748259236,,0.326063410441,0.388430924787,2.33691845284,0.468119598417,-0.0109518149116,-0.104003983424
1588857152754209109,7906,1588857152754144854,,0.325718816897,0.388475912632,2.36029460071,0.472535602868,-0.0109607849691,-0.103043935233
1588857152760824887,7907,1588857152760748911,,0.370920082965,0.518858270648,2.43161400895,0.483186229746,-0.0109860171207,-0.108036577114
1588857152766362294,7908,1588857152766218164,,0.37092117976,0.518855609118,2.43161440956,0.48318619916,-0.0109866502342,-0.108036649526
1588857152772219034,7909,1588857152772088181,,0.370940545887,0.518845043148,2.43161370989,0.485973278932,-0.0109933758689,-0.109818343199
1588857152778172879,7910,1588857152778088036,,0.370589626775,0.518918548162,2.45498113663,0.489500544766,-0.0116694886904,-0.110673769977
1588857152784198705,7911,1588857152784117948,,0.393315776081,0.51895167724,2.47873582319,0.495819255551,-0.0116857414082,-0.113159482769
1588857152790329520,7912,1588857152790249761,,0.393343493476,0.649447601215,2.50260996452,0.498435918781,-0.0116932018508,-0.114036096772
1588857152796162412,7913,1588857152796041964,,0.393020137343,0.649539887936,2.52586437198,0.503778499586,-0.0110411764239,-0.113968157785
1588857152802193587,7914,1588857152802110418,,0.369596901512,0.649666348493,2.54874014464,0.507247557564,-0.0117157735118,-0.112246878432
1588857152808144936,7915,1588857152808067985,,0.369636323549,0.780306637852,2.57267691075,0.510762085995,-0.0117284399549,-0.112200012439
1588857152814310351,7916,1588857152814222282,,0.369296590172,0.780417616066,2.59592491179,0.515184044265,-0.0123979555077,-0.112142953766
1588857152823149719,7917,1588857152823044398,,0.369321251749,0.780408631764,2.59592410426,0.525183631817,-0.0117680786388,-0.109295624117
1588857152829585372,7918,1588857152829363601,,0.36824282737,0.780703024538,2.66579022915,0.532965713139,-0.0117891781088,-0.108272424325
1588857152835396970,7919,1588857152835240243,,0.368255595689,0.78072106611,2.66578318163,0.532965152692,-0.011788759841,-0.108275228603
1588857152841273798,7920,1588857152841178949,,0.344171682912,0.650306946824,2.71130318615,0.543580245472,-0.0118164966934,-0.104643285184
1588857152847403133,7921,1588857152847294636,,0.298264684049,0.781072239293,2.73424952696,0.549754792923,-0.0118294716466,-0.101262478971
1588857152856622291,7922,1588857152856507657,,0.274439387982,0.78128702689,2.78032702504,0.556724275265,-0.0118309543512,-0.0985718312944
1588857152862363667,7923,1588857152862294212,,0.297004030652,0.912210159605,2.8280803104,0.563778588102,-0.0111661163448,-0.0992227502006
1588857152868314659,7924,1588857152868225805,,0.296993011785,0.912174962879,2.8280928202,0.563778418142,-0.011149551654,-0.0992255785989
1588857152874321468,7925,1588857152874199011,,0.296627973678,0.912122843346,2.85139634706,0.574570109929,-0.0111492594534,-0.0972654287479
1588857152883440240,7926,1588857152883310154,,0.296297903196,0.912156441095,2.87466864204,0.578045506154,-0.0118228661521,-0.0954040977708
1588857152889552294,7927,1588857152889351989,,0.296336885135,0.912156986186,2.87466445087,0.578044250529,-0.011824099927,-0.0954115522969
1588857152895459408,7928,1588857152895336188,,0.27287552229,0.912299765127,2.89757232719,0.581539919107,-0.0118234827347,-0.0945903401312
1588857152901380405,7929,1588857152901271748,,0.29550272349,0.912383670505,2.92127697766,0.587803581409,-0.0111704917154,-0.0943465049419
1588857152907559026,7930,1588857152907393752,,0.295465949844,1.04335754975,2.94524578754,0.593149421905,-0.0111918811351,-0.0942629343007
1588857152914197801,7931,1588857152914110773,,0.295093513613,1.04347147675,2.96849265346,0.603063466282,-0.0105510354022,-0.0941120443436
1588857152919418746,7932,1588857152919263719,,0.295075731933,1.04349193676,2.96848722897,0.603064067638,-0.0105527067664,-0.0941080034114
1588857152925378057,7933,1588857152925246456,,0.272364558516,1.17453274717,2.96878127401,0.605814919665,-0.0112328510936,-0.0942067456719
1588857152931384745,7934,1588857152931257140,,0.294574096787,1.17473120596,3.01581986376,0.611010501354,-0.0119102229444,-0.093971076515
1588857152937401325,7935,1588857152937311518,,0.271188264318,1.17486374067,3.03861825126,0.613590787092,-0.0119158374167,-0.0931804170349
1588857152943393086,7936,1588857152943243874,,0.271222070442,1.17487122013,3.03861234207,0.619979329573,-0.0112771487883,-0.0921769951549
1588857152949284841,7937,1588857152949180354,,0.270753802964,1.30619684902,3.08595988474,0.626079512559,-0.0112953160442,-0.0911581704448
1588857152955825521,7938,1588857152955691263,,0.270737698608,1.3062131374,3.08595440321,0.626079832161,-0.0112921701061,-0.0911563651332
1588857152961247414,7939,1588857152961160988,,0.270309527476,1.30630981313,3.10920542583,0.631425637919,-0.0119700069473,-0.0910673995428
1588857152967319347,7940,1588857152967202045,,0.270273542015,1.43764143592,3.13320788748,0.639521738265,-0.0113295761628,-0.0909388701483
1588857152976432076,7941,1588857152976321969,,0.246972136825,1.70057363403,3.18092325047,0.647398093977,-0.0120307647057,-0.0873204019342
1588857152982312386,7942,1588857152982209973,,0.246982900506,1.70057472922,3.18092182923,0.647397989411,-0.0120343990411,-0.0873206763919
1588857152988343530,7943,1588857152988247463,,0.223079873113,1.70085881541,3.22693184615,0.658985792267,-0.0120633648132,-0.0863701680123
1588857152994255121,7944,1588857152994160368,,0.223120024435,1.70085656246,3.22693025771,0.658984627604,-0.0120615173486,-0.0863793116668
1588857153000613070,7945,1588857153000532168,,0.222293348423,1.7010922285,3.27348593524,0.670536821688,-0.0121006170819,-0.0834538625738
1588857153006317977,7946,1588857153006222548,,0.222323619864,1.70108239957,3.27348898711,0.670536456156,-0.0121091527184,-0.0834555614565
1588857153012239614,7947,1588857153012125181,,0.244991524366,1.70117030276,3.2971506751,0.674979702814,-0.0121283434549,-0.0841371252248
1588857153018387106,7948,1588857153018269029,,0.22137552417,1.83289789752,3.34405460486,0.684687116696,-0.0128143034975,-0.0804749977822
1588857153024464603,7949,1588857153024326780,,0.221440427029,1.83287232187,3.34406432575,0.684685840126,-0.0128199812707,-0.0804849540142
