%time,field.header.seq,field.header.stamp,field.header.frame_id,field.vector.x,field.vector.y,field.vector.z
1588857150401774557,7520,1588857150401587454,,0.499801767442,-0.199528646382,0.214174864281
1588857150407650455,7521,1588857150407537235,,0.4998045,-0.199529814084,0.214143040514
1588857150413628340,7522,1588857150413535252,,0.49980555957,-0.199531750715,0.214126459991
1588857150419671269,7523,1588857150419535325,,0.499807894195,-0.199534146719,0.214091917603
1588857150425715842,7524,1588857150425556267,,0.499808796939,-0.199535191571,0.214075019657
1588857150431695304,7525,1588857150431581818,,0.499809790636,-0.199537117151,0.214057890008
1588857150437749842,7526,1588857150437606760,,0.499812126551,-0.199540127881,0.214026970229
1588857150443688843,7527,1588857150443579269,,0.499814164302,-0.199542200759,0.213996098887
1588857150449791862,7528,1588857150449601811,,0.49981467,-0.199543932423,0.213975709196
1588857150456055944,7529,1588857150455941500,,0.499816224823,-0.199544949304,0.213961033453
1588857150461792698,7530,1588857150461613272,,0.499818303183,-0.199548250738,0.213933034638
1588857150467689486,7531,1588857150467574431,,0.499819783657,-0.199553034779,0.213899618833
1588857150473704187,7532,1588857150473555561,,0.499821432626,-0.199552139482,0.21388457051
1588857150479762609,7533,1588857150479581934,,0.49982294699,-0.199555918623,0.213871055432
1588857150485712147,7534,1588857150485564296,,0.499824711154,-0.199557104734,0.213841398416
1588857150491742521,7535,1588857150491620326,,0.499826594127,-0.199560888563,0.21381149235
1588857150497782296,7536,1588857150497585645,,0.499827129804,-0.19956404843,0.213794497415
1588857150503726869,7537,1588857150503568766,,0.499828266195,-0.199565335587,0.213781029515
1588857150509828932,7538,1588857150509592898,,0.499829314559,-0.199569647571,0.213749940845
1588857150515691399,7539,1588857150515558046,,0.49983149211,-0.199570431939,0.21373734263
1588857150521777303,7540,1588857150521627076,,0.499833010555,-0.19957466488,0.213707694016
1588857150527765723,7541,1588857150527629230,,0.499833844652,-0.199577098558,0.213694182301
1588857150533724386,7542,1588857150533596923,,0.499835466991,-0.199581311653,0.213664032631
1588857150539789231,7543,1588857150539632566,,0.499837026823,-0.199582174979,0.213649598798
1588857150545762007,7544,1588857150545638566,,0.499838688372,-0.199586097967,0.213621085407
1588857150551701249,7545,1588857150551562150,,0.499839987498,-0.199587719229,0.21360629697
1588857150557650146,7546,1588857150557547513,,0.499842011231,-0.199590098713,0.213579238604
1588857150563780498,7547,1588857150563612816,,0.49984303572,-0.199591794321,0.21356675839
1588857150569645754,7548,1588857150569563190,,0.499845565212,-0.199594111378,0.213539616073
1588857150575785001,7549,1588857150575569928,,0.499846738435,-0.199594574156,0.213526727925
1588857150581670827,7550,1588857150581557967,,0.499849660617,-0.199596373603,0.213498990276
1588857150587801072,7551,1588857150587630348,,0.499850037861,-0.199598494994,0.213485550986
1588857150593790794,7552,1588857150593624652,,0.49985242024,-0.199598081722,0.213456618126
1588857150599817961,7553,1588857150599660164,,0.499853754679,-0.199599086622,0.213446148689
1588857150605751360,7554,1588857150605624167,,0.499855967436,-0.19960028226,0.213419103493
1588857150611777891,7555,1588857150611653808,,0.499856651148,-0.199602394445,0.213404478123
1588857150617823746,7556,1588857150617647724,,0.499858069,-0.199602315855,0.213391500589
1588857150623734908,7557,1588857150623635553,,0.49986028705,-0.199602572525,0.213363813633
1588857150629795257,7558,1588857150629659031,,0.499860384171,-0.199603565546,0.213350833973
1588857150635674767,7559,1588857150635576892,,0.499862555579,-0.199605508216,0.21332883446
1588857150641666916,7560,1588857150641582950,,0.499863398544,-0.199605919549,0.213316241587
1588857150647727678,7561,1588857150647631791,,0.499864092101,-0.199606352824,0.213305868647
1588857150654034346,7562,1588857150653840177,,0.49986562582,-0.199608240329,0.213279898555
1588857150662738140,7563,1588857150662631633,,0.499868302912,-0.199609794635,0.213247460376
1588857150668831650,7564,1588857150668677709,,0.499869409492,-0.199611180096,0.213235699533
1588857150674796763,7565,1588857150674626274,,0.499869890894,-0.199610966956,0.213224152331
1588857150680770262,7566,1588857150680656708,,0.4998713144,-0.199613483144,0.213197985874
1588857150686753063,7567,1588857150686632227,,0.499871951678,-0.199613573571,0.21318514618
1588857150692744314,7568,1588857150692656856,,0.49987439999,-0.199614825467,0.213159811372
1588857150698826857,7569,1588857150698623605,,0.499875247116,-0.199615866377,0.213147013392
1588857150704774063,7570,1588857150704655039,,0.499875931696,-0.199615962925,0.213131071879
1588857150710829220,7571,1588857150710649035,,0.499877928563,-0.199615090143,0.213104709375
1588857150716720326,7572,1588857150716613819,,0.49987898227,-0.199613537425,0.213078199235
1588857150722795509,7573,1588857150722673301,,0.499880256663,-0.199611853103,0.213063534211
1588857150728801148,7574,1588857150728616428,,0.499880451174,-0.199611473355,0.213049116088
1588857150734719212,7575,1588857150734587421,,0.499880815671,-0.199609109189,0.213035210812
1588857150740727692,7576,1588857150740596574,,0.499882218096,-0.199600435639,0.213011394638
1588857150746667026,7577,1588857150746585576,,0.499882663288,-0.199594001109,0.212998800762
1588857150756154957,7578,1588857150755969766,,0.499885477936,-0.199573859397,0.212955726247
1588857150761820515,7579,1588857150761676698,,0.499888142071,-0.199561103892,0.212926963891
1588857150767783305,7580,1588857150767617973,,0.499889232027,-0.19955422699,0.212913216094
1588857150773714462,7581,1588857150773611282,,0.499890362721,-0.199545383972,0.212900018209
1588857150782788460,7582,1588857150782640111,,0.499892858322,-0.199529468368,0.212869648706
1588857150788798909,7583,1588857150788647040,,0.499894247387,-0.199519917946,0.21285327187
1588857150794797285,7584,1588857150794695927,,0.499895877514,-0.199509849817,0.212839352061
1588857150800812346,7585,1588857150800690855,,0.499897448821,-0.19949185562,0.212809461181
1588857150806772359,7586,1588857150806681536,,0.499898605236,-0.199482477307,0.212795136592
1588857150812836425,7587,1588857150812705519,,0.499900263321,-0.199465022988,0.212764657667
1588857150818796678,7588,1588857150818684881,,0.499901870691,-0.199455028871,0.212749797229
1588857150824824633,7589,1588857150824721830,,0.499903981347,-0.199434797313,0.212717799272
1588857150830820167,7590,1588857150830673167,,0.499905717041,-0.199423931552,0.212702797032
1588857150836931135,7591,1588857150836684561,,0.499908748627,-0.199402730913,0.21267508872
1588857150842949700,7592,1588857150842719979,,0.499910787316,-0.199389578772,0.212661339698
1588857150848755962,7593,1588857150848663639,,0.499914031406,-0.199363280576,0.212635124968
1588857150855039599,7594,1588857150854806763,,0.499915502949,-0.199351591639,0.212621635684
1588857150860732084,7595,1588857150860599922,,0.499918206615,-0.199324921455,0.21259722446
1588857150866681377,7596,1588857150866601635,,0.499919740152,-0.199311660601,0.212584593991
1588857150872800527,7597,1588857150872629255,,0.499923740758,-0.199282631619,0.212563867441
1588857150878871768,7598,1588857150878640960,,0.499925420873,-0.199267689542,0.212553021981
1588857150884798208,7599,1588857150884637540,,0.49992857058,-0.19923434306,0.21253027931
1588857150890750412,7600,1588857150890645775,,0.499929814236,-0.199217858791,0.212518427325
1588857150896849115,7601,1588857150896679655,,0.499932331081,-0.199180989432,0.212495857559
1588857150902808058,7602,1588857150902690082,,0.499932486146,-0.199163521303,0.212484071324
1588857150908914345,7603,1588857150908684297,,0.499932827933,-0.199125940089,0.212461468256
1588857150914786491,7604,1588857150914656009,,0.499932955505,-0.199106306853,0.212450395821
1588857150920786144,7605,1588857150920673631,,0.49993480643,-0.199067156373,0.212429669847
1588857150926749117,7606,1588857150926659603,,0.499935886405,-0.199047666416,0.21241934914
1588857150932866493,7607,1588857150932754059,,0.499936979258,-0.199005916927,0.21239542917
1588857150938884997,7608,1588857150938724696,,0.499938120974,-0.198982757417,0.212383570446
1588857150944823835,7609,1588857150944670441,,0.499938791573,-0.198937553858,0.212361418435
1588857150950816837,7610,1588857150950649853,,0.499940345228,-0.198912887324,0.212348756298
1588857150957136128,7611,1588857150957007344,,0.499941363734,-0.19886846205,0.212325208417
1588857150962868883,7612,1588857150962710944,,0.499942001612,-0.198844407198,0.212313747462
1588857150968828174,7613,1588857150968709214,,0.499941708699,-0.198796248482,0.212289618857
1588857150974786849,7614,1588857150974655986,,0.499941539547,-0.198771426629,0.212277335251
1588857150980858513,7615,1588857150980695617,,0.499941630921,-0.198722987312,0.21225360592
1588857150986812499,7616,1588857150986715863,,0.499941290602,-0.198699626291,0.212243344775
1588857150992810755,7617,1588857150992718778,,0.499940733047,-0.198648671131,0.212221576159
1588857150998873594,7618,1588857150998700034,,0.499941490471,-0.198620486182,0.212212500503
1588857151001770344,7619,1588857151001676494,,0.499939792292,-0.198571888454,0.212194284017
1588857151007758388,7620,1588857151007628366,,0.499939349724,-0.198548694747,0.21218683937
1588857151013899147,7621,1588857151013761207,,0.499939805833,-0.198492300858,0.212170942627
1588857151022879409,7622,1588857151022644257,,0.499942389387,-0.198404785255,0.212140291253
1588857151028852906,7623,1588857151028730116,,0.499941789755,-0.19837665182,0.212128046076
1588857151034767157,7624,1588857151034678138,,0.499939698544,-0.198319791697,0.212106118331
1588857151040823648,7625,1588857151040683951,,0.499940299314,-0.198286890561,0.21209321832
1588857151046784063,7626,1588857151046649031,,0.499942037116,-0.198255796624,0.212079025694
1588857151056111981,7627,1588857151056014396,,0.49994169076,-0.198163270421,0.212039491734
1588857151061780370,7628,1588857151061661688,,0.499944718762,-0.198103518317,0.212016830555
1588857151067836472,7629,1588857151067677525,,0.499945549233,-0.198074121185,0.212001455015
1588857151073752471,7630,1588857151073647213,,0.499946817205,-0.198009948198,0.211974442682
1588857151082730330,7631,1588857151082642090,,0.499949035228,-0.197937736452,0.211945323802
1588857151088779845,7632,1588857151088655308,,0.499951524501,-0.197862680524,0.211911468659
1588857151094708169,7633,1588857151094621320,,0.499952587574,-0.197819259232,0.211888083376
1588857151100841225,7634,1588857151100752648,,0.499955411296,-0.197722312824,0.211842555676
1588857151106866753,7635,1588857151106771488,,0.499957160581,-0.197674170017,0.211819796088
1588857151112772781,7636,1588857151112665813,,0.499958939827,-0.197580838333,0.211773985688
1588857151118818896,7637,1588857151118668050,,0.499961611899,-0.197523111794,0.211747151845
1588857151124907009,7638,1588857151124727523,,0.499964917129,-0.197420646743,0.211704888321
1588857151130938173,7639,1588857151130709967,,0.499967701171,-0.197356604371,0.211680871871
1588857151136812834,7640,1588857151136698088,,0.499970099999,-0.197308625377,0.21165944023
1588857151142835493,7641,1588857151142685500,,0.499974273912,-0.197110079977,0.211575837328
1588857151148804542,7642,1588857151148677033,,0.499976640698,-0.197063251786,0.211555193376
1588857151154912584,7643,1588857151154814027,,0.499977857065,-0.19701566341,0.211531615987
1588857151160859605,7644,1588857151160663712,,0.499980565608,-0.196921726187,0.211489052443
1588857151166793074,7645,1588857151166682789,,0.499981047526,-0.196874511719,0.211466719936
1588857151172958640,7646,1588857151172774291,,0.499983833868,-0.196775055389,0.211420755959
1588857151178856108,7647,1588857151178712912,,0.499986342138,-0.196718428186,0.211396561269
1588857151184814102,7648,1588857151184625125,,0.499988451356,-0.196663672372,0.211370317057
1588857151190898721,7649,1588857151190764701,,0.499991680561,-0.196541658592,0.211315935156
1588857151196856124,7650,1588857151196722357,,0.499995225197,-0.196478342098,0.21128911944
1588857151202769753,7651,1588857151202668832,,0.49999787158,-0.19642837041,0.211266402328
1588857151208808083,7652,1588857151208690779,,0.500001260875,-0.196356971621,0.211236673985
1588857151214849291,7653,1588857151214735281,,0.500009632665,-0.196219425744,0.211183421795
1588857151220769348,7654,1588857151220627891,,0.500012944319,-0.196147582132,0.21115843551
1588857151226818889,7655,1588857151226628820,,0.500018805811,-0.195994322646,0.211106568757
1588857151229763454,7656,1588857151229658977,,0.500021023791,-0.195945170018,0.211090093397
1588857151235850453,7657,1588857151235748670,,0.500028533036,-0.195804487633,0.211042567116
1588857151241878926,7658,1588857151241747979,,0.500031674093,-0.195754832368,0.211023597202
1588857151247861821,7659,1588857151247696016,,0.500037821578,-0.195623649334,0.210969886139
1588857151253993948,7660,1588857151253893086,,0.500040533682,-0.19555834845,0.210944570416
1588857151262876373,7661,1588857151262702888,,0.50004597613,-0.195385962068,0.210865578782
1588857151268852390,7662,1588857151268684340,,0.500052383614,-0.195261912598,0.210806807065
1588857151274761420,7663,1588857151274659624,,0.500056114258,-0.195192802025,0.210775476067
1588857151280806711,7664,1588857151280671570,,0.500064831809,-0.19504130003,0.210710418909
1588857151283936236,7665,1588857151283786592,,0.500071699577,-0.194964146266,0.210680679082
1588857151289897105,7666,1588857151289711700,,0.500084196528,-0.194793395342,0.210615257576
1588857151295853397,7667,1588857151295747258,,0.500090504531,-0.194704877211,0.210581277116
1588857151301854194,7668,1588857151301774682,,0.500106825938,-0.194522657137,0.210521533139
1588857151307799486,7669,1588857151307700159,,0.500115345041,-0.194428906698,0.21049098501
1588857151313930291,7670,1588857151313745395,,0.500132564709,-0.19424054019,0.210428792414
1588857151319928444,7671,1588857151319829433,,0.500140717703,-0.194148759999,0.210396597327
1588857151325930466,7672,1588857151325753738,,0.500158394448,-0.19396811447,0.210331613267
1588857151331813936,7673,1588857151331695128,,0.500167741256,-0.193882952173,0.210300204551
1588857151337883512,7674,1588857151337723494,,0.500184738913,-0.193715190848,0.210232987757
1588857151343945336,7675,1588857151343733558,,0.500193524672,-0.193634709047,0.210200062366
1588857151349878496,7676,1588857151349701803,,0.500210897267,-0.193477968243,0.210134129076
1588857151356061532,7677,1588857151355902761,,0.500221383857,-0.193397272811,0.210101824896
1588857151361822758,7678,1588857151361687033,,0.500230187186,-0.193316946282,0.210067746085
1588857151367949577,7679,1588857151367739857,,0.500252122009,-0.193151021871,0.210003599499
1588857151373808073,7680,1588857151373674676,,0.500278918141,-0.192974424411,0.209941883654
1588857151382891137,7681,1588857151382776987,,0.500302354233,-0.192791593873,0.209874643586
1588857151388999656,7682,1588857151388803608,,0.500333372978,-0.192600514714,0.209807704441
1588857151394960766,7683,1588857151394790784,,0.500347234501,-0.192503355744,0.20977335981
1588857151400946342,7684,1588857151400772603,,0.500376946239,-0.192305065382,0.209701714327
1588857151406824197,7685,1588857151406717470,,0.500393246649,-0.192209614601,0.209663583858
1588857151412986434,7686,1588857151412785940,,0.500422962235,-0.192018055613,0.209572182324
1588857151418882316,7687,1588857151418738330,,0.500440968405,-0.191927693514,0.209539860909
1588857151424871446,7688,1588857151424776232,,0.500454402119,-0.191835903899,0.209498094873
1588857151430891980,7689,1588857151430764665,,0.500480228884,-0.191655460535,0.20941926093
1588857151436942800,7690,1588857151436796544,,0.500493482753,-0.191573552187,0.209385429116
1588857151442945163,7691,1588857151442733438,,0.500503900587,-0.191487923981,0.209345082859
1588857151448904033,7692,1588857151448733516,,0.500516833815,-0.191403840989,0.209305465806
1588857151455126176,7693,1588857151454992159,,0.500546781538,-0.191237190406,0.209228185401
1588857151460910155,7694,1588857151460815373,,0.500562539857,-0.191156172927,0.209190483395
1588857151466815295,7695,1588857151466718131,,0.500589910934,-0.191007646792,0.209121663566
1588857151472916031,7696,1588857151472752274,,0.500606915587,-0.190902456441,0.209084165588
1588857151478973147,7697,1588857151478796464,,0.500617804879,-0.19083988925,0.2090560706
1588857151484865403,7698,1588857151484735816,,0.500648131813,-0.190635993041,0.208982122677
1588857151491021451,7699,1588857151490795545,,0.500662102112,-0.190548431338,0.20895045242
1588857151496871491,7700,1588857151496789404,,0.500677047905,-0.190459534789,0.208917797072
1588857151502823523,7701,1588857151502748861,,0.500701788353,-0.190312770016,0.208854156886
1588857151508967545,7702,1588857151508785235,,0.500717323742,-0.190217876381,0.208818477877
1588857151514984413,7703,1588857151514773366,,0.500734173186,-0.190113808409,0.208782214291
1588857151520892782,7704,1588857151520806450,,0.500744105052,-0.190046775214,0.208751907093
1588857151526852561,7705,1588857151526770573,,0.500775464815,-0.189857991338,0.208681289396
1588857151532921833,7706,1588857151532772886,,0.50079827572,-0.189722190427,0.208618699603
1588857151538900413,7707,1588857151538800886,,0.500816419489,-0.18962317981,0.208584571439
1588857151544980937,7708,1588857151544840892,,0.500839008444,-0.189495946679,0.208526900551
1588857151550866518,7709,1588857151550787005,,0.500854983298,-0.189401735684,0.208492243024
1588857151557258616,7710,1588857151557128686,,0.500880980473,-0.189249911332,0.208427765239
1588857151562902409,7711,1588857151562769915,,0.500894242942,-0.18917178046,0.208395730501
1588857151568882301,7712,1588857151568802294,,0.500908045621,-0.189090072137,0.208360494937
1588857151574891029,7713,1588857151574743020,,0.500923056464,-0.189002342429,0.208326110256
1588857151580983909,7714,1588857151580814987,,0.500939328849,-0.188910260355,0.208293641956
1588857151586948055,7715,1588857151586838133,,0.500971923668,-0.188713642305,0.208224420419
1588857151595886950,7716,1588857151595794719,,0.500999800432,-0.188542129672,0.208160048905
1588857151601810182,7717,1588857151601740795,,0.501034576413,-0.188312159366,0.208087802387
1588857151607868632,7718,1588857151607767452,,0.501061824668,-0.18813209141,0.208025549467
1588857151613914796,7719,1588857151613803084,,0.50108025295,-0.188017731021,0.20799294454
1588857151619972420,7720,1588857151619838266,,0.501096320226,-0.187924676175,0.207963708161
1588857151625947267,7721,1588857151625783350,,0.501126038261,-0.187744158353,0.207898346895
1588857151631900785,7722,1588857151631805419,,0.501140349497,-0.187659755347,0.207866262896
1588857151637929791,7723,1588857151637815137,,0.50117184586,-0.18748154097,0.207803688576
1588857151644090464,7724,1588857151643881953,,0.501186684513,-0.187394497325,0.207771296126
1588857151649954456,7725,1588857151649814071,,0.501218599339,-0.187214030885,0.207706384286
1588857151656141575,7726,1588857151655984548,,0.501235702969,-0.18712303783,0.207673073274
1588857151661930751,7727,1588857151661786167,,0.501253637033,-0.187031211219,0.207639508233
1588857151667895916,7728,1588857151667790951,,0.501290953036,-0.186838368739,0.207576343484
1588857151673949169,7729,1588857151673849398,,0.501307144486,-0.186745887954,0.207542257077
1588857151683038916,7730,1588857151682897806,,0.501361264676,-0.186435805508,0.207449572513
1588857151688979643,7731,1588857151688885739,,0.501379905494,-0.186325623575,0.207418657812
1588857151694955726,7732,1588857151694809643,,0.50139777101,-0.186220393917,0.207387701002
1588857151700913543,7733,1588857151700794866,,0.501437174178,-0.185999233865,0.207327047017
1588857151706932159,7734,1588857151706828301,,0.501456882654,-0.185890775338,0.2072979936
1588857151712953763,7735,1588857151712807803,,0.501494403209,-0.185676499843,0.207240092222
1588857151718939992,7736,1588857151718825884,,0.501507448516,-0.185604478798,0.207216223398
1588857151724922555,7737,1588857151724816379,,0.501526011433,-0.185499271897,0.20718778451
1588857151730972931,7738,1588857151730765380,,0.501558032479,-0.185324861904,0.207136544894
1588857151736961741,7739,1588857151736822001,,0.501575000587,-0.185236393793,0.207110470091
1588857151743007504,7740,1588857151742838533,,0.501606750134,-0.185062978318,0.207056571737
1588857151748931313,7741,1588857151748836090,,0.501622317333,-0.184991839946,0.207035008371
1588857151755212113,7742,1588857151755045188,,0.501652410651,-0.184848904209,0.206986387661
1588857151760894609,7743,1588857151760784750,,0.501667880739,-0.1847738885,0.206962331569
1588857151766858328,7744,1588857151766780456,,0.501683319205,-0.184697760598,0.206938130187
1588857151772910649,7745,1588857151772819569,,0.501717960146,-0.184531360135,0.206894761902
1588857151778955612,7746,1588857151778858902,,0.501754057602,-0.18435595396,0.206849239031
1588857151785023648,7747,1588857151784851763,,0.50177160385,-0.184265344631,0.206826353959
1588857151791005853,7748,1588857151790878301,,0.501809179994,-0.184070204705,0.206777424149
1588857151796967135,7749,1588857151796832730,,0.50182913938,-0.18397363947,0.206755104732
1588857151802980286,7750,1588857151802869322,,0.50184954522,-0.183868751383,0.206730594505
1588857151808924203,7751,1588857151808816019,,0.501887764024,-0.183668464911,0.206682261137
1588857151814906138,7752,1588857151814804046,,0.501907161608,-0.183570092771,0.206659735224
1588857151820997950,7753,1588857151820838629,,0.501924753066,-0.183476811054,0.206635090636
1588857151827128046,7754,1588857151826990753,,0.501962881696,-0.183284461407,0.206588143811
1588857151832965011,7755,1588857151832886902,,0.501978851524,-0.183198091815,0.206564964119
1588857151839055159,7756,1588857151838866087,,0.502012340363,-0.183035918588,0.206525180028
1588857151845016946,7757,1588857151844895824,,0.502023861585,-0.182985077805,0.206508467534
1588857151851080209,7758,1588857151850912417,,0.502058371726,-0.1828204964,0.206471710448
1588857151857294655,7759,1588857151857188946,,0.502068373358,-0.182778418846,0.206457191853
1588857151863028523,7760,1588857151862897025,,0.502101901663,-0.18262771361,0.206424887285
1588857151869054176,7761,1588857151868892661,,0.502115182456,-0.182566538812,0.206407640348
1588857151874927161,7762,1588857151874821630,,0.502141408191,-0.182445362449,0.206375452026
1588857151880968269,7763,1588857151880861612,,0.502152867527,-0.182384884604,0.206358097875
1588857151886934461,7764,1588857151886814836,,0.502167105426,-0.182314459871,0.206342441837
1588857151892959421,7765,1588857151892803909,,0.502195800535,-0.182174193653,0.206313636828
1588857151898895906,7766,1588857151898794439,,0.502226245238,-0.182019090012,0.206282533752
1588857151901912502,7767,1588857151901811367,,0.502241464431,-0.18194204789,0.206267411184
1588857151907890020,7768,1588857151907804507,,0.502271186157,-0.181785543895,0.20623751179
1588857151913939095,7769,1588857151913827304,,0.50228632691,-0.181708021952,0.206222890526
1588857151923023982,7770,1588857151922891986,,0.502329233879,-0.181485631598,0.206183363474
1588857151928974479,7771,1588857151928857790,,0.502342524742,-0.181414504365,0.206169412253
1588857151935001394,7772,1588857151934855284,,0.502366320491,-0.181282478585,0.206143396014
1588857151940931043,7773,1588857151940826482,,0.502378827456,-0.181219398038,0.206131831385
1588857151946877538,7774,1588857151946799951,,0.502402155718,-0.181100590465,0.206109330001
1588857151952908737,7775,1588857151952834209,,0.502413648542,-0.181043743098,0.206100204927
1588857151959004935,7776,1588857151958885568,,0.502435319066,-0.180933440662,0.206078619724
1588857151965028435,7777,1588857151964909557,,0.502446369067,-0.18087907556,0.206069804601
1588857151970925095,7778,1588857151970793805,,0.502468266976,-0.180767594347,0.206050519873
1588857151976972877,7779,1588857151976825874,,0.502478491025,-0.180714211031,0.206039269183
1588857151979908512,7780,1588857151979809174,,0.50250011738,-0.180602362542,0.20602077343
1588857151986019582,7781,1588857151985889167,,0.502510580997,-0.180542823855,0.206009862203
1588857151992032266,7782,1588857151991866329,,0.502531535846,-0.180432828259,0.205991630853
1588857151998060027,7783,1588857151997880630,,0.502541876274,-0.180375167227,0.205981524574
1588857152004039697,7784,1588857152003894982,,0.50256052372,-0.180270965796,0.205965049675
1588857152009997669,7785,1588857152009895131,,0.502569655464,-0.180216875724,0.2059583529
1588857152016013369,7786,1588857152015898344,,0.502586002767,-0.180120761814,0.205947782401
1588857152021988260,7787,1588857152021871350,,0.502593384931,-0.180075745256,0.205943826601
1588857152028022668,7788,1588857152027905735,,0.502599975156,-0.180034009716,0.205941557779
1588857152034059607,7789,1588857152033931448,,0.502607802073,-0.179992242303,0.205938371432
1588857152042887197,7790,1588857152042799296,,0.502627098459,-0.179884858609,0.205932653757
1588857152048924573,7791,1588857152048809000,,0.502638573752,-0.179820138113,0.205932801312
1588857152055386648,7792,1588857152055131775,,0.502643983351,-0.179788773642,0.205931728314
1588857152061108495,7793,1588857152060945576,,0.502653098208,-0.179727700655,0.205933234317
1588857152066929549,7794,1588857152066836814,,0.502657680598,-0.179700816668,0.205934606214
1588857152072998639,7795,1588857152072885454,,0.502668096463,-0.179643142257,0.205934973327
1588857152078912123,7796,1588857152078801565,,0.502671660676,-0.179618154124,0.205934304827
1588857152084979932,7797,1588857152084896808,,0.502680403877,-0.179559985258,0.205937346889
1588857152091035483,7798,1588857152090908170,,0.502684207021,-0.179531532004,0.205942539483
1588857152097071969,7799,1588857152096924416,,0.50268916766,-0.179483123768,0.205948636198
1588857152102982747,7800,1588857152102910364,,0.502691832448,-0.179459429613,0.205950605222
1588857152108931833,7801,1588857152108823650,,0.502696521149,-0.179413177484,0.205957098193
1588857152115035226,7802,1588857152114904155,,0.502698504523,-0.179393640494,0.205959821301
1588857152121065184,7803,1588857152120931023,,0.502700042467,-0.179374354887,0.20596381115
1588857152126983978,7804,1588857152126846281,,0.502703009893,-0.179333305203,0.205973864688
1588857152132983287,7805,1588857152132879213,,0.50270378739,-0.179318336281,0.205979843489
1588857152139029914,7806,1588857152138942592,,0.502703307917,-0.179292929663,0.205987257678
1588857152145005936,7807,1588857152144913422,,0.502703165323,-0.179278814533,0.20599256769
1588857152151073459,7808,1588857152150899659,,0.502701849305,-0.179260530993,0.206000198455
1588857152157525872,7809,1588857152157308535,,0.502701877438,-0.179250699237,0.20600555163
1588857152163103286,7810,1588857152162916042,,0.502701004563,-0.17924131923,0.206006759766
1588857152169039546,7811,1588857152168910170,,0.502699218989,-0.179231072974,0.206012488414
1588857152175046611,7812,1588857152174901732,,0.502697002752,-0.179222465316,0.206022392342
1588857152181122361,7813,1588857152180951536,,0.502695600692,-0.179219294333,0.206027699662
1588857152187013455,7814,1588857152186893133,,0.502694433204,-0.179216881828,0.206032116993
1588857152196116154,7815,1588857152195890644,,0.50269149505,-0.179211655483,0.206045581827
1588857152202025206,7816,1588857152201929698,,0.502689239998,-0.179209495721,0.206055377423
1588857152208114375,7817,1588857152207982240,,0.502687438966,-0.179207071159,0.206063561032
1588857152213976874,7818,1588857152213826348,,0.502686499152,-0.179207365931,0.206067137268
1588857152219956232,7819,1588857152219845963,,0.5026859008,-0.179205732309,0.206070774359
1588857152226046448,7820,1588857152225899732,,0.502684298216,-0.179204118803,0.206079655929
1588857152232009072,7821,1588857152231862363,,0.502683759742,-0.179203613149,0.20608505061
1588857152238020107,7822,1588857152237917404,,0.502681768702,-0.179204117491,0.206092765868
1588857152244047194,7823,1588857152243942548,,0.502681311306,-0.17920404263,0.206096375035
1588857152250052883,7824,1588857152249895868,,0.502680724203,-0.179205594309,0.206104505534
1588857152256207253,7825,1588857152256048163,,0.502679540934,-0.17920698434,0.206108259303
1588857152262071785,7826,1588857152261939371,,0.502678808833,-0.179208792872,0.206114855473
1588857152268065913,7827,1588857152267959026,,0.502678683457,-0.179210421829,0.206118602621
1588857152274042893,7828,1588857152273955472,,0.502676945189,-0.179215678535,0.206122893899
1588857152280331049,7829,1588857152280243706,,0.502676665477,-0.179217011885,0.206127318513
1588857152286054313,7830,1588857152285963175,,0.502675369344,-0.179224570601,0.206135038797
1588857152292091703,7831,1588857152291943851,,0.502674680547,-0.179228940529,0.20613852122
1588857152298044072,7832,1588857152297897371,,0.502674771289,-0.17923466032,0.206142927942
1588857152304135535,7833,1588857152303978758,,0.502673283534,-0.179246640694,0.206148103579
1588857152310118011,7834,1588857152309967834,,0.502673787476,-0.179261583258,0.206157500579
1588857152316193745,7835,1588857152316006558,,0.502672984037,-0.179270030655,0.206161012595
1588857152322177485,7836,1588857152321995820,,0.502674164077,-0.179280093517,0.20616712293
1588857152328054352,7837,1588857152327936551,,0.502677590923,-0.179304549494,0.206183596077
1588857152334065286,7838,1588857152333951616,,0.502680415179,-0.179316672374,0.206192618651
1588857152343090059,7839,1588857152342941855,,0.502693310102,-0.179354194392,0.206227616528
1588857152349177134,7840,1588857152349023014,,0.502697241559,-0.179364685876,0.206238635883
1588857152355508194,7841,1588857152355309791,,0.50270196147,-0.17937592115,0.20625082053
1588857152361144066,7842,1588857152360965872,,0.502712490977,-0.179395285988,0.206274493872
1588857152367002572,7843,1588857152366893700,,0.50271692075,-0.17940477585,0.206285185766
1588857152375986976,7844,1588857152375898933,,0.502730006437,-0.179424490755,0.206314778572
1588857152382090538,7845,1588857152381950061,,0.502738669362,-0.179434979934,0.206331400599
1588857152388021346,7846,1588857152387921336,,0.502743234343,-0.179438304869,0.206339612171
1588857152394049990,7847,1588857152393957362,,0.502747941985,-0.179441157288,0.206347209071
1588857152403037540,7848,1588857152402921563,,0.502761575213,-0.179448531145,0.206370237305
1588857152409017697,7849,1588857152408913306,,0.502765851483,-0.179449095341,0.206377184082
1588857152415091709,7850,1588857152414917491,,0.50277326521,-0.179449954299,0.206388453154
1588857152421034267,7851,1588857152420904371,,0.502777128773,-0.179451050043,0.206394638243
1588857152427093632,7852,1588857152426975942,,0.502784353893,-0.179449211159,0.20640552683
1588857152436120510,7853,1588857152435951515,,0.502795768553,-0.179440320771,0.206418969752
1588857152439093858,7854,1588857152438899204,,0.502799279756,-0.179437630615,0.206423213008
1588857152445039222,7855,1588857152444926616,,0.502807877328,-0.179425904753,0.206432156633
1588857152451080753,7856,1588857152450916733,,0.502812787102,-0.179415327675,0.206436588197
1588857152457194316,7857,1588857152457044759,,0.502825868039,-0.179391270888,0.206447079948
1588857152463058990,7858,1588857152462906690,,0.502831859258,-0.179379834485,0.206450792808
1588857152469068973,7859,1588857152468938153,,0.502837762294,-0.179366906047,0.206456110563
1588857152475092765,7860,1588857152474986970,,0.502843733163,-0.179353386897,0.206461081247
1588857152481039549,7861,1588857152480926034,,0.502855575591,-0.179325597673,0.206472893292
1588857152486959007,7862,1588857152486889037,,0.502860993863,-0.179309982711,0.206479699807
1588857152496090795,7863,1588857152495963614,,0.502876336247,-0.17926508374,0.206504061364
1588857152502086734,7864,1588857152501958133,,0.502883845145,-0.17923425038,0.20651746666
1588857152508046766,7865,1588857152507927973,,0.50288782853,-0.179218899803,0.206525067176
1588857152513971370,7866,1588857152513877466,,0.502894448141,-0.179186052754,0.206535145633
1588857152520128495,7867,1588857152520038869,,0.502897409847,-0.179171922632,0.206539621398
1588857152526167862,7868,1588857152526038806,,0.502902715164,-0.17915006667,0.206550315869
1588857152532140335,7869,1588857152531971260,,0.502904821815,-0.179140654014,0.206554334007
1588857152538060862,7870,1588857152537903694,,0.502908160679,-0.179117885173,0.206566952515
1588857152544101251,7871,1588857152543949114,,0.502910554882,-0.179107487831,0.206576264761
1588857152550030058,7872,1588857152549887818,,0.502912292741,-0.17908888978,0.206594685115
1588857152556250813,7873,1588857152556128791,,0.502913414213,-0.179079288738,0.206604913495
1588857152562046834,7874,1588857152561928744,,0.502914280545,-0.179063165683,0.206625334112
1588857152568085656,7875,1588857152567934861,,0.502914826347,-0.179058182778,0.206636656515
1588857152574082441,7876,1588857152573952115,,0.50291440665,-0.179043909715,0.206657960952
1588857152580237259,7877,1588857152580139418,,0.502914031247,-0.179038303183,0.206667172492
1588857152586062390,7878,1588857152585956552,,0.502913204772,-0.179026517325,0.20668587463
1588857152592079588,7879,1588857152591930040,,0.502912650164,-0.179021762502,0.206693808043
1588857152598042464,7880,1588857152597930204,,0.502911702383,-0.179010913837,0.20671142525
1588857152604140694,7881,1588857152604014141,,0.502910000952,-0.17900579346,0.206719272706
1588857152610044395,7882,1588857152609919898,,0.502908020089,-0.178991694219,0.206745451848
1588857152616021594,7883,1588857152615932666,,0.50290683364,-0.178986277724,0.20675286246
1588857152622080089,7884,1588857152621926408,,0.502904949615,-0.178980136105,0.206761212893
1588857152628098163,7885,1588857152627967729,,0.502903680561,-0.178973288416,0.206767102592
1588857152634130121,7886,1588857152634004994,,0.502900711289,-0.178961542388,0.206778000106
1588857152640023145,7887,1588857152639933922,,0.502898382757,-0.178953895017,0.206781823092
1588857152646021128,7888,1588857152645900594,,0.502891157609,-0.178939211854,0.206784596724
1588857152652139478,7889,1588857152651952937,,0.50288675422,-0.178932091068,0.206784149209
1588857152658578316,7890,1588857152658350345,,0.502878879914,-0.178916971251,0.206783833498
1588857152664061351,7891,1588857152663958959,,0.502876641949,-0.178909306798,0.206786280539
1588857152670225030,7892,1588857152670014526,,0.502871644914,-0.178891037006,0.206784658569
1588857152676071771,7893,1588857152675935703,,0.50286953783,-0.178882055257,0.206786013057
1588857152681989244,7894,1588857152681903024,,0.502866684836,-0.17886235718,0.20678667743
1588857152688122427,7895,1588857152687963023,,0.502864732465,-0.178850325591,0.206787809951
1588857152694091510,7896,1588857152693958816,,0.502862534817,-0.178827537169,0.206792227139
1588857152700214758,7897,1588857152700065603,,0.502861856026,-0.178812846706,0.206792856357
1588857152706071295,7898,1588857152705935375,,0.502860629033,-0.178799856753,0.206791649382
1588857152711998656,7899,1588857152711871995,,0.50285958367,-0.178770083494,0.206791532373
1588857152718106597,7900,1588857152717949693,,0.502858673365,-0.178739349573,0.206788009599
1588857152724048532,7901,1588857152723889587,,0.502857640355,-0.178723535587,0.206786602618
1588857152727153135,7902,1588857152727080840,,0.502856325632,-0.178693440031,0.206782165484
1588857152736176327,7903,1588857152735977898,,0.50285593822,-0.178651277609,0.206777962681
1588857152742092553,7904,1588857152741984746,,0.502857169906,-0.178638674539,0.206779007326
1588857152748108053,7905,1588857152747957525,,0.502857805557,-0.178624200143,0.206777175811
1588857152754069357,7906,1588857152753927974,,0.50285920878,-0.178602541603,0.206775162821
1588857152760595418,7907,1588857152760510774,,0.50286043776,-0.17859255253,0.20677419573
1588857152766168322,7908,1588857152765969804,,0.502860656339,-0.178584817843,0.206772324381
1588857152772143696,7909,1588857152771945242,,0.502861229008,-0.178574326269,0.206768306578
1588857152778055183,7910,1588857152777955209,,0.502862187411,-0.178570390658,0.206768654131
1588857152784107227,7911,1588857152783991504,,0.502862266919,-0.178564474792,0.206765236644
1588857152790220292,7912,1588857152790033930,,0.502862901653,-0.178562529952,0.206765162653
1588857152796018140,7913,1588857152795918948,,0.502862895844,-0.178562221554,0.206762258522
1588857152802047741,7914,1588857152801953009,,0.502862827805,-0.178561640804,0.206761627105
1588857152808047081,7915,1588857152807941210,,0.50286276008,-0.178563378312,0.20676029131
1588857152814099913,7916,1588857152813983957,,0.502862291683,-0.17856505914,0.206758671296
1588857152823032099,7917,1588857152822923024,,0.502862346585,-0.178569271036,0.20675227085
1588857152829240678,7918,1588857152829061936,,0.502862335402,-0.178571705066,0.206749508799
1588857152835102061,7919,1588857152834962307,,0.502861249543,-0.178580338969,0.20674280891
1588857152841072184,7920,1588857152840966912,,0.502861105852,-0.178584848634,0.206737280016
1588857152847154610,7921,1588857152847059722,,0.502860895775,-0.178599078192,0.206706118414
1588857152856372807,7922,1588857152856230901,,0.502859622643,-0.17861353566,0.206687235615
1588857152862141794,7923,1588857152862038690,,0.502858846942,-0.178622272681,0.206677428263
1588857152868120198,7924,1588857152868001626,,0.502857408156,-0.178631990129,0.206665509902
1588857152874088258,7925,1588857152873974925,,0.502854506355,-0.178658841603,0.206646381052
1588857152883164392,7926,1588857152883036875,,0.502847716277,-0.178719498172,0.206611641771
1588857152889169794,7927,1588857152889035901,,0.502847630808,-0.178738782863,0.206601142694
1588857152895213547,7928,1588857152895052666,,0.502852925428,-0.178777515815,0.206592000195
1588857152901087103,7929,1588857152900973270,,0.502858591956,-0.178799649746,0.206586815917
1588857152907152407,7930,1588857152907025808,,0.502866372132,-0.17884505706,0.206566653648
1588857152913983703,7931,1588857152913888667,,0.502870392788,-0.178866738085,0.206558087961
1588857152919125592,7932,1588857152919022035,,0.502873273182,-0.17888794834,0.206551919944
1588857152925145911,7933,1588857152925012448,,0.502876272279,-0.17890886174,0.206544796579
1588857152931154936,7934,1588857152931032149,,0.5028837992,-0.178950535479,0.206528021432
1588857152937196742,7935,1588857152937064277,,0.502887000847,-0.178970949461,0.206514091144
1588857152943110709,7936,1588857152943007870,,0.502894193383,-0.179017637093,0.206488004037
1588857152949180710,7937,1588857152948980964,,0.502898112869,-0.179036179084,0.206480319519
1588857152955575029,7938,1588857152955434280,,0.502908856557,-0.179076222799,0.206458405108
1588857152961047642,7939,1588857152960950029,,0.502912577632,-0.17909268595,0.206445517151
1588857152967043110,7940,1588857152966949952,,0.50292064929,-0.179128682173,0.206415972463
1588857152976133442,7941,1588857152976005530,,0.502932035074,-0.179181527553,0.20637807629
1588857152982142468,7942,1588857152982018976,,0.502935963081,-0.17919647799,0.206360960287
1588857152988188123,7943,1588857152988000176,,0.502943529658,-0.179223700802,0.206330724284
1588857152994067410,7944,1588857152993970825,,0.502947875247,-0.179236832646,0.206311118252
1588857153000435470,7945,1588857153000341682,,0.502957305803,-0.179267803401,0.206277508033
1588857153006088872,7946,1588857153006013733,,0.502962240316,-0.179283102996,0.206258048492
1588857153012114678,7947,1588857153011968261,,0.502971753069,-0.179315363373,0.206221255601
1588857153018146120,7948,1588857153018028032,,0.502975826826,-0.179326997063,0.206205843457
1588857153024233353,7949,1588857153024071777,,0.502980886818,-0.179340812243,0.206183118002
1588857153030169706,7950,1588857153030050756,,0.502989644852,-0.179369641834,0.206145796239
1588857153036110574,7951,1588857153036016949,,0.502997938862,-0.179399476769,0.206105414635
1588857153042161501,7952,1588857153042077727,,0.503000871988,-0.179416884199,0.206082235656
1588857153048120783,7953,1588857153047972682,,0.503004260933,-0.179433420012,0.20606164571
1588857153054138710,7954,1588857153053966285,,0.503010960239,-0.179467414503,0.206018492015
1588857153063099522,7955,1588857153063013181,,0.503017967119,-0.179521516281,0.205951621689
1588857153069164456,7956,1588857153069036287,,0.503020157773,-0.179542083377,0.205930791834
1588857153075162032,7957,1588857153075029217,,0.503023034303,-0.179585726738,0.205885663684
1588857153081221382,7958,1588857153081106405,,0.503025676983,-0.17962966841,0.205840970973
1588857153087137667,7959,1588857153087008293,,0.503026497574,-0.179653155821,0.205818279743
1588857153096149268,7960,1588857153095999463,,0.503026239205,-0.179728779402,0.205749672615
1588857153102094202,7961,1588857153101986905,,0.50302615626,-0.17975421833,0.20572384406
1588857153108206921,7962,1588857153107992675,,0.503025446757,-0.179806141163,0.205675595691
1588857153114086850,7963,1588857153113994961,,0.503024804024,-0.179833893421,0.205649779606
1588857153120151907,7964,1588857153120057765,,0.503024493147,-0.179893263914,0.205601228663
1588857153126116050,7965,1588857153126033822,,0.503024726638,-0.179920938678,0.205580231653
1588857153132141149,7966,1588857153132030852,,0.503023562155,-0.179986146669,0.205528647341
1588857153138264392,7967,1588857153138126184,,0.503023701917,-0.180019016991,0.205508247706
1588857153144331268,7968,1588857153144103884,,0.503024316917,-0.180078267768,0.205459354782
1588857153150178848,7969,1588857153150068123,,0.503023397161,-0.180112563914,0.205437740899
1588857153156328361,7970,1588857153156223479,,0.503022824277,-0.180141028367,0.205410685826
1588857153162208558,7971,1588857153162103029,,0.503023266493,-0.180173704508,0.205384867266
1588857153168148153,7972,1588857153168041470,,0.503023461326,-0.180205116723,0.20536052278
1588857153174097184,7973,1588857153174005078,,0.503021866484,-0.180268482956,0.205303151202
1588857153183155617,7974,1588857153183039410,,0.50302201103,-0.180353351867,0.205223873101
1588857153189132308,7975,1588857153189031116,,0.50302106783,-0.180386551314,0.20519367001
1588857153195216888,7976,1588857153195071599,,0.503021629994,-0.180442151036,0.205142831768
1588857153201161442,7977,1588857153201053641,,0.503022040112,-0.18047391663,0.205116644392
1588857153207452428,7978,1588857153207278091,,0.503022564403,-0.180531883691,0.205064438714
1588857153216177616,7979,1588857153216054052,,0.5030249534,-0.180613240108,0.204989655862
1588857153222280032,7980,1588857153222125203,,0.503026521167,-0.180639263291,0.204964492605
1588857153228254132,7981,1588857153228098879,,0.503029190533,-0.180692488125,0.204908080566
1588857153234164200,7982,1588857153234039493,,0.503030897485,-0.180720625333,0.204881768244
1588857153243272504,7983,1588857153243150854,,0.503034920164,-0.180774590247,0.204823444362
1588857153249176552,7984,1588857153249074164,,0.50303911612,-0.180830123973,0.204767304246
1588857153255594698,7985,1588857153255494981,,0.503041570009,-0.180859861182,0.204740378306
1588857153261132170,7986,1588857153261057409,,0.503046328041,-0.180913416148,0.204687017242
1588857153267459546,7987,1588857153267305259,,0.50304711924,-0.180937005409,0.204666939519
1588857153276142904,7988,1588857153276001574,,0.503053343884,-0.18102096035,0.20459377991
1588857153282108792,7989,1588857153282008823,,0.503056147348,-0.181051509197,0.204568468658
1588857153288155774,7990,1588857153287995489,,0.503061423075,-0.181115319876,0.204520109775
1588857153294192565,7991,1588857153294070143,,0.503063754736,-0.181141770945,0.204499887035
1588857153303192966,7992,1588857153303032242,,0.503066290612,-0.181193078341,0.204456247563
1588857153309192662,7993,1588857153309048448,,0.503066618204,-0.181249118126,0.204418588572
1588857153315229376,7994,1588857153315069653,,0.503066812801,-0.181282400769,0.204390641191
1588857153321198777,7995,1588857153321078606,,0.503068794777,-0.181345373822,0.204347863385
1588857153327444443,7996,1588857153327338854,,0.503068641661,-0.181369323643,0.204331217928
1588857153336298864,7997,1588857153336100783,,0.503064717911,-0.181470203352,0.204270866984
1588857153339323741,7998,1588857153339093155,,0.503064477853,-0.181547216941,0.204226650408
1588857153345160321,7999,1588857153345019953,,0.503064029383,-0.181583506224,0.204203716539
1588857153351250321,8000,1588857153351055756,,0.503062234365,-0.181660769556,0.204163100093
1588857153355723913,8001,1588857153355415564,,0.503062052847,-0.181698124237,0.204143189146
1588857153360824238,8002,1588857153360709297,,0.503059311937,-0.181775745913,0.20410245952
1588857153366148194,8003,1588857153366048024,,0.503058131691,-0.181817223164,0.204074719074
1588857153372235714,8004,1588857153372101036,,0.50305550433,-0.181903835041,0.20402682044
1588857153378209498,8005,1588857153378054597,,0.503053494938,-0.181948477454,0.203998094462
1588857153384212597,8006,1588857153384052312,,0.50305281506,-0.181991659912,0.203974353692
1588857153390203303,8007,1588857153390036580,,0.503051131464,-0.182038552448,0.203949360414
1588857153396125753,8008,1588857153396015523,,0.503046861162,-0.182128670969,0.203898877759
1588857153402323093,8009,1588857153402126162,,0.503044493968,-0.182174132661,0.203872331584
1588857153408132031,8010,1588857153408025771,,0.503041169362,-0.182266280901,0.203818775343
1588857153414383622,8011,1588857153414142146,,0.503041339482,-0.182301639983,0.203798766052
1588857153417247662,8012,1588857153417032257,,0.503035970277,-0.182392757147,0.203744848636
1588857153423161076,8013,1588857153423029630,,0.503033531787,-0.182424774193,0.203726095176
1588857153429261843,8014,1588857153429112841,,0.503028510206,-0.182510288765,0.203680591808
1588857153435265056,8015,1588857153435108790,,0.503026795619,-0.18254835051,0.203659315994
1588857153441244787,8016,1588857153441103870,,0.503020878969,-0.182620620849,0.203619977954
1588857153447377913,8017,1588857153447217261,,0.503019254764,-0.18265412028,0.203599485766
1588857153456562049,8018,1588857153456468592,,0.503007853657,-0.18275459748,0.203540525824
1588857153462204112,8019,1588857153462087073,,0.503004589333,-0.182788765167,0.203518778292
1588857153468266807,8020,1588857153468145524,,0.502997513527,-0.182861534601,0.203476072554
1588857153474238986,8021,1588857153474087566,,0.502993660967,-0.182899183796,0.203452623637
1588857153483224099,8022,1588857153483051502,,0.502983502567,-0.183013642099,0.203386947374
1588857153489298189,8023,1588857153489169864,,0.502979238481,-0.183049867618,0.2033694428
1588857153495205117,8024,1588857153495072819,,0.502971968516,-0.183117683927,0.203329678944
1588857153501297844,8025,1588857153501147777,,0.502967708229,-0.183161934448,0.203307610437
1588857153507197390,8026,1588857153507115039,,0.502963592423,-0.18319213707,0.20329353115
1588857153516263694,8027,1588857153516140376,,0.502951472587,-0.183313871996,0.203240246626
1588857153522296745,8028,1588857153522108652,,0.502948333427,-0.183349743341,0.203228458357
1588857153528280531,8029,1588857153528134865,,0.502940168764,-0.183422354033,0.203194941766
1588857153534288670,8030,1588857153534094875,,0.502935607728,-0.183457937407,0.203182344156
1588857153540511886,8031,1588857153540413987,,0.502926928662,-0.183532039627,0.203148899142
1588857153546248138,8032,1588857153546130993,,0.502917586265,-0.183598859579,0.203116096057
1588857153552243852,8033,1588857153552086872,,0.502913367394,-0.183633417212,0.203098149236
1588857153558390267,8034,1588857153558269028,,0.502908241449,-0.183668578006,0.203078862319
1588857153564333242,8035,1588857153564110898,,0.502898790981,-0.183737774409,0.203045485439
1588857153570289755,8036,1588857153570138019,,0.502889610331,-0.183806134254,0.203009697806
1588857153576283311,8037,1588857153576089766,,0.502885767553,-0.183837915308,0.202992243379
1588857153582261111,8038,1588857153582115254,,0.502881989194,-0.183869525029,0.202973578898
1588857153588233830,8039,1588857153588074515,,0.502872655341,-0.183937425862,0.202937229058
1588857153594284218,8040,1588857153594116814,,0.502868635108,-0.183973452597,0.202916956995
1588857153600418058,8041,1588857153600284405,,0.502863685203,-0.184010842233,0.202898975175
1588857153606269045,8042,1588857153606148001,,0.502855253326,-0.184083291345,0.202861616745
1588857153612230195,8043,1588857153612099068,,0.502851328855,-0.18411938529,0.20284295319
1588857153618247932,8044,1588857153618120186,,0.502844253814,-0.184187411037,0.202808084246
1588857153624379611,8045,1588857153624145747,,0.502839617245,-0.184232058268,0.202788358737
1588857153630264280,8046,1588857153630111621,,0.502836345823,-0.184261934309,0.202773943627
1588857153636268412,8047,1588857153636106957,,0.502832432194,-0.184300653285,0.202760087045
1588857153639234664,8048,1588857153639119364,,0.502826155388,-0.184376536905,0.20272501519
1588857153645276927,8049,1588857153645130671,,0.502822881027,-0.184410812904,0.20271133241
1588857153651305499,8050,1588857153651126117,,0.502818064471,-0.184469807003,0.202686125307
1588857153657525804,8051,1588857153657400385,,0.502814152041,-0.184507937921,0.202670785473
1588857153663315943,8052,1588857153663136475,,0.502811796222,-0.18453503527,0.202662570832
1588857153669371443,8053,1588857153669160802,,0.502807766041,-0.184603784204,0.202635102524
1588857153675228880,8054,1588857153675118830,,0.502805204606,-0.184636645286,0.202619720708
1588857153681266097,8055,1588857153681150467,,0.502800985261,-0.184692265931,0.202595016892
1588857153687629596,8056,1588857153687498727,,0.502798072558,-0.184726336141,0.202580385139
1588857153696420770,8057,1588857153696189821,,0.502793318413,-0.184785351646,0.202556386694
1588857153702261972,8058,1588857153702134546,,0.502792420634,-0.184851592834,0.202533453157
1588857153708348037,8059,1588857153708185468,,0.502792167761,-0.184883052163,0.202518949398
1588857153714447504,8060,1588857153714328618,,0.502789263403,-0.184937994129,0.202495267262
1588857153720434459,8061,1588857153720322206,,0.502788576603,-0.184971290524,0.202485956789
1588857153726313602,8062,1588857153726145996,,0.502787967051,-0.184995211513,0.2024780532
1588857153732264684,8063,1588857153732138620,,0.502787606571,-0.185026451181,0.202466219284
1588857153738232371,8064,1588857153738106993,,0.502787147065,-0.185092500606,0.202439329369
1588857153744317996,8065,1588857153744127333,,0.502788538036,-0.185141653681,0.202420601508
1588857153750318540,8066,1588857153750139403,,0.502787438597,-0.185173967983,0.202409414233
1588857153756659280,8067,1588857153756535474,,0.502787672313,-0.185196641828,0.20240381436
1588857153762306263,8068,1588857153762188617,,0.502786495612,-0.18522779923,0.202390775513
1588857153768222908,8069,1588857153768130007,,0.5027874894,-0.185258105582,0.202382259065
1588857153774234637,8070,1588857153774097741,,0.502787536022,-0.185288272898,0.202369959073
1588857153783291051,8071,1588857153783188048,,0.502787885735,-0.185367764195,0.202338919976
1588857153789386781,8072,1588857153789200839,,0.502786633496,-0.185402375604,0.202326462202
1588857153795415833,8073,1588857153795218654,,0.502786247238,-0.185424510996,0.202321281616
1588857153801297447,8074,1588857153801192741,,0.502787160536,-0.185484920998,0.202295702083
1588857153807580598,8075,1588857153807473812,,0.502788071393,-0.185540892592,0.202274600661
1588857153816263775,8076,1588857153816138178,,0.502790071787,-0.185594854138,0.202251705508
1588857153822374854,8077,1588857153822205624,,0.502791432466,-0.185646383093,0.202231363023
1588857153828282759,8078,1588857153828133485,,0.502791972687,-0.1856744501,0.202218089895
1588857153834352623,8079,1588857153834189352,,0.502794559044,-0.185730943972,0.202193871594
1588857153840781044,8080,1588857153840657669,,0.50279496546,-0.185756040224,0.202180940531
1588857153846332086,8081,1588857153846150118,,0.502797524619,-0.185786351692,0.202169107091
1588857153852325110,8082,1588857153852140770,,0.502799121728,-0.185842321013,0.202145399805
1588857153858501975,8083,1588857153858308727,,0.502800372389,-0.185871215343,0.202133316095
1588857153864353790,8084,1588857153864230427,,0.502802031327,-0.185897581662,0.202123293414
1588857153870300082,8085,1588857153870181907,,0.502804523166,-0.185948463263,0.202099507786
1588857153876349728,8086,1588857153876204142,,0.502806373461,-0.185999716652,0.202077323458
1588857153882314605,8087,1588857153882176505,,0.502807286245,-0.186025070201,0.202064780785
1588857153888317585,8088,1588857153888170651,,0.502807485308,-0.186049238246,0.202055120319
1588857153894270703,8089,1588857153894161903,,0.502808328718,-0.186076865267,0.202043734571
1588857153900721422,8090,1588857153900602969,,0.502810317031,-0.18612199222,0.202022626949
1588857153906367016,8091,1588857153906156735,,0.502810653099,-0.186140768885,0.202013344167
1588857153912409151,8092,1588857153912205147,,0.502810956035,-0.186161738877,0.202001913413
1588857153918434594,8093,1588857153918241142,,0.502811406909,-0.186181299017,0.20199053568
1588857153924277507,8094,1588857153924178088,,0.502810203584,-0.186216640964,0.201969782783
1588857153930296098,8095,1588857153930113590,,0.502810949667,-0.186252984837,0.201950047597
1588857153936284519,8096,1588857153936140315,,0.502811075359,-0.186267758308,0.201942661582
1588857153942320466,8097,1588857153942185004,,0.502812279152,-0.186282186549,0.201934645981
1588857153948355437,8098,1588857153948220947,,0.502812026448,-0.186295849127,0.201924370842
1588857153954382705,8099,1588857153954209540,,0.502813350998,-0.186315785569,0.201914260209
1588857153960645036,8100,1588857153960530289,,0.50281355067,-0.186327590862,0.201905086525
1588857153966298438,8101,1588857153966176616,,0.502816089393,-0.186345245,0.201893414054
1588857153972262992,8102,1588857153972142390,,0.502817452409,-0.186352595264,0.201888322106
1588857153978393432,8103,1588857153978228563,,0.502820160932,-0.186366901026,0.201875255319
1588857153984357659,8104,1588857153984194896,,0.502821313267,-0.186373225877,0.201869299661
1588857153990298572,8105,1588857153990185391,,0.502823944409,-0.18638510283,0.201856350385
1588857153996335220,8106,1588857153996166908,,0.502825424843,-0.186391375501,0.201849019683
1588857154002402774,8107,1588857154002170637,,0.502827096369,-0.186404170769,0.201836615819
1588857154008357885,8108,1588857154008210183,,0.502828640413,-0.186408467025,0.201831497069
1588857154014286435,8109,1588857154014186287,,0.502830058672,-0.186417801266,0.201820406012
1588857154023322735,8110,1588857154023200957,,0.502834403351,-0.186430342343,0.201804770047
1588857154029446465,8111,1588857154029207349,,0.502835398691,-0.186434585455,0.201798805782
1588857154035296441,8112,1588857154035162797,,0.502837886045,-0.186439469546,0.201789396579
1588857154041350054,8113,1588857154041154777,,0.502839661876,-0.186442108872,0.201785984141
1588857154047326262,8114,1588857154047218926,,0.502843249492,-0.186443858242,0.201776368607
1588857154054156489,8115,1588857154054023309,,0.502845082368,-0.18644641531,0.201772745412
1588857154059743625,8116,1588857154059537650,,0.502850037378,-0.186449576836,0.20176576976
1588857154065270386,8117,1588857154065138967,,0.502852451618,-0.186451159281,0.201763821488
1588857154071267947,8118,1588857154071163747,,0.502855020681,-0.186452639449,0.201763148136
1588857154077420408,8119,1588857154077202946,,0.502856928642,-0.186454034382,0.201761196087
1588857154083323589,8120,1588857154083232690,,0.502862888642,-0.186455097506,0.201758069686
1588857154089362000,8121,1588857154089214979,,0.502865541565,-0.186456479703,0.201756815835
1588857154095408783,8122,1588857154095248081,,0.502871892649,-0.186458437231,0.201755572099
1588857154101442362,8123,1588857154101256749,,0.502875574858,-0.186456364405,0.201756366896
1588857154107645544,8124,1588857154107502693,,0.502881828912,-0.186455582888,0.201758832874
1588857154116289253,8125,1588857154116158487,,0.502891140018,-0.186452199052,0.201761977366
1588857154122269432,8126,1588857154122163449,,0.502895083207,-0.186448351781,0.201764880504
1588857154128354890,8127,1588857154128212433,,0.502898759322,-0.186446628043,0.201768937945
1588857154134288631,8128,1588857154134190576,,0.502902511193,-0.186443292986,0.201771789986
1588857154140715321,8129,1588857154140609089,,0.502912296236,-0.186427506905,0.201779809515
1588857154146222529,8130,1588857154146146921,,0.502921939409,-0.186409056286,0.20178692526
1588857154152594320,8131,1588857154152440532,,0.502927761212,-0.186397670015,0.201791071429
1588857154158391969,8132,1588857154158278872,,0.502937120151,-0.186376428939,0.201795064638
1588857154164360651,8133,1588857154164207636,,0.502942833491,-0.186364919324,0.201797504304
1588857154170306679,8134,1588857154170211942,,0.502947946981,-0.18635334282,0.201800225771
1588857154176317577,8135,1588857154176184016,,0.502958326737,-0.186332386322,0.201806477065
1588857154182234887,8136,1588857154182129617,,0.502963860658,-0.18632175027,0.201810151603
1588857154188288607,8137,1588857154188140907,,0.502974020669,-0.186298611093,0.201817838515
1588857154194338078,8138,1588857154194215273,,0.502978387856,-0.18628638872,0.201823198815
1588857154200372596,8139,1588857154200275928,,0.502987417408,-0.186263648353,0.201834070566
1588857154206411196,8140,1588857154206259318,,0.502990430862,-0.186252813651,0.201838822905
1588857154212385784,8141,1588857154212238991,,0.502994301583,-0.186239642724,0.201846970557
1588857154218358313,8142,1588857154218248276,,0.50300057361,-0.186217196567,0.201860789069
1588857154224432469,8143,1588857154224260121,,0.503003853492,-0.186207504315,0.201867961266
1588857154230374520,8144,1588857154230235434,,0.503008578836,-0.186188167139,0.201882376748
1588857154236428014,8145,1588857154236257550,,0.503010798585,-0.186178273022,0.201892042101
1588857154242365530,8146,1588857154242231331,,0.503013704472,-0.186160931045,0.201909057675
1588857154248359146,8147,1588857154248253102,,0.503014846125,-0.186152787121,0.20191797476
1588857154254261749,8148,1588857154254144882,,0.503015749185,-0.18614442516,0.201927268919
1588857154257516125,8149,1588857154257386240,,0.503016449421,-0.186137447092,0.201936792015
1588857154263301253,8150,1588857154263200165,,0.503017033323,-0.186129034368,0.201947187902
1588857154269420209,8151,1588857154269197359,,0.503017337812,-0.186115842454,0.20196716059
1588857154275421877,8152,1588857154275281181,,0.503018178168,-0.186100678902,0.201988931096
1588857154281359090,8153,1588857154281221328,,0.503017645111,-0.186094062833,0.202000661694
1588857154287345707,8154,1588857154287205467,,0.503017428037,-0.18608046467,0.202024264457
1588857154296295427,8155,1588857154296173971,,0.503015695683,-0.186061206508,0.202063588331
1588857154302320865,8156,1588857154302165156,,0.503015237668,-0.186053749569,0.202078549015
1588857154308307293,8157,1588857154308199136,,0.503014484015,-0.186048271081,0.202092486687
1588857154314314788,8158,1588857154314205353,,0.503012963698,-0.186034931529,0.20211702029
1588857154320621887,8159,1588857154320377194,,0.503010134961,-0.186019391275,0.202143856339
1588857154329397170,8160,1588857154329232569,,0.503004395416,-0.185993809476,0.202179604181
1588857154335250582,8161,1588857154335169869,,0.503001661784,-0.185984081968,0.202190871522
1588857154341329377,8162,1588857154341229420,,0.502991725738,-0.185963803983,0.202203575458
1588857154347415038,8163,1588857154347285665,,0.502985853037,-0.185951749752,0.202207912707
1588857154356851021,8164,1588857154356724742,,0.50297181108,-0.185920579713,0.202227432424
1588857154362627295,8165,1588857154362548847,,0.502968071769,-0.18590816969,0.202231075978
1588857154368406371,8166,1588857154368237164,,0.502961514505,-0.185884272313,0.202238321971
1588857154374394500,8167,1588857154374256656,,0.502957957062,-0.185873297854,0.202244920733
1588857154380859650,8168,1588857154380767597,,0.502954363672,-0.185849179629,0.202260430659
1588857154386340733,8169,1588857154386246263,,0.502950721138,-0.185826261769,0.202272571903
1588857154392357524,8170,1588857154392218263,,0.502950135998,-0.185813626175,0.202278262279
1588857154398325156,8171,1588857154398159360,,0.502949411662,-0.185801665381,0.202283600572
1588857154401289211,8172,1588857154401198907,,0.502948156984,-0.18577857945,0.202297876733
