%time,field.header.seq,field.header.stamp,field.header.frame_id,field.vector.x,field.vector.y,field.vector.z
1589275286982535854,749,1589275286982444371,,0.0133251339462,-1.04909486439,1.33442367568
1589275286985531432,750,1589275286985445441,,0.0135010860979,-1.04658587078,1.33295221911
1589275286989028211,751,1589275286988932613,,0.0136634866236,-1.07475086158,1.33920510042
1589275286991910431,752,1589275286991805899,,0.0134257380124,-1.07294168307,1.33730316143
1589275286994846278,753,1589275286994774856,,0.0129815574596,-1.10170535264,1.34240450061
1589275286997961856,754,1589275286997816810,,0.0125981204482,-1.09934061186,1.33999794625
1589275287001084379,755,1589275287001006879,,0.0123131940506,-1.12904305602,1.3459069529
1589275287004119769,756,1589275287003996421,,0.0122385140426,-1.12677036517,1.34408657949
1589275287006955627,757,1589275287006874090,,0.0120739341184,-1.15173053046,1.34883291743
1589275287009866809,758,1589275287009693588,,0.0120084382033,-1.15465171321,1.34820013832
1589275287012850433,759,1589275287012773889,,0.0120345275166,-1.15266733302,1.34635669062
1589275287015855591,760,1589275287015773365,,0.0119726998936,-1.18336861827,1.35274667445
1589275287018856103,761,1589275287018759968,,0.0119270549703,-1.18190089965,1.35097069926
1589275287021816014,762,1589275287021695453,,0.012008961189,-1.2134088133,1.35795018453
1589275287024754948,763,1589275287024642594,,0.0119931741577,-1.21158842816,1.35639693705
1589275287027776348,764,1589275287027689973,,0.0121551842419,-1.24332328712,1.36358362203
1589275287030831173,765,1589275287030710022,,0.011955612959,-1.24146940043,1.36192701732
1589275287033603932,766,1589275287033527420,,0.0122858054229,-1.23920087848,1.36086716166
1589275287036554450,767,1589275287036483004,,0.0123835095312,-1.2710341177,1.36804307395
1589275287039621992,768,1589275287039552479,,0.0126841936938,-1.26801160588,1.36651170249
1589275287043080619,769,1589275287043012576,,0.013099705361,-1.29962324156,1.37392830485
1589275287046162627,770,1589275287046059417,,0.0132138880953,-1.29657183502,1.37211744946
1589275287048676842,771,1589275287048576671,,0.0137224007122,-1.32890496428,1.37932906841
1589275287054652352,772,1589275287054566179,,0.0140249514129,-1.36154520118,1.38670265132
1589275287057639805,773,1589275287057559132,,0.0142186390737,-1.35900824474,1.38483107093
1589275287063792775,774,1589275287063693035,,0.0145794712421,-1.39260838073,1.39207628469
1589275287066768983,775,1589275287066634366,,0.0147673488742,-1.39048358485,1.3903347642
1589275287069610505,776,1589275287069548178,,0.0151913510861,-1.42449289568,1.39787397718
1589275287075922328,777,1589275287075815144,,0.0155126611122,-1.45857701892,1.40536843249
1589275287078748191,778,1589275287078650271,,0.0159711097225,-1.45601709122,1.40359098481
1589275287081659051,779,1589275287081546077,,0.0162960993991,-1.49112981117,1.4116441855
1589275287087800826,780,1589275287087725665,,0.0166273125483,-1.52667194687,1.41955836772
1589275287090672219,781,1589275287090568212,,0.016989373134,-1.52421581577,1.41811934655
1589275287093789711,782,1589275287093705891,,0.0172217814747,-1.56072280176,1.42628380009
1589275287099677206,783,1589275287099587731,,0.0174521221956,-1.5585692329,1.42481250655
1589275287102803187,784,1589275287102749331,,0.0177394979302,-1.59485549253,1.4329558465
1589275287105671163,785,1589275287105541469,,0.0182050019058,-1.59239344139,1.43158595645
1589275287111794736,786,1589275287111713950,,0.0184415819699,-1.62958648534,1.43988940462
1589275287114675563,787,1589275287114607922,,0.0187525738402,-1.66678318341,1.44812927815
1589275287117661187,788,1589275287117579961,,0.0192075979074,-1.66387627356,1.4464343215
1589275287123770996,789,1589275287123677511,,0.0195076317614,-1.70135260068,1.45500559362
1589275287126709594,790,1589275287126605405,,0.0198371081218,-1.69816873827,1.45317198031
1589275287129764553,791,1589275287129689003,,0.0201054471508,-1.73545478795,1.46183176666
1589275287135932148,792,1589275287135874166,,0.0205024174033,-1.77282397721,1.47058690471
1589275287138848271,793,1589275287138750396,,0.0210901168237,-1.76990831683,1.46952035978
1589275287141713122,794,1589275287141648554,,0.021369837059,-1.80780202111,1.4782353147
1589275287147942356,795,1589275287147811402,,0.021889667537,-1.84562950892,1.48703866957
1589275287150702444,796,1589275287150626003,,0.0223902792163,-1.84181560312,1.48541111554
1589275287153787036,797,1589275287153699792,,0.0229372122996,-1.87053713757,1.49203006785
1589275287159723271,798,1589275287159655071,,0.0233609079522,-1.87648030165,1.49306994455
1589275287162682490,799,1589275287162620331,,0.0238041291841,-1.91528035363,1.5021503831
1589275287168786632,800,1589275287168647194,,0.0240328299008,-1.95443295001,1.51115644396
1589275287171748890,801,1589275287171673259,,0.0244822744073,-1.95044087984,1.50959123455
1589275287174661488,802,1589275287174583370,,0.0247845335165,-1.98992866485,1.51889312761
1589275287177756980,803,1589275287177646150,,0.0250810280573,-1.98564378136,1.51693023787
1589275287184071326,804,1589275287183985302,,0.0255577268735,-2.02537013212,1.52620794274
1589275287186707898,805,1589275287186635689,,0.0257733540516,-2.02170827929,1.52443924631
1589275287193050516,806,1589275287192932833,,0.0260240144371,-2.0617971632,1.53358746476
1589275287195917743,807,1589275287195827170,,0.0263812005703,-2.10242003548,1.54323355357
1589275287198862083,808,1589275287198790865,,0.026549951916,-2.0987647337,1.54131333963
1589275287201787342,809,1589275287201711636,,0.0267854924676,-2.13954547786,1.55089495356
1589275287207788162,810,1589275287207708020,,0.027059481539,-2.1805703085,1.56043557789
1589275287210839796,811,1589275287210753703,,0.0272541888046,-2.1767531104,1.55869082278
1589275287216637747,812,1589275287216587540,,0.0276725598402,-2.21755960932,1.56856331151
1589275287219649077,813,1589275287219570306,,0.0279102022948,-2.21366198235,1.56718174068
1589275287222722980,814,1589275287222620153,,0.0281922336548,-2.25511898702,1.57681155783
1589275287228875580,815,1589275287228779773,,0.0284473880643,-2.29672838876,1.5869709455
1589275287231954490,816,1589275287231856956,,0.0286710710502,-2.29233032159,1.58534526052
1589275287234792521,817,1589275287234702242,,0.0291764441853,-2.3336138295,1.59554568962
1589275287240691880,818,1589275287240638117,,0.0292555524806,-2.37563179774,1.60620598521
1589275287243914834,819,1589275287243823935,,0.0293713654249,-2.37140107743,1.60551121684
1589275287247114067,820,1589275287247049827,,0.0295423690799,-2.40079693658,1.61325857062
1589275287252668048,821,1589275287252617202,,0.0295964041571,-2.40909703677,1.61571608707
1589275287255693280,822,1589275287255624338,,0.0299351394474,-2.45182209931,1.62660356933
1589275287258883094,823,1589275287258795405,,0.0300059780521,-2.44778249413,1.62539581102
1589275287264633049,824,1589275287264580337,,0.0302292290375,-2.49025796244,1.63615963037
1589275287267710558,825,1589275287267656053,,0.0303938198844,-2.53376079379,1.64663590866
1589275287273635895,826,1589275287273561591,,0.0305449310615,-2.56397488426,1.6542932195
1589275287276610960,827,1589275287276525984,,0.0308117619144,-2.57291844181,1.65659810868
1589275287279649189,828,1589275287279580232,,0.0309847324011,-2.56891788025,1.65547027723
1589275287285609023,829,1589275287285549644,,0.0311534561271,-2.61296252333,1.66662904501
1589275287288816352,830,1589275287288697984,,0.0311304956343,-2.65723137641,1.67738770442
1589275287291841786,831,1589275287291765381,,0.031340772269,-2.65331822619,1.67605686566
1589275287297654339,832,1589275287297579513,,0.0312826850652,-2.69779873786,1.68683785215
1589275287303781025,833,1589275287303710490,,0.031245177794,-2.73898199167,1.6962828395
1589275287309676214,834,1589275287309608727,,0.0311300176051,-2.78417293039,1.70715310005
1589275287312892979,835,1589275287312815426,,0.0313168593753,-2.78027011344,1.70602645202
1589275287315915314,836,1589275287315832255,,0.031534772271,-2.82489242552,1.71708124547
1589275287321595444,837,1589275287321512511,,0.0316273355513,-2.86995407847,1.72816128248
1589275287324681910,838,1589275287324588794,,0.0317495956599,-2.86610343465,1.72698152629
1589275287327691988,839,1589275287327591661,,0.0318152447064,-2.91187758951,1.73842275425
1589275287333719160,840,1589275287333614642,,0.0320554411473,-2.90858853289,1.73751943572
1589275287336577556,841,1589275287336498536,,0.0321912947832,-2.95458738326,1.74898711849
1589275287339656476,842,1589275287339565412,,0.0322394206234,-2.95101852075,1.74783851961
1589275287345957518,843,1589275287345890321,,0.0325624764166,-2.99744664819,1.75978714272
1589275287348729461,844,1589275287348578325,,0.0325768130443,-3.04401543868,1.77097658206
1589275287351619838,845,1589275287351541010,,0.032729003389,-3.03949932666,1.7697103714
1589275287357734619,846,1589275287357652492,,0.0329617900902,-3.08579954602,1.78128320866
1589275287364111269,847,1589275287363991477,,0.0331753210614,-3.12812938127,1.79147985062
1589275287370001930,848,1589275287369885229,,0.0332932908042,-3.17477579095,1.80300646358
1589275287372541036,849,1589275287372493234,,0.0334037748988,-3.17060232359,1.80168218171
1589275287375947457,850,1589275287375839632,,0.0336364568851,-3.21711181467,1.81313677458
1589275287381932966,851,1589275287381868613,,0.0337015191398,-3.26348870384,1.82466370406
1589275287384848323,852,1589275287384763816,,0.0339549784422,-3.25903270833,1.82355617685
1589275287387656108,853,1589275287387580680,,0.0340103686722,-3.30568443069,1.83499673347
1589275287393880086,854,1589275287393798121,,0.0344255931465,-3.33517196184,1.84247980292
1589275287397104736,855,1589275287396935438,,0.0345970100825,-3.34865584005,1.84523517803
1589275287399986658,856,1589275287399908701,,0.0348439540771,-3.34438915946,1.84400425937
1589275287405946068,857,1589275287405851541,,0.0349555621287,-3.39244504625,1.8557453138
1589275287409000329,858,1589275287408935195,,0.0351472014309,-3.44070711521,1.86772813822
1589275287411970749,859,1589275287411914909,,0.0354016505763,-3.43592042152,1.86653480445
1589275287417804360,860,1589275287417720833,,0.0356187191191,-3.48372751344,1.87848532819
1589275287423735621,861,1589275287423676516,,0.0360031152343,-3.5277865743,1.88908798157
1589275287430120083,862,1589275287429992164,,0.0362791283039,-3.57600322196,1.90126811353
1589275287433024863,863,1589275287432914515,,0.0365283219611,-3.57135135344,1.89987219413
1589275287435987620,864,1589275287435924360,,0.0365744095455,-3.6193561871,1.91144112099
1589275287442090165,865,1589275287441971534,,0.0368298837734,-3.667089586,1.92301522614
1589275287445075276,866,1589275287444997802,,0.0371875916891,-3.66204239284,1.92168118099
1589275287447937891,867,1589275287447865342,,0.037580182249,-3.70928439637,1.93361708697
1589275287453957470,868,1589275287453886856,,0.0380315154678,-3.757135176,1.94583598744
1589275287457008542,869,1589275287456899551,,0.0383923671449,-3.7513154186,1.94466889618
1589275287459978294,870,1589275287459919524,,0.038844932723,-3.74527595316,1.94375488967
1589275287465969745,871,1589275287465889872,,0.0391536731628,-3.79260669189,1.95542723676
1589275287469086434,872,1589275287468987341,,0.0395353587618,-3.83920673909,1.96758636078
1589275287475142952,873,1589275287475003036,,0.0398174439428,-3.88598969555,1.97947245862
1589275287477948130,874,1589275287477870997,,0.0403604939027,-3.87914475422,1.97812366836
1589275287487039706,875,1589275287486970488,,0.0411691771275,-3.92038958013,1.98862216947
1589275287490063261,876,1589275287489937673,,0.0415991912347,-3.96732164957,2.00044289585
1589275287493200831,877,1589275287493042049,,0.0422324460692,-3.96056563105,1.99917863128
1589275287499113984,878,1589275287499010753,,0.0425872697271,-4.00768760372,2.01109870055
1589275287502087550,879,1589275287501986059,,0.0428784625465,-4.05467904307,2.02296811811
1589275287505002364,880,1589275287504894398,,0.0432598851744,-4.04859986476,2.0217230302
1589275287511146470,881,1589275287511002021,,0.0435468836149,-4.09559681629,2.0338491862
1589275287514181722,882,1589275287514035283,,0.0439175884028,-4.14363875217,2.04593071755
1589275287516965507,883,1589275287516903104,,0.0440383843036,-4.13738314268,2.04412407202
1589275287523093714,884,1589275287522969991,,0.0445770408658,-4.18457142932,2.05611315023
1589275287526082887,885,1589275287525986599,,0.045036754506,-4.17851664306,2.05487791459
1589275287529016996,886,1589275287528878409,,0.0451938952786,-4.22550916629,2.06687597529
1589275287535045492,887,1589275287534951048,,0.0455807363132,-4.27205595537,2.07882872946
1589275287537906843,888,1589275287537800643,,0.0457085170094,-4.26531403788,2.07722886357
1589275287541105709,889,1589275287541010120,,0.0461053610364,-4.31218019726,2.08965728274
1589275287547311088,890,1589275287547233450,,0.0462699700554,-4.33602751271,2.09593669903
1589275287550014606,891,1589275287549866537,,0.0468210194873,-4.35163511904,2.10040485899
1589275287552926961,892,1589275287552833431,,0.0473099267554,-4.34467231251,2.09966991491
1589275287559070996,893,1589275287558973196,,0.0476331144237,-4.39102841895,2.11140046557
1589275287562041452,894,1589275287561960848,,0.0481011532799,-4.43686416552,2.12302576034
1589275287564981790,895,1589275287564858091,,0.0482731836793,-4.42949229412,2.12143787583
1589275287570935298,896,1589275287570834978,,0.0489914847618,-4.47470785351,2.1332443514
1589275287573983826,897,1589275287573867522,,0.049467793551,-4.49716675147,2.13923413417
1589275287580023953,898,1589275287579882526,,0.0497692570673,-4.51290758252,2.14336311048
1589275287583018188,899,1589275287582905241,,0.0501383948412,-4.55828291689,2.15508557144
1589275287586027700,900,1589275287585947673,,0.0509201231991,-4.55036067291,2.15384729384
1589275287588992521,901,1589275287588887344,,0.051386637012,-4.59594851378,2.16589365638
1589275287594942002,902,1589275287594859134,,0.0520360433667,-4.64136382187,2.17780177884
1589275287598013338,903,1589275287597928735,,0.0523845620723,-4.63367726636,2.17588937336
1589275287604052664,904,1589275287603942702,,0.0528953198131,-4.67963674323,2.18777414769
1589275287606987833,905,1589275287606890987,,0.0533797023513,-4.67238966204,2.1863548058
1589275287609989112,906,1589275287609879341,,0.0538680910202,-4.71804107477,2.19836625769
1589275287615923939,907,1589275287615829376,,0.0541877988224,-4.76413704756,2.2103077055
1589275287618868724,908,1589275287618793716,,0.0547599423797,-4.75642335704,2.20899860018
1589275287621995345,909,1589275287621853800,,0.0550111817563,-4.80195730772,2.22074201034
1589275287627988005,910,1589275287627898802,,0.0556254001321,-4.84769555744,2.2321030614
1589275287630846171,911,1589275287630779365,,0.0560873610439,-4.84001062287,2.23042801638
1589275287633942664,912,1589275287633850728,,0.0566419473581,-4.86069589354,2.23597073156
1589275287640247148,913,1589275287640090281,,0.0570351782229,-4.87797066514,2.24048514434
1589275287643034872,914,1589275287642900533,,0.0577322461896,-4.92282592421,2.25264684806
1589275287646080943,915,1589275287645969374,,0.0581366745734,-4.91446598213,2.25122444293
1589275287651923643,916,1589275287651859098,,0.0586234918059,-4.95867743899,2.26315304021
1589275287654890122,917,1589275287654797118,,0.0592428229642,-5.00283906033,2.2747240444
1589275287663820326,918,1589275287663762021,,0.0603585792012,-5.03894421696,2.28568860475
1589275287666905752,919,1589275287666780296,,0.0611033835836,-5.0300320845,2.28434593083
1589275287669892862,920,1589275287669726319,,0.0615482934092,-5.07390408225,2.29600592759
1589275287676164645,921,1589275287676013213,,0.0623707879414,-5.11765233187,2.30779471699
1589275287678873834,922,1589275287678711581,,0.0626959628473,-5.10939274783,2.30651837565
1589275287684862548,923,1589275287684756282,,0.0633444177072,-5.15296559427,2.31842336914
1589275287688074117,924,1589275287687991960,,0.0639000119405,-5.19690614529,2.33047015218
1589275287691076484,925,1589275287690955087,,0.0640211867972,-5.19026529049,2.32915795945
1589275287697099360,926,1589275287697002537,,0.0645435916496,-5.23454745935,2.34102257877
1589275287699899782,927,1589275287699813658,,0.064911841241,-5.22529290582,2.33900425252
1589275287703051593,928,1589275287702978644,,0.0655871973035,-5.27043835531,2.3514506441
1589275287708778582,929,1589275287708696210,,0.0657832480945,-5.31505494761,2.36264603826
1589275287711954538,930,1589275287711744126,,0.0661678824682,-5.30622513735,2.36071780136
1589275287714856215,931,1589275287714777861,,0.0666200999407,-5.35003994188,2.37238648471
1589275287724143513,932,1589275287724034897,,0.0672479562427,-5.38606815449,2.38236213968
1589275287727128808,933,1589275287727057952,,0.0674284905815,-5.40184470942,2.3869721365
1589275287733067886,934,1589275287732977107,,0.0681352858496,-5.42014346479,2.39259445901
1589275287735748403,935,1589275287735671853,,0.0685604957853,-5.46266246861,2.40308905804
1589275287738679034,936,1589275287738622499,,0.0687792776354,-5.45283255845,2.40097332787
1589275287744970898,937,1589275287744850115,,0.0695907413118,-5.49482352161,2.41222776209
1589275287748130311,938,1589275287748051828,,0.0702523143052,-5.53728469096,2.4242340052
1589275287751033484,939,1589275287750973317,,0.0705689228785,-5.52922600643,2.4227400652
1589275287756989778,940,1589275287756896520,,0.0711836564314,-5.57073508646,2.43382038292
1589275287760103711,941,1589275287759983347,,0.071653139461,-5.56049226302,2.43189001866
1589275287763020813,942,1589275287762897212,,0.0724427794811,-5.60280073684,2.44385131367
1589275287768859504,943,1589275287768805015,,0.0731768451498,-5.6439529377,2.45594613094
1589275287771720766,944,1589275287771675193,,0.0738702325459,-5.63415155621,2.4544976618
1589275287774596719,945,1589275287774524623,,0.0740329732204,-5.67570385686,2.46504612082
1589275287783890766,946,1589275287783821369,,0.0751315542225,-5.70806835813,2.47471896035
1589275287786899842,947,1589275287786820936,,0.0756117117328,-5.69878011573,2.47299569044
1589275287792865627,948,1589275287792794661,,0.0759568769482,-5.74010534369,2.4838438128
1589275287795879638,949,1589275287795798363,,0.0764360817744,-5.7807385585,2.49488164143
1589275287798617529,950,1589275287798552854,,0.0768785430686,-5.77114558353,2.49312476808
1589275287804764495,951,1589275287804692888,,0.0774467692125,-5.81111691498,2.5035116416
1589275287807746459,952,1589275287807676521,,0.078093094968,-5.85075395813,2.51455868613
1589275287810821984,953,1589275287810733965,,0.0784388615668,-5.84290211862,2.51311472244
1589275287816865516,954,1589275287816741147,,0.0793204327424,-5.88180811014,2.523963497
1589275287819919151,955,1589275287819823630,,0.0801702820055,-5.87022034464,2.5219330761
1589275287822905319,956,1589275287822787914,,0.0809204759946,-5.91004385354,2.53351535641
1589275287828656044,957,1589275287828584283,,0.0816273664436,-5.94881125451,2.54381421825
1589275287831711482,958,1589275287831540724,,0.0824677059511,-5.93602808075,2.54176769029
1589275287834656534,959,1589275287834593559,,0.083164543734,-5.97366710722,2.55249715648
1589275287844047565,960,1589275287843982593,,0.0841043419998,-6.00002047586,2.560976429
1589275287847298562,961,1589275287847214531,,0.0846617145181,-6.00778966377,2.56360136491
1589275287852912544,962,1589275287852809297,,0.0850849814481,-6.02673199052,2.56878633402
1589275287855686560,963,1589275287855603495,,0.0860071668172,-6.06381229206,2.57917821879
1589275287861659052,964,1589275287861598950,,0.0867546671694,-6.10132942482,2.58951825371
1589275287864659024,965,1589275287864598711,,0.0868421360988,-6.09050454551,2.58677814038
1589275287867658002,966,1589275287867575774,,0.0873180222549,-6.12804985862,2.59733624099
1589275287873739469,967,1589275287873665843,,0.0874902657095,-6.16808614622,2.6080182602
1589275287876670371,968,1589275287876591214,,0.0882636206884,-6.15665015501,2.60671632987
1589275287879912101,969,1589275287879811222,,0.0884612652384,-6.14597351572,2.60478078353
1589275287885871789,970,1589275287885788963,,0.089109733013,-6.18546028861,2.61595576995
1589275287888832832,971,1589275287888741689,,0.0896837987871,-6.22301050894,2.62681082932
1589275287891857062,972,1589275287891804445,,0.0898679944295,-6.21217209804,2.62432533778
1589275287897642957,973,1589275287897558777,,0.0901937468617,-6.24963225425,2.63418415163
1589275287900676958,974,1589275287900608434,,0.09066796588,-6.28687419409,2.64445048188
1589275287903688853,975,1589275287903625472,,0.0910593551798,-6.27725243599,2.64295500937
1589275287909734637,976,1589275287909636093,,0.0911265003193,-6.31444618692,2.65198350093
1589275287912776733,977,1589275287912675060,,0.0913704084983,-6.30442786932,2.64947844078
1589275287916125934,978,1589275287916035499,,0.0920137960016,-6.33971231196,2.65901244253
1589275287922074232,979,1589275287922008880,,0.0924650129337,-6.37506934521,2.66778377849
1589275287925231969,980,1589275287925131553,,0.0931402141304,-6.36399882994,2.66519622668
1589275287928167336,981,1589275287928041488,,0.0940841070778,-6.39724244664,2.67419690359
1589275287934035860,982,1589275287933952524,,0.0946982639825,-6.43096639708,2.68310165617
1589275287937126094,983,1589275287937004830,,0.0955835160749,-6.41843429799,2.68033202896
1589275287940161761,984,1589275287940035076,,0.0965279416879,-6.40548882507,2.67844713342
1589275287946323031,985,1589275287946171193,,0.0973763129406,-6.43794792888,2.687528936
1589275287949048649,986,1589275287948975411,,0.0981378458287,-6.47027913153,2.69593771359
1589275287952070331,987,1589275287951995164,,0.0988984786573,-6.4573234937,2.69318310659
1589275287958092886,988,1589275287958026234,,0.0995787783821,-6.4896826436,2.70182673142
1589275287967296833,989,1589275287967204197,,0.100731844738,-6.51021359771,2.70770160389
1589275287970063481,990,1589275287969954589,,0.101282403498,-6.54351742923,2.71685979059
1589275287973216201,991,1589275287973095581,,0.101653084051,-6.53185731524,2.7139445169
1589275287976103987,992,1589275287975999313,,0.101728402005,-6.5656242247,2.72303727727
1589275287982174164,993,1589275287982063540,,0.102176806815,-6.59889697898,2.73184193378
1589275287985146910,994,1589275287985050013,,0.102876092013,-6.58819107122,2.72944970203
1589275287991159460,995,1589275287991022390,,0.103105073539,-6.62192110887,2.7388445327
1589275287994332138,996,1589275287994243719,,0.103466573453,-6.65786075917,2.74843650888
1589275287997082911,997,1589275287996978584,,0.103742566113,-6.64749162322,2.74602498671
1589275288000109878,998,1589275287999981574,,0.103757864521,-6.63613972663,2.74364738735
1589275288006187863,999,1589275288006072568,,0.104383363359,-6.66979573192,2.75290212011
1589275288009179264,1000,1589275288009031621,,0.104822248013,-6.70116733174,2.7621534507
1589275288015180055,1001,1589275288015063097,,0.105108157705,-6.73077257171,2.76980211803
1589275288018187473,1002,1589275288018082474,,0.10550531714,-6.71880943551,2.76704737698
1589275288026941085,1003,1589275288026853234,,0.106686165488,-6.73549654446,2.77263584804
1589275288030043154,1004,1589275288029886521,,0.107563870805,-6.76273224731,2.77982091335
1589275288033024043,1005,1589275288032878968,,0.108387407815,-6.74886443013,2.776457526
1589275288038955047,1006,1589275288038860848,,0.109223934275,-6.77547591762,2.78379697122
1589275288041976586,1007,1589275288041878680,,0.109974933489,-6.80119463064,2.79075155469
1589275288045255729,1008,1589275288045146018,,0.110834407155,-6.78597672106,2.78736033771
1589275288051085641,1009,1589275288050948891,,0.111606705185,-6.81148489304,2.79448645102
1589275288054340976,1010,1589275288054235220,,0.112493273982,-6.80685166129,2.79384112894
1589275288057123169,1011,1589275288057039489,,0.113195819494,-6.82506553756,2.79890915059
1589275288063254637,1012,1589275288063162651,,0.114041363088,-6.84870551777,2.80585084739
1589275288066100586,1013,1589275288066015672,,0.114681107862,-6.83796159534,2.8032499842
1589275288072242981,1014,1589275288072039898,,0.115324757511,-6.8644185756,2.81070054559
1589275288075157429,1015,1589275288075031289,,0.115695753504,-6.89043185376,2.81757406316
1589275288078038489,1016,1589275288077949882,,0.116069234335,-6.87847342289,2.81528877478
1589275288084162991,1017,1589275288084008053,,0.116336100631,-6.90626589946,2.82255641728
1589275288087145392,1018,1589275288087051550,,0.116693382935,-6.8958522564,2.82002670796
1589275288090163633,1019,1589275288090019133,,0.116703943918,-6.92431899355,2.82688867631
1589275288096160453,1020,1589275288096072219,,0.116929286961,-6.95147536659,2.83360676659
1589275288101983618,1021,1589275288101901263,,0.117563246863,-6.97772171588,2.84061040179
1589275288104947210,1022,1589275288104829215,,0.117645735017,-6.96634394531,2.83782987582
1589275288108020944,1023,1589275288107932776,,0.118328726566,-6.99162534927,2.84456782614
1589275288110927338,1024,1589275288110859043,,0.119121629987,-6.97807399211,2.84252810683
1589275288114284547,1025,1589275288114181191,,0.119626686941,-7.00175606585,2.84867611938
1589275288120156961,1026,1589275288120085193,,0.120194243506,-6.98692472881,2.8451997568
1589275288123104142,1027,1589275288123034694,,0.121171277935,-7.00868965553,2.85230733961
1589275288126139891,1028,1589275288126051437,,0.122325603342,-6.99214338332,2.84972992077
1589275288131878757,1029,1589275288131795670,,0.123618799256,-7.01136194441,2.85587721357
1589275288134874352,1030,1589275288134738624,,0.124297064015,-7.03091605092,2.86196091873
1589275288137843393,1031,1589275288137738373,,0.125799262193,-7.01233007134,2.85857462838
1589275288144317251,1032,1589275288144240863,,0.127493935874,-7.02957669415,2.86457695346
1589275288147309843,1033,1589275288147245271,,0.128375624478,-7.04719868105,2.86956275039
1589275288150055400,1034,1589275288149949198,,0.129636282344,-7.02913948549,2.86680209496
1589275288155775299,1035,1589275288155658181,,0.130776508999,-7.04616367557,2.87157521157
1589275288158979054,1036,1589275288158910928,,0.131419219814,-7.02930555805,2.86812616062
1589275288161857797,1037,1589275288161753147,,0.132643492386,-7.04740444542,2.87383725198
1589275288167989355,1038,1589275288167925093,,0.133483760599,-7.06535864112,2.87903364782
1589275288170912429,1039,1589275288170815608,,0.133333685969,-7.05141814707,2.87486434339
1589275288173956147,1040,1589275288173882672,,0.134323024619,-7.03765085921,2.87327437591
1589275288180083444,1041,1589275288179981201,,0.134633092863,-7.05807100603,2.87893334405
1589275288183117191,1042,1589275288183011937,,0.134788541991,-7.07901900228,2.88461525265
1589275288185750407,1043,1589275288185674041,,0.135274849621,-7.06791790957,2.88263366445
1589275288192034058,1044,1589275288191949962,,0.135599562489,-7.08911036532,2.88824587839
1589275288194914516,1045,1589275288194834203,,0.135876792017,-7.11018474852,2.8942066605
1589275288198080337,1046,1589275288197950982,,0.136015598436,-7.09900012564,2.89207591294
1589275288204026134,1047,1589275288203941925,,0.136839338417,-7.11865971078,2.89850155015
1589275288207001668,1048,1589275288206892771,,0.136894154413,-7.10594493191,2.89633592373
1589275288209956944,1049,1589275288209876746,,0.137454020441,-7.1242716298,2.90164066149
1589275288216198345,1050,1589275288216106204,,0.138052762103,-7.14160273859,2.90697217122
1589275288218982503,1051,1589275288218910971,,0.138605840136,-7.12639832036,2.90428831198
1589275288221692144,1052,1589275288221594326,,0.139722322871,-7.14127585122,2.90849568349
1589275288227765185,1053,1589275288227703599,,0.140367671168,-7.15518279999,2.91339210426
1589275288230721445,1054,1589275288230650998,,0.141578730201,-7.13798116238,2.90995248939
1589275288234108839,1055,1589275288234025793,,0.142656903654,-7.14992780745,2.91451393603
1589275288240192746,1056,1589275288240041423,,0.143678447021,-7.13195408715,2.91132826688
1589275288243278755,1057,1589275288243157383,,0.144835046572,-7.14233022515,2.91500900855
1589275288249151258,1058,1589275288249048921,,0.146222629053,-7.15185396525,2.91926661824
1589275288251886022,1059,1589275288251817161,,0.147487765991,-7.13291432898,2.9155949974
1589275288255016206,1060,1589275288254916176,,0.148804248341,-7.14235931043,2.91916785461
1589275288257982016,1061,1589275288257893376,,0.149746646062,-7.12458736442,2.91588776898
1589275288263705414,1062,1589275288263601952,,0.150578564995,-7.13625631128,2.92054351735
1589275288267268920,1063,1589275288267082321,,0.151459716762,-7.11988455366,2.91774189925
1589275288273108681,1064,1589275288273033613,,0.151782919315,-7.13307757713,2.92182986008
1589275288275856430,1065,1589275288275785887,,0.152465454529,-7.14704225955,2.9266769691
1589275288278899641,1066,1589275288278791273,,0.152870918267,-7.13517580681,2.92455937672
1589275288284848230,1067,1589275288284782685,,0.152982766294,-7.15062544063,2.92947044721
1589275288287836865,1068,1589275288287741425,,0.153194925261,-7.16685561373,2.93473852811
1589275288290755347,1069,1589275288290664132,,0.153372036953,-7.15726368965,2.93292119163
1589275288296772313,1070,1589275288296706392,,0.153722921353,-7.17385546886,2.93825168771
1589275288300318092,1071,1589275288300230017,,0.153786811542,-7.16405141427,2.93645407864
1589275288303147240,1072,1589275288303035198,,0.154125303227,-7.17962710439,2.94102502739
1589275288309077199,1073,1589275288308992730,,0.154416078746,-7.19318305315,2.94508000504
1589275288312036572,1074,1589275288311954313,,0.154867881628,-7.18104488986,2.94337690476
1589275288314896232,1075,1589275288314834248,,0.155219591977,-7.19292200276,2.94635685518
1589275288324125159,1076,1589275288323996446,,0.157039618818,-7.18732757707,2.94747183105
1589275288326957859,1077,1589275288326800986,,0.157382883705,-7.17178489322,2.9440584497
1589275288332836733,1078,1589275288332757553,,0.158878848351,-7.17772820167,2.94698866327
1589275288335767661,1079,1589275288335715245,,0.159818760856,-7.18369914433,2.95068513462
1589275288338797594,1080,1589275288338720838,,0.160850405281,-7.16498543015,2.94758419274
1589275288344992932,1081,1589275288344924957,,0.161975850872,-7.16980278244,2.95036143086
1589275288348097425,1082,1589275288348019776,,0.163409712662,-7.17242440599,2.95329866151
1589275288353939598,1083,1589275288353837560,,0.164347110208,-7.15685383117,2.95143539679
1589275288357094920,1084,1589275288356967313,,0.165629052121,-7.16016241169,2.95324529941
1589275288359729179,1085,1589275288359645446,,0.167071245626,-7.14026608174,2.94984110974
1589275288362850860,1086,1589275288362695751,,0.167924705571,-7.14855352326,2.95353863727
1589275288369149018,1087,1589275288369049552,,0.168708394142,-7.15302360945,2.95594158111
1589275288371933760,1088,1589275288371871866,,0.169624364103,-7.13689039136,2.95329745303
1589275288377951854,1089,1589275288377890165,,0.1701665264,-7.14560802802,2.95566166339
1589275288383944091,1090,1589275288383778555,,0.170833445239,-7.14262679629,2.95691549598
1589275288389928173,1091,1589275288389852723,,0.171021344692,-7.15334240725,2.9601327604
1589275288392884067,1092,1589275288392741875,,0.171056979821,-7.14466983618,2.95882080352
1589275288395778315,1093,1589275288395705745,,0.171108891536,-7.15557591821,2.96162621458
1589275288401727833,1094,1589275288401654763,,0.171350596352,-7.16569185854,2.96468136009
1589275288404755540,1095,1589275288404678841,,0.171488473793,-7.15665450735,2.96332986574
1589275288407844551,1096,1589275288407737040,,0.171867459238,-7.16571287921,2.96673072777
1589275288413939901,1097,1589275288413847035,,0.172222999185,-7.17624821442,2.96987423031
1589275288416765825,1098,1589275288416680257,,0.172646611139,-7.16451030475,2.96833065823
1589275288419731124,1099,1589275288419614107,,0.173506718103,-7.1503662375,2.96591704657
1589275288425736547,1100,1589275288425651054,,0.174205249733,-7.15775858027,2.96887048826
1589275288428724910,1101,1589275288428661099,,0.174749996806,-7.16096394417,2.97126969469
1589275288434813489,1102,1589275288434659867,,0.175959054725,-7.1609637375,2.97276347439
1589275288438113545,1103,1589275288438030398,,0.176702145849,-7.1464735239,2.97054897299
1589275288441072501,1104,1589275288440992286,,0.177715793546,-7.14751407603,2.97284222629
1589275288444095296,1105,1589275288444018957,,0.178830082875,-7.13186189247,2.97072603207
1589275288450158500,1106,1589275288450080168,,0.179685068154,-7.13267090914,2.97201352546
1589275288453275912,1107,1589275288453181400,,0.180806355815,-7.11696146053,2.96995411741
1589275288459013541,1108,1589275288458873156,,0.181595604559,-7.11589316488,2.97097247722
1589275288462022407,1109,1589275288461943063,,0.18272470665,-7.11515035864,2.97187537076
1589275288464929117,1110,1589275288464847569,,0.183742390723,-7.09933895918,2.9697119873
1589275288471117820,1111,1589275288471038656,,0.184915657845,-7.09794545294,2.97140682021
1589275288474347600,1112,1589275288474266115,,0.18564264676,-7.09721466095,2.97232915346
1589275288477116727,1113,1589275288477016170,,0.186553511534,-7.08311440648,2.97004032559
1589275288483141692,1114,1589275288483064709,,0.187065695688,-7.08425394382,2.97151596018
1589275288486164713,1115,1589275288486067418,,0.187359924384,-7.07221885484,2.96892849915
1589275288489028378,1116,1589275288488964874,,0.187944399801,-7.07391770235,2.97095330137
1589275288494980274,1117,1589275288494900422,,0.188438125132,-7.07560682574,2.97221606359
1589275288498037850,1118,1589275288497969108,,0.188769391832,-7.06718625786,2.9708709474
1589275288507268304,1119,1589275288507123254,,0.189353879179,-7.0605223298,2.97066929916
1589275288510050130,1120,1589275288509949617,,0.18995455873,-7.06341742186,2.97287594232
1589275288513025768,1121,1589275288512967098,,0.190462016826,-7.05395377924,2.97133085955
1589275288519107756,1122,1589275288519019794,,0.190976333385,-7.05495907082,2.97182187228
1589275288522024796,1123,1589275288521938133,,0.191599299977,-7.05520531047,2.97269205196
1589275288525059009,1124,1589275288524972033,,0.192609601895,-7.04357789815,2.97162865159
1589275288531189567,1125,1589275288531067323,,0.193300466782,-7.04198112438,2.97223194914
1589275288534362042,1126,1589275288534279306,,0.194218701195,-7.04154074971,2.97292253462
1589275288537158178,1127,1589275288537035731,,0.19502925569,-7.02874383699,2.97094841979
1589275288543270044,1128,1589275288543157566,,0.196128936542,-7.02292076731,2.97030130496
1589275288546417743,1129,1589275288546303775,,0.197096123459,-7.01146658319,2.9690274888
1589275288549186981,1130,1589275288549104523,,0.19763531533,-7.0061708509,2.96965795182
1589275288554857295,1131,1589275288554693935,,0.198608348539,-6.99950835704,2.96933672476
1589275288557782912,1132,1589275288557709397,,0.199453197853,-6.98563336755,2.96775323428
1589275288561200587,1133,1589275288561115205,,0.200416094666,-6.97965239633,2.96787812295
1589275288567181458,1134,1589275288567079175,,0.201471676612,-6.94529451766,2.9606395694
1589275288570278749,1135,1589275288570163332,,0.202472695754,-6.96173628601,2.96633089769
1589275288573215327,1136,1589275288573133142,,0.203117201822,-6.9490258308,2.96434532009
1589275288579294874,1137,1589275288579177713,,0.204179374913,-6.94460294089,2.96480035481
1589275288582222798,1138,1589275288582127862,,0.204435142772,-6.94095385497,2.96447263602
1589275288585059683,1139,1589275288584988354,,0.204946408056,-6.930933835,2.96329316806
1589275288591191235,1140,1589275288591100321,,0.205375631253,-6.92747653516,2.96346210719
1589275288594130162,1141,1589275288593878189,,0.205555416755,-6.91947510691,2.96189578442
1589275288596813424,1142,1589275288596723362,,0.205859013355,-6.91637736563,2.96149952635
1589275288602871031,1143,1589275288602790807,,0.206137886701,-6.91425554398,2.96157448295
1589275288605985781,1144,1589275288605912484,,0.206365331145,-6.90698404171,2.96015400491
1589275288608894184,1145,1589275288608820286,,0.20662835894,-6.90477023162,2.95970074493
1589275288615277967,1146,1589275288615146697,,0.206863738946,-6.90194077968,2.95943366442
1589275288617956348,1147,1589275288617801280,,0.207414623229,-6.89337423373,2.95775009201
1589275288620849690,1148,1589275288620775732,,0.207792983665,-6.88869983503,2.95708297912
1589275288626934001,1149,1589275288626786611,,0.20834063967,-6.87996631964,2.95613810316
1589275288629932390,1150,1589275288629820895,,0.209066745095,-6.87319820532,2.9559138199
1589275288632848289,1151,1589275288632771893,,0.209723519724,-6.86180325361,2.95420867834
1589275288638904733,1152,1589275288638821200,,0.210444445786,-6.85409946868,2.95311150541
1589275288641895320,1153,1589275288641800272,,0.211554368136,-6.84504068083,2.95269009472
1589275288645261342,1154,1589275288645156649,,0.21239013159,-6.83252506095,2.95076109666
1589275288650893625,1155,1589275288650807396,,0.2134008645,-6.82310026058,2.94925821692
1589275288654112266,1156,1589275288653908409,,0.2144401996,-6.80968581265,2.94746368082
1589275288659905404,1157,1589275288659809905,,0.21524716205,-6.79914643608,2.94580307304
1589275288663154895,1158,1589275288663053320,,0.215950327693,-6.7879694309,2.94394917307
1589275288665981460,1159,1589275288665883372,,0.216624761272,-6.77492172328,2.94169077168
1589275288671902640,1160,1589275288671823142,,0.217568657951,-6.76380543113,2.93994583166
1589275288674830821,1161,1589275288674737070,,0.21807769842,-6.75227308589,2.93792542196
1589275288677970454,1162,1589275288677890864,,0.218739128801,-6.74034088093,2.93564119656
1589275288684214631,1163,1589275288684123684,,0.219488522572,-6.7293543937,2.93387554576
1589275288687196694,1164,1589275288687100942,,0.220027245572,-6.71890171119,2.93191593761
1589275288690128467,1165,1589275288690053781,,0.220758838717,-6.70814727728,2.93035325742
1589275288696244475,1166,1589275288696160227,,0.221306416748,-6.69809921802,2.92874715762
1589275288699100267,1167,1589275288699025023,,0.22185926833,-6.69024798264,2.92775713003
1589275288702271991,1168,1589275288702100133,,0.222605135639,-6.68060371136,2.92604028214
1589275288708381315,1169,1589275288708261245,,0.222937824947,-6.67136909312,2.92431747555
1589275288710927630,1170,1589275288710771662,,0.223357185691,-6.66457695158,2.92350656327
1589275288719901278,1171,1589275288719807309,,0.224221439487,-6.64898963316,2.92150862493
1589275288722879656,1172,1589275288722732263,,0.224636756686,-6.63966223602,2.9195410606
1589275288725934654,1173,1589275288725838814,,0.225141265022,-6.63280721567,2.91872543206
1589275288731910602,1174,1589275288731791914,,0.225661268884,-6.62331811754,2.91654085088
1589275288734852853,1175,1589275288734758629,,0.226433388104,-6.61248970346,2.91444752773
1589275288737918391,1176,1589275288737831196,,0.226907239429,-6.60580417014,2.91318159224
1589275288744119022,1177,1589275288744029950,,0.227526300682,-6.59563806753,2.91130701884
1589275288747637837,1178,1589275288747539587,,0.228221906441,-6.56013305952,2.90376244319
1589275288753205319,1179,1589275288753083571,,0.229270471251,-6.57600130899,2.90912155253
1589275288756270175,1180,1589275288756155194,,0.229942972041,-6.56356923541,2.90706869548
1589275288759227056,1181,1589275288759102835,,0.230622407508,-6.55678398139,2.90590626031
1589275288762185783,1182,1589275288762038932,,0.231709120138,-6.54219927373,2.90387902414
1589275288768082452,1183,1589275288767989642,,0.232390776265,-6.52836691657,2.90137578296
1589275288771119598,1184,1589275288771020832,,0.233471191688,-6.52024789562,2.90059445016
1589275288774219743,1185,1589275288774093682,,0.234197530861,-6.5134984073,2.90001382921
1589275288780035686,1186,1589275288779934448,,0.234906069762,-6.50088999403,2.89760222879
1589275288783207275,1187,1589275288783094206,,0.235633490086,-6.48823504685,2.89517110399
1589275288789235534,1188,1589275288789151141,,0.236466350186,-6.47478125317,2.89284539901
1589275288792324357,1189,1589275288792189467,,0.237070637399,-6.46855670343,2.89174883805
1589275288795190245,1190,1589275288795107134,,0.237749461777,-6.45533026771,2.88887322709
1589275288801430813,1191,1589275288801362667,,0.238548050756,-6.44172561691,2.88618023342
1589275288804310025,1192,1589275288804181469,,0.239389027629,-6.43662355582,2.88562183073
1589275288807083413,1193,1589275288807013983,,0.239838621038,-6.4314910708,2.88456883116
1589275288813186590,1194,1589275288813030554,,0.240745907456,-6.4179149517,2.88213251985
1589275288816306207,1195,1589275288816172077,,0.241231875746,-6.40421412844,2.87925497491
1589275288819286525,1196,1589275288819178201,,0.241866043959,-6.39874986276,2.87916329232
1589275288825207068,1197,1589275288825121440,,0.24245272716,-6.38465815197,2.87656835663
1589275288828197707,1198,1589275288828108660,,0.243087092081,-6.37003917532,2.8738315445
1589275288831179602,1199,1589275288831106502,,0.243511447729,-6.36501013368,2.87308822348
1589275288837282069,1200,1589275288837134768,,0.243995882483,-6.3497802974,2.86987814053
1589275288840183438,1201,1589275288840084135,,0.244516414916,-6.3442240394,2.86898324402
1589275288843148658,1202,1589275288843045917,,0.245225673343,-6.32804807185,2.86613301588
1589275288849554732,1203,1589275288849465986,,0.245800600413,-6.31190678942,2.86288969385
1589275288852228131,1204,1589275288852129499,,0.246291059142,-6.30587195925,2.86171508386
1589275288855150973,1205,1589275288855037049,,0.246952997156,-6.2894533732,2.85826323042
1589275288861552662,1206,1589275288861458970,,0.247416880698,-6.27211945459,2.8548871778
1589275288864107988,1207,1589275288864015962,,0.247696375645,-6.26583715454,2.85394139635
1589275288870171573,1208,1589275288870075797,,0.248187561051,-6.24761199308,2.85078912776
1589275288873040948,1209,1589275288872964628,,0.248681153252,-6.2417467307,2.85082889914
1589275288876237383,1210,1589275288876082863,,0.249050552547,-6.22403413486,2.84788001726
1589275288882196266,1211,1589275288882103995,,0.249560720478,-6.20611040283,2.84452338697
1589275288885298275,1212,1589275288885184054,,0.250051612724,-6.20074888505,2.84380796247
1589275288888187191,1213,1589275288888099047,,0.250295414318,-6.18305932349,2.83996311478
1589275288894599559,1214,1589275288894493726,,0.250773159539,-6.16510215816,2.83650245759
1589275288897328866,1215,1589275288897187401,,0.251065143615,-6.16087319595,2.83594743761
1589275288900304101,1216,1589275288900203553,,0.251127714597,-6.15720556543,2.83548739306
1589275288906135778,1217,1589275288906044868,,0.251198704413,-6.14001024182,2.83151420716
1589275288909094763,1218,1589275288909001189,,0.25123717165,-6.12300924839,2.82760926336
1589275288912158699,1219,1589275288912040517,,0.251313090838,-6.11906841694,2.82693651319
1589275288918155603,1220,1589275288918068574,,0.25129784767,-6.10150381069,2.82267051204
1589275288921449250,1221,1589275288921382647,,0.251523424558,-6.08375316936,2.81857263336
1589275288924153873,1222,1589275288924057927,,0.251553289016,-6.0801205444,2.81778902427
1589275288930168493,1223,1589275288930096296,,0.251835535474,-6.06195206439,2.81388301627
1589275288933362838,1224,1589275288933284170,,0.252024417181,-6.05785263566,2.81321760542
1589275288939300042,1225,1589275288939201048,,0.252120292747,-6.03914974598,2.80856807658
1589275288942262998,1226,1589275288942153759,,0.252441312568,-6.01952161217,2.8044033052
1589275288945630043,1227,1589275288945534070,,0.252590891398,-6.01564963983,2.8041227505
1589275288948570374,1228,1589275288948448394,,0.252684697987,-5.99640020838,2.7996567785
1589275288957318723,1229,1589275288957216621,,0.253081845111,-5.97295104881,2.79472022085
1589275288960203588,1230,1589275288960095825,,0.253509119595,-5.96868927661,2.79463538407
1589275288966374448,1231,1589275288966263707,,0.253811831069,-5.94834762608,2.79003017726
1589275288969342418,1232,1589275288969181058,,0.254122165687,-5.92794180099,2.78567563883
1589275288972272377,1233,1589275288972171345,,0.254392301142,-5.9239445686,2.78515805441
1589275288978243285,1234,1589275288978131776,,0.254800213203,-5.90341276748,2.78036562809
1589275288984296073,1235,1589275288984169209,,0.255490586667,-5.87916195971,2.77560373851
1589275288990231905,1236,1589275288990132176,,0.255763941923,-5.85835720321,2.77100775716
1589275288993242213,1237,1589275288993149771,,0.256023089002,-5.85511112369,2.77057407166
1589275288999167061,1238,1589275288999075316,,0.256231171455,-5.83442735811,2.76583915254
1589275289002169578,1239,1589275289002087133,,0.256638551498,-5.81333688892,2.76115288502
1589275289005156634,1240,1589275289005050647,,0.257158403787,-5.8097194376,2.7610065752
1589275289008161923,1241,1589275289008063551,,0.257606141568,-5.78901345128,2.75628335905
1589275289014623094,1242,1589275289014524623,,0.25785836921,-5.76839507426,2.75155989403
1589275289017074316,1243,1589275289016988782,,0.258302804634,-5.76592368432,2.75147924991
1589275289020140937,1244,1589275289020043093,,0.258835103904,-5.76328544313,2.75159780576
1589275289026263532,1245,1589275289026152249,,0.259264755995,-5.74274931199,2.74702656636
1589275289029275169,1246,1589275289029158454,,0.259607111843,-5.72160925375,2.74245721972
1589275289032118961,1247,1589275289031991321,,0.260203281449,-5.71883275688,2.74275612153
1589275289038172752,1248,1589275289038067102,,0.260564398208,-5.69749619989,2.73789528182
1589275289047564022,1249,1589275289047401900,,0.261504830756,-5.67374703383,2.73371088861
1589275289050259302,1250,1589275289050132846,,0.261887468304,-5.65216830169,2.72899768482
1589275289053281195,1251,1589275289053166591,,0.262389368993,-5.64992706953,2.72936549093
1589275289056303925,1252,1589275289056188263,,0.262795510443,-5.6285545718,2.72479360282
1589275289062372908,1253,1589275289062250328,,0.263229793673,-5.6068794333,2.72011050248
1589275289065239155,1254,1589275289065101089,,0.263704384523,-5.60515163895,2.72041311723
1589275289071224539,1255,1589275289071107506,,0.264247645395,-5.5831128386,2.71572706158
1589275289074653454,1256,1589275289074562690,,0.26469922951,-5.54729298379,2.70772707846
1589275289077167427,1257,1589275289077081445,,0.265201439527,-5.55954417933,2.71152277014
1589275289083280308,1258,1589275289083179409,,0.26568280693,-5.53672602727,2.70684623998
1589275289086255401,1259,1589275289086153333,,0.266015105841,-5.53540744106,2.70726225808
1589275289089270176,1260,1589275289089146576,,0.266600873578,-5.51282353588,2.70251912979
1589275289095377827,1261,1589275289095230964,,0.26707918499,-5.48977301428,2.69755287462
1589275289098150458,1262,1589275289098053615,,0.267514351219,-5.48815742339,2.69779182373
1589275289107332531,1263,1589275289107174461,,0.268277269688,-5.46408441871,2.69317146019
1589275289110047327,1264,1589275289109943377,,0.268783854239,-5.44109734173,2.68798179
1589275289113142649,1265,1589275289113038082,,0.269226304722,-5.43944795171,2.68826334166
1589275289119136190,1266,1589275289119035106,,0.269394030674,-5.41677625072,2.68322169078
1589275289122309377,1267,1589275289122197788,,0.269750409094,-5.39400271717,2.67805522273
1589275289125187888,1268,1589275289125084979,,0.270119808913,-5.39276343144,2.67855927442
1589275289131129569,1269,1589275289131046221,,0.270353670342,-5.37003464301,2.67331687129
1589275289134902226,1270,1589275289134795204,,0.27061327043,-5.34717911053,2.66837575791
1589275289137187852,1271,1589275289137044810,,0.270872644476,-5.34597870337,2.66839308434
1589275289143191634,1272,1589275289143091259,,0.271054623076,-5.3232517208,2.66319067046
1589275289146397329,1273,1589275289146257839,,0.271315906271,-5.32208878877,2.66379804442
1589275289152257867,1274,1589275289152174433,,0.27148517453,-5.29933267664,2.65830326344
1589275289155094778,1275,1589275289154997463,,0.271705557559,-5.27631296801,2.65332677557
1589275289158145152,1276,1589275289158056401,,0.272009095922,-5.27515065853,2.653489243
1589275289161544012,1277,1589275289161466502,,0.272294117906,-5.25193168928,2.64824482451
1589275289167129341,1278,1589275289167052390,,0.272563752862,-5.25118369951,2.64851607193
1589275289170000328,1279,1589275289169929473,,0.272761766425,-5.22776934956,2.64309906829
1589275289176097504,1280,1589275289175979767,,0.273114617217,-5.20431127609,2.63778891131
1589275289179060005,1281,1589275289178987337,,0.273532584491,-5.2033890336,2.63812594398
1589275289182044669,1282,1589275289181968125,,0.273873092865,-5.17965328179,2.6325770209
1589275289188248643,1283,1589275289188166802,,0.274272113036,-5.15616498431,2.62737413145
1589275289191304002,1284,1589275289191181142,,0.274681815547,-5.15509267164,2.62774363612
1589275289200059542,1285,1589275289199973060,,0.27557350462,-5.13045883874,2.62252687882
1589275289203004981,1286,1589275289202940071,,0.276072026007,-5.10673021985,2.61715920059
1589275289205995813,1287,1589275289205919480,,0.276534242425,-5.10605297624,2.617618642
1589275289212015182,1288,1589275289211927186,,0.277071829876,-5.08231950998,2.61216633282
1589275289214993846,1289,1589275289214910446,,0.277604099437,-5.05831440239,2.60668535137
1589275289218138630,1290,1589275289218078611,,0.278066108085,-5.05761017678,2.60690553673
1589275289224135886,1291,1589275289224040617,,0.278851518201,-5.03350602526,2.60177230779
1589275289227334009,1292,1589275289227039210,,0.27948728509,-5.03289136548,2.60235953807
1589275289230166464,1293,1589275289230097316,,0.280188550427,-5.00877952267,2.59714166547
1589275289236230834,1294,1589275289236094894,,0.281015802955,-4.98466713987,2.59204274744
1589275289239095208,1295,1589275289239032455,,0.281819699994,-4.98352022919,2.59269082029
1589275289242208236,1296,1589275289242131923,,0.282599714353,-4.95944481827,2.58754019161
1589275289248475885,1297,1589275289248368702,,0.283492974743,-4.93485706745,2.58265404873
1589275289251132202,1298,1589275289251068959,,0.284400451253,-4.93366577129,2.58361646089
1589275289257050919,1299,1589275289256957254,,0.285376391647,-4.90922156252,2.57875540799
1589275289260368200,1300,1589275289260304238,,0.286352581431,-4.90836024013,2.5799086163
1589275289263105827,1301,1589275289263036722,,0.287239684318,-4.88400598039,2.57513403637
1589275289269322300,1302,1589275289269182521,,0.288095359182,-4.85961533199,2.57033342505
1589275289272319658,1303,1589275289272176324,,0.288992061244,-4.85845475581,2.57123968383
1589275289275284097,1304,1589275289275177700,,0.289527919649,-4.83446909949,2.56625487265
1589275289281532899,1305,1589275289281421003,,0.290143203794,-4.81080773337,2.56112875992
1589275289284104682,1306,1589275289283997582,,0.290911951335,-4.8095375796,2.5620875052
1589275289287220551,1307,1589275289287066271,,0.291450121224,-4.80866907571,2.56278255593
1589275289293513574,1308,1589275289293441657,,0.292035128845,-4.78472719367,2.55773598494
1589275289296251984,1309,1589275289296151328,,0.292705480108,-4.76092344433,2.5528551583
1589275289299252372,1310,1589275289299126470,,0.293264472482,-4.76014631192,2.55367401655
1589275289305275864,1311,1589275289305134103,,0.293791351114,-4.73639713301,2.54856022154
1589275289308490013,1312,1589275289308342958,,0.294318237146,-4.71272033731,2.54365377796
1589275289311237473,1313,1589275289311154816,,0.294804031873,-4.71212247083,2.5444799691
1589275289317376829,1314,1589275289317265095,,0.295348547047,-4.68830947573,2.53966939131
1589275289320233187,1315,1589275289320118964,,0.295921893493,-4.68743463831,2.54058824124
1589275289323102040,1316,1589275289323017538,,0.296493535544,-4.6638238072,2.53575089149
1589275289329290710,1317,1589275289329217727,,0.297274933966,-4.64023622828,2.5314777813
1589275289332298747,1318,1589275289332175810,,0.297784157584,-4.63914278931,2.53230741849
1589275289335156137,1319,1589275289335031724,,0.298431133521,-4.61579276596,2.52772322138
1589275289344294112,1320,1589275289344212613,,0.299867863412,-4.59128794923,2.52437498465
1589275289347652146,1321,1589275289347575523,,0.300505622472,-4.56800974979,2.51975109355
1589275289353600828,1322,1589275289353512829,,0.301240713575,-4.56702977773,2.52097781607
1589275289356191282,1323,1589275289356104098,,0.301901425164,-4.54392023094,2.51651485209
1589275289359323480,1324,1589275289359170465,,0.302484142889,-4.54310042777,2.51733001868
1589275289365255917,1325,1589275289365160881,,0.303187475713,-4.52027608023,2.51258339736
1589275289368077405,1326,1589275289367988520,,0.30391778845,-4.49761400607,2.50825566313
1589275289371188601,1327,1589275289371096012,,0.30432878054,-4.49692871074,2.5087824835
1589275289377012715,1328,1589275289376931753,,0.304865238486,-4.47474529539,2.50404313562
1589275289380175895,1329,1589275289380109738,,0.30557781899,-4.4737063587,2.50499576253
1589275289383285140,1330,1589275289383174976,,0.306181259578,-4.45207391044,2.50054769282
1589275289389523153,1331,1589275289389381757,,0.306791525008,-4.43000678036,2.49595007996
1589275289392466368,1332,1589275289392349468,,0.307422384506,-4.42910970783,2.49667093248
1589275289395516970,1333,1589275289395382013,,0.308133584149,-4.40756251366,2.4924158961
1589275289404274494,1334,1589275289404175650,,0.309401918847,-4.38535942523,2.48862173199
1589275289407331197,1335,1589275289407229492,,0.310010856618,-4.38445281613,2.4892961091
1589275289413313936,1336,1589275289413180493,,0.310856383276,-4.36339406999,2.48533481421
1589275289419450716,1337,1589275289419299969,,0.311363283838,-4.34269109074,2.48074418582
1589275289422232207,1338,1589275289422125342,,0.312222215301,-4.32208752127,2.47683055444
1589275289425188606,1339,1589275289425105148,,0.312769206803,-4.32132439557,2.4774596376
1589275289428442827,1340,1589275289428330207,,0.313613566172,-4.30108005224,2.47350813612
1589275289435367478,1341,1589275289435261375,,0.314171871887,-4.28165405028,2.46945040607
1589275289440337463,1342,1589275289440175729,,0.314671396174,-4.28113783506,2.46987409636
1589275289443242936,1343,1589275289443104873,,0.315437504498,-4.2617693732,2.46631391589
1589275289446463222,1344,1589275289446395303,,0.315831708718,-4.26165494293,2.46670708385
1589275289449552218,1345,1589275289449452711,,0.31647492471,-4.24250660744,2.46283750067
1589275289452251478,1346,1589275289452103497,,0.317127392664,-4.24231970641,2.46361221035
1589275289458289010,1347,1589275289458186325,,0.317648911973,-4.22362461815,2.45937653448
1589275289461962790,1348,1589275289461864277,,0.318099623081,-4.20556561984,2.45561029647
1589275289464196546,1349,1589275289464113003,,0.31868842993,-4.20524244825,2.45641621212
1589275289470245117,1350,1589275289470150689,,0.319164398194,-4.18734868659,2.45257090924
1589275289473367510,1351,1589275289473218033,,0.319668580328,-4.18685291091,2.45288183644
1589275289476292115,1352,1589275289476181251,,0.320115912907,-4.16917292421,2.44911605361
1589275289482403300,1353,1589275289482313427,,0.320701120105,-4.15160996692,2.44554544142
1589275289485412185,1354,1589275289485299207,,0.321243684536,-4.15107793296,2.44608874176
1589275289488384332,1355,1589275289488283371,,0.32192683479,-4.13378672222,2.4426761415
1589275289497502895,1356,1589275289497361584,,0.323053828265,-4.11652060845,2.43954646096
1589275289500452734,1357,1589275289500262899,,0.323603033865,-4.11589855079,2.44019960563
1589275289506359101,1358,1589275289506259585,,0.324308840814,-4.09937879841,2.43688904408
1589275289509424296,1359,1589275289509322790,,0.32491414019,-4.08315152976,2.43353425516
1589275289512426623,1360,1589275289512247582,,0.325486074492,-4.08199369431,2.43403160021
1589275289518393539,1361,1589275289518289947,,0.326059584334,-4.06622247412,2.43084209696
1589275289521494851,1362,1589275289521363531,,0.326718813079,-4.0504926747,2.42790378683
1589275289524320573,1363,1589275289524236994,,0.327075327455,-4.04949681248,2.42792313574
1589275289530350725,1364,1589275289530251096,,0.327725824335,-4.03419345116,2.42493331235
1589275289533391506,1365,1589275289533300484,,0.328265940545,-4.03301898008,2.4252726471
1589275289536429102,1366,1589275289536251792,,0.328746143095,-4.01850859267,2.42230645537
1589275289542410203,1367,1589275289542252771,,0.329136558565,-4.00410038336,2.41941592826
1589275289545758163,1368,1589275289545641107,,0.329471331285,-4.00317294793,2.41958947013
1589275289548613244,1369,1589275289548517986,,0.329795092798,-3.98966032983,2.41700168624
1589275289557599711,1370,1589275289557425832,,0.330394156786,-3.97530341137,2.41499462792
1589275289560429538,1371,1589275289560209564,,0.330667711006,-3.97412789204,2.41574540599
1589275289566462196,1372,1589275289566347079,,0.330994258411,-3.96113769871,2.4135587921
1589275289569232967,1373,1589275289569099611,,0.331260918036,-3.94869285411,2.41193761065
1589275289575127854,1374,1589275289575000498,,0.331602101677,-3.93635524098,2.41053296924
1589275289578110707,1375,1589275289578031073,,0.33188875093,-3.93439333703,2.41167336336
1589275289581186752,1376,1589275289581106411,,0.332271387566,-3.92301088391,2.41052335968
1589275289587490532,1377,1589275289587394020,,0.332536472967,-3.91133361855,2.4089462506
1589275289590195917,1378,1589275289590117759,,0.332829709898,-3.909861425,2.40990338318
1589275289593240112,1379,1589275289593131041,,0.333172362444,-3.90847465477,2.41099813582
1589275289599320278,1380,1589275289599238625,,0.333524110235,-3.89822508749,2.40989211714
1589275289602347228,1381,1589275289602263697,,0.333928544508,-3.8881140445,2.40872276986
1589275289605185067,1382,1589275289605114159,,0.334341589012,-3.8863850645,2.40952879572
1589275289611211170,1383,1589275289611126979,,0.33461742554,-3.87744640261,2.40840253065
1589275289615305590,1384,1589275289615143172,,0.334846353233,-3.86915610409,2.40719856209
1589275289620571914,1385,1589275289620243718,,0.335209145642,-3.86749672673,2.4078602757
1589275289623288154,1386,1589275289623142770,,0.335456407342,-3.86004160568,2.40694864613
1589275289626438691,1387,1589275289626352565,,0.335684199157,-3.85848020926,2.40751127289
1589275289629349148,1388,1589275289629270453,,0.336002792195,-3.8513784554,2.40700990108
1589275289635518810,1389,1589275289635331504,,0.336278730506,-3.84505484622,2.40648379719
1589275289638318894,1390,1589275289638214188,,0.336498914444,-3.84336596511,2.40707341079
1589275289641713754,1391,1589275289641608987,,0.336764788822,-3.8372799776,2.40719688066
1589275289648033485,1392,1589275289647540762,,0.337000106878,-3.8354689907,2.40840056138
1589275289650753221,1393,1589275289650632707,,0.33700990607,-3.83029508644,2.40814940596
1589275289656326008,1394,1589275289656224871,,0.337185410503,-3.82591568791,2.40812849839
1589275289659211055,1395,1589275289659140118,,0.337416783034,-3.82417872291,2.40880938395
1589275289662241653,1396,1589275289662161059,,0.337536219779,-3.82067963842,2.40889879741
1589275289668165586,1397,1589275289668082197,,0.337652664027,-3.81782716002,2.4089562064
1589275289671256717,1398,1589275289671118913,,0.337836818739,-3.8162938262,2.40938822417
1589275289674811123,1399,1589275289674691164,,0.337978629281,-3.8142536644,2.4098718172
1589275289680337755,1400,1589275289680238193,,0.337998284209,-3.81282201379,2.4103627465
1589275289683367830,1401,1589275289683228208,,0.338131984113,-3.81109888075,2.41078226983
1589275289686301063,1402,1589275289686179946,,0.338126919798,-3.80974983262,2.41098801785
1589275289692388498,1403,1589275289692250176,,0.338050813626,-3.8073242276,2.4114820967
1589275289695406589,1404,1589275289695288928,,0.337859910405,-3.80413302821,2.41212955929
1589275289698108629,1405,1589275289698043930,,0.337701654849,-3.80284037445,2.41230800232
1589275289704277761,1406,1589275289704162737,,0.337545783583,-3.79880619182,2.41310771559
1589275289707205084,1407,1589275289707115513,,0.337269370082,-3.79763847002,2.4129817619
1589275289710257857,1408,1589275289710132877,,0.337093046682,-3.79263867765,2.413979012
1589275289716201066,1409,1589275289716104214,,0.336803771643,-3.78692414097,2.41464827816
1589275289719236225,1410,1589275289719165785,,0.336694805711,-3.78561991006,2.4146029223
1589275289722329757,1411,1589275289722235590,,0.336590832587,-3.77920598124,2.41615048952
1589275289727943484,1412,1589275289727879661,,0.336490390811,-3.77226876878,2.41738806163
1589275289731321952,1413,1589275289731217295,,0.336464927367,-3.77080901293,2.41721299669
1589275289740563613,1414,1589275289740369412,,0.336583009027,-3.76134064039,2.41912326147
1589275289743344944,1415,1589275289743246046,,0.336683294117,-3.7522849044,2.4213072286
1589275289746591638,1416,1589275289746484639,,0.336797207461,-3.7508730524,2.42145417136
