%time,field.header.seq,field.header.stamp,field.header.frame_id,field.vector.x,field.vector.y,field.vector.z
1589275286982249755,749,1589275286982142790,,0.50006662567,-0.201512144019,0.215738785803
1589275286985289633,750,1589275286985163525,,0.50006750543,-0.201499599051,0.21573142852
1589275286988349237,751,1589275286988238932,,0.500068317433,-0.201486853137,0.215724300209
1589275286991337052,752,1589275286991181693,,0.50006712869,-0.201477807244,0.215714790514
1589275286994295073,753,1589275286994213634,,0.500064907787,-0.201465444251,0.215701251875
1589275286997355240,754,1589275286997211209,,0.500062990602,-0.201453620548,0.215689219103
1589275287000378698,755,1589275287000263157,,0.50006156597,-0.201443371091,0.215679073717
1589275287003372386,756,1589275287003242547,,0.50006119257,-0.201432007637,0.21566997185
1589275287006374018,757,1589275287006201535,,0.500060369671,-0.201421055509,0.215659765301
1589275287009260521,758,1589275287009175130,,0.500060042191,-0.201410102543,0.215650211686
1589275287012397039,759,1589275287012250782,,0.500060172638,-0.201400180642,0.215640994447
1589275287015284161,760,1589275287015183482,,0.500059863499,-0.201389855296,0.215631986424
1589275287018336739,761,1589275287018227962,,0.500059635275,-0.201382516703,0.215623106548
1589275287021367789,762,1589275287021224468,,0.500060044806,-0.20137373482,0.215616423611
1589275287024260508,763,1589275287024177288,,0.500059965871,-0.201364632894,0.215608657374
1589275287027284840,764,1589275287027210379,,0.500060775921,-0.201354526354,0.21560239559
1589275287030380987,765,1589275287030230188,,0.500059778065,-0.201345256921,0.215594112566
1589275287033272913,766,1589275287033187286,,0.500061429027,-0.201333914311,0.215588813288
1589275287036247963,767,1589275287036143796,,0.500061917548,-0.20132187062,0.215581890378
1589275287039298981,768,1589275287039183515,,0.500063420968,-0.201306758061,0.21557423352
1589275287042755941,769,1589275287042617079,,0.500065498527,-0.201291207667,0.215567914389
1589275287045728613,770,1589275287045611566,,0.50006606944,-0.201275950635,0.215558860112
1589275287048400164,771,1589275287048216787,,0.500068612004,-0.201261639422,0.215550923992
1589275287054348284,772,1589275287054196075,,0.500070124757,-0.201246525891,0.215543213228
1589275287057274384,773,1589275287057182841,,0.500071093195,-0.201233841108,0.215533855326
1589275287063386938,774,1589275287063250199,,0.500072897356,-0.201221219675,0.215524925866
1589275287066321714,775,1589275287066211148,,0.500073836744,-0.201210595696,0.215516218264
1589275287069274531,776,1589275287069176491,,0.500075956755,-0.201197743228,0.215508189573
1589275287075431927,777,1589275287075277684,,0.500077563306,-0.201183018428,0.215499375496
1589275287078327536,778,1589275287078207986,,0.500079855549,-0.201170218789,0.215490488257
1589275287081341352,779,1589275287081203791,,0.500081480497,-0.201158421117,0.215483913943
1589275287087336061,780,1589275287087237291,,0.500083136563,-0.201146585231,0.215476098213
1589275287090357181,781,1589275287090206949,,0.500084946866,-0.201134304576,0.215468903107
1589275287093362652,782,1589275287093202750,,0.500086108907,-0.201125138233,0.215461800056
1589275287099322999,783,1589275287099204672,,0.500087260611,-0.201114370389,0.215454443589
1589275287102329172,784,1589275287102251264,,0.50008869749,-0.201101976311,0.215446703945
1589275287105331188,785,1589275287105194730,,0.50009102501,-0.201089666055,0.215439854494
1589275287111454799,786,1589275287111255424,,0.50009220791,-0.20107971242,0.215432392021
1589275287114354815,787,1589275287114217239,,0.500093762869,-0.201067714216,0.215424095965
1589275287117291459,788,1589275287117191531,,0.50009603799,-0.201053179667,0.215415621182
1589275287123328674,789,1589275287123229203,,0.500097538159,-0.201040547426,0.215408474074
1589275287126327303,790,1589275287126219893,,0.500099185541,-0.201024628114,0.215399306007
1589275287129350539,791,1589275287129253248,,0.500100527236,-0.201009042974,0.215392101092
1589275287135414734,792,1589275287135315772,,0.500102512087,-0.200991902703,0.215384880228
1589275287138463878,793,1589275287138325308,,0.500105450584,-0.200977324401,0.215379547503
1589275287141320715,794,1589275287141243155,,0.500106849185,-0.20096086657,0.21537164069
1589275287147444224,795,1589275287147228883,,0.500109448338,-0.200942168225,0.215363698518
1589275287150345080,796,1589275287150185032,,0.500111951396,-0.200923098696,0.215355560748
1589275287153305289,797,1589275287153221529,,0.500114686061,-0.200904620101,0.215348133943
1589275287159328376,798,1589275287159218148,,0.50011680454,-0.200886707684,0.215341426267
1589275287162264341,799,1589275287162177869,,0.500119020646,-0.200869145436,0.215333937832
1589275287168338828,800,1589275287168208721,,0.50012016415,-0.200851528627,0.215325623189
1589275287171312735,801,1589275287171219895,,0.500122411372,-0.200831568277,0.215317797142
1589275287174236318,802,1589275287174174005,,0.500123922668,-0.200813840855,0.215310515021
1589275287177299858,803,1589275287177222802,,0.50012540514,-0.200792416438,0.215300700572
1589275287183435121,804,1589275287183314653,,0.500127788634,-0.200774126015,0.215292858552
1589275287186322723,805,1589275287186198739,,0.50012886677,-0.200755816751,0.21528401507
1589275287192453829,806,1589275287192308732,,0.500130120072,-0.200737613891,0.215275094342
1589275287195339052,807,1589275287195257515,,0.500131906003,-0.200720386594,0.215268239372
1589275287198359572,808,1589275287198272112,,0.50013274976,-0.200702110085,0.215258638302
1589275287201335427,809,1589275287201226911,,0.500133927462,-0.200684008492,0.215251045043
1589275287207327822,810,1589275287207254526,,0.500135297408,-0.200665494392,0.215242838602
1589275287210343074,811,1589275287210246544,,0.500136270944,-0.200646408401,0.215234114826
1589275287216284210,812,1589275287216180729,,0.500138362799,-0.200625200415,0.21522716715
1589275287219307355,813,1589275287219163741,,0.500139551011,-0.20060571228,0.215220259295
1589275287222304668,814,1589275287222208049,,0.500140961168,-0.200586185297,0.21521170538
1589275287228359850,815,1589275287228249225,,0.50014223694,-0.200565879469,0.215205414109
1589275287231406069,816,1589275287231271445,,0.500143355355,-0.200543889133,0.215197285684
1589275287234357796,817,1589275287234241837,,0.500145882221,-0.200520443688,0.215190822083
1589275287240301206,818,1589275287240209209,,0.500146277762,-0.200499191067,0.215186287946
1589275287243534980,819,1589275287243450526,,0.500146856827,-0.200478037466,0.215182814104
1589275287246650763,820,1589275287246554625,,0.500147711845,-0.200455386122,0.215179143213
1589275287252311058,821,1589275287252225338,,0.500147982021,-0.200433725979,0.215175640634
1589275287255339712,822,1589275287255232046,,0.500149675697,-0.200413141828,0.21517152568
1589275287258385491,823,1589275287258260817,,0.50015002989,-0.200392943802,0.215165486888
1589275287264300731,824,1589275287264203467,,0.500151146145,-0.200369724123,0.21516040673
1589275287267375038,825,1589275287267280966,,0.500151969099,-0.200350284308,0.215153549628
1589275287273249046,826,1589275287273166267,,0.500152724655,-0.200330772383,0.215149190588
1589275287276264384,827,1589275287276165556,,0.50015405881,-0.200307792209,0.215143790543
1589275287279272649,828,1589275287279182451,,0.500154923662,-0.200287789401,0.215138151386
1589275287285329687,829,1589275287285212504,,0.500155767281,-0.200268436473,0.215134051189
1589275287288284750,830,1589275287288225063,,0.500155652478,-0.20024893933,0.215127634134
1589275287291378280,831,1589275287291283403,,0.500156703861,-0.200229373579,0.21512097994
1589275287297316116,832,1589275287297222381,,0.500156413425,-0.200209699977,0.215114365833
1589275287303443760,833,1589275287303297638,,0.500156225889,-0.200172335824,0.215100770664
1589275287309352825,834,1589275287309243346,,0.500155650088,-0.200153836292,0.21509400841
1589275287312355453,835,1589275287312251269,,0.500156584297,-0.200134322208,0.21508837517
1589275287315553287,836,1589275287315340976,,0.500157673861,-0.20011183617,0.215082249738
1589275287321356990,837,1589275287321178558,,0.500158136678,-0.200090433862,0.21507597228
1589275287324325514,838,1589275287324243998,,0.500158747978,-0.200071180643,0.215070073499
1589275287327316812,839,1589275287327216797,,0.500159076224,-0.200052258236,0.215065331343
1589275287333437655,840,1589275287333274982,,0.500160277206,-0.200035812953,0.215060814751
1589275287336308731,841,1589275287336201692,,0.500160956474,-0.200016961748,0.2150559418
1589275287339438471,842,1589275287339245243,,0.500161197103,-0.199999117436,0.215050198806
1589275287345669795,843,1589275287345541525,,0.500162812382,-0.199981390636,0.215047475062
1589275287348336312,844,1589275287348223707,,0.500162884065,-0.199963375429,0.215040707469
1589275287351282870,845,1589275287351178153,,0.500163645017,-0.199940794869,0.215034376416
1589275287357406336,846,1589275287357211921,,0.50016480895,-0.199920475304,0.215029285437
1589275287363501986,847,1589275287363320054,,0.500165876605,-0.199879372494,0.21501708065
1589275287369391615,848,1589275287369285538,,0.500166466454,-0.19985895137,0.215011300422
1589275287372318429,849,1589275287372245947,,0.500167018874,-0.199838084033,0.215004679012
1589275287375365168,850,1589275287375243275,,0.500168182284,-0.199816107222,0.21499832091
1589275287381393255,851,1589275287381289933,,0.500168507596,-0.199792626354,0.214992114229
1589275287384344820,852,1589275287384228430,,0.500169774892,-0.199770346376,0.214986576593
1589275287387308716,853,1589275287387196763,,0.500170051843,-0.199747428629,0.214979735286
1589275287393329307,854,1589275287393207908,,0.500172127966,-0.199726065724,0.214974950493
1589275287396488152,855,1589275287396308007,,0.50017298505,-0.199705328224,0.214966688146
1589275287399488627,856,1589275287399298804,,0.50017421977,-0.199683994821,0.214960533553
1589275287405401606,857,1589275287405297296,,0.500174777811,-0.199666565613,0.214954811664
1589275287408375936,858,1589275287408311520,,0.500175736007,-0.199649445976,0.214950118291
1589275287411404442,859,1589275287411324307,,0.500177008253,-0.199625512507,0.214944151622
1589275287417342663,860,1589275287417216219,,0.500178093596,-0.199605426444,0.21493912386
1589275287423404394,861,1589275287423273530,,0.500180015576,-0.199565938427,0.214927191297
1589275287429502204,862,1589275287429343739,,0.500181395642,-0.199546606233,0.214922988098
1589275287432386312,863,1589275287432279858,,0.50018264161,-0.199523346891,0.214916008501
1589275287435393928,864,1589275287435316457,,0.500182872048,-0.199502353145,0.214908598657
1589275287441456151,865,1589275287441354627,,0.500184149419,-0.199479429315,0.214901071477
1589275287444577004,866,1589275287444461434,,0.500185937958,-0.199454193349,0.214894401251
1589275287447304766,867,1589275287447229513,,0.500187900911,-0.19942826914,0.214888547224
1589275287453381194,868,1589275287453297809,,0.500190157577,-0.199404874856,0.214883979681
1589275287456408601,869,1589275287456298703,,0.500191961836,-0.199375776069,0.214878144225
1589275287459593456,870,1589275287459338405,,0.500194224664,-0.199345578742,0.214873574192
1589275287465421678,871,1589275287465298118,,0.500195768366,-0.199319099681,0.214866152739
1589275287468476051,872,1589275287468319567,,0.500197676794,-0.199288511907,0.214861051357
1589275287474457230,873,1589275287474366505,,0.50019908722,-0.199258412675,0.214854478343
1589275287477423251,874,1589275287477306601,,0.50020180247,-0.199224187969,0.214847734391
1589275287486467025,875,1589275287486338288,,0.500205845886,-0.19916600126,0.214834124187
1589275287489407523,876,1589275287489323264,,0.500207995956,-0.199135883057,0.214827033182
1589275287492567981,877,1589275287492410012,,0.50021116223,-0.199102102965,0.214820711859
1589275287498464312,878,1589275287498303234,,0.500212936349,-0.199072595606,0.214814032899
1589275287501495527,879,1589275287501324987,,0.500214392313,-0.199042125873,0.214807023255
1589275287504427738,880,1589275287504314406,,0.500216299426,-0.199011729982,0.214800797815
1589275287510491715,881,1589275287510354828,,0.500217734418,-0.198981006995,0.214795001659
1589275287513412663,882,1589275287513336671,,0.500219587942,-0.198955256929,0.21478891938
1589275287516390573,883,1589275287516304989,,0.500220191922,-0.198923978881,0.214779886152
1589275287522544265,884,1589275287522367500,,0.500222885204,-0.198893737306,0.214773285791
1589275287525499030,885,1589275287525378236,,0.500225183773,-0.198863463374,0.214767109613
1589275287528517470,886,1589275287528290582,,0.500225969476,-0.198832048374,0.214760505512
1589275287534444993,887,1589275287534308626,,0.500227903682,-0.198798238673,0.214753633371
1589275287537374343,888,1589275287537234198,,0.500228542585,-0.198764529086,0.214745634042
1589275287540582983,889,1589275287540450712,,0.500230526805,-0.198732178698,0.214741105842
1589275287546733197,890,1589275287546636276,,0.50023134985,-0.19869767753,0.214734068487
1589275287549471837,891,1589275287549304254,,0.500234105097,-0.198662662994,0.214728146145
1589275287552424185,892,1589275287552297117,,0.500236549634,-0.198627848961,0.214724471424
1589275287558474083,893,1589275287558356625,,0.500238165572,-0.198592758374,0.214716406398
1589275287561451544,894,1589275287561334563,,0.500240505766,-0.198555013419,0.214707801949
1589275287564400627,895,1589275287564261114,,0.500241365918,-0.198518154062,0.214699862527
1589275287570452845,896,1589275287570281233,,0.500244957424,-0.198477283747,0.214692157877
1589275287573381060,897,1589275287573268870,,0.500247338968,-0.198439734844,0.214684645943
1589275287579483996,898,1589275287579289539,,0.500248846285,-0.198401337913,0.214676015552
1589275287582406216,899,1589275287582303310,,0.500250691974,-0.198361301703,0.214667899637
1589275287585464386,900,1589275287585316306,,0.500254600616,-0.198321690483,0.214661708249
1589275287588485268,901,1589275287588335641,,0.500256933185,-0.198282776273,0.214655226708
1589275287594423939,902,1589275287594310942,,0.500260180217,-0.198243086642,0.214648075777
1589275287597380573,903,1589275287597282450,,0.50026192281,-0.198204653864,0.21463851375
1589275287603434758,904,1589275287603304121,,0.500264476599,-0.198167799999,0.214631274809
1589275287606457282,905,1589275287606321050,,0.500266898512,-0.198131564593,0.2146241781
1589275287609392365,906,1589275287609273758,,0.500269340455,-0.198093312908,0.214617608172
1589275287615385740,907,1589275287615291343,,0.500270938994,-0.198057454006,0.21461073072
1589275287618405306,908,1589275287618280511,,0.500273799712,-0.198018885553,0.214604185193
1589275287621512511,909,1589275287621338165,,0.500275055909,-0.197980413901,0.214596366892
1589275287627430954,910,1589275287627304681,,0.500278127001,-0.19794318838,0.214586692955
1589275287630352809,911,1589275287630250717,,0.500280436805,-0.197904763708,0.21457831773
1589275287633463920,912,1589275287633250339,,0.500283209737,-0.197868325577,0.214571065185
1589275287639407619,913,1589275287639294655,,0.500285175891,-0.197828898958,0.21456218713
1589275287642474314,914,1589275287642322043,,0.500288661231,-0.197787789165,0.214556649126
1589275287645570018,915,1589275287645468163,,0.500290683373,-0.197745989454,0.214549537101
1589275287651425492,916,1589275287651314273,,0.500293117459,-0.197701966481,0.214542910023
1589275287654375227,917,1589275287654311618,,0.500296214115,-0.197658027009,0.214534578149
1589275287663339096,918,1589275287663259738,,0.500301792896,-0.197574164629,0.21452330391
1589275287666337152,919,1589275287666251370,,0.500305516918,-0.197529603966,0.21451659054
1589275287669395100,920,1589275287669277721,,0.500307741467,-0.197484961833,0.214508889993
1589275287675407164,921,1589275287675316084,,0.50031185394,-0.197440113511,0.214501936548
1589275287678469301,922,1589275287678305038,,0.500313479814,-0.197398815591,0.214495554841
1589275287684432492,923,1589275287684351392,,0.500316722089,-0.197353529201,0.214489292153
1589275287687454658,924,1589275287687316456,,0.50031950006,-0.19731054656,0.214483854719
1589275287690488289,925,1589275287690357435,,0.500320105934,-0.197277342286,0.214477293756
1589275287696450026,926,1589275287696330311,,0.500322717958,-0.197236559121,0.21447106835
1589275287699410796,927,1589275287699272638,,0.500324559206,-0.197190286353,0.214460976719
1589275287702403504,928,1589275287702313551,,0.500327935987,-0.197154337017,0.214457789531
1589275287708425793,929,1589275287708308431,,0.50032891624,-0.197116286738,0.214448483191
1589275287711397110,930,1589275287711292942,,0.500330839412,-0.197072137687,0.214438842007
1589275287714396408,931,1589275287714304804,,0.5003331005,-0.197030647608,0.214432044398
1589275287723559560,932,1589275287723338716,,0.500336239781,-0.196950819378,0.21441693035
1589275287726505928,933,1589275287726330925,,0.500337142453,-0.196908369478,0.214409647165
1589275287732539734,934,1589275287732327441,,0.500340676429,-0.196861846989,0.214403254711
1589275287735415955,935,1589275287735278430,,0.500342802479,-0.196815738834,0.214391051913
1589275287738329931,936,1589275287738257271,,0.500343896388,-0.196766589283,0.214380473262
1589275287744600078,937,1589275287744463802,,0.500347953707,-0.196718511979,0.214372237403
1589275287747762325,938,1589275287747687431,,0.500351261572,-0.196673481913,0.214367934641
1589275287750494128,939,1589275287750383755,,0.500352844614,-0.19663318849,0.214360464941
1589275287756405013,940,1589275287756281290,,0.500355918282,-0.196584119208,0.214351712859
1589275287759414093,941,1589275287759288126,,0.500358265697,-0.196532905091,0.214342061037
1589275287762354877,942,1589275287762290971,,0.500362213897,-0.196488578896,0.214337900371
1589275287768446847,943,1589275287768322270,,0.500365884226,-0.196439242206,0.214334600034
1589275287771371731,944,1589275287771306538,,0.500369351163,-0.196390235299,0.214327357688
1589275287774293418,945,1589275287774243030,,0.500370164866,-0.196343694593,0.214316524431
1589275287783389744,946,1589275287783309618,,0.500375657771,-0.196252034851,0.214301518067
1589275287786411522,947,1589275287786311978,,0.500378058559,-0.196205593639,0.214292901717
1589275287792419998,948,1589275287792295524,,0.500379784385,-0.196159581827,0.214283982841
1589275287795388941,949,1589275287795267086,,0.500382180409,-0.196110978439,0.214276229619
1589275287798410730,950,1589275287798254966,,0.500384392715,-0.196063013564,0.214267445252
1589275287804465567,951,1589275287804351455,,0.500387233846,-0.196011993298,0.214256660389
1589275287807382094,952,1589275287807254117,,0.500390465475,-0.195960218035,0.214249405492
1589275287810462688,953,1589275287810349028,,0.500392194308,-0.195920958838,0.214242185673
1589275287816450276,954,1589275287816317347,,0.500396602164,-0.195866468519,0.214234174477
1589275287819401597,955,1589275287819325167,,0.50040085141,-0.195808529691,0.214224022373
1589275287822430606,956,1589275287822292542,,0.50040460238,-0.195759590771,0.214219919658
1589275287828399287,957,1589275287828289910,,0.500408136832,-0.195706358582,0.214209646669
1589275287831400950,958,1589275287831239537,,0.50041233853,-0.195642442713,0.214199414029
1589275287834456815,959,1589275287834300652,,0.500415822719,-0.195584579232,0.214191546706
1589275287843767302,960,1589275287843673834,,0.50042052171,-0.195471321198,0.21417268685
1589275287846715504,961,1589275287846633831,,0.500423308573,-0.195417122287,0.214162550317
1589275287852433437,962,1589275287852307803,,0.500425424907,-0.195360910629,0.214150744339
1589275287855417709,963,1589275287855273374,,0.500430035834,-0.195303423577,0.214141981623
1589275287861418982,964,1589275287861287791,,0.500433773336,-0.195249222949,0.214133235225
1589275287864419231,965,1589275287864294756,,0.50043421068,-0.195195098553,0.214119534658
1589275287867392520,966,1589275287867276956,,0.500436590111,-0.195142163624,0.214112159788
1589275287873439871,967,1589275287873305016,,0.500437451329,-0.195102830731,0.214105691301
1589275287876419714,968,1589275287876291795,,0.500441318103,-0.195045650775,0.214099181649
1589275287879502282,969,1589275287879350745,,0.500442306326,-0.194992267579,0.214089503918
1589275287885415107,970,1589275287885322125,,0.500445548665,-0.194951356481,0.214085792609
1589275287888409285,971,1589275287888301628,,0.500448418994,-0.194901954032,0.214080779518
1589275287891438479,972,1589275287891342190,,0.500449339972,-0.194847761977,0.214068352061
1589275287897386182,973,1589275287897259913,,0.500450968734,-0.194799122493,0.214058661064
1589275287900420591,974,1589275287900305355,,0.500453339829,-0.194750626921,0.214051316397
1589275287903388041,975,1589275287903284450,,0.500455296776,-0.194702518131,0.214043839035
1589275287909497127,976,1589275287909363635,,0.500455632502,-0.194655038149,0.214030619308
1589275287912494763,977,1589275287912371701,,0.500456852042,-0.194604946561,0.214018094007
1589275287915499327,978,1589275287915378857,,0.50046006898,-0.194549197943,0.214007721308
1589275287921475893,979,1589275287921367434,,0.500462325065,-0.19449511138,0.213993860056
1589275287924526199,980,1589275287924388343,,0.500465701071,-0.194439758804,0.213980922297
1589275287927504776,981,1589275287927386576,,0.500470420535,-0.194376425287,0.213968537781
1589275287933440563,982,1589275287933320101,,0.50047349132,-0.194316834417,0.213956008889
1589275287936505651,983,1589275287936347335,,0.50047791758,-0.194254173922,0.213942160753
1589275287939475232,984,1589275287939345298,,0.500482639708,-0.194189446557,0.213932736275
1589275287945673579,985,1589275287945505353,,0.500486881565,-0.194124893107,0.213921433046
1589275287948508658,986,1589275287948382175,,0.500490689229,-0.194061082299,0.213907110228
1589275287951552704,987,1589275287951412271,,0.500494492393,-0.19399630411,0.213893337193
1589275287957484546,988,1589275287957415391,,0.500497893892,-0.193934035503,0.213880539228
1589275287966468309,989,1589275287966346626,,0.500503659224,-0.193814048517,0.213854253152
1589275287969453646,990,1589275287969343777,,0.500506412017,-0.193759368472,0.213844744284
1589275287972472128,991,1589275287972378330,,0.50050826542,-0.193701067902,0.213830167916
1589275287975519165,992,1589275287975341762,,0.50050864201,-0.193650165568,0.213820697497
1589275287981537455,993,1589275287981369016,,0.500510884034,-0.193598274363,0.213810157036
1589275287984543759,994,1589275287984398276,,0.50051438046,-0.193544744824,0.213798195877
1589275287990543086,995,1589275287990409847,,0.500515525368,-0.193496641337,0.213790981612
1589275287993534956,996,1589275287993403730,,0.500517332867,-0.19346110642,0.2137851332
1589275287996538431,997,1589275287996392414,,0.500518712831,-0.19340926074,0.21377307559
1589275287999507040,998,1589275287999346371,,0.500518789323,-0.193352501257,0.213761187593
1589275288005599219,999,1589275288005431065,,0.500521916817,-0.193307087639,0.213754037845
1589275288008457390,1000,1589275288008340882,,0.50052411124,-0.193251810342,0.213747260674
1589275288014564867,1001,1589275288014382750,,0.500525540789,-0.193189278224,0.213732864432
1589275288017555278,1002,1589275288017440784,,0.500527526586,-0.193129462543,0.213719090726
1589275288026520210,1003,1589275288026350218,,0.500533430827,-0.193003935185,0.213694792356
1589275288029502373,1004,1589275288029387668,,0.500537819354,-0.192932764451,0.21367888037
1589275288032510006,1005,1589275288032374267,,0.500541937039,-0.192863425365,0.213662063434
1589275288038458833,1006,1589275288038336734,,0.500546119671,-0.19279076525,0.213647331272
1589275288041503262,1007,1589275288041385893,,0.500549874667,-0.192715290798,0.213631087185
1589275288044712013,1008,1589275288044588863,,0.500554172036,-0.19263920125,0.2136141311
1589275288050531946,1009,1589275288050430641,,0.500558033526,-0.192564341269,0.213599161456
1589275288053534159,1010,1589275288053426762,,0.50056246637,-0.192504879131,0.213586860851
1589275288056523869,1011,1589275288056375856,,0.500565979097,-0.192431528264,0.213571095897
1589275288062575162,1012,1589275288062386969,,0.500570206815,-0.192350713783,0.213556050785
1589275288065539604,1013,1589275288065353926,,0.500573405539,-0.19229699417,0.213543046469
1589275288071558856,1014,1589275288071395417,,0.500576623788,-0.192231983562,0.213530975399
1589275288074507962,1015,1589275288074417783,,0.500578478768,-0.192166490133,0.213516453032
1589275288077560636,1016,1589275288077377217,,0.500580346172,-0.192106697979,0.21350502659
1589275288083531496,1017,1589275288083424183,,0.500581680503,-0.192051852843,0.213492912923
1589275288086503856,1018,1589275288086385390,,0.500583466915,-0.191999784628,0.213480264376
1589275288089549324,1019,1589275288089405766,,0.50058351972,-0.191950079494,0.213466564513
1589275288095560233,1020,1589275288095433506,,0.500584646435,-0.191895607427,0.213452591482
1589275288101547813,1021,1589275288101379997,,0.500587816234,-0.191838386101,0.213440496389
1589275288104495660,1022,1589275288104355007,,0.500588228675,-0.191781497248,0.213426593759
1589275288107581841,1023,1589275288107401610,,0.500591643633,-0.191721267812,0.213413624397
1589275288110493760,1024,1589275288110369434,,0.50059560815,-0.191653511026,0.213403425801
1589275288113486833,1025,1589275288113365679,,0.500598133435,-0.191587117097,0.213387964789
1589275288119578010,1026,1589275288119442687,,0.500600971218,-0.191512960412,0.213370582976
1589275288122507092,1027,1589275288122405561,,0.50060585639,-0.191438828228,0.213360381686
1589275288125524325,1028,1589275288125400864,,0.500611628017,-0.191356096867,0.213347494591
1589275288131543541,1029,1589275288131348738,,0.500618093996,-0.191271095436,0.213332957496
1589275288134430849,1030,1589275288134337719,,0.50062148532,-0.191189649195,0.213318571829
1589275288137463627,1031,1589275288137338069,,0.500628996311,-0.191096719297,0.213301640377
1589275288143818740,1032,1589275288143714205,,0.500637469679,-0.191005627758,0.213287320839
1589275288146798174,1033,1589275288146708396,,0.500641878122,-0.190918319591,0.213268395298
1589275288149504384,1034,1589275288149368995,,0.500648181412,-0.190828023613,0.213254592021
1589275288155389777,1035,1589275288155287306,,0.500653882545,-0.190739647221,0.213235083269
1589275288158483771,1036,1589275288158389204,,0.500657096099,-0.190655356633,0.213217838014
1589275288161474265,1037,1589275288161360504,,0.500663217462,-0.190574288464,0.213203502819
1589275288167492550,1038,1589275288167404412,,0.500667418803,-0.190494445322,0.213187081268
1589275288170538449,1039,1589275288170372194,,0.50066666843,-0.190424742852,0.213166234746
1589275288173483068,1040,1589275288173374461,,0.500671615123,-0.190355906413,0.213158284909
1589275288179492764,1041,1589275288179412033,,0.500673165464,-0.19029035503,0.21314466672
1589275288182500404,1042,1589275288182375937,,0.50067394271,-0.190229418184,0.213131657056
1589275288185444982,1043,1589275288185336739,,0.500676374248,-0.190173912721,0.213121749115
1589275288191536945,1044,1589275288191404445,,0.500677997812,-0.190116186512,0.213108888063
1589275288194471871,1045,1589275288194365201,,0.50067938396,-0.190059871097,0.213098270141
1589275288197586140,1046,1589275288197428078,,0.500680077992,-0.190003947983,0.213087616403
1589275288203543894,1047,1589275288203423613,,0.500684196692,-0.189942572312,0.21307982619
1589275288206531209,1048,1589275288206389347,,0.500684470772,-0.189878998418,0.213068998058
1589275288209483869,1049,1589275288209393549,,0.500687270102,-0.189812984385,0.213056109866
1589275288215671709,1050,1589275288215488490,,0.500690263811,-0.189744030579,0.213043865078
1589275288218515519,1051,1589275288218417242,,0.500693029201,-0.189668008488,0.213030445782
1589275288221411869,1052,1589275288221298864,,0.500698611614,-0.189588836824,0.213013092809
1589275288227548504,1053,1589275288227387935,,0.500701838356,-0.189506873893,0.212999700495
1589275288230443799,1054,1589275288230342858,,0.500707893651,-0.189420865705,0.21298250242
1589275288233562783,1055,1589275288233380305,,0.500713284518,-0.189331174269,0.212967953488
1589275288239524458,1056,1589275288239390460,,0.500718392235,-0.189241305668,0.212952025142
1589275288242576832,1057,1589275288242397146,,0.500724175233,-0.189145845832,0.212933593719
1589275288248549412,1058,1589275288248406538,,0.500731113145,-0.189048219016,0.212918570389
1589275288251503785,1059,1589275288251363368,,0.50073743883,-0.188953520835,0.212900212284
1589275288254561893,1060,1589275288254371089,,0.500744021242,-0.188857605859,0.2128822916
1589275288257549227,1061,1589275288257392421,,0.50074873323,-0.188768746129,0.212865891172
1589275288263418193,1062,1589275288263318905,,0.500752892825,-0.188686066987,0.212853913944
1589275288266591561,1063,1589275288266427802,,0.500757298584,-0.188604208199,0.212839905854
1589275288272605577,1064,1589275288272434767,,0.500758914597,-0.188531275568,0.212825621221
1589275288275471630,1065,1589275288275389025,,0.500762327273,-0.188464337224,0.212815666327
1589275288278592323,1066,1589275288278397762,,0.500764354591,-0.18840500496,0.212805078365
1589275288284524139,1067,1589275288284396442,,0.500764913831,-0.188347636976,0.212795979679
1589275288287485608,1068,1589275288287397193,,0.500765974626,-0.188296326643,0.212789204784
1589275288290453895,1069,1589275288290338123,,0.500766860185,-0.188248367022,0.212780118102
1589275288296505823,1070,1589275288296370573,,0.500768614607,-0.188201028768,0.212774196295
1589275288299555322,1071,1589275288299448601,,0.500768934058,-0.188152008495,0.212765208249
1589275288302506005,1072,1589275288302418478,,0.500770626516,-0.188101762677,0.212756031926
1589275288308546868,1073,1589275288308426937,,0.500772080394,-0.188043599602,0.212744821109
1589275288311553430,1074,1589275288311454217,,0.500774339408,-0.187982908786,0.212736305608
1589275288314505914,1075,1589275288314407881,,0.50077609796,-0.18791854129,0.212720267095
1589275288323595607,1076,1589275288323462482,,0.500785198094,-0.187769013901,0.212695453159
1589275288326526927,1077,1589275288326430511,,0.500786914419,-0.187691300482,0.212678386252
1589275288332488569,1078,1589275288332371932,,0.500794394242,-0.187601667337,0.212663199898
1589275288335500763,1079,1589275288335400387,,0.500799093804,-0.187514385443,0.212652398103
1589275288338456701,1080,1589275288338380318,,0.500804252026,-0.187420816872,0.212636893394
1589275288344714366,1081,1589275288344597338,,0.500809879254,-0.187329987341,0.212622050512
1589275288347879901,1082,1589275288347721546,,0.500817048563,-0.187230406447,0.212608564412
1589275288353500357,1083,1589275288353392854,,0.500821735551,-0.187152553573,0.212599248088
1589275288356693284,1084,1589275288356466446,,0.500828145261,-0.187058641434,0.212580683841
1589275288359428163,1085,1589275288359328356,,0.500835356228,-0.186959159785,0.212563662893
1589275288362448123,1086,1589275288362347422,,0.500839623528,-0.186892382339,0.212555096867
1589275288368549307,1087,1589275288368428020,,0.500843541971,-0.186808764646,0.212540619555
1589275288371533611,1088,1589275288371432796,,0.500848121821,-0.186728098555,0.212527398915
1589275288377616257,1089,1589275288377475224,,0.500850832632,-0.186667971004,0.212513291033
1589275288383579777,1090,1589275288383415148,,0.500854167226,-0.186551607085,0.212494195756
1589275288389569466,1091,1589275288389388308,,0.500855106723,-0.186505990656,0.212485483457
1589275288392546446,1092,1589275288392382319,,0.500855284899,-0.186462627801,0.212478923673
1589275288395474884,1093,1589275288395370567,,0.500855544458,-0.186420232022,0.212468719181
1589275288401475215,1094,1589275288401348074,,0.500856752982,-0.186376158567,0.212460331619
1589275288404530945,1095,1589275288404361716,,0.500857442369,-0.186330971811,0.212453574147
1589275288407467400,1096,1589275288407365989,,0.500859337296,-0.186283887995,0.212447484539
1589275288413538493,1097,1589275288413358476,,0.500861114996,-0.18624647064,0.212440678544
1589275288416484386,1098,1589275288416392733,,0.500863233056,-0.186187781092,0.212432960683
1589275288419488665,1099,1589275288419314195,,0.500867533591,-0.186117060755,0.212420892625
1589275288425556362,1100,1589275288425339795,,0.500871026249,-0.186066213957,0.212413707705
1589275288428482280,1101,1589275288428367180,,0.500873749984,-0.185996721366,0.212404323885
1589275288434483615,1102,1589275288434355683,,0.500879795274,-0.185913493317,0.212390986029
1589275288437555196,1103,1589275288437446567,,0.500883510729,-0.185841042249,0.212379913522
1589275288440699474,1104,1589275288440612283,,0.500888578968,-0.185765313387,0.212371146883
1589275288443820301,1105,1589275288443715604,,0.500894150414,-0.185687052469,0.212360565912
1589275288449558154,1106,1589275288449441039,,0.500898425341,-0.185612464026,0.212347344997
1589275288452645958,1107,1589275288452475091,,0.500904031779,-0.185533916783,0.212337047957
1589275288458596721,1108,1589275288458436305,,0.500907978023,-0.185452242282,0.2123230565
1589275288461560224,1109,1589275288461438824,,0.500913623533,-0.18537449784,0.212309063366
1589275288464506485,1110,1589275288464397637,,0.500918711954,-0.185295440843,0.212298246448
1589275288470522434,1111,1589275288470422078,,0.500924578289,-0.185216747323,0.212288789116
1589275288473504773,1112,1589275288473436075,,0.500928213234,-0.185143673305,0.212276045767
1589275288476516300,1113,1589275288476441246,,0.500932767558,-0.185073172032,0.212264601628
1589275288482578907,1114,1589275288482454983,,0.500935328478,-0.185011756796,0.21225520157
1589275288485538365,1115,1589275288485398069,,0.500936799622,-0.184951581351,0.212242264265
1589275288488547065,1116,1589275288488376379,,0.500939721999,-0.184895270701,0.212236187054
1589275288494479985,1117,1589275288494423155,,0.500942190626,-0.184841220061,0.212226876801
1589275288497611922,1118,1589275288497428044,,0.500943846959,-0.184799117222,0.21222015122
1589275288506564402,1119,1589275288506479901,,0.500946769396,-0.184705610244,0.212204096145
1589275288509536946,1120,1589275288509428551,,0.500949772794,-0.184662207264,0.21220065975
1589275288512606980,1121,1589275288512449141,,0.500952310084,-0.184614889051,0.212192934336
1589275288518599986,1122,1589275288518466703,,0.500954881667,-0.184564345633,0.212181496931
1589275288521549570,1123,1589275288521422355,,0.5009579965,-0.184512314877,0.212172532341
1589275288524557650,1124,1589275288524443584,,0.500963048009,-0.184454177816,0.212167215339
1589275288530560482,1125,1589275288530431730,,0.500966502334,-0.184395238955,0.212157493079
1589275288533555387,1126,1589275288533461857,,0.500971093506,-0.184344387781,0.212148783681
1589275288536541670,1127,1589275288536440602,,0.500975146278,-0.184280403217,0.212138913107
1589275288542613806,1128,1589275288542494194,,0.500980644683,-0.184204942667,0.212124091232
1589275288545749696,1129,1589275288545580203,,0.500985480617,-0.184147671746,0.212117722152
1589275288548650686,1130,1589275288548479442,,0.500988176577,-0.184077150075,0.212109863714
1589275288554531354,1131,1589275288554405079,,0.500993041743,-0.184002094559,0.212097821817
1589275288557519571,1132,1589275288557403530,,0.500997265989,-0.183932719611,0.212089904365
1589275288560618473,1133,1589275288560525168,,0.501002080473,-0.183863369122,0.2120806674
1589275288566667686,1134,1589275288566459629,,0.501007358383,-0.183799323158,0.212071410489
1589275288569593314,1135,1589275288569469517,,0.501012363479,-0.183736637477,0.2120636435
1589275288572567985,1136,1589275288572476216,,0.501015586009,-0.183673085201,0.212053715612
1589275288578742098,1137,1589275288578517991,,0.501020896875,-0.183616111001,0.212047275848
1589275288581680430,1138,1589275288581524687,,0.501022175714,-0.18356529364,0.212037494271
1589275288584505744,1139,1589275288584403967,,0.50102473204,-0.18351519354,0.212031596932
1589275288590647789,1140,1589275288590471497,,0.501026878156,-0.183467619077,0.212024869636
1589275288593511649,1141,1589275288593373899,,0.501027777084,-0.183427611936,0.212017038022
1589275288596506589,1142,1589275288596402213,,0.501029295067,-0.183384115052,0.212008054688
1589275288602673716,1143,1589275288602473192,,0.501030689434,-0.183347773042,0.212001996245
1589275288605587118,1144,1589275288605446496,,0.501031826656,-0.18331141553,0.211994893855
1589275288608685907,1145,1589275288608463012,,0.501033141795,-0.183276884009,0.211986761937
1589275288614577682,1146,1589275288614425199,,0.501034318695,-0.183241539531,0.21198012723
1589275288617545832,1147,1589275288617401252,,0.501037073116,-0.183198706801,0.211971709368
1589275288620549396,1148,1589275288620439165,,0.501038964918,-0.183156397328,0.211963639434
1589275288626530185,1149,1589275288626393244,,0.501041703198,-0.183112729751,0.211958915054
1589275288629584685,1150,1589275288629431327,,0.501045333725,-0.183062205588,0.21195362274
1589275288632546510,1151,1589275288632430099,,0.501048617599,-0.18300523083,0.211945097032
1589275288638613964,1152,1589275288638439792,,0.501052222229,-0.182952276012,0.211936002194
1589275288641571271,1153,1589275288641448772,,0.501057771841,-0.18289478735,0.21193084646
1589275288644966020,1154,1589275288644761847,,0.501061950658,-0.18283220925,0.21192120147
1589275288650627020,1155,1589275288650389330,,0.501067004322,-0.182775124822,0.211911196964
1589275288653477671,1156,1589275288653378460,,0.501072200998,-0.182708052583,0.211902224284
1589275288659543880,1157,1589275288659425695,,0.50107623581,-0.182647622356,0.211891987909
1589275288662549883,1158,1589275288662401671,,0.501079751638,-0.18258622351,0.211881339954
1589275288665561096,1159,1589275288665435159,,0.501083123806,-0.182520984972,0.211870047947
1589275288671653017,1160,1589275288671468904,,0.50108784329,-0.182462101307,0.211860497696
1589275288674517522,1161,1589275288674407304,,0.501090388492,-0.182403340738,0.211850120937
1589275288677767659,1162,1589275288677522992,,0.501093695644,-0.182343679713,0.21183869981
1589275288683672284,1163,1589275288683523013,,0.501097442613,-0.182289843193,0.211830145535
1589275288686632121,1164,1589275288686466529,,0.501100136228,-0.18223757978,0.211820347494
1589275288689606765,1165,1589275288689486416,,0.501103794194,-0.18218708933,0.211813354523
1589275288695661923,1166,1589275288695513434,,0.501106532084,-0.182142307247,0.211806688577
1589275288698549462,1167,1589275288698435773,,0.501109296342,-0.182103051071,0.211801738439
1589275288701707621,1168,1589275288701515859,,0.501113025678,-0.182062454761,0.211795060462
1589275288707646366,1169,1589275288707545787,,0.501114689125,-0.182026063532,0.211788891894
1589275288710513212,1170,1589275288710429644,,0.501116785928,-0.181992102824,0.211784837333
1589275288719621341,1171,1589275288719429537,,0.501121107197,-0.181926094534,0.211777829717
1589275288722583018,1172,1589275288722400539,,0.501123183783,-0.181893521555,0.211771507897
1589275288725623013,1173,1589275288725445583,,0.501125706325,-0.181859246453,0.211767429754
1589275288731582246,1174,1589275288731444678,,0.501128306344,-0.18182798958,0.211760554002
1589275288734546691,1175,1589275288734403461,,0.501132166941,-0.18179214928,0.211754662829
1589275288737526674,1176,1589275288737405748,,0.501134536197,-0.181758721614,0.211748333152
1589275288743618645,1177,1589275288743490245,,0.501137631503,-0.181728294204,0.211744061061
1589275288746835522,1178,1589275288746650280,,0.501141109532,-0.181695269663,0.211742463307
1589275288752673552,1179,1589275288752466399,,0.501146352356,-0.181652602662,0.211738756792
1589275288755675285,1180,1589275288755489115,,0.50114971486,-0.181615011138,0.211734634718
1589275288758652639,1181,1589275288758542913,,0.501153112038,-0.181581084868,0.211728822542
1589275288761632785,1182,1589275288761468899,,0.501158545601,-0.181534793848,0.21172534449
1589275288767609985,1183,1589275288767451602,,0.501161953881,-0.181494314962,0.21171999901
1589275288770574868,1184,1589275288770455962,,0.501167355958,-0.181453719858,0.211716092346
1589275288773656315,1185,1589275288773489545,,0.501170987654,-0.181419972416,0.211713189241
1589275288779634986,1186,1589275288779468745,,0.501174530349,-0.18138764997,0.211708811144
1589275288782622580,1187,1589275288782483074,,0.50117816745,-0.18135711754,0.211704841096
1589275288788722513,1188,1589275288788517895,,0.501182331751,-0.181324599152,0.211701900216
1589275288791658710,1189,1589275288791513811,,0.501185353187,-0.181293476403,0.211696417412
1589275288794587650,1190,1589275288794483953,,0.501188747309,-0.181264088293,0.211691225374
1589275288800872077,1191,1589275288800772501,,0.501192740254,-0.181234787434,0.211687441004
1589275288803644021,1192,1589275288803530672,,0.501196945138,-0.181209277128,0.211684648991
1589275288806577684,1193,1589275288806457021,,0.501199193105,-0.181183614703,0.211679383993
1589275288812598803,1194,1589275288812482251,,0.501203729537,-0.181156419284,0.211677373731
1589275288815733116,1195,1589275288815478538,,0.501206159379,-0.181130547203,0.211673644015
1589275288818605492,1196,1589275288818466920,,0.50120933022,-0.181103225874,0.211673185602
1589275288824660337,1197,1589275288824539490,,0.501212263636,-0.181077329907,0.21167135157
1589275288827597185,1198,1589275288827492308,,0.50121543546,-0.181050711473,0.211669286622
1589275288830603615,1199,1589275288830496261,,0.501217557239,-0.181025566265,0.211665570017
1589275288836619905,1200,1589275288836544183,,0.501219979412,-0.180997790319,0.211661612911
1589275288839677471,1201,1589275288839488596,,0.501222582075,-0.180970009029,0.211657138428
1589275288842553473,1202,1589275288842440597,,0.501226128367,-0.18093938175,0.211655450427
1589275288848939022,1203,1589275288848809717,,0.501229003002,-0.18091078937,0.211652262325
1589275288851693142,1204,1589275288851531832,,0.501231455296,-0.180880615219,0.211646389275
1589275288854606474,1205,1589275288854473720,,0.501234764986,-0.180852479551,0.211642619323
1589275288861013833,1206,1589275288860899350,,0.501237084403,-0.180821591817,0.211639684525
1589275288863602103,1207,1589275288863459775,,0.501238481878,-0.180790180317,0.211634955618
1589275288869639692,1208,1589275288869502968,,0.501240937805,-0.180756641941,0.211633591133
1589275288872573930,1209,1589275288872452959,,0.501243405766,-0.180727315629,0.211633789989
1589275288875599914,1210,1589275288875493658,,0.501245252763,-0.18069812623,0.211633888975
1589275288881673527,1211,1589275288881513436,,0.501247803602,-0.180669647482,0.211632390802
1589275288884839478,1212,1589275288884570428,,0.501250258064,-0.180642839893,0.211628813679
1589275288887669213,1213,1589275288887583547,,0.501251477072,-0.180617278113,0.211625310948
1589275288893644530,1214,1589275288893527802,,0.501253865798,-0.180592103815,0.211624160544
1589275288896644658,1215,1589275288896522168,,0.501255325718,-0.180570959004,0.211621385444
1589275288899686747,1216,1589275288899552555,,0.501255638573,-0.180552620851,0.211619085221
1589275288905650076,1217,1589275288905485395,,0.501255993522,-0.180532960245,0.211615798295
1589275288908631650,1218,1589275288908485934,,0.501256185858,-0.180515954356,0.211613273345
1589275288911645263,1219,1589275288911505017,,0.501256565454,-0.180496250198,0.211609909594
1589275288917638592,1220,1589275288917464708,,0.501256489238,-0.180478087486,0.211605994668
1589275288920951455,1221,1589275288920866388,,0.501257617123,-0.18046063361,0.211603330108
1589275288923628348,1222,1589275288923526818,,0.501257766445,-0.180442470485,0.211599412062
1589275288929727231,1223,1589275288929601152,,0.501259177677,-0.180424543791,0.211598110949
1589275288932714510,1224,1589275288932591592,,0.501260122086,-0.180404046648,0.211594783894
1589275288938706948,1225,1589275288938564645,,0.501260601464,-0.180385041236,0.211590163509
1589275288941693209,1226,1589275288941512429,,0.501262206563,-0.180362979478,0.21158835938
1589275288945067684,1227,1589275288944935591,,0.501262954457,-0.180343619616,0.211586956607
1589275288947969901,1228,1589275288947842853,,0.50126342349,-0.180324997376,0.211584032976
1589275288956615575,1229,1589275288956490231,,0.501265409226,-0.18028689822,0.211579136848
1589275288959693778,1230,1589275288959489065,,0.501267545598,-0.180265589359,0.211578712664
1589275288965723154,1231,1589275288965554795,,0.501269059155,-0.180244524776,0.211575847548
1589275288968787716,1232,1589275288968553388,,0.501270610828,-0.180224611235,0.211574603752
1589275288971684418,1233,1589275288971536862,,0.501271961506,-0.180204625073,0.21157201583
1589275288977714890,1234,1589275288977498148,,0.501274001066,-0.180185528035,0.21156894419
1589275288983662330,1235,1589275288983527815,,0.501277452933,-0.180149256395,0.211566380342
1589275288989637530,1236,1589275288989515620,,0.50127881971,-0.180131609069,0.211564994549
1589275288992663680,1237,1589275288992532522,,0.501280115445,-0.180115378671,0.211562826122
1589275288998614091,1238,1589275288998518562,,0.501281155857,-0.180099703563,0.211561087456
1589275289001632948,1239,1589275289001507709,,0.501283192757,-0.180083334978,0.211559927058
1589275289004602930,1240,1589275289004503426,,0.501285792019,-0.180065247721,0.211559195509
1589275289007619825,1241,1589275289007506518,,0.501288030708,-0.180052113946,0.211558178468
1589275289013605972,1242,1589275289013488555,,0.501289291846,-0.180040702539,0.211557481262
1589275289016642208,1243,1589275289016494358,,0.501291514023,-0.18002834559,0.211557078042
1589275289019699538,1244,1589275289019527965,,0.50129417552,-0.180015154384,0.211557670821
1589275289025725340,1245,1589275289025554221,,0.50129632378,-0.180005410024,0.211558048698
1589275289028802632,1246,1589275289028596206,,0.501298035559,-0.179993872912,0.21155874276
1589275289031631153,1247,1589275289031495144,,0.501301016407,-0.179979990428,0.211560237269
1589275289037617384,1248,1589275289037500505,,0.501302821991,-0.17996866834,0.211559773244
1589275289046735347,1249,1589275289046626868,,0.501307524154,-0.179946450924,0.211562983382
1589275289049661312,1250,1589275289049529365,,0.501309437342,-0.179936223158,0.211563833837
1589275289052666663,1251,1589275289052532605,,0.501311946845,-0.179925016998,0.211565672867
1589275289055676324,1252,1589275289055547134,,0.501313977552,-0.179916927213,0.211567506603
1589275289061692720,1253,1589275289061570857,,0.501316148968,-0.179908399921,0.211569053201
1589275289064661707,1254,1589275289064534131,,0.501318521923,-0.179899760949,0.211570566275
1589275289070663941,1255,1589275289070483974,,0.501321238227,-0.179890459494,0.211572359133
1589275289073689565,1256,1589275289073532643,,0.501323496148,-0.179882100641,0.211575044323
1589275289076641697,1257,1589275289076512709,,0.501326007198,-0.179874520897,0.211576813851
1589275289082760127,1258,1589275289082555290,,0.501328414035,-0.179863314551,0.211579152304
1589275289085647977,1259,1589275289085534402,,0.501330075529,-0.17985672162,0.211581232394
1589275289088647654,1260,1589275289088503993,,0.501333004368,-0.179847633344,0.211583474565
1589275289094746737,1261,1589275289094543023,,0.501335395925,-0.179837125493,0.211584829478
1589275289097560352,1262,1589275289097472768,,0.501337571756,-0.179829047538,0.211586024224
1589275289106747099,1263,1589275289106617018,,0.501341386348,-0.179814307004,0.211589328528
1589275289109570500,1264,1589275289109475077,,0.501343919271,-0.179805841614,0.211589997676
1589275289112657281,1265,1589275289112518891,,0.501346131524,-0.179797594664,0.211591405435
1589275289118675125,1266,1589275289118512585,,0.501346970153,-0.179791516985,0.211593017387
1589275289121675116,1267,1589275289121560239,,0.501348752045,-0.179785705844,0.211594199178
1589275289124675624,1268,1589275289124534420,,0.501350599045,-0.179779509416,0.211596719437
1589275289130703584,1269,1589275289130529030,,0.501351768352,-0.17977466212,0.211597706583
1589275289134350869,1270,1589275289134255095,,0.501353066352,-0.179769885185,0.211600376198
1589275289136743518,1271,1589275289136554321,,0.501354363222,-0.179763883149,0.21160046283
1589275289142617679,1272,1589275289142489313,,0.501355273115,-0.179760416547,0.211601992838
1589275289145906606,1273,1589275289145781260,,0.501356579531,-0.179754601887,0.211605029708
1589275289151795282,1274,1589275289151613867,,0.501357425873,-0.179751620268,0.211605255538
1589275289154620360,1275,1589275289154522278,,0.501358527788,-0.17974791388,0.211608221138
1589275289157651799,1276,1589275289157544364,,0.50136004548,-0.179742102333,0.211609033475
1589275289160989109,1277,1589275289160898919,,0.50136147059,-0.17973795498,0.211610798256
1589275289166692668,1278,1589275289166558280,,0.501362818764,-0.179734215031,0.211612154493
1589275289169607403,1279,1589275289169508235,,0.501363808832,-0.179729607771,0.211613185597
1589275289175610707,1280,1589275289175524787,,0.501365573086,-0.179725260084,0.211614870482
1589275289178578093,1281,1589275289178503479,,0.501367662922,-0.179720648872,0.211616555646
1589275289181615896,1282,1589275289181525645,,0.501369365464,-0.179715351712,0.21161715643
1589275289187665445,1283,1589275289187584397,,0.501371360565,-0.179711691001,0.211619587177
1589275289190714345,1284,1589275289190568220,,0.501373409078,-0.179706329438,0.211621434701
1589275289199620981,1285,1589275289199518973,,0.501377867523,-0.179697300018,0.21162388585
1589275289202651353,1286,1589275289202513682,,0.50138036013,-0.179693114953,0.211625661966
1589275289205659269,1287,1589275289205512764,,0.501382671212,-0.179689728735,0.211627959173
1589275289211602710,1288,1589275289211487888,,0.501385359149,-0.179685796564,0.211629381418
1589275289214610756,1289,1589275289214487523,,0.501388020497,-0.179680741689,0.211630719176
1589275289217756338,1290,1589275289217609382,,0.50139033054,-0.179677220561,0.211631820103
1589275289223700025,1291,1589275289223512232,,0.501394257591,-0.179671863862,0.211634944973
1589275289226655004,1292,1589275289226535517,,0.501397436425,-0.179668790563,0.211637881124
1589275289229677929,1293,1589275289229570538,,0.501400942752,-0.179663546221,0.211640620479
1589275289235606123,1294,1589275289235494517,,0.501405079015,-0.179658406931,0.211643981545
1589275289238618253,1295,1589275289238511856,,0.5014090985,-0.179652672378,0.211647221909
1589275289241636078,1296,1589275289241525848,,0.501412998572,-0.179647782157,0.211650340474
1589275289247976498,1297,1589275289247854507,,0.501417464874,-0.17964035042,0.211654786514
1589275289250646097,1298,1589275289250563455,,0.501422002256,-0.179634393939,0.211659598575
1589275289256649844,1299,1589275289256528024,,0.501426881958,-0.179627655589,0.211664163984
1589275289259716115,1300,1589275289259561538,,0.501431762907,-0.179623348977,0.211669930025
1589275289262618260,1301,1589275289262526298,,0.501436198422,-0.179616991052,0.211674910469
1589275289268702265,1302,1589275289268563487,,0.501440476796,-0.179610336385,0.211679732057
1589275289271629678,1303,1589275289271532938,,0.501444960306,-0.179604533504,0.21168426335
1589275289274753305,1304,1589275289274548884,,0.501447639598,-0.179599743028,0.211688123746
1589275289280747769,1305,1589275289280656207,,0.501450716019,-0.179596366774,0.211691225826
1589275289283670826,1306,1589275289283527849,,0.501454559757,-0.179590016006,0.211696019553
1589275289286679436,1307,1589275289286554215,,0.501457250606,-0.179585673486,0.211699494807
1589275289292946188,1308,1589275289292789975,,0.501460175644,-0.179580640472,0.211702931051
1589275289295713669,1309,1589275289295567951,,0.501463527401,-0.179575996498,0.21170712061
1589275289298642350,1310,1589275289298552803,,0.501466322362,-0.179572110835,0.211711214902
1589275289304670760,1311,1589275289304513301,,0.501468956756,-0.179567390149,0.211714152229
1589275289307756474,1312,1589275289307632234,,0.501471591186,-0.179562633379,0.211718026813
1589275289310698131,1313,1589275289310538236,,0.501474020159,-0.179559644046,0.211722157769
1589275289316734640,1314,1589275289316579101,,0.501476742735,-0.179553759347,0.211726399949
1589275289319723877,1315,1589275289319628829,,0.501479609467,-0.17954938516,0.211730994198
1589275289322689867,1316,1589275289322522527,,0.501482467678,-0.179544014914,0.211734978427
1589275289328699912,1317,1589275289328618789,,0.50148637467,-0.17953821463,0.211741647279
1589275289331738544,1318,1589275289331595979,,0.501488920788,-0.179532747435,0.211745795465
1589275289334677578,1319,1589275289334536652,,0.501492155668,-0.179527538193,0.211750759698
1589275289343655420,1320,1589275289343567434,,0.501499339317,-0.179515907307,0.211761741813
1589275289346883943,1321,1589275289346744231,,0.501502528112,-0.179509710385,0.211766170877
1589275289352790105,1322,1589275289352649545,,0.501506203568,-0.179504810525,0.211772304489
1589275289355645928,1323,1589275289355533825,,0.501509507126,-0.17949870579,0.211777350419
1589275289358753957,1324,1589275289358594772,,0.501512420714,-0.179494606774,0.211781426252
1589275289364763905,1325,1589275289364591401,,0.501515937379,-0.179489124497,0.211784853011
1589275289367638521,1326,1589275289367550168,,0.501519588942,-0.179483597076,0.211790160077
1589275289370670361,1327,1589275289370551487,,0.501521643903,-0.179480170599,0.211792794179
1589275289376697195,1328,1589275289376583967,,0.501524326192,-0.179476126477,0.211795815678
1589275289379791667,1329,1589275289379629438,,0.501527889095,-0.179470931793,0.211800578813
1589275289382649111,1330,1589275289382542893,,0.501530906298,-0.179468678513,0.211804815704
1589275289388856062,1331,1589275289388638610,,0.501533957625,-0.179463233317,0.211808050254
1589275289391742666,1332,1589275289391571372,,0.501537111923,-0.179458747954,0.211811654516
1589275289394740811,1333,1589275289394596131,,0.501540667921,-0.179454828901,0.211816333564
1589275289403668434,1334,1589275289403560181,,0.501547009594,-0.179446501293,0.211823034702
1589275289406682941,1335,1589275289406576297,,0.501550054283,-0.179441968247,0.211826406587
1589275289412689230,1336,1589275289412600658,,0.501554281916,-0.179438177199,0.211831975783
1589275289418772240,1337,1589275289418625150,,0.501556816419,-0.179434923244,0.211834087877
1589275289421720839,1338,1589275289421553695,,0.501561111077,-0.179430867486,0.211839260242
1589275289424668840,1339,1589275289424556365,,0.501563846034,-0.179427051858,0.211842405658
1589275289427876613,1340,1589275289427762734,,0.501568067831,-0.179423435742,0.211847049551
1589275289434829760,1341,1589275289434727326,,0.501570859359,-0.179422496683,0.211850808638
1589275289439655083,1342,1589275289439539856,,0.501573356981,-0.179419915607,0.21185292709
1589275289442680947,1343,1589275289442606943,,0.501577187522,-0.179417790909,0.21185880559
1589275289446040836,1344,1589275289445848510,,0.501579158544,-0.179417218758,0.21186077143
1589275289449006260,1345,1589275289448907520,,0.501582374624,-0.179414662133,0.211864719777
1589275289451700420,1346,1589275289451578958,,0.501585636963,-0.179413727628,0.211868593326
1589275289457694134,1347,1589275289457566173,,0.50158824456,-0.179411844931,0.211870313132
1589275289461441869,1348,1589275289461345840,,0.501590498115,-0.179411490095,0.211873966981
1589275289463670526,1349,1589275289463573044,,0.50159344215,-0.179409874237,0.211877996559
1589275289469778924,1350,1589275289469578732,,0.501595821991,-0.179408632179,0.211880826733
1589275289472779023,1351,1589275289472611861,,0.501598342902,-0.1794061533,0.211882381369
1589275289475707240,1352,1589275289475583265,,0.501600579565,-0.179404205362,0.211885165453
1589275289481727804,1353,1589275289481628289,,0.501603505601,-0.179401005927,0.21188846623
1589275289484735962,1354,1589275289484638295,,0.501606218423,-0.179398345758,0.211891182732
1589275289487921747,1355,1589275289487609712,,0.501609634174,-0.179394605987,0.211894798801
1589275289496729585,1356,1589275289496587875,,0.501615269141,-0.179389029666,0.211899338961
1589275289499777199,1357,1589275289499635013,,0.501618015169,-0.179385919378,0.211902604684
1589275289505800956,1358,1589275289505633482,,0.501621544204,-0.179382049322,0.211905734053
1589275289508813087,1359,1589275289508622665,,0.501624570701,-0.179377552091,0.211908119886
1589275289511755934,1360,1589275289511609762,,0.501627430372,-0.179371762913,0.211910606612
1589275289517772866,1361,1589275289517623298,,0.501630297922,-0.179367391736,0.211913280326
1589275289520835184,1362,1589275289520731551,,0.501633594065,-0.179361008332,0.211916655174
1589275289523795092,1363,1589275289523619111,,0.501635376637,-0.179356029021,0.211916751918
1589275289529824828,1364,1589275289529606470,,0.501638629122,-0.179349492788,0.211919297945
1589275289532756591,1365,1589275289532635342,,0.501641329703,-0.179343620433,0.211920994619
1589275289535755702,1366,1589275289535600630,,0.501643730715,-0.17933869781,0.211923070989
1589275289541741662,1367,1589275289541594276,,0.501645682793,-0.17933186803,0.21192492117
1589275289545068856,1368,1589275289544983998,,0.501647356656,-0.179327230853,0.211925788879
1589275289548062742,1369,1589275289547909553,,0.501648975464,-0.179322393637,0.211928531428
1589275289556826232,1370,1589275289556681038,,0.501651970784,-0.179310781633,0.211933539284
1589275289559743407,1371,1589275289559597714,,0.501653338555,-0.179304904036,0.211937293174
1589275289565852243,1372,1589275289565605723,,0.501654971292,-0.179297503918,0.211940747817
1589275289568742139,1373,1589275289568633689,,0.50165630459,-0.179290139795,0.211946356934
1589275289574649024,1374,1589275289574569204,,0.501658010508,-0.179280551514,0.211952358673
1589275289577662254,1375,1589275289577551702,,0.501659443755,-0.179270741994,0.211958060644
1589275289580810783,1376,1589275289580698356,,0.501661356938,-0.179263099067,0.21196462796
1589275289586741665,1377,1589275289586609798,,0.501662682365,-0.179253340011,0.211968899233
1589275289589709176,1378,1589275289589575401,,0.501664148549,-0.179243719977,0.211973120129
1589275289592696764,1379,1589275289592586573,,0.501665861812,-0.179236786126,0.211978593892
1589275289598796859,1380,1589275289598625221,,0.501667620551,-0.179228934106,0.211983912753
1589275289601893701,1381,1589275289601678386,,0.501669642723,-0.1792187305,0.211988153919
1589275289604774963,1382,1589275289604615337,,0.501671707945,-0.1792100856,0.211992184048
1589275289610761623,1383,1589275289610630235,,0.501673087128,-0.179202627308,0.211995861477
1589275289614612808,1384,1589275289614505354,,0.501674231766,-0.179195221288,0.211998353002
1589275289619710023,1385,1589275289619573279,,0.501676045728,-0.179186924402,0.21200166157
1589275289622717492,1386,1589275289622595512,,0.501677282037,-0.179180431201,0.212004799024
1589275289625808181,1387,1589275289625654330,,0.501678420996,-0.179172624219,0.212007612158
1589275289628800732,1388,1589275289628646670,,0.501680013961,-0.179164560693,0.212011966609
1589275289634767666,1389,1589275289634675892,,0.501681393653,-0.179156976061,0.212015344443
1589275289637727010,1390,1589275289637616583,,0.501682494572,-0.179148531655,0.212018292511
1589275289641058936,1391,1589275289640956279,,0.501683823944,-0.179138648062,0.212024046447
1589275289646919037,1392,1589275289646789217,,0.501685000534,-0.179129593127,0.21203006485
1589275289650088872,1393,1589275289649971702,,0.50168504953,-0.179120707063,0.212033054937
1589275289655724163,1394,1589275289655610478,,0.501685927053,-0.179112154245,0.212036286443
1589275289658764292,1395,1589275289658599657,,0.501687083915,-0.17910346942,0.212039690871
1589275289661705250,1396,1589275289661605259,,0.501687681099,-0.179095601918,0.212042544918
1589275289667847361,1397,1589275289667721706,,0.50168826332,-0.179087173636,0.212044290491
1589275289670684578,1398,1589275289670588728,,0.501689184094,-0.179079506967,0.21204645058
1589275289674282812,1399,1589275289674200307,,0.501689893146,-0.179071268322,0.212049359086
1589275289679745677,1400,1589275289679604475,,0.501689991421,-0.179064110069,0.212051813733
1589275289682732322,1401,1589275289682596705,,0.501690659921,-0.179057465318,0.212053418621
1589275289685705245,1402,1589275289685619282,,0.501690634599,-0.179050720077,0.212054447361
1589275289691758895,1403,1589275289691606603,,0.501690254068,-0.179044487178,0.212055443973
1589275289694744373,1404,1589275289694633460,,0.501689299552,-0.179038324008,0.21205623308
