%time,field.header.seq,field.header.stamp,field.header.frame_id,field.vector.x,field.vector.y,field.vector.z
1589284545790281767,23227,1589284545790208977,,-0.112034518352,-1.32596081754,1.09760494413
1589284545796071531,23228,1589284545796026349,,-0.112207267392,-1.35867228903,1.10404892471
1589284545802018750,23229,1589284545801957436,,-0.112452416203,-1.39200690587,1.11045630067
1589284545808564204,23230,1589284545808478507,,-0.112462833594,-1.42524815337,1.11710124634
1589284545814311671,23231,1589284545814242574,,-0.112524520412,-1.45862827986,1.1238516817
1589284545820285020,23232,1589284545820224611,,-0.112693480447,-1.49276471436,1.1304971153
1589284545826348507,23233,1589284545826296970,,-0.112871278757,-1.52697229318,1.13722321872
1589284545832445764,23234,1589284545832367019,,-0.112979242283,-1.56134200288,1.14396656452
1589284545838134873,23235,1589284545837980291,,-0.113028613692,-1.56150302673,1.14398565837
1589284545846267152,23236,1589284545846188283,,-0.113154282557,-1.6307769254,1.15771611268
1589284545850042202,23237,1589284545849993595,,-0.113401542608,-1.63128937424,1.15750869136
1589284545856171890,23238,1589284545856105000,,-0.113533282074,-1.66636383085,1.16451687938
1589284545859112695,23239,1589284545859053247,,-0.113739406283,-1.70214884018,1.17130241435
1589284545862106503,23240,1589284545862039499,,-0.113830019972,-1.70214093216,1.17122051108
1589284545868569803,23241,1589284545868503366,,-0.114183199746,-1.73795885703,1.17784042303
1589284545874417730,23242,1589284545874321376,,-0.114307771914,-1.77370426455,1.18480236545
1589284545880679871,23243,1589284545880566477,,-0.114623605602,-1.80967224978,1.19156135464
1589284545886308776,23244,1589284545886040380,,-0.114785785265,-1.84587856684,1.19848662334
1589284545892423710,23245,1589284545892348394,,-0.114947764074,-1.88223847485,1.20553574159
1589284545898503325,23246,1589284545898406610,,-0.115291508641,-1.91887683237,1.212320668
1589284545904344658,23247,1589284545904232797,,-0.115510597895,-1.91884477446,1.21193624285
1589284545910371674,23248,1589284545910290368,,-0.115698449796,-1.9557127866,1.21897999257
1589284545916393057,23249,1589284545916333516,,-0.116013379514,-1.9923784729,1.22589002803
1589284545922301786,23250,1589284545922187662,,-0.116178606175,-2.02972833115,1.23296646601
1589284545928431898,23251,1589284545928350026,,-0.116433884294,-2.06700595828,1.23992347582
1589284545934470427,23252,1589284545934385424,,-0.116644543532,-2.10441151984,1.24703764544
1589284545940336335,23253,1589284545940250024,,-0.116891503769,-2.14211506119,1.25410800694
1589284545946515907,23254,1589284545946405855,,-0.11702108526,-2.18000221277,1.26154983568
1589284545950624325,23255,1589284545950549193,,-0.11725073509,-2.17968794755,1.26100463646
1589284545955082088,23256,1589284545955018217,,-0.11741382705,-2.21786572923,1.26834121817
1589284545961313175,23257,1589284545961240727,,-0.117636809989,-2.25585560297,1.27542570162
1589284545967627441,23258,1589284545967569474,,-0.117699563691,-2.29415776883,1.28276557955
1589284545973327676,23259,1589284545973238659,,-0.117896519896,-2.33228663445,1.28994050704
1589284545979266968,23260,1589284545979199168,,-0.117991466102,-2.37107443734,1.29740941035
1589284545985469219,23261,1589284545985334057,,-0.118092414572,-2.40941852529,1.30457435857
1589284545991234013,23262,1589284545991156531,,-0.118088092124,-2.4091110576,1.30423645782
1589284545997348018,23263,1589284545997180030,,-0.118171977071,-2.44750992662,1.31118334428
1589284546003331526,23264,1589284546003274996,,-0.11816619718,-2.48632442355,1.31858282898
1589284546009267153,23265,1589284546009181809,,-0.118202125284,-2.52503252486,1.32548764914
1589284546015243826,23266,1589284546015140585,,-0.118236809333,-2.56405627058,1.33290681577
1589284546019871593,23267,1589284546019770256,,-0.118280424283,-2.60249937565,1.33966217984
1589284546024190558,23268,1589284546024080988,,-0.118238494597,-2.60151084076,1.33894617132
1589284546030164153,23269,1589284546030100266,,-0.118119694654,-2.63827540208,1.34560329807
1589284546036337113,23270,1589284546036263626,,-0.117932368602,-2.67593471156,1.3527628866
1589284546042206419,23271,1589284546042138244,,-0.117706857824,-2.7125125327,1.35938583161
1589284546048144300,23272,1589284546048078283,,-0.117539974172,-2.7510202168,1.36681633281
1589284546054281629,23273,1589284546054170204,,-0.117404958673,-2.78823265465,1.37342115831
1589284546060230313,23274,1589284546060053042,,-0.117315941397,-2.82677585927,1.38066964047
1589284546063545779,23275,1589284546063438813,,-0.117052857046,-2.82305731218,1.37936821323
1589284546069241948,23276,1589284546069126054,,-0.116983776401,-2.86210085036,1.38703485698
1589284546075183139,23277,1589284546075126833,,-0.117068588686,-2.8997109801,1.39465320136
1589284546081162162,23278,1589284546081098750,,-0.117113440966,-2.93904193512,1.40247279017
1589284546089039721,23279,1589284546088940188,,-0.117189423077,-2.97688869764,1.41017708088
1589284546093377581,23280,1589284546093297545,,-0.117245921264,-3.01634824298,1.41795094231
1589284546099444213,23281,1589284546099379232,,-0.117349607616,-3.05602079554,1.42576014593
1589284546105060611,23282,1589284546105008531,,-0.117593994265,-3.09421544437,1.43324102557
1589284546111762551,23283,1589284546111692336,,-0.117644411059,-3.13370039789,1.44106648058
1589284546117492894,23284,1589284546117419419,,-0.117800558009,-3.13194757674,1.44054600659
1589284546123767141,23285,1589284546123668127,,-0.118002741916,-3.17171636532,1.44812453097
1589284546129600202,23286,1589284546129521385,,-0.118216287074,-3.20969809886,1.45546646948
1589284546135604990,23287,1589284546135503531,,-0.118279062544,-3.24944099703,1.46327363597
1589284546141705556,23288,1589284546141579706,,-0.118377387326,-3.28904621517,1.47106817422
1589284546147580497,23289,1589284546147491680,,-0.118483514125,-3.32746842655,1.47857388101
1589284546153464104,23290,1589284546153378614,,-0.118610504062,-3.36757233873,1.48640069951
1589284546159233667,23291,1589284546159180274,,-0.118892922735,-3.40586501074,1.4939115363
1589284546165385510,23292,1589284546165327043,,-0.119072480845,-3.44597009314,1.50200987558
1589284546171257712,23293,1589284546171165242,,-0.119146849715,-3.44451936041,1.5017557659
1589284546177294447,23294,1589284546177219190,,-0.119281893861,-3.48477156634,1.50980455269
1589284546183142298,23295,1589284546183082444,,-0.119663550665,-3.52371432318,1.51738509319
1589284546190807293,23296,1589284546190758099,,-0.119996432097,-3.5620832437,1.52475573615
1589284546195443962,23297,1589284546195370760,,-0.120116607212,-3.60220392334,1.53269254258
1589284546201200619,23298,1589284546201135022,,-0.120331703655,-3.64225622617,1.5404161179
1589284546207207287,23299,1589284546207116811,,-0.120677194467,-3.6807645522,1.54794723488
1589284546213168352,23300,1589284546213102993,,-0.121217884679,-3.71888296283,1.55570583401
1589284546219089920,23301,1589284546219041380,,-0.121446520068,-3.75875302052,1.56367256092
1589284546225194700,23302,1589284546225135603,,-0.121758806513,-3.79877252093,1.57128657042
1589284546231254423,23303,1589284546231164734,,-0.122259289379,-3.7950745916,1.57013446559
1589284546237206262,23304,1589284546237147833,,-0.122730620607,-3.8329013557,1.5774272919
1589284546243126118,23305,1589284546243030400,,-0.122999832263,-3.87266178046,1.58502043973
1589284546249149844,23306,1589284546249087553,,-0.123288313882,-3.91227681315,1.59271085098
1589284546255134885,23307,1589284546255071962,,-0.123730637742,-3.94963731599,1.59963088881
1589284546259263719,23308,1589284546259166547,,-0.124133384896,-3.9870360864,1.60668277701
1589284546264575751,23309,1589284546264393711,,-0.124388466604,-3.98507399815,1.60600968733
1589284546270319673,23310,1589284546270260659,,-0.124805358645,-4.02284413898,1.61301657456
1589284546276136528,23311,1589284546276066229,,-0.124980490865,-4.06244714751,1.62057746764
1589284546282170391,23312,1589284546282129471,,-0.125100984858,-4.10206967439,1.6283404876
1589284546288096790,23313,1589284546288038469,,-0.12519490896,-4.14117397679,1.63609502657
1589284546294237173,23314,1589284546294156150,,-0.125386081574,-4.18054996765,1.64384988925
1589284546300178105,23315,1589284546300123981,,-0.12571942141,-4.21998577068,1.65142972617
1589284546306179164,23316,1589284546306100380,,-0.126197676679,-4.25751032484,1.65873234196
1589284546312157214,23317,1589284546312096762,,-0.126625859432,-4.29468576339,1.66556483637
1589284546318195831,23318,1589284546318144466,,-0.126741416014,-4.33367710922,1.67323002368
1589284546324248417,23319,1589284546324180949,,-0.126894553238,-4.33177041439,1.67259581288
1589284546328272860,23320,1589284546328203405,,-0.127127331716,-4.36889117888,1.67989266612
1589284546333229148,23321,1589284546333176398,,-0.127299217553,-4.40784990992,1.68736467965
1589284546339176597,23322,1589284546339101621,,-0.127564319799,-4.44472257475,1.6945759663
1589284546348484586,23323,1589284546348391772,,-0.127967015239,-4.4795780315,1.70151983723
1589284546354502306,23324,1589284546354418310,,-0.128280784208,-4.51837942418,1.70912487206
1589284546360350810,23325,1589284546360262778,,-0.128579425975,-4.55486688986,1.71619710606
1589284546366814709,23326,1589284546366670445,,-0.128777729998,-4.59357719082,1.72369759341
1589284546372347198,23327,1589284546372280630,,-0.129115625719,-4.62987890403,1.73084654699
1589284546378427127,23328,1589284546378360387,,-0.129513391107,-4.66802179892,1.73831275624
1589284546384286856,23329,1589284546384193286,,-0.12979844872,-4.66591891149,1.73787973406
1589284546390345584,23330,1589284546390268432,,-0.130420976091,-4.70173262945,1.74507257283
1589284546397099393,23331,1589284546396998605,,-0.13063924048,-4.73982175014,1.75281630621
1589284546402264826,23332,1589284546402201933,,-0.13084243256,-4.77758521628,1.76040518133
1589284546408411413,23333,1589284546408280120,,-0.131319261927,-4.81278409825,1.76716571228
1589284546414214537,23334,1589284546414147501,,-0.131528733195,-4.85025788408,1.77461252306
1589284546420473568,23335,1589284546420409409,,-0.132052735823,-4.88481829126,1.78141751153
1589284546426362169,23336,1589284546426293674,,-0.132287483028,-4.92214982124,1.7889764966
1589284546431438529,23337,1589284546431341310,,-0.132880817629,-4.91696426051,1.78755870316
1589284546435585683,23338,1589284546435495378,,-0.133069295953,-4.95390536429,1.79486933069
1589284546441221345,23339,1589284546441148221,,-0.133463793308,-4.98775932652,1.80129553695
1589284546447442960,23340,1589284546447392915,,-0.133669411555,-5.02394268757,1.80830928144
1589284546453137008,23341,1589284546453086794,,-0.133871864149,-5.0598432782,1.8151993608
1589284546459177588,23342,1589284546459125485,,-0.134184446846,-5.09292156974,1.8219724645
1589284546462286681,23343,1589284546462189759,,-0.134453953633,-5.0900421772,1.82133124519
1589284546468217873,23344,1589284546468155665,,-0.134863566528,-5.12241182464,1.82816035636
1589284546474266386,23345,1589284546474211391,,-0.135004800832,-5.15740187862,1.83515867913
1589284546480419747,23346,1589284546480324537,,-0.135164817595,-5.19224772639,1.84227020202
1589284546486376292,23347,1589284546486279442,,-0.135287951126,-5.22359717405,1.84893556123
1589284546492272023,23348,1589284546492200518,,-0.135510337373,-5.25821282426,1.85600010073
1589284546499544244,23349,1589284546499453121,,-0.135833027143,-5.2927271852,1.86306692169
1589284546504248523,23350,1589284546504187421,,-0.13621220476,-5.28504337919,1.86180525455
1589284546510492818,23351,1589284546510431700,,-0.13644236518,-5.31890451774,1.86902460952
1589284546516309778,23352,1589284546516228990,,-0.137107075917,-5.34937478436,1.87536568751
1589284546522240483,23353,1589284546522181932,,-0.13737615265,-5.38268624195,1.88236213413
1589284546528305456,23354,1589284546528142287,,-0.13774616583,-5.41182218754,1.88894567785
1589284546532893798,23355,1589284546532778689,,-0.138031041137,-5.44528038028,1.89587012053
1589284546537291789,23356,1589284546537241011,,-0.138170807334,-5.44100693281,1.89523479244
1589284546543262015,23357,1589284546543201186,,-0.138577038212,-5.47001080483,1.90177823321
1589284546550137973,23358,1589284546550040667,,-0.139074878516,-5.49790539979,1.90792512869
1589284546555613841,23359,1589284546555539259,,-0.13925053629,-5.53013739883,1.91500006283
1589284546561627688,23360,1589284546561533391,,-0.13951108836,-5.56179961829,1.92197168701
1589284546568348278,23361,1589284546568274263,,-0.140042508397,-5.58912432122,1.92797692199
1589284546573616731,23362,1589284546573531353,,-0.140455268593,-5.61574043797,1.93375606328
1589284546579622372,23363,1589284546579554205,,-0.140564327955,-5.6467933072,1.940511638
1589284546585627058,23364,1589284546585547875,,-0.14090258639,-5.67798947327,1.94667016418
1589284546591870994,23365,1589284546591805709,,-0.141505732676,-5.67939285099,1.94777323724
1589284546597648832,23366,1589284546597570468,,-0.142216943647,-5.69481520855,1.95154029388
1589284546602134762,23367,1589284546602053334,,-0.142538837768,-5.72508083947,1.95792550178
1589284546606679753,23368,1589284546606598082,,-0.142905530758,-5.75528077545,1.96411953852
1589284546612700528,23369,1589284546612582050,,-0.143576473615,-5.78017134182,1.97020608577
1589284546618673225,23370,1589284546618610587,,-0.144258030365,-5.805052305,1.97593716864
1589284546624520693,23371,1589284546624466028,,-0.144532699676,-5.80001565774,1.97553502913
1589284546630700196,23372,1589284546630637228,,-0.144743715725,-5.82909926904,1.98161895147
1589284546636859803,23373,1589284546636785853,,-0.145319249331,-5.85247882454,1.98769873203
1589284546642683928,23374,1589284546642592208,,-0.145620920332,-5.88081737967,1.99370743723
1589284546648633453,23375,1589284546648540282,,-0.14636852439,-5.90380872374,1.9995193711
1589284546654492383,23376,1589284546654428671,,-0.146761350646,-5.93172759073,2.00500563291
1589284546660395836,23377,1589284546660304756,,-0.147084604116,-5.95300019021,2.01082299869
1589284546666890611,23378,1589284546666815996,,-0.14727571531,-5.98042501722,2.01663430843
1589284546670025379,23379,1589284546669947798,,-0.147890151026,-5.96845173295,2.01523918783
1589284546675581984,23380,1589284546675513079,,-0.148147950056,-5.99506136394,2.02100111688
1589284546681554860,23381,1589284546681470788,,-0.148410384556,-6.02119513654,2.02686228501
1589284546687584897,23382,1589284546687498634,,-0.148882966255,-6.04079294332,2.0318114108
1589284546693718118,23383,1589284546693612817,,-0.149204094715,-6.0665739595,2.03761554098
1589284546699774896,23384,1589284546699659653,,-0.149950830407,-6.08609732326,2.04201347802
1589284546705565398,23385,1589284546705487429,,-0.15023622366,-6.11092925226,2.04786218442
1589284546711506310,23386,1589284546711432082,,-0.150921837359,-6.09914474632,2.04623089682
1589284546717511553,23387,1589284546717442296,,-0.151504238817,-6.12414674288,2.05135091723
1589284546723565367,23388,1589284546723507143,,-0.152475609844,-6.14308549692,2.05650544579
1589284546729236394,23389,1589284546729161615,,-0.152969719427,-6.16729699322,2.06158143541
1589284546735614169,23390,1589284546735536067,,-0.153500749867,-6.19152434284,2.06694019129
1589284546741225894,23391,1589284546741170608,,-0.154360934293,-6.20955377912,2.07182312181
1589284546747269252,23392,1589284546747178555,,-0.155110549517,-6.22658302678,2.07660516873
1589284546753630940,23393,1589284546753557038,,-0.15558882818,-6.24976950024,2.08157336364
1589284546759739859,23394,1589284546759605082,,-0.156152388223,-6.27185643991,2.08663472775
1589284546765330064,23395,1589284546765275711,,-0.156546240087,-6.29420075674,2.09181788209
1589284546772405647,23396,1589284546772318906,,-0.157116590961,-6.30830849216,2.09555428245
1589284546777527603,23397,1589284546777431159,,-0.157469017154,-6.30158791946,2.09445235734
1589284546783260722,23398,1589284546783189061,,-0.157826210367,-6.32248174584,2.09899031635
1589284546789286421,23399,1589284546789204562,,-0.158166378397,-6.34258501638,2.10379347338
1589284546795199596,23400,1589284546795131476,,-0.158803896565,-6.3562569515,2.10771548919
1589284546801532605,23401,1589284546801431771,,-0.159004264184,-6.37762052497,2.11252126273
1589284546807420107,23402,1589284546807344606,,-0.159366756749,-6.38959852639,2.11603127563
1589284546813177204,23403,1589284546813118231,,-0.159788085999,-6.41114703931,2.12044531827
1589284546819557056,23404,1589284546819492747,,-0.160408729532,-6.4225059525,2.12461125326
1589284546825525566,23405,1589284546825421649,,-0.160914240279,-6.4344992547,2.12894378339
1589284546831512713,23406,1589284546831422186,,-0.161163354452,-6.42764112587,2.12823143339
1589284546837497431,23407,1589284546837442356,,-0.161344955449,-6.44615284039,2.13224558916
1589284546843360397,23408,1589284546843305677,,-0.161647815468,-6.45673720588,2.13576257486
1589284546849418031,23409,1589284546849335001,,-0.161943145244,-6.47410874267,2.13958075573
1589284546855465979,23410,1589284546855377170,,-0.162386049681,-6.48221124816,2.14306147261
1589284546861181558,23411,1589284546861123741,,-0.162516864621,-6.49842644188,2.14698461969
1589284546864846083,23412,1589284546864794891,,-0.162896389848,-6.48791318769,2.14544524929
1589284546870573623,23413,1589284546870518114,,-0.163160640261,-6.5054479689,2.15007111454
1589284546874836387,23414,1589284546874757793,,-0.163430728863,-6.51137669835,2.15197881202
1589284546879317040,23415,1589284546879249436,,-0.163615941596,-6.52587330433,2.15566972236
1589284546885263540,23416,1589284546885216488,,-0.164208889683,-6.53072078455,2.1580341148
1589284546891451324,23417,1589284546891288195,,-0.16453821247,-6.52193341704,2.15578793616
1589284546897514646,23418,1589284546897451639,,-0.164994438817,-6.53551840873,2.15946624587
1589284546903392487,23419,1589284546903327619,,-0.165208974956,-6.54866281889,2.16272323735
1589284546909316630,23420,1589284546909223622,,-0.166101786448,-6.55259503935,2.16356015902
1589284546915311044,23421,1589284546915192005,,-0.166644869806,-6.55648105573,2.16525540062
1589284546921290531,23422,1589284546921207538,,-0.167061198326,-6.56905106402,2.16809706214
1589284546927490003,23423,1589284546927412531,,-0.167433548389,-6.57147668855,2.16966569535
1589284546933542173,23424,1589284546933476345,,-0.167790138064,-6.58299232718,2.17256930407
1589284546939469102,23425,1589284546939393250,,-0.168240674669,-6.58426290659,2.17387173279
1589284546943396297,23426,1589284546943331807,,-0.168486317541,-6.5739903582,2.17219470126
1589284546948346205,23427,1589284546948269747,,-0.168324899111,-6.58351915444,2.17475373991
1589284546954296995,23428,1589284546954237175,,-0.168559427278,-6.58139264292,2.17454485916
1589284546960409377,23429,1589284546960323011,,-0.168802422966,-6.5898154411,2.17570558093
1589284546967101125,23430,1589284546967028757,,-0.168854336934,-6.59770922958,2.17790793536
1589284546972679586,23431,1589284546972544815,,-0.169083380954,-6.59379264155,2.17742930885
1589284546978469284,23432,1589284546978239950,,-0.169238767641,-6.57059754026,2.17323831418
1589284546984356425,23433,1589284546984240987,,-0.169266335114,-6.57759587707,2.17546890608
1589284546990530884,23434,1589284546990339157,,-0.169264973253,-6.58417443626,2.17717417014
1589284546996513616,23435,1589284546996417923,,-0.169339186078,-6.57979217947,2.17768183473
1589284547002427473,23436,1589284547002358683,,-0.169546644706,-6.58644396848,2.17938229998
1589284547008293529,23437,1589284547008207517,,-0.169412011841,-6.58147846841,2.17959280001
1589284547014253815,23438,1589284547014199252,,-0.169713627795,-6.58773791429,2.18042392873
1589284547020293417,23439,1589284547020227767,,-0.169967528012,-6.58164081262,2.17925424676
1589284547026313518,23440,1589284547026248978,,-0.170076497993,-6.58598551684,2.18000007947
1589284547032320051,23441,1589284547032260850,,-0.17012864866,-6.58981467377,2.18082357949
1589284547041644286,23442,1589284547041584568,,-0.17052771211,-6.56883636669,2.17616678152
1589284547050964532,23443,1589284547050823364,,-0.170478322657,-6.54583331788,2.17177154258
1589284547056673296,23444,1589284547056592217,,-0.169965126078,-6.534688782,2.17051370724
1589284547062701209,23445,1589284547062616027,,-0.16992128136,-6.53638642292,2.17144069947
1589284547068666998,23446,1589284547068574384,,-0.169699811422,-6.53742008929,2.17170915948
1589284547074619639,23447,1589284547074543833,,-0.169645963039,-6.52636966766,2.17018328442
1589284547080760009,23448,1589284547080693800,,-0.169511083798,-6.52744644708,2.17108817648
1589284547086695900,23449,1589284547086617917,,-0.169684584742,-6.515675623,2.16909279131
1589284547092589988,23450,1589284547092523002,,-0.169858561928,-6.51615985086,2.16941379313
1589284547104640800,23451,1589284547104580304,,-0.170054719515,-6.49233630503,2.16379124746
1589284547110634344,23452,1589284547110563386,,-0.170105968848,-6.49192108669,2.16344258391
1589284547114818996,23453,1589284547114367373,,-0.170091460493,-6.47882569761,2.16075835579
1589284547119309179,23454,1589284547119188183,,-0.170318395834,-6.47737397629,2.15988696582
1589284547125417398,23455,1589284547125328229,,-0.169932687791,-6.46273968407,2.15734938868
1589284547131586001,23456,1589284547131387323,,-0.169982001049,-6.45023035284,2.15491630415
1589284547137421281,23457,1589284547137355064,,-0.16985953159,-6.43492178154,2.15207363255
1589284547143275443,23458,1589284547143215314,,-0.16957473873,-6.43156718014,2.15184642045
1589284547147757984,23459,1589284547147654588,,-0.169493447201,-6.41496788828,2.14876402453
1589284547152272316,23460,1589284547152219903,,-0.169236442543,-6.41054084951,2.1485118108
1589284547161621267,23461,1589284547161522101,,-0.168826533492,-6.38020564591,2.14286885753
1589284547167661601,23462,1589284547167594431,,-0.168946450245,-6.37583197483,2.14157006054
1589284547173338956,23463,1589284547173283547,,-0.168904982797,-6.35839052149,2.13829151102
1589284547179277782,23464,1589284547179203331,,-0.168902646682,-6.35321267927,2.13738156572
1589284547185433999,23465,1589284547185373092,,-0.169133608365,-6.33553296015,2.13402404737
1589284547191217308,23466,1589284547191160700,,-0.169292616917,-6.31073431473,2.12908282912
1589284547197463559,23467,1589284547197379605,,-0.169310132905,-6.3055936792,2.12824765385
1589284547203484509,23468,1589284547203412509,,-0.169567083924,-6.29994747284,2.12672595183
1589284547209361621,23469,1589284547209308022,,-0.169504018628,-6.2812283729,2.12385278268
1589284547216524601,23470,1589284547216432237,,-0.169398499856,-6.27400399753,2.12237995371
1589284547221269056,23471,1589284547221220530,,-0.16922018809,-6.25279733834,2.11862286148
1589284547227271547,23472,1589284547227219011,,-0.169158412636,-6.24390564608,2.11725308116
1589284547233239105,23473,1589284547233182249,,-0.169110441333,-6.23473828272,2.11564357156
1589284547239254928,23474,1589284547239182039,,-0.168731759339,-6.21035896731,2.11178228287
1589284547245281002,23475,1589284547245179452,,-0.16855371674,-6.18581534928,2.10750795173
1589284547250099617,23476,1589284547249977744,,-0.168426674691,-6.17177327793,2.10515034153
1589284547254442202,23477,1589284547254375328,,-0.168132620954,-6.14758312715,2.10173557848
1589284547260276773,23478,1589284547260222050,,-0.168167183182,-6.13838752165,2.09988275272
1589284547263744302,23479,1589284547263659653,,-0.168124664831,-6.11265640413,2.09631496169
1589284547269728404,23480,1589284547269629373,,-0.168127176436,-6.10378124094,2.09503259497
1589284547275696722,23481,1589284547275638422,,-0.168263223613,-6.0940483404,2.09328504979
1589284547281334449,23482,1589284547281250112,,-0.168485935367,-6.07318351085,2.08990013243
1589284547287695656,23483,1589284547287609795,,-0.168546762332,-6.06321411466,2.0881731565
1589284547293526000,23484,1589284547293456467,,-0.168838177776,-6.05336311306,2.08587812
1589284547299545115,23485,1589284547299456207,,-0.169091823807,-6.04289538965,2.08370839075
1589284547305675391,23486,1589284547305609371,,-0.168985354698,-6.03168693247,2.0815111992
1589284547311593873,23487,1589284547311505465,,-0.169058497587,-5.98688093037,2.0723826144
1589284547318964022,23488,1589284547318872347,,-0.168765209973,-5.98211844632,2.07139084024
1589284547323457313,23489,1589284547323264235,,-0.168624886047,-5.96901247224,2.06851178749
1589284547329306741,23490,1589284547329227388,,-0.168455692856,-5.95592138701,2.06562360549
1589284547335750491,23491,1589284547335654215,,-0.167728241894,-5.92846009941,2.06045475996
1589284547341740566,23492,1589284547341633269,,-0.167270261149,-5.90104086461,2.05511420844
1589284547347517483,23493,1589284547347459586,,-0.16698152771,-5.88653121301,2.05269612061
1589284547353413078,23494,1589284547353345720,,-0.166716079013,-5.872209127,2.04988733054
1589284547359302344,23495,1589284547359255047,,-0.166532760441,-5.84567986487,2.04542436775
1589284547365832554,23496,1589284547365750241,,-0.16623512057,-5.83197380302,2.04311067778
1589284547371543635,23497,1589284547371461763,,-0.166203525363,-5.82095174676,2.04102868381
1589284547377309827,23498,1589284547377255036,,-0.166201166791,-5.7974230589,2.03667902697
1589284547383292589,23499,1589284547383236848,,-0.166090887607,-5.78383602678,2.0340978159
1589284547386977149,23500,1589284547386804255,,-0.166371395094,-5.76036983375,2.02995932964
1589284547392336755,23501,1589284547392277393,,-0.166459923022,-5.74621495081,2.02724419046
1589284547398468223,23502,1589284547398407198,,-0.166447128517,-5.72075933219,2.02255853872
1589284547404288899,23503,1589284547404226315,,-0.166478081515,-5.70957377736,2.02031238935
1589284547410329193,23504,1589284547410272039,,-0.166206904115,-5.68115422885,2.0149824403
1589284547416374230,23505,1589284547416309116,,-0.166095659254,-5.66367398302,2.01194710114
1589284547422348705,23506,1589284547422278017,,-0.165644090201,-5.63192682382,2.00628452302
1589284547428670497,23507,1589284547428609452,,-0.165472267396,-5.61308152608,2.00271613123
1589284547434319202,23508,1589284547434244877,,-0.164944559706,-5.57968838512,1.99681236258
1589284547440823676,23509,1589284547440712425,,-0.164862671666,-5.56055130125,1.99299419933
1589284547446393288,23510,1589284547446336108,,-0.164727728669,-5.52801903338,1.98734487445
1589284547452581273,23511,1589284547452486068,,-0.16461583252,-5.5097273584,1.98440348224
1589284547456767811,23512,1589284547456702178,,-0.164837866108,-5.49806168829,1.98206877421
1589284547461408826,23513,1589284547461336166,,-0.164903068869,-5.48001830666,1.97937730419
1589284547464663866,23514,1589284547464496579,,-0.165040457817,-5.46947939802,1.97773367191
1589284547470332650,23515,1589284547470282359,,-0.165417098761,-5.44227412463,1.97305312764
1589284547476419282,23516,1589284547476353446,,-0.165731292122,-5.42594979435,1.97045230929
1589284547482442668,23517,1589284547482356182,,-0.166140951984,-5.40360210098,1.96672252015
1589284547488400347,23518,1589284547488340126,,-0.166363645238,-5.38650819672,1.96396861191
1589284547494541606,23519,1589284547494450296,,-0.166491032362,-5.36419372818,1.95906436387
1589284547500303251,23520,1589284547500243911,,-0.166698134319,-5.3445019044,1.95535494583
1589284547506380715,23521,1589284547506319926,,-0.16673015587,-5.31708502475,1.95034153978
1589284547512463404,23522,1589284547512396097,,-0.166912362076,-5.29558947245,1.94640987058
1589284547518564819,23523,1589284547518506488,,-0.166910471331,-5.27596762375,1.94215291878
1589284547524488708,23524,1589284547524418375,,-0.166727070993,-5.25485490693,1.93844961615
1589284547530364256,23525,1589284547530307871,,-0.166381588815,-5.2232562993,1.93169180563
1589284547536280762,23526,1589284547536230913,,-0.166083313148,-5.20209678925,1.92789104763
1589284547542292549,23527,1589284547542247994,,-0.165828522362,-5.18088010999,1.92408194926
1589284547548359537,23528,1589284547548292167,,-0.165768064001,-5.16225083797,1.92069831078
1589284547554357634,23529,1589284547554254198,,-0.165675717761,-5.12846217225,1.91481733511
1589284547558929365,23530,1589284547558839710,,-0.165870811908,-5.11095093605,1.91170098985
1589284547563506706,23531,1589284547563416591,,-0.166339589916,-5.09136778128,1.90865234878
1589284547569296106,23532,1589284547569237906,,-0.166838602872,-5.07222706961,1.90513044716
1589284547575482448,23533,1589284547575395649,,-0.167259908902,-5.05378317113,1.90140115674
1589284547581437631,23534,1589284547581324461,,-0.167732763453,-5.03475014787,1.89731358448
1589284547587292623,23535,1589284547587232251,,-0.167942604249,-5.01522000566,1.89403225303
1589284547593445241,23536,1589284547593372706,,-0.16834454511,-4.98735395262,1.88821361986
1589284547599590858,23537,1589284547599515229,,-0.168340141767,-4.96539131091,1.88374806998
1589284547605311883,23538,1589284547605251739,,-0.168309864722,-4.93342616319,1.87770225226
1589284547611381584,23539,1589284547611274363,,-0.1683412272,-4.9263451128,1.87649796454
1589284547617358736,23540,1589284547617309412,,-0.167759359547,-4.88816390841,1.86978925109
1589284547623321871,23541,1589284547623254109,,-0.167609920375,-4.8663846291,1.8656949685
1589284547629328719,23542,1589284547629290420,,-0.167022903074,-4.82728176546,1.85873487155
1589284547633614687,23543,1589284547633559777,,-0.166809657383,-4.80229115619,1.85452669787
1589284547641483490,23544,1589284547641436563,,-0.166518481141,-4.7564101497,1.84598792595
1589284547647358424,23545,1589284547647304503,,-0.166406207379,-4.7325050661,1.8411120232
1589284547653330466,23546,1589284547653250126,,-0.166605433879,-4.70000911299,1.83484557119
1589284547660279261,23547,1589284547660205414,,-0.166547045542,-4.67651978169,1.83051077941
1589284547665670112,23548,1589284547665614633,,-0.167057299888,-4.64644799353,1.8252808868
1589284547671270695,23549,1589284547671216795,,-0.167466305238,-4.63911206696,1.82408071512
1589284547677354936,23550,1589284547677264686,,-0.167638413137,-4.61749401047,1.82045665237
1589284547683536031,23551,1589284547683483262,,-0.168258837943,-4.58801950451,1.81491760141
1589284547689317415,23552,1589284547689252124,,-0.168449204304,-4.56520232258,1.81085664282
1589284547693806008,23553,1589284547693755011,,-0.168690519919,-4.54184097645,1.80617856871
1589284547701561252,23554,1589284547701514580,,-0.168503217216,-4.49916549525,1.79819077841
1589284547707347438,23555,1589284547707299630,,-0.168462517025,-4.47313672613,1.7930015118
1589284547713418849,23556,1589284547713332784,,-0.16791545914,-4.43474209431,1.78600117608
1589284547719552309,23557,1589284547719488866,,-0.16752434469,-4.40613287597,1.78086186187
1589284547725658588,23558,1589284547725607327,,-0.16675262945,-4.3650300148,1.77363579539
1589284547731478220,23559,1589284547731349571,,-0.166375188293,-4.35254995616,1.77191404288
1589284547737334638,23560,1589284547737244499,,-0.165722872522,-4.31260567443,1.76527669767
1589284547743824889,23561,1589284547743729342,,-0.165412763861,-4.28524164319,1.76059806935
1589284547749852269,23562,1589284547749762957,,-0.165475650801,-4.24975832483,1.7545345283
1589284547755844586,23563,1589284547755751074,,-0.165383157189,-4.22514529358,1.75034672786
1589284547762150985,23564,1589284547762068200,,-0.1658458313,-4.19470113099,1.74522211541
1589284547768139610,23565,1589284547768051107,,-0.165971025557,-4.17162725828,1.7414311342
1589284547773658173,23566,1589284547773582541,,-0.16663483295,-4.14325399407,1.73576757432
1589284547779445605,23567,1589284547779372336,,-0.166833582853,-4.12067763268,1.73199630499
1589284547788546912,23568,1589284547788470791,,-0.167236012022,-4.08288684565,1.72494827373
1589284547796427861,23569,1589284547796321026,,-0.1670663409,-4.04891376655,1.71900655375
1589284547800515738,23570,1589284547800450314,,-0.166810314095,-4.02180987616,1.71370373632
1589284547806496576,23571,1589284547806423654,,-0.166550374871,-3.99437612646,1.7089209763
1589284547812865774,23572,1589284547812810163,,-0.166105504533,-3.96565319765,1.70376643023
1589284547818535926,23573,1589284547818339586,,-0.165388193916,-3.94385324282,1.70072942209
1589284547824399727,23574,1589284547824292784,,-0.16480721714,-3.91461559793,1.69562312894
1589284547830955526,23575,1589284547830828520,,-0.163860739072,-3.87359954988,1.68878881528
1589284547837084853,23576,1589284547836906853,,-0.163607939624,-3.8454207031,1.68372102472
1589284547842867687,23577,1589284547842759650,,-0.163045552668,-3.80739583033,1.67745276319
1589284547848653303,23578,1589284547848551081,,-0.162998041066,-3.7800689408,1.6723908644
1589284547854854141,23579,1589284547854752764,,-0.162789583416,-3.74614711786,1.66693349853
1589284547860422126,23580,1589284547860308364,,-0.162885800939,-3.72107394202,1.66275395092
1589284547864428545,23581,1589284547864245282,,-0.163053823893,-3.7093974668,1.66094135704
1589284547869854767,23582,1589284547869786007,,-0.16327596077,-3.68601680621,1.65627801789
1589284547875544507,23583,1589284547875370023,,-0.163360814119,-3.66283543977,1.65233044451
1589284547881675730,23584,1589284547881615721,,-0.163841830786,-3.63500793981,1.64670583765
1589284547887333146,23585,1589284547887269805,,-0.1636272013,-3.61100374231,1.64241571209
1589284547893714474,23586,1589284547893634592,,-0.163500883987,-3.5869393661,1.63779469894
1589284547900038343,23587,1589284547899972635,,-0.163372081558,-3.56173976678,1.63288816725
1589284547908796020,23588,1589284547908721492,,-0.162158774546,-3.51963121177,1.62626155479
1589284547914351378,23589,1589284547914299919,,-0.161190424515,-3.48341535235,1.62068046869
1589284547920425484,23590,1589284547920359924,,-0.160381444927,-3.45540515341,1.61609810826
1589284547926476994,23591,1589284547926398206,,-0.159385299552,-3.41847289885,1.61019480087
1589284547933081266,23592,1589284547932989875,,-0.158806452162,-3.39092470516,1.60561721924
1589284547941373563,23593,1589284547941296054,,-0.157986173978,-3.34750800406,1.59876008286
1589284547947620863,23594,1589284547947544634,,-0.157722905806,-3.31535652566,1.59344210203
1589284547953678338,23595,1589284547953586856,,-0.157823261565,-3.29163452655,1.58917418063
1589284547959738760,23596,1589284547959655113,,-0.158145862668,-3.26341398303,1.58432122454
1589284547966741246,23597,1589284547966655215,,-0.158220340482,-3.24129083639,1.58056144211
1589284547972128387,23598,1589284547971972323,,-0.158664878795,-3.2150148305,1.57632174554
1589284547977729772,23599,1589284547977649700,,-0.158861524739,-3.2109045376,1.57571768342
1589284547983719541,23600,1589284547983605955,,-0.158906063436,-3.18876060734,1.57194804556
1589284547989931019,23601,1589284547989870340,,-0.158919965086,-3.16622385963,1.56802197134
1589284547995432792,23602,1589284547995348748,,-0.15878833001,-3.13728918481,1.56339537368
1589284548001395373,23603,1589284548001317128,,-0.158763992204,-3.11391826735,1.55901484855
1589284548007437183,23604,1589284548007363171,,-0.158716484193,-3.08975734402,1.55471990463
1589284548013619641,23605,1589284548013531425,,-0.157937767257,-3.05741336852,1.54988303046
1589284548019641542,23606,1589284548019506031,,-0.157276936478,-3.02444584807,1.54384620475
1589284548025738418,23607,1589284548025656914,,-0.156752655324,-2.99980605929,1.53970950229
1589284548032134963,23608,1589284548032040858,,-0.156138681831,-2.97481963693,1.5355388051
1589284548037686739,23609,1589284548037605230,,-0.155877036497,-2.95975703601,1.53276336692
1589284548043767683,23610,1589284548043702986,,-0.155300919151,-2.92921626302,1.52785636623
1589284548049620410,23611,1589284548049511373,,-0.155167395113,-2.90692263282,1.52366797551
1589284548055594078,23612,1589284548055509399,,-0.155001670627,-2.88534410857,1.51987080989
1589284548061731116,23613,1589284548061638492,,-0.154904218339,-2.86451670697,1.51604883339
1589284548069068501,23614,1589284548068995863,,-0.154823034569,-2.84473833657,1.51227534778
1589284548073778859,23615,1589284548073722759,,-0.154857154068,-2.8221335889,1.50802546784
1589284548079737553,23616,1589284548079675013,,-0.154789076087,-2.80330569984,1.50466472289
1589284548085740017,23617,1589284548085655913,,-0.154990794958,-2.78211481995,1.5008110884
1589284548091575561,23618,1589284548091428472,,-0.155078099484,-2.77995032866,1.50032462475
1589284548097404255,23619,1589284548097292838,,-0.154895908804,-2.75699949468,1.49620372846
1589284548103770187,23620,1589284548103588728,,-0.154628732962,-2.73903990542,1.49289381764
1589284548109348428,23621,1589284548109299190,,-0.154364191715,-2.72038173998,1.48953507169
1589284548115468252,23622,1589284548115401918,,-0.15398232272,-2.69595434643,1.48512909514
1589284548121570456,23623,1589284548121513029,,-0.153500736258,-2.67696486366,1.48228222449
1589284548127606586,23624,1589284548127483669,,-0.153126164124,-2.65845155334,1.47874331297
1589284548133574729,23625,1589284548133486859,,-0.152886302549,-2.64035111501,1.47540267395
1589284548139436489,23626,1589284548139310169,,-0.152538806447,-2.62199252737,1.47205169751
1589284548145582053,23627,1589284548145481205,,-0.151759251612,-2.59871719589,1.4680771259
1589284548151794489,23628,1589284548151721548,,-0.151052915295,-2.57445870718,1.46397145426
1589284548157752637,23629,1589284548157653703,,-0.150993271158,-2.57030361327,1.4632132852
1589284548163941866,23630,1589284548163808031,,-0.150696242717,-2.55380961217,1.46066737776
1589284548171645957,23631,1589284548171447694,,-0.150391940509,-2.53335457233,1.45770255158
1589284548175578658,23632,1589284548175523941,,-0.150095283634,-2.515117521,1.45458787042
1589284548181547202,23633,1589284548181485008,,-0.149995434708,-2.50071757761,1.45196912771
1589284548187620215,23634,1589284548187551573,,-0.149887372412,-2.48773525117,1.44990777275
1589284548193441951,23635,1589284548193337524,,-0.149849589767,-2.47203380135,1.447834903
1589284548199810946,23636,1589284548199731073,,-0.149759693189,-2.45670724741,1.44560762875
1589284548205426261,23637,1589284548205365494,,-0.149727001082,-2.44495378103,1.44353173123
1589284548211629632,23638,1589284548211461171,,-0.14956205383,-2.44174574929,1.44316682991
1589284548217588632,23639,1589284548217523726,,-0.149071919905,-2.42665545316,1.4405004234
1589284548223534598,23640,1589284548223485918,,-0.148797084253,-2.41531794347,1.43827634842
1589284548229733170,23641,1589284548229641120,,-0.148155993419,-2.40089397027,1.4354572755
1589284548235571657,23642,1589284548235441712,,-0.147765661765,-2.39051062358,1.43363768454
1589284548240013210,23643,1589284548239941175,,-0.147457311977,-2.38024174797,1.43174246523
1589284548244576971,23644,1589284548244491386,,-0.147103630392,-2.37460339248,1.43076191936
1589284548250646444,23645,1589284548250575165,,-0.14692625578,-2.36524751441,1.42883582523
1589284548256531462,23646,1589284548256481179,,-0.146420894201,-2.3541293671,1.4271749252
1589284548262564890,23647,1589284548262512866,,-0.146202739078,-2.34588972219,1.42576619932
1589284548269259976,23648,1589284548269154078,,-0.145795026972,-2.33677155792,1.42437579974
1589284548274926079,23649,1589284548274863541,,-0.145731105541,-2.33071157653,1.42296284796
1589284548280952480,23650,1589284548280835910,,-0.14564543846,-2.32401426981,1.42155567928
1589284548286891481,23651,1589284548286807138,,-0.145493528863,-2.31942775646,1.42077372176
1589284548293035336,23652,1589284548292928206,,-0.145567005868,-2.3153551476,1.41998558912
1589284548299457249,23653,1589284548299381049,,-0.14551227323,-2.31200152379,1.41939577329
1589284548306898848,23654,1589284548306792545,,-0.145431663125,-2.30789763078,1.41853767453
1589284548309590132,23655,1589284548309471210,,-0.145348294894,-2.30650443484,1.41839311126
1589284548313835714,23656,1589284548313735772,,-0.145225302392,-2.30291617169,1.41781391299
1589284548319971040,23657,1589284548319895230,,-0.145142501307,-2.30138983804,1.41745406485
1589284548326026239,23658,1589284548325919812,,-0.144868755002,-2.29822463361,1.41708677143
1589284548332376687,23659,1589284548332148715,,-0.144752017908,-2.29684784105,1.41687100174
1589284548338349499,23660,1589284548338178903,,-0.144627251939,-2.2946136943,1.41694813013
1589284548344302741,23661,1589284548344197783,,-0.144470056612,-2.29161005845,1.41708782439
1589284548350248074,23662,1589284548350106160,,-0.144205034855,-2.28680695,1.41710936791
1589284548356163893,23663,1589284548356026935,,-0.143948016269,-2.28282352318,1.41763209006
1589284548361753946,23664,1589284548361675042,,-0.143730534324,-2.27771319314,1.41818171306
1589284548367943237,23665,1589284548367849377,,-0.143553561423,-2.27227417125,1.41876702148
1589284548373784965,23666,1589284548373685296,,-0.143384860806,-2.26686327819,1.41975729959
1589284548379728652,23667,1589284548379645566,,-0.143406514725,-2.26127500422,1.42066536437
1589284548385811219,23668,1589284548385727663,,-0.143338213984,-2.25481754288,1.42172503214
1589284548391757947,23669,1589284548391641728,,-0.143195772543,-2.2535842666,1.42188818847
1589284548397770326,23670,1589284548397663458,,-0.143230624552,-2.24665490275,1.42312161706
1589284548403845124,23671,1589284548403745874,,-0.143208504873,-2.23900881183,1.4246062902
1589284548410144091,23672,1589284548410024248,,-0.143294329687,-2.2312092209,1.42600188928
1589284548415918575,23673,1589284548415836499,,-0.143363225615,-2.22248688978,1.42757234847
1589284548421802831,23674,1589284548421717429,,-0.143545435586,-2.21347204111,1.42935142652
1589284548427829398,23675,1589284548427761607,,-0.143649098022,-2.20358001696,1.43138833698
1589284548433759786,23676,1589284548433697537,,-0.14381717106,-2.19358539024,1.43332156467
1589284548439734068,23677,1589284548439649113,,-0.14382933192,-2.18312452167,1.4354691775
1589284548444378540,23678,1589284548444267107,,-0.144131613459,-2.1824611828,1.43565967466
1589284548448706570,23679,1589284548448622143,,-0.14426251136,-2.17162217985,1.43779897135
1589284548454489114,23680,1589284548454421812,,-0.14450690755,-2.15979641908,1.44009195434
1589284548460462707,23681,1589284548460362240,,-0.144556982901,-2.14781345838,1.4425246472
1589284548466889420,23682,1589284548466813922,,-0.144860078797,-2.13523014812,1.44494753078
1589284548472462708,23683,1589284548472394774,,-0.144936959262,-2.12224654655,1.44749760886
1589284548484587998,23684,1589284548484511275,,-0.145374383457,-2.10829937166,1.44993266314
1589284548490410387,23685,1589284548490357465,,-0.145570939348,-2.0939003113,1.45254396561
1589284548496509340,23686,1589284548496451978,,-0.145571353755,-2.07924527703,1.45561749427
1589284548502479399,23687,1589284548502418342,,-0.145771517431,-2.06383309261,1.45840489819
1589284548511553457,23688,1589284548508425389,,-0.145779198859,-2.04817011447,1.46169946352
1589284548517629917,23689,1589284548517563343,,-0.146060844577,-2.03101124703,1.46511270992
1589284548523539335,23690,1589284548523444656,,-0.146088925939,-2.01368517556,1.46894245589
1589284548529903758,23691,1589284548529739510,,-0.146203324938,-1.99626273387,1.47235304648
1589284548535761078,23692,1589284548535684703,,-0.146196333299,-1.97762802191,1.47625257285
1589284548541454265,23693,1589284548541390046,,-0.146202862013,-1.95916841652,1.48003532246
1589284548546248310,23694,1589284548546175533,,-0.146175493653,-1.93962094255,1.48375151431
1589284548550509749,23695,1589284548550438231,,-0.146134326824,-1.93883374674,1.48386516997
1589284548556412520,23696,1589284548556329325,,-0.146127633668,-1.91853339174,1.4874920001
1589284548562610690,23697,1589284548562541677,,-0.146050087141,-1.89853386346,1.49141199301
1589284548565970966,23698,1589284548565892076,,-0.145988356237,-1.87715929721,1.49566279102
1589284548571855878,23699,1589284548571679826,,-0.146010041526,-1.87638671492,1.49566854623
1589284548577465745,23700,1589284548577398835,,-0.145940521699,-1.85447267977,1.5001061673
1589284548583536964,23701,1589284548583478636,,-0.145995909714,-1.83286966626,1.50450296584
1589284548589696829,23702,1589284548589624700,,-0.145974010819,-1.80980157467,1.5095132645
1589284548595548639,23703,1589284548595486804,,-0.146071128738,-1.78607267223,1.51447092701
1589284548601497381,23704,1589284548601426760,,-0.14596634268,-1.76301646938,1.51929237336
1589284548607410089,23705,1589284548607346045,,-0.146099315668,-1.73943209181,1.52372464688
1589284548614797874,23706,1589284548614734247,,-0.146124398538,-1.71444164055,1.52879419066
1589284548619490128,23707,1589284548619433454,,-0.146154896165,-1.68997670183,1.53354135709
1589284548625659338,23708,1589284548625585371,,-0.146145557831,-1.66391000502,1.53867231753
1589284548631766277,23709,1589284548631631534,,-0.146301202095,-1.66279460074,1.53878496082
1589284548637500421,23710,1589284548637397287,,-0.14634331576,-1.63650608508,1.54401212638
1589284548643496082,23711,1589284548643414253,,-0.146422590886,-1.61087934138,1.54899171945
1589284548649553797,23712,1589284548649507137,,-0.146580404388,-1.58371365547,1.55444037339
1589284548655498845,23713,1589284548655437386,,-0.14659575276,-1.55752750002,1.55967992143
1589284548661914586,23714,1589284548661824084,,-0.146650927578,-1.52937234002,1.56538848089
1589284548667689558,23715,1589284548667618730,,-0.146739673649,-1.50235783542,1.57083496286
1589284548673760679,23716,1589284548673676938,,-0.146719570614,-1.47478983682,1.57635335851
1589284548679508737,23717,1589284548679448630,,-0.146763950946,-1.44685932826,1.58196009522
1589284548685467918,23718,1589284548685420036,,-0.147035260559,-1.41751566208,1.58757180772
1589284548691750692,23719,1589284548691506668,,-0.147192827259,-1.41617237983,1.58760765423
1589284548697475729,23720,1589284548697426627,,-0.147507300288,-1.3860982556,1.59344416614
1589284548703525769,23721,1589284548703475407,,-0.147777064922,-1.35696428228,1.59926328663
1589284548709802704,23722,1589284548709741059,,-0.148211834126,-1.3263941107,1.60524585716
1589284548716998875,23723,1589284548716943381,,-0.148310280505,-1.29658766437,1.61121474875
1589284548721592973,23724,1589284548721527077,,-0.14851369823,-1.2652832619,1.61709938289
1589284548727525315,23725,1589284548727469459,,-0.14864950874,-1.23505384678,1.62284548778
1589284548733678303,23726,1589284548733592832,,-0.148773331036,-1.20314029101,1.62900744678
1589284548739544305,23727,1589284548739464933,,-0.148876724185,-1.17217942394,1.63509791188
1589284548745430174,23728,1589284548745385717,,-0.148971089044,-1.14082524595,1.64118575088
1589284548751670480,23729,1589284548751549537,,-0.14915281518,-1.13972362584,1.64122674681
1589284548757480933,23730,1589284548757427776,,-0.149347902009,-1.10758934036,1.64755282952
1589284548763599627,23731,1589284548763526957,,-0.149489465483,-1.07527540916,1.65377766931
1589284548769797009,23732,1589284548769696446,,-0.149391169604,-1.04326368346,1.66019653453
1589284548775583944,23733,1589284548775500047,,-0.149531681112,-1.01022865769,1.66670873724
1589284548781527874,23734,1589284548781471112,,-0.149416558432,-0.977754329236,1.67325514956
1589284548787580916,23735,1589284548787524079,,-0.149544295309,-0.944995329076,1.67963832557
1589284548793744633,23736,1589284548793692299,,-0.14942295243,-0.911424742016,1.68652721912
1589284548799473213,23737,1589284548799404170,,-0.149408171534,-0.878185868365,1.69334938544
1589284548805548429,23738,1589284548805493206,,-0.149375538842,-0.844088730082,1.70026960784
1589284548811804744,23739,1589284548811665157,,-0.149391048818,-0.843534077737,1.70025935252
1589284548819183794,23740,1589284548819113322,,-0.149213624605,-0.775610589589,1.7140522286
1589284548823662825,23741,1589284548823603946,,-0.149176889339,-0.775118409607,1.71407375583
1589284548829809110,23742,1589284548829740928,,-0.149022746517,-0.740341094247,1.72111851278
1589284548835821429,23743,1589284548835760410,,-0.148991210396,-0.705853787078,1.72797473735
1589284548841521498,23744,1589284548841465629,,-0.148877477845,-0.67056084374,1.73489700847
1589284548847724707,23745,1589284548847662322,,-0.148818921941,-0.635417389498,1.74208882008
1589284548853690065,23746,1589284548853638998,,-0.148715879528,-0.599701740782,1.74915568771
1589284548859490766,23747,1589284548859436955,,-0.148736237455,-0.564177763127,1.75628376553
1589284548862464477,23748,1589284548862419071,,-0.148703329892,-0.563747374801,1.75624131402
1589284548865852791,23749,1589284548865808941,,-0.148709421547,-0.527436802725,1.76342158994
1589284548871549489,23750,1589284548871476904,,-0.148726808169,-0.526978171191,1.76355008586
1589284548877456636,23751,1589284548877369450,,-0.148652285301,-0.490956476229,1.77078509173
1589284548883746094,23752,1589284548883693761,,-0.148652395065,-0.45434231569,1.77810622952
1589284548887830990,23753,1589284548887731957,,-0.14863472669,-0.417805778145,1.78527218125
1589284548892470974,23754,1589284548892420477,,-0.148708563309,-0.380733859334,1.79262771626
1589284548901590667,23755,1589284548901517583,,-0.148867229946,-0.343014851138,1.79991308304
1589284548907837598,23756,1589284548907781459,,-0.148938425863,-0.305937405205,1.80728445303
1589284548913510841,23757,1589284548913447842,,-0.149014221518,-0.268162697186,1.81469826784
1589284548919561832,23758,1589284548919505134,,-0.149103186308,-0.230405727583,1.82204620465
1589284548925459819,23759,1589284548925399929,,-0.149233621134,-0.192130099834,1.82940048618
1589284548928534449,23760,1589284548928466870,,-0.149228758292,-0.191652447165,1.82929677429
1589284548934674321,23761,1589284548934568504,,-0.149288296461,-0.153610661741,1.83672019163
1589284548940581519,23762,1589284548940526288,,-0.149355425976,-0.115156646963,1.84408789045
1589284548946558537,23763,1589284548946500424,,-0.149388731788,-0.076772242288,1.85160971978
1589284548952462601,23764,1589284548952415454,,-0.149413374147,-0.0380948983438,1.8590521737
1589284548956338873,23765,1589284548956211779,,-0.149489428925,-0.0375042235005,1.85884913233
1589284548961467218,23766,1589284548961414820,,-0.149489344218,0.00121650672685,1.86647155819
1589284548964516616,23767,1589284548964414972,,-0.149444982081,0.00153716806564,1.86620530403
1589284548970489538,23768,1589284548970441562,,-0.149401944951,0.0403059292545,1.87398243047
1589284548976502790,23769,1589284548976455405,,-0.149367068705,0.0791900585963,1.8816638886
1589284548982577208,23770,1589284548982513407,,-0.14935184182,0.118319053896,1.88918053657
1589284548988633789,23771,1589284548988575118,,-0.149312539322,0.157430157343,1.89693956405
1589284548994550982,23772,1589284548994494157,,-0.149260069945,0.196811668133,1.90479275195
1589284549000622588,23773,1589284549000531184,,-0.149265121469,0.236082970403,1.91258480433
1589284549006499306,23774,1589284549006425870,,-0.149168010394,0.275557676102,1.92027760653
1589284549009477342,23775,1589284549009415306,,-0.149212591351,0.275619697406,1.9200386771
1589284549015634842,23776,1589284549015579474,,-0.14913608057,0.315093060429,1.92771421208
1589284549021631891,23777,1589284549021573587,,-0.149079830078,0.354825880166,1.93547818689
1589284549027610129,23778,1589284549027564865,,-0.149034954589,0.394655486374,1.94288592708
1589284549033522774,23779,1589284549033467088,,-0.148943581515,0.434452721028,1.95045765225
1589284549039565421,23780,1589284549039498082,,-0.14884534326,0.474481291553,1.95800193526
1589284549045557580,23781,1589284549045509608,,-0.148853040586,0.514504168767,1.96562873523
1589284549052243356,23782,1589284549052155909,,-0.148715370331,0.554562329177,1.97257590928
1589284549058767785,23783,1589284549058691383,,-0.148578319897,0.594969429139,1.97995335581
1589284549063638681,23784,1589284549063566237,,-0.148450281144,0.594312540348,1.9785202506
1589284549069923035,23785,1589284549069875832,,-0.148348506826,0.634726033232,1.9858106934
1589284549075746180,23786,1589284549075661519,,-0.148188820141,0.674637854781,1.99220468294
1589284549081662422,23787,1589284549081613624,,-0.148097325786,0.715179528105,1.99958816598
1589284549087734391,23788,1589284549087676646,,-0.147874853585,0.755234990045,2.00638473473
1589284549093737358,23789,1589284549093673368,,-0.147842472513,0.795838845086,2.01385570968
1589284549099568223,23790,1589284549099516656,,-0.147639228663,0.835844050765,2.02069070927
1589284549105847552,23791,1589284549105766515,,-0.147577900744,0.876569649789,2.0284531994
1589284549112066935,23792,1589284549111899297,,-0.147400566452,0.875362928729,2.02718120116
1589284549117539835,23793,1589284549117486385,,-0.14734664983,0.916095294371,2.03479444103
1589284549123917182,23794,1589284549123535459,,-0.147001052898,0.955655608572,2.04146012735
1589284549129622861,23795,1589284549129541448,,-0.14675446341,0.996202137514,2.04929834149
1589284549135701653,23796,1589284549135635058,,-0.146281143791,1.03568300045,2.05720971705
1589284549141735658,23797,1589284549141663094,,-0.14587832799,1.07614945791,2.06555088058
1589284549147580490,23798,1589284549147518999,,-0.145131241873,1.11515550001,2.07414176302
1589284549153552383,23799,1589284549153505633,,-0.144726517605,1.15544113169,2.08247269173
1589284549161252030,23800,1589284549161201913,,-0.144202291185,1.1941945764,2.09060436424
1589284549165888702,23801,1589284549165840051,,-0.144115727976,1.23415338055,2.09873951365
1589284549174737007,23802,1589284549174684418,,-0.144074262896,1.27083203265,2.10612865787
1589284549180592716,23803,1589284549180510264,,-0.144041322575,1.31078926989,2.11410730671
1589284549186538308,23804,1589284549186487413,,-0.143934601333,1.34922110407,2.12170536281
1589284549192675542,23805,1589284549192610242,,-0.144031748623,1.38911950608,2.12949063975
1589284549201819143,23806,1589284549201716743,,-0.14387824705,1.42646022216,2.13684009303
1589284549207698861,23807,1589284549207638853,,-0.143621604885,1.46560879324,2.14467289518
1589284549213533285,23808,1589284549213456740,,-0.143571703019,1.50595813003,2.15257864965
1589284549219593553,23809,1589284549219536696,,-0.143415881879,1.54557198688,2.16057822496
1589284549225474773,23810,1589284549225426698,,-0.143310782285,1.58638372673,2.16869077167
1589284549229154812,23811,1589284549229106198,,-0.143398805307,1.58437404328,2.16748811015
1589284549234797905,23812,1589284549234740871,,-0.143331889201,1.62528665975,2.17502146586
1589284549240735401,23813,1589284549240680772,,-0.143026744052,1.66507867383,2.1812785304
1589284549246572515,23814,1589284549246515699,,-0.143080842562,1.70567717646,2.18852351776
1589284549252601410,23815,1589284549252521982,,-0.142769094509,1.74558269018,2.19530287654
1589284549258779418,23816,1589284549258728637,,-0.14263863226,1.78628158605,2.20283169374
1589284549261582522,23817,1589284549261538999,,-0.142460136211,1.78465713257,2.20133754407
1589284549264692340,23818,1589284549264610747,,-0.142160225591,1.7839837289,2.20054702709
1589284549270785219,23819,1589284549270726683,,-0.14198833339,1.8247927343,2.20795198098
1589284549276557938,23820,1589284549276500577,,-0.141834353598,1.86552703986,2.21564016546
1589284549282711738,23821,1589284549282657131,,-0.141621021204,1.90631126722,2.22299034738
1589284549288561034,23822,1589284549288504658,,-0.141213070819,1.94638789288,2.22924231397
1589284549294672708,23823,1589284549294614087,,-0.14105830942,1.98690982019,2.23653507893
1589284549300683109,23824,1589284549300633173,,-0.140877638132,2.02776933151,2.24382247757
1589284549306573677,23825,1589284549306492753,,-0.140769867102,2.06840598341,2.25134844093
1589284549312775520,23826,1589284549312729459,,-0.140562213007,2.10817566496,2.25766146845
1589284549321801143,23827,1589284549321695996,,-0.140361626811,2.14799764129,2.26394472115
1589284549327773389,23828,1589284549327688254,,-0.140085388547,2.1875989034,2.26995364748
1589284549333770615,23829,1589284549333698056,,-0.140067078074,2.22793755384,2.27746642221
1589284549339709909,23830,1589284549339665482,,-0.13996267117,2.26747536029,2.28426796722
1589284549346300736,23831,1589284549346219373,,-0.139937076781,2.30755932841,2.29165250807
1589284549352204218,23832,1589284549352144230,,-0.139959705124,2.34751605885,2.29888219514
1589284549357812819,23833,1589284549357691419,,-0.139900071304,2.34671562055,2.29797352892
1589284549363721738,23834,1589284549363633522,,-0.139890479487,2.3853109562,2.30451294512
1589284549369891906,23835,1589284549369849011,,-0.139884092315,2.42476794056,2.31183182382
1589284549375594712,23836,1589284549375519848,,-0.13994057495,2.46397564865,2.3193568771
1589284549381652031,23837,1589284549381564263,,-0.140051819744,2.50187497143,2.32582390051
1589284549387574449,23838,1589284549387529433,,-0.140032311883,2.54078066685,2.33292185282
1589284549393656015,23839,1589284549393555391,,-0.140028158068,2.57970767875,2.34021908149
1589284549399985209,23840,1589284549399930356,,-0.140138111428,2.6183371877,2.34741296225
1589284549405825427,23841,1589284549405696164,,-0.140186688204,2.65542237581,2.35366183374
1589284549418041158,23842,1589284549417869894,,-0.140116256189,2.69104042119,2.35921255206
1589284549423932668,23843,1589284549423859790,,-0.139919059109,2.72933141725,2.36651592785
1589284549430016862,23844,1589284549429949728,,-0.139608908499,2.76544522087,2.37302705186
1589284549435869947,23845,1589284549435800464,,-0.13939307498,2.80297194944,2.38054481244
1589284549441909894,23846,1589284549441813690,,-0.139222246887,2.84062600927,2.38768383877
1589284549448088366,23847,1589284549448014323,,-0.139039283634,2.87772936227,2.39483107364
1589284549453878021,23848,1589284549453825898,,-0.138886482103,2.9128224658,2.40087239071
1589284549459602602,23849,1589284549459548161,,-0.138819145226,2.9496283281,2.40765735701
1589284549462540961,23850,1589284549462496469,,-0.138646452388,2.94551336954,2.40580213576
1589284549465615754,23851,1589284549465561253,,-0.138629045625,2.98202735083,2.41249394568
1589284549477695898,23852,1589284549477623309,,-0.138263140525,3.0129830621,2.41564282628
1589284549483646837,23853,1589284549483563410,,-0.138056896401,3.04951253608,2.4221911181
1589284549489625133,23854,1589284549489554962,,-0.137926546817,3.08590299987,2.42870531865
1589284549495928242,23855,1589284549495812968,,-0.137567767372,3.12068001728,2.43412717352
1589284549501916818,23856,1589284549501849117,,-0.137410290518,3.15670219898,2.44058853161
1589284549507735212,23857,1589284549507667635,,-0.136886941798,3.19107510125,2.44636238393
1589284549513638082,23858,1589284549513565627,,-0.13678942508,3.22686506405,2.45246311658
1589284549519718817,23859,1589284549519641955,,-0.136370568859,3.2607731054,2.45780995618
1589284549528862671,23860,1589284549528782941,,-0.135701986731,3.29320917071,2.46163107906
1589284549535213543,23861,1589284549535146560,,-0.135590863267,3.32867557697,2.46739195127
1589284549540791367,23862,1589284549540669546,,-0.134902794757,3.36246600565,2.47211208401
1589284549546642506,23863,1589284549546563841,,-0.13459402519,3.39771117425,2.47847738941
1589284549552948650,23864,1589284549552877626,,-0.134076403219,3.43130516291,2.48324894871
1589284549559057006,23865,1589284549558972079,,-0.1338199492,3.46598102448,2.48896987389
1589284549564654366,23866,1589284549564546393,,-0.13332834936,3.4630727122,2.48667992296
1589284549569073737,23867,1589284549568975310,,-0.133073433909,3.49752681553,2.49238399122
1589284549573640380,23868,1589284549573579120,,-0.132464177,3.53050662972,2.49701163567
1589284549579606536,23869,1589284549579546484,,-0.132211989127,3.56481460146,2.50286202016
1589284549588876977,23870,1589284549588792147,,-0.131219585222,3.59564940183,2.50598115069
1589284549594792325,23871,1589284549594731426,,-0.130984861362,3.62929452491,2.51190846816
1589284549600724862,23872,1589284549600621394,,-0.130684418292,3.66262362915,2.51719175406
1589284549606783994,23873,1589284549606722941,,-0.13016122532,3.69428962392,2.52202656051
1589284549613232176,23874,1589284549613112160,,-0.129894275871,3.72741493244,2.52786795189
1589284549624729523,23875,1589284549624651440,,-0.129238510796,3.75868556932,2.53219066566
1589284549630757527,23876,1589284549630687556,,-0.128690677907,3.78963595952,2.53642057849
1589284549637623237,23877,1589284549637545174,,-0.128008019058,3.82017579544,2.54049157588
1589284549642614226,23878,1589284549642564988,,-0.127777015199,3.85232769178,2.54638999189
1589284549648906592,23879,1589284549648833309,,-0.12751645308,3.88396908387,2.55193735034
