%time,field.header.seq,field.header.stamp,field.header.frame_id,field.vector.x,field.vector.y,field.vector.z
1589284545789842741,23227,1589284545789763254,,0.499103723853,-0.200510007121,0.216761303669
1589284545795890188,23228,1589284545795749854,,0.499102341861,-0.200511904163,0.216760896568
1589284545801798579,23229,1589284545801697592,,0.49910038067,-0.200516437967,0.216759726949
1589284545807883180,23230,1589284545807788640,,0.499100297331,-0.200517914811,0.216759995888
1589284545813902684,23231,1589284545813782232,,0.499099803837,-0.200518231086,0.216760654423
1589284545819906843,23232,1589284545819779023,,0.499098452156,-0.200522364628,0.216760026305
1589284545825900411,23233,1589284545825782251,,0.49909702977,-0.200524872538,0.216759604588
1589284545831803607,23234,1589284545831706761,,0.499096166062,-0.200526521116,0.216758889535
1589284545837862696,23235,1589284545837713268,,0.49909577109,-0.200527809307,0.216759042286
1589284545845694442,23236,1589284545845574778,,0.49909476574,-0.200529066781,0.216758299177
1589284545849788559,23237,1589284545849735232,,0.499092787659,-0.200533166372,0.216756639806
1589284545855819730,23238,1589284545855753844,,0.499091733743,-0.200534214208,0.216756795747
1589284545858822520,23239,1589284545858741634,,0.49909008475,-0.200538943681,0.216754769907
1589284545861856563,23240,1589284545861723921,,0.49908935984,-0.200538880417,0.216754114681
1589284545868011870,23241,1589284545867861574,,0.499086534402,-0.200541908809,0.216750370975
1589284545873829862,23242,1589284545873763004,,0.499085537825,-0.200542431023,0.216748978305
1589284545880306848,23243,1589284545880156399,,0.499083011155,-0.200542846174,0.216745584472
1589284545885845704,23244,1589284545885723339,,0.499081713718,-0.200543318633,0.216743151006
1589284545891914951,23245,1589284545891790741,,0.499080417887,-0.200543208793,0.216741346131
1589284545898016753,23246,1589284545897867074,,0.499077667931,-0.200543553823,0.216737073177
1589284545903850470,23247,1589284545903739945,,0.499075915217,-0.20054329736,0.216733997776
1589284545909865811,23248,1589284545909776333,,0.499074412402,-0.200543745182,0.216731448518
1589284545915914671,23249,1589284545915805450,,0.499071892964,-0.200540878207,0.216727490309
1589284545921911314,23250,1589284545921750454,,0.499070571151,-0.200541826649,0.216724531728
1589284545927900583,23251,1589284545927787945,,0.499068528926,-0.200540577487,0.216720293771
1589284545933979428,23252,1589284545933790770,,0.499066843652,-0.200538770218,0.216716996775
1589284545939862317,23253,1589284545939750835,,0.49906486797,-0.20053780335,0.216713040628
1589284545945946628,23254,1589284545945838451,,0.499063831318,-0.200536800035,0.216711755152
1589284545950134536,23255,1589284545950002924,,0.499061994119,-0.200534285913,0.216707393558
1589284545954876775,23256,1589284545954742861,,0.499060689384,-0.200534140385,0.216704972655
1589284545960919655,23257,1589284545960760140,,0.49905890552,-0.200531062376,0.216700249123
1589284545967218477,23258,1589284545967114512,,0.49905840349,-0.200529091488,0.216697290504
1589284545972869725,23259,1589284545972782260,,0.499056827841,-0.200524380937,0.216692741629
1589284545978914021,23260,1589284545978759485,,0.499056068271,-0.200523626539,0.216690281491
1589284545984975087,23261,1589284545984867099,,0.499055260683,-0.200518044946,0.216685134217
1589284545990883863,23262,1589284545990742595,,0.499055295263,-0.200515585204,0.216682431011
1589284545996888368,23263,1589284545996739375,,0.499054624183,-0.200509202207,0.216675291313
1589284546002874533,23264,1589284546002780778,,0.499054670423,-0.200504942355,0.216671532025
1589284546008926027,23265,1589284546008776182,,0.499054382998,-0.200498667184,0.21666358259
1589284546014831841,23266,1589284546014749429,,0.499054105525,-0.200493790683,0.21665952263
1589284546019528379,23267,1589284546019394044,,0.499053756606,-0.20048318019,0.216649934476
1589284546023898337,23268,1589284546023736092,,0.499054092043,-0.200475271911,0.216644206408
1589284546029828403,23269,1589284546029732006,,0.499055042443,-0.20045018176,0.216633622093
1589284546035983937,23270,1589284546035816567,,0.499056541051,-0.200431235787,0.216626854712
1589284546041910773,23271,1589284546041775667,,0.499058345137,-0.200402661542,0.216615598909
1589284546047832798,23272,1589284546047755854,,0.499059680207,-0.200388587211,0.216610615758
1589284546053931855,23273,1589284546053775727,,0.499060760331,-0.200363249237,0.216598846866
1589284546059861316,23274,1589284546059746929,,0.499061472469,-0.20034769297,0.216592054343
1589284546063260295,23275,1589284546063112751,,0.499063577144,-0.200317944593,0.216581642925
1589284546068904473,23276,1589284546068773355,,0.499064129789,-0.200305563747,0.216578030245
1589284546074857638,23277,1589284546074767806,,0.499063451291,-0.200280925495,0.216573873142
1589284546080833812,23278,1589284546080738047,,0.499063092472,-0.200269300743,0.216571175374
1589284546088377469,23279,1589284546088248573,,0.499062484615,-0.200245086312,0.216567411993
1589284546092938949,23280,1589284546092823008,,0.49906203263,-0.200233094891,0.216564069328
1589284546099014246,23281,1589284546098871740,,0.499061203139,-0.200222165084,0.216560880911
1589284546104822520,23282,1589284546104742842,,0.499059248046,-0.200198806332,0.21655494476
1589284546110977936,23283,1589284546110899955,,0.499058844712,-0.200185200948,0.216551651398
1589284546116935252,23284,1589284546116847369,,0.499057595536,-0.200171178379,0.216547487606
1589284546123013511,23285,1589284546122871695,,0.499055978065,-0.20015931117,0.216542112297
1589284546129006463,23286,1589284546128857823,,0.499054269703,-0.20013265149,0.216534745096
1589284546134965791,23287,1589284546134861585,,0.4990537675,-0.200119621488,0.21653100779
1589284546140992982,23288,1589284546140867334,,0.499052980901,-0.200105066705,0.21652708479
1589284546146915178,23289,1589284546146809282,,0.499052131887,-0.200080660735,0.216520773713
1589284546152894706,23290,1589284546152779176,,0.499051115968,-0.200069357351,0.216516961324
1589284546158874495,23291,1589284546158789567,,0.499048856618,-0.200043249046,0.216510558082
1589284546165057957,23292,1589284546164935798,,0.499047420153,-0.200031360944,0.216508799044
1589284546170882488,23293,1589284546170785228,,0.499046825202,-0.200019755082,0.216506766167
1589284546176946014,23294,1589284546176862617,,0.499045744849,-0.200008800709,0.216504562057
1589284546182815140,23295,1589284546182742223,,0.499042691595,-0.199987163206,0.21649857047
1589284546190605901,23296,1589284546190486737,,0.499040028543,-0.199960763089,0.216490865317
1589284546194951675,23297,1589284546194822427,,0.499039067142,-0.199948240635,0.21648766219
1589284546200922637,23298,1589284546200819445,,0.499037346371,-0.199935070159,0.216482733013
1589284546206936772,23299,1589284546206846490,,0.499034582444,-0.199909482156,0.216476251027
1589284546212901403,23300,1589284546212813912,,0.499030256923,-0.199880744301,0.216471582792
1589284546218838379,23301,1589284546218772274,,0.499028427839,-0.199866024164,0.216468580487
1589284546224869774,23302,1589284546224772783,,0.499025929548,-0.199852539065,0.216462764343
1589284546230868977,23303,1589284546230787786,,0.499021925685,-0.19982295563,0.216453547504
1589284546236986153,23304,1589284546236786438,,0.499018155035,-0.199792002976,0.216445176761
1589284546242846023,23305,1589284546242740846,,0.499016001342,-0.199776628659,0.216439230401
1589284546248902485,23306,1589284546248797327,,0.499013693489,-0.199760234859,0.216434090879
1589284546254870614,23307,1589284546254771892,,0.499010154898,-0.199725982946,0.216422823994
1589284546258859625,23308,1589284546258788052,,0.499006932921,-0.199692249651,0.216412654408
1589284546264131549,23309,1589284546264006122,,0.499004892267,-0.199676552945,0.216407269691
1589284546269988495,23310,1589284546269874103,,0.499001557131,-0.199646037315,0.216396789437
1589284546275878708,23311,1589284546275780651,,0.499000156073,-0.199630465422,0.216390797389
1589284546281939746,23312,1589284546281788758,,0.498999192121,-0.199615364435,0.216386485309
1589284546287879759,23313,1589284546287763146,,0.498998440728,-0.199596466244,0.216382175098
1589284546293856801,23314,1589284546293794629,,0.498996911347,-0.199580123849,0.216377943935
1589284546299912468,23315,1589284546299790010,,0.498994244629,-0.199564675799,0.216372395736
1589284546305880252,23316,1589284546305781187,,0.498990418587,-0.199534387028,0.216364719622
1589284546311891614,23317,1589284546311808707,,0.498986993125,-0.199501787884,0.216353379046
1589284546317836875,23318,1589284546317784145,,0.498986068672,-0.199484231689,0.216348803152
1589284546323903956,23319,1589284546323804066,,0.498984843574,-0.19946897813,0.216343729466
1589284546327960789,23320,1589284546327874687,,0.498982981346,-0.199437005968,0.216336316636
1589284546332968244,23321,1589284546332874766,,0.49898160626,-0.199420319072,0.216330421396
1589284546338894319,23322,1589284546338819440,,0.498979485442,-0.199387557878,0.216322563186
1589284546347979043,23323,1589284546347833157,,0.498976263878,-0.199339305802,0.216312695008
1589284546353937574,23324,1589284546353838445,,0.498973753726,-0.199323300394,0.216308251977
1589284546359924952,23325,1589284546359812038,,0.498971364592,-0.199289494992,0.216299688823
1589284546366263259,23326,1589284546366146079,,0.49896977816,-0.199274215784,0.216294700399
1589284546371898968,23327,1589284546371813454,,0.498967074994,-0.199240443313,0.216287054792
1589284546377928264,23328,1589284546377816938,,0.498963892871,-0.199222207505,0.216282108673
1589284546383946076,23329,1589284546383821800,,0.49896161241,-0.199205384406,0.216278644495
1589284546390011668,23330,1589284546389843560,,0.498956632191,-0.199169353999,0.216271679175
1589284546396655760,23331,1589284546396541744,,0.498954886076,-0.199152397074,0.216269295064
1589284546401880195,23332,1589284546401792676,,0.49895326054,-0.19913373645,0.216265852395
1589284546407983996,23333,1589284546407871579,,0.498949445905,-0.199095491801,0.216255969501
1589284546413888360,23334,1589284546413795785,,0.498947770134,-0.19907640997,0.216251769564
1589284546420035784,23335,1589284546419894214,,0.498943578113,-0.199035015466,0.216242633919
1589284546425940428,23336,1589284546425864692,,0.498941700136,-0.199016814895,0.216239735238
1589284546430712594,23337,1589284546430630508,,0.498936953459,-0.19897533041,0.21622839289
1589284546434923665,23338,1589284546434833900,,0.498935445632,-0.1989550618,0.216223718423
1589284546440952965,23339,1589284546440871650,,0.498932289654,-0.19891118167,0.216212185707
1589284546447014813,23340,1589284546446887780,,0.498930644708,-0.198887052405,0.216205576432
1589284546452861737,23341,1589284546452802795,,0.498929025087,-0.198861806531,0.216198206948
1589284546458951069,23342,1589284546458840369,,0.498926524425,-0.198815157518,0.216190136708
1589284546461908390,23343,1589284546461827865,,0.498924368371,-0.198792122378,0.216185006954
1589284546467905534,23344,1589284546467844740,,0.498921091468,-0.198741008976,0.216177625727
1589284546473893374,23345,1589284546473833010,,0.498919961593,-0.198712092916,0.21617184501
1589284546479934424,23346,1589284546479834159,,0.498918681459,-0.198683286431,0.21616722254
1589284546486008672,23347,1589284546485865509,,0.498917696391,-0.198627800915,0.216159289194
1589284546491906321,23348,1589284546491823491,,0.498915917301,-0.19859976594,0.216154813475
1589284546499158189,23349,1589284546499088571,,0.498913335783,-0.198572270128,0.216150625903
1589284546503907365,23350,1589284546503816904,,0.498910302362,-0.198510799679,0.216140532566
1589284546510028657,23351,1589284546509905953,,0.498908461079,-0.198479455924,0.216137840832
1589284546515948245,23352,1589284546515853773,,0.498903143393,-0.198422391188,0.216128404083
1589284546521977139,23353,1589284546521860497,,0.498900990779,-0.198389489936,0.216124497073
1589284546527920068,23354,1589284546527829335,,0.498898030673,-0.198324646298,0.216117579182
1589284546532449970,23355,1589284546532371651,,0.498895751671,-0.198295869901,0.216113686336
1589284546536964874,23356,1589284546536852328,,0.498894633541,-0.198261682321,0.216108603711
1589284546542926593,23357,1589284546542823417,,0.498891383694,-0.198198787966,0.216101966171
1589284546549097456,23358,1589284546548977710,,0.498887400972,-0.198128563137,0.216092465017
1589284546554990678,23359,1589284546554880107,,0.49888599571,-0.198094608209,0.216090702306
1589284546561027567,23360,1589284546560932120,,0.498883911293,-0.198057692425,0.216088432592
1589284546567451593,23361,1589284546567341215,,0.498879659933,-0.197987700388,0.21607875654
1589284546573057156,23362,1589284546572923386,,0.498876357851,-0.197913689821,0.21606760177
1589284546579001238,23363,1589284546578918062,,0.498875485376,-0.197876849498,0.216064593712
1589284546585007142,23364,1589284546584932793,,0.498872779309,-0.197842857614,0.216057149679
1589284546591000522,23365,1589284546590890876,,0.498867954139,-0.19777090267,0.21604933787
1589284546597039811,23366,1589284546596901173,,0.498862264451,-0.19769562997,0.216039744011
1589284546601274355,23367,1589284546601156398,,0.498859689298,-0.197657674572,0.216034809585
1589284546606102929,23368,1589284546605981619,,0.498856755754,-0.197620971864,0.21602870144
1589284546612057319,23369,1589284546611943839,,0.498851388211,-0.197543597392,0.216022094018
1589284546617967520,23370,1589284546617889647,,0.498845935757,-0.197467973996,0.21601300846
1589284546624001521,23371,1589284546623907666,,0.498843738403,-0.197427680817,0.216009791344
1589284546630168115,23372,1589284546629972691,,0.498842050274,-0.197387530988,0.216003898979
1589284546636093928,23373,1589284546636009580,,0.498837446005,-0.197303625337,0.215998348804
1589284546642137948,23374,1589284546641913715,,0.498835032637,-0.197261292317,0.215992610154
1589284546648000217,23375,1589284546647888294,,0.498829051805,-0.197178106014,0.215985682214
1589284546653963254,23376,1589284546653878798,,0.498825909195,-0.197136287829,0.215976538484
1589284546659996997,23377,1589284546659895439,,0.498823323167,-0.197043270729,0.215970437831
1589284546666359141,23378,1589284546666261118,,0.498821794278,-0.197001465717,0.215964687583
1589284546669586436,23379,1589284546669435889,,0.498816878792,-0.196905679442,0.215953526618
1589284546674993049,23380,1589284546674915779,,0.4988148164,-0.19685936993,0.215947784739
1589284546681017404,23381,1589284546680891856,,0.498812716924,-0.196811293169,0.215943244695
1589284546686996890,23382,1589284546686917487,,0.49880893627,-0.196712990602,0.215931820698
1589284546693085365,23383,1589284546692974654,,0.498806367242,-0.196666237681,0.215927653529
1589284546699159717,23384,1589284546698991284,,0.498800393357,-0.196571529306,0.215912657968
1589284546705026231,23385,1589284546704924171,,0.498798110211,-0.19652141676,0.215909694024
1589284546710987744,23386,1589284546710877050,,0.498792625301,-0.196427140713,0.215896643723
1589284546717006314,23387,1589284546716918460,,0.498787966089,-0.196380537297,0.215888280009
1589284546723169621,23388,1589284546723008649,,0.498780195121,-0.196287597556,0.215880626282
1589284546728967633,23389,1589284546728867941,,0.498776242245,-0.196239030128,0.21587278232
1589284546735030250,23390,1589284546734913865,,0.498771994001,-0.196192800401,0.215867642662
1589284546740946470,23391,1589284546740842310,,0.498765112526,-0.196099218476,0.215859142623
1589284546746981753,23392,1589284546746853565,,0.498759115604,-0.195999886116,0.21585028573
1589284546752990463,23393,1589284546752908645,,0.498755289375,-0.195952082334,0.215843372176
1589284546759118081,23394,1589284546758981811,,0.498750780894,-0.195897772479,0.215837662014
1589284546765089915,23395,1589284546765002696,,0.498747630079,-0.195847830991,0.215833388044
1589284546772095765,23396,1589284546772012996,,0.498743067272,-0.19573432508,0.215818005688
1589284546776973631,23397,1589284546776890863,,0.498740247863,-0.195680560498,0.215809190287
1589284546782986479,23398,1589284546782902103,,0.498737390317,-0.195623690143,0.215800689766
1589284546789059199,23399,1589284546788915683,,0.498734668973,-0.19556286049,0.215794783859
1589284546795017471,23400,1589284546794866063,,0.498729568827,-0.195452963344,0.21578230546
1589284546801014478,23401,1589284546800946044,,0.498727965887,-0.195407000253,0.215777377312
1589284546806962831,23402,1589284546806865167,,0.498725065946,-0.195288371007,0.215762566764
1589284546812904469,23403,1589284546812839662,,0.498721695312,-0.19524874146,0.215755475575
1589284546819022414,23404,1589284546818956470,,0.498716730164,-0.19513004762,0.215746890026
1589284546825026816,23405,1589284546824955666,,0.498712686078,-0.195018898003,0.21574013106
1589284546831038727,23406,1589284546830916810,,0.498710693164,-0.194964032973,0.21573443226
1589284546836991671,23407,1589284546836910213,,0.498709240356,-0.19490751608,0.215725623385
1589284546842968103,23408,1589284546842870482,,0.498706817476,-0.194790081841,0.215713337438
1589284546848959568,23409,1589284546848883680,,0.498704454838,-0.194729462139,0.215703964485
1589284546855062044,23410,1589284546854930784,,0.498700911603,-0.19459722278,0.21569239834
1589284546860965184,23411,1589284546860862013,,0.498699865083,-0.194532432643,0.215684881179
1589284546864257979,23412,1589284546864185658,,0.498696828881,-0.194464362519,0.215675773398
1589284546870003024,23413,1589284546869914929,,0.498694714878,-0.194396655711,0.215671183308
1589284546874282108,23414,1589284546874191583,,0.498692554169,-0.194254713453,0.21564857047
1589284546878966425,23415,1589284546878897350,,0.498691072467,-0.194183905475,0.215640741587
1589284546884948816,23416,1589284546884872491,,0.498686328883,-0.194038509659,0.215622821595
1589284546891072344,23417,1589284546890998577,,0.4986836943,-0.193968210719,0.215604852166
1589284546897030876,23418,1589284546896923682,,0.498680044489,-0.193895333757,0.215597967264
1589284546902988201,23419,1589284546902915819,,0.4986783282,-0.193821564185,0.215588238226
1589284546908994370,23420,1589284546908897864,,0.498671185708,-0.193676742103,0.21555967763
1589284546914980705,23421,1589284546914860059,,0.498666841042,-0.193534208048,0.215538515125
1589284546921013645,23422,1589284546920920757,,0.498663510413,-0.19346381592,0.215527057979
1589284546926962791,23423,1589284546926882207,,0.498660531613,-0.193314950724,0.215505953006
1589284546933061420,23424,1589284546932954475,,0.498657678895,-0.193241499335,0.215496066576
1589284546939003164,23425,1589284546938908102,,0.498654074603,-0.193088792533,0.215473911718
1589284546943165152,23426,1589284546943052686,,0.49865210946,-0.193006612146,0.215460495466
1589284546948139768,23427,1589284546947935509,,0.498653400807,-0.192922687179,0.215448936708
1589284546953926996,23428,1589284546953866830,,0.498651524582,-0.192748246564,0.215415779957
1589284546960067583,23429,1589284546959928808,,0.498649580616,-0.192660937625,0.215394127467
1589284546966444862,23430,1589284546966345987,,0.498649165305,-0.192572143856,0.215381357487
1589284546972026118,23431,1589284546971940444,,0.498647332952,-0.192391624043,0.215347691053
1589284546978051843,23432,1589284546977889003,,0.498646089859,-0.192206063233,0.215314163096
1589284546984066473,23433,1589284546983927030,,0.498645869319,-0.192115629168,0.215302723679
1589284546990072331,23434,1589284546989913483,,0.498645880214,-0.192024612276,0.215287636718
1589284546996075989,23435,1589284546995937077,,0.498645286511,-0.191848692957,0.215263525782
1589284547002007553,23436,1589284547001931339,,0.498643626842,-0.191763838468,0.215249515744
1589284547008018620,23437,1589284547007916222,,0.498644703905,-0.191588846151,0.215224146081
1589284547014033246,23438,1589284547013920456,,0.498642290978,-0.191506461562,0.215204303079
1589284547019997792,23439,1589284547019877910,,0.498640259776,-0.191328040081,0.21516901669
1589284547026028564,23440,1589284547025910249,,0.498639388016,-0.191235975515,0.215149618912
1589284547032006452,23441,1589284547031902464,,0.498638970811,-0.191142615665,0.215131408291
1589284547041039627,23442,1589284547040953325,,0.498635778303,-0.190853631473,0.21506992236
1589284547050276972,23443,1589284547050049428,,0.498636173419,-0.190551290636,0.215011097159
1589284547056070482,23444,1589284547055964041,,0.498640278991,-0.190346664755,0.214977940558
1589284547062043356,23445,1589284547061980510,,0.498640629749,-0.190247628343,0.214962832988
1589284547068082874,23446,1589284547067956144,,0.498642401509,-0.190146137034,0.21494302854
1589284547074045013,23447,1589284547073944927,,0.498642832296,-0.189950834398,0.214909441687
1589284547080097690,23448,1589284547079984523,,0.49864391133,-0.189855414864,0.214895874069
1589284547086085768,23449,1589284547085986521,,0.498642523322,-0.189660083742,0.214859678082
1589284547092026933,23450,1589284547091974942,,0.498641131505,-0.189565665657,0.214842587715
1589284547104087078,23451,1589284547103978184,,0.498639562244,-0.189279661012,0.214778524094
1589284547110096441,23452,1589284547109976303,,0.498639152249,-0.189183801253,0.214757227183
1589284547113872002,23453,1589284547113742310,,0.498639268316,-0.188989380654,0.214717821861
1589284547118989621,23454,1589284547118880145,,0.498637452833,-0.18889099181,0.214693495727
1589284547125010521,23455,1589284547124941274,,0.498640538498,-0.188690026318,0.214656416879
1589284547131030939,23456,1589284547130913164,,0.498640143992,-0.188589951668,0.214636952202
1589284547137045995,23457,1589284547136946519,,0.498641123747,-0.188386476989,0.214598009608
1589284547143011739,23458,1589284547142916746,,0.49864340209,-0.188281519857,0.214580567847
1589284547147369450,23459,1589284547147271538,,0.498644052422,-0.18807349135,0.214540861845
1589284547152016487,23460,1589284547151932498,,0.49864610846,-0.187965726989,0.214524374525
1589284547161061053,23461,1589284547160983211,,0.498649387732,-0.187653583016,0.21446533843
1589284547167375087,23462,1589284547167268748,,0.498648428398,-0.187552016205,0.214441632565
1589284547173141635,23463,1589284547173006043,,0.498648760138,-0.187348790839,0.214402665422
1589284547178975791,23464,1589284547178910851,,0.498648778827,-0.187246556474,0.214383223534
1589284547185038182,23465,1589284547184920532,,0.498646931133,-0.187047187219,0.214344777087
1589284547191007408,23466,1589284547190898201,,0.498645659065,-0.186848798056,0.214305247341
1589284547197104113,23467,1589284547196959980,,0.498645518937,-0.186752619209,0.214287555186
1589284547203134947,23468,1589284547202978614,,0.498643463329,-0.18665527075,0.214264945808
1589284547209021735,23469,1589284547208937787,,0.498643967851,-0.186456210908,0.214232099046
1589284547215889185,23470,1589284547215803029,,0.498644812001,-0.186351977039,0.214211028641
1589284547221031850,23471,1589284547220950969,,0.498646238495,-0.186138749077,0.214172256966
1589284547226987450,23472,1589284547226908341,,0.498646732699,-0.186026900625,0.21415315574
1589284547233060408,23473,1589284547232912906,,0.498647116469,-0.185915701763,0.214132707673
1589284547239022841,23474,1589284547238923059,,0.498650145925,-0.185685657018,0.214094815319
1589284547245053895,23475,1589284547244909089,,0.498651570266,-0.185457141947,0.214054187444
1589284547249708657,23476,1589284547249609642,,0.498652586602,-0.185344805376,0.214035326563
1589284547254046320,23477,1589284547253959116,,0.498654939032,-0.185121956081,0.21400214284
1589284547260093197,23478,1589284547259950017,,0.498654662535,-0.185021894713,0.21398202093
1589284547263091526,23479,1589284547263019914,,0.498655002681,-0.184816045773,0.213953478602
1589284547269191363,23480,1589284547269021223,,0.498654982589,-0.184721372618,0.213938485298
1589284547275121742,23481,1589284547275010665,,0.498653894211,-0.184622654925,0.213920334039
1589284547281033718,23482,1589284547280933604,,0.498652112517,-0.184437691423,0.213889645727
1589284547287196224,23483,1589284547287020563,,0.498651625901,-0.184342692849,0.213872781238
1589284547293075576,23484,1589284547292982162,,0.498649294578,-0.184251434304,0.21385193084
1589284547299053737,23485,1589284547298972797,,0.49864726541,-0.184158025837,0.21383263967
1589284547305216182,23486,1589284547305142840,,0.498648117162,-0.184061465904,0.213813683682
1589284547311099867,23487,1589284547310982761,,0.498647532019,-0.183865132382,0.213773077903
1589284547318598949,23488,1589284547318478844,,0.49864987832,-0.183659416706,0.213731620549
1589284547323089923,23489,1589284547322973249,,0.498651000912,-0.183554568914,0.213708588127
1589284547329008699,23490,1589284547328915487,,0.498652354457,-0.183451210127,0.21368575665
1589284547335128366,23491,1589284547335038611,,0.498658174065,-0.183235621974,0.213645226315
1589284547341158350,23492,1589284547341057853,,0.498661837911,-0.183023090864,0.213603866457
1589284547347064919,23493,1589284547346988412,,0.498664147778,-0.182916544959,0.213586428016
1589284547353045766,23494,1589284547352946807,,0.498666271368,-0.182814195599,0.213566403161
1589284547359019102,23495,1589284547358944155,,0.498667737916,-0.182616871879,0.213533681534
1589284547365277914,23496,1589284547365194441,,0.498670119035,-0.182524803393,0.213518688016
1589284547371197766,23497,1589284547371010232,,0.498670371797,-0.182436626943,0.213502032064
1589284547377068037,23498,1589284547376965162,,0.498670390666,-0.182268633211,0.213471281964
1589284547383020193,23499,1589284547382939877,,0.498671272899,-0.182182814168,0.213455207718
1589284547386614725,23500,1589284547386517942,,0.498669028839,-0.182020588503,0.213427200604
1589284547392027642,23501,1589284547391953917,,0.498668320616,-0.181935464752,0.213411102553
1589284547398187180,23502,1589284547398096991,,0.498668422972,-0.181762530859,0.21337975955
1589284547403998335,23503,1589284547403917534,,0.498668175348,-0.18167304642,0.213361790355
1589284547410034340,23504,1589284547409947244,,0.498670344767,-0.18147898068,0.213325808892
1589284547416040909,23505,1589284547415937422,,0.498671234726,-0.181374992339,0.213308696904
1589284547422060276,23506,1589284547421956620,,0.498674847278,-0.181159414591,0.213271076184
1589284547428158532,23507,1589284547428019973,,0.498676221861,-0.18104958009,0.213250714626
1589284547434014909,23508,1589284547433951328,,0.498680443522,-0.180825873188,0.213212172122
1589284547440164345,23509,1589284547440060252,,0.498681098627,-0.180718706604,0.213190812833
1589284547446079744,23510,1589284547445991059,,0.498682178171,-0.180506851454,0.213155298833
1589284547452096412,23511,1589284547452003057,,0.49868307334,-0.180411374524,0.213141938989
1589284547456153588,23512,1589284547456030371,,0.498681297071,-0.180318049163,0.213123261325
1589284547461074397,23513,1589284547460986327,,0.498680775449,-0.180226992154,0.213112387574
1589284547464257428,23514,1589284547464169762,,0.498679676337,-0.180142680885,0.213099238515
1589284547470031026,23515,1589284547469931584,,0.49867666321,-0.179980741932,0.213072934808
1589284547476046083,23516,1589284547475974366,,0.498674149663,-0.179908242851,0.213063747373
1589284547482074777,23517,1589284547481979388,,0.498670872384,-0.179789927848,0.213046002369
1589284547488070267,23518,1589284547487990700,,0.498669090838,-0.179715992313,0.213036534243
1589284547494200875,23519,1589284547494023144,,0.498668071741,-0.179602619103,0.213010328767
1589284547500042920,23520,1589284547499950781,,0.498666414925,-0.179512531091,0.212994142738
1589284547506043602,23521,1589284547505967248,,0.498666158753,-0.179362923379,0.212967980954
1589284547512096523,23522,1589284547512029166,,0.498664701103,-0.179262943249,0.212950924458
1589284547518238742,23523,1589284547518166041,,0.498664716229,-0.179180185434,0.212931712239
1589284547524244252,23524,1589284547524154680,,0.498666183432,-0.1790112837,0.212902085818
1589284547530069933,23525,1589284547529980582,,0.498668947289,-0.178834919729,0.212863308312
1589284547536014855,23526,1589284547535948707,,0.498671333495,-0.178744251183,0.212848623755
1589284547542045080,23527,1589284547541954317,,0.498673371821,-0.17865528216,0.21283430385
1589284547548094251,23528,1589284547547996202,,0.498673855488,-0.178589142999,0.212823813745
1589284547554080176,23529,1589284547553967892,,0.498674594258,-0.17840383252,0.212793765709
1589284547558613748,23530,1589284547558538977,,0.498673033505,-0.178350818029,0.212786250027
1589284547563043380,23531,1589284547562961047,,0.498669283281,-0.178194152791,0.212761860898
1589284547569082177,23532,1589284547568955687,,0.498665291177,-0.178130151261,0.212751510518
1589284547575148521,23533,1589284547575013746,,0.498661920729,-0.178073744706,0.212739905121
1589284547581107318,23534,1589284547580975669,,0.498658137892,-0.178014616816,0.212725831802
1589284547587090742,23535,1589284547586968545,,0.498656459166,-0.177953474317,0.212718600878
1589284547593152769,23536,1589284547593022180,,0.498653243639,-0.177827577039,0.212691458042
1589284547599138461,23537,1589284547599041205,,0.498653278866,-0.177750809207,0.212675520304
1589284547605015364,23538,1589284547604941186,,0.498653521082,-0.177595892613,0.21264731468
1589284547611085294,23539,1589284547610985391,,0.498653270182,-0.17753924421,0.212637680378
1589284547617067386,23540,1589284547616973889,,0.498657925124,-0.177336439055,0.212604539566
1589284547623050953,23541,1589284547622969977,,0.498659120637,-0.17726665728,0.212592675797
1589284547629067893,23542,1589284547628967532,,0.498663816775,-0.177060062369,0.212558240621
1589284547633123181,23543,1589284547632990993,,0.498665522741,-0.176968108066,0.212546169346
1589284547641118382,23544,1589284547641032601,,0.498667852151,-0.176710739663,0.212499795101
1589284547647107653,23545,1589284547647002982,,0.498668750341,-0.176630853696,0.212483058819
1589284547653074597,23546,1589284547653004279,,0.498667156529,-0.176483881266,0.212455526242
1589284547659628059,23547,1589284547659526618,,0.498667623636,-0.176410567214,0.212443768027
1589284547665346331,23548,1589284547665229830,,0.498663541601,-0.176286163278,0.21242516296
1589284547671190170,23549,1589284547670934217,,0.498660269558,-0.176227475866,0.212415561587
1589284547677096923,23550,1589284547676982144,,0.498658892695,-0.176172235388,0.21241010988
1589284547683315652,23551,1589284547683129195,,0.498653929296,-0.176055640212,0.212389637646
1589284547689093667,23552,1589284547688988246,,0.498652406366,-0.175993763274,0.212381282081
1589284547693498466,23553,1589284547693281065,,0.498650475841,-0.175928954874,0.212368273962
1589284547701087900,23554,1589284547701032710,,0.498651974262,-0.175711016904,0.212329064816
1589284547707129521,23555,1589284547707039531,,0.498652299864,-0.175627597252,0.212312512783
1589284547713157010,23556,1589284547713051248,,0.498656676327,-0.175446555881,0.212281733234
1589284547719214297,23557,1589284547719064408,,0.498659805242,-0.175345063008,0.212266094895
1589284547725433539,23558,1589284547725318994,,0.498665978964,-0.175144845637,0.212234007467
1589284547731129861,23559,1589284547731021770,,0.498668998494,-0.175045005168,0.212220233447
1589284547737159092,23560,1589284547736985330,,0.49867421702,-0.174855239976,0.212193092498
1589284547743152706,23561,1589284547743055099,,0.498676697889,-0.174767258672,0.21218184966
1589284547749211445,23562,1589284547749101375,,0.498676194794,-0.174615422736,0.212159747454
1589284547755196321,23563,1589284547755102397,,0.498676934742,-0.17455160598,0.212152862549
1589284547761460032,23564,1589284547761345071,,0.49867323335,-0.174442153712,0.212138685856
1589284547767508665,23565,1589284547767401199,,0.498672231796,-0.174392633389,0.212135372138
1589284547773216808,23566,1589284547773093898,,0.498666921336,-0.174301643084,0.212117262821
1589284547779163052,23567,1589284547778999407,,0.498665331337,-0.174257908101,0.212114467848
1589284547788263567,23568,1589284547788082215,,0.498662111904,-0.174093292194,0.212085625676
1589284547795995093,23569,1589284547795845965,,0.498663469273,-0.173960006238,0.212065791651
1589284547800101296,23570,1589284547800026484,,0.498665517487,-0.17388241531,0.212051217151
1589284547806088945,23571,1589284547806015406,,0.498667597001,-0.173802879678,0.212040941944
1589284547812527693,23572,1589284547812384429,,0.498671155964,-0.17371367686,0.212027821698
1589284547818146594,23573,1589284547818050009,,0.498676894449,-0.173539277221,0.212003525632
1589284547824101678,23574,1589284547824037104,,0.498681542263,-0.173446554413,0.211990910957
1589284547830239128,23575,1589284547830135599,,0.498689114087,-0.173260153028,0.211964581848
1589284547836252205,23576,1589284547836102295,,0.498691136483,-0.173176948225,0.211952484718
1589284547842293374,23577,1589284547842136391,,0.498695635579,-0.173015423923,0.211930873561
1589284547848135139,23578,1589284547848041938,,0.498696015671,-0.172939881344,0.211918992879
1589284547854247023,23579,1589284547854131804,,0.498697683333,-0.172811925711,0.211904017742
1589284547860172540,23580,1589284547860034138,,0.498696913592,-0.172755053632,0.211899324027
1589284547863931023,23581,1589284547863750291,,0.498695569409,-0.17266164183,0.211884823275
1589284547869583953,23582,1589284547869395366,,0.498693792314,-0.172618551619,0.211876307577
1589284547875239330,23583,1589284547875061204,,0.498693113487,-0.172577244278,0.211873555708
1589284547881349607,23584,1589284547881177752,,0.498689265354,-0.172498902558,0.211857414509
1589284547887098139,23585,1589284547887014523,,0.49869098239,-0.17245122752,0.211851965213
1589284547893252089,23586,1589284547893158054,,0.498691992928,-0.172403096282,0.211843873862
1589284547899272601,23587,1589284547899127762,,0.498693023348,-0.172345852854,0.211833492282
1589284547908221480,23588,1589284547908137376,,0.498702729804,-0.172153251132,0.211809332726
1589284547914113104,23589,1589284547914033415,,0.498710476604,-0.172007647475,0.211793508681
1589284547920103701,23590,1589284547920010508,,0.498716948441,-0.171927488141,0.211785634249
1589284547926187073,23591,1589284547926049206,,0.498724917604,-0.171775693325,0.211767140434
1589284547932395087,23592,1589284547932258826,,0.498729548383,-0.171698653271,0.21175918888
1589284547941148550,23593,1589284547941005286,,0.498736110608,-0.171494288127,0.211732925482
1589284547947238029,23594,1589284547947109099,,0.498738216754,-0.17137960781,0.211718887937
1589284547953173397,23595,1589284547953077338,,0.498737413907,-0.171331865828,0.211713151368
1589284547959207934,23596,1589284547959116904,,0.498734833099,-0.171247576824,0.211702622788
1589284547966195172,23597,1589284547966096531,,0.498734237276,-0.171211446539,0.211700715506
1589284547971197244,23598,1589284547971083460,,0.49873068097,-0.171141410505,0.211694832336
1589284547977216925,23599,1589284547977098002,,0.498729107802,-0.171108528161,0.211689999839
1589284547983140707,23600,1589284547983068948,,0.498728751493,-0.171070802812,0.211687727955
1589284547989245095,23601,1589284547989169178,,0.498728640279,-0.171029125328,0.211684042661
1589284547995192412,23602,1589284547995073609,,0.49872969336,-0.170935390524,0.211674578399
1589284548001133753,23603,1589284548000994700,,0.498729888062,-0.170885226933,0.211666894947
1589284548007188933,23604,1589284548007064154,,0.498730268126,-0.170827738872,0.211659695261
1589284548013194178,23605,1589284548013092268,,0.498736497862,-0.170703715755,0.211647946005
1589284548019174618,23606,1589284548019076318,,0.498741784508,-0.170573566785,0.211626369638
1589284548025299734,23607,1589284548025220255,,0.498745978757,-0.170508834675,0.211619753259
1589284548031219140,23608,1589284548031126549,,0.498750890545,-0.170440056364,0.211612610295
1589284548037279465,23609,1589284548037114968,,0.498752983708,-0.170319555557,0.211590406789
1589284548043227992,23610,1589284548043159131,,0.498757592647,-0.17020500052,0.211577105013
1589284548049261411,23611,1589284548049104590,,0.498758660839,-0.170155011271,0.211569269846
1589284548055156551,23612,1589284548055072635,,0.498759986635,-0.170109261429,0.211564268191
1589284548061199520,23613,1589284548061098556,,0.498760766253,-0.170067968394,0.211558757615
1589284548068560643,23614,1589284548068410146,,0.498761415723,-0.170033444042,0.211553310252
1589284548073291326,23615,1589284548073182906,,0.498761142767,-0.169974613063,0.211543712613
1589284548079185386,23616,1589284548079107565,,0.498761687391,-0.169944228639,0.211540874391
1589284548085197448,23617,1589284548085099328,,0.49876007364,-0.169893098613,0.211533724718
1589284548091213457,23618,1589284548091091742,,0.498759375204,-0.169875782683,0.211529833009
1589284548097134963,23619,1589284548097022425,,0.49876083273,-0.169808657327,0.211520162102
1589284548103255028,23620,1589284548103160037,,0.498762970136,-0.169779471544,0.211516581001
1589284548109168810,23621,1589284548109051398,,0.498765086466,-0.169742631414,0.211512196072
1589284548115218303,23622,1589284548115083092,,0.498768141418,-0.169657495704,0.211499004948
1589284548121209024,23623,1589284548121088554,,0.49877199411,-0.169613644835,0.211497842981
1589284548127181966,23624,1589284548127064139,,0.498774990687,-0.169571307543,0.211490685527
1589284548133297569,23625,1589284548133097724,,0.49877690958,-0.16952989939,0.211484639486
1589284548139156241,23626,1589284548139049325,,0.498779689548,-0.169483973499,0.211478020236
1589284548145174044,23627,1589284548145063623,,0.498785925987,-0.169396181729,0.21146590584
1589284548151218678,23628,1589284548151129804,,0.498791576678,-0.16930743863,0.211454125429
1589284548157272580,23629,1589284548157164115,,0.498792053831,-0.169264671959,0.211446154892
1589284548163411006,23630,1589284548163205908,,0.498794430058,-0.169225826104,0.211444408863
1589284548171151306,23631,1589284548171050756,,0.498796864476,-0.169152517777,0.211438756652
1589284548175172070,23632,1589284548175082376,,0.498799237731,-0.169094097083,0.211431334346
1589284548181246057,23633,1589284548181112801,,0.498800036522,-0.169063434179,0.211427291733
1589284548187241497,23634,1589284548187123241,,0.498800901021,-0.16904108965,0.21142710371
1589284548193203946,23635,1589284548193082026,,0.498801203282,-0.168993885396,0.211426202221
1589284548199327050,23636,1589284548199181060,,0.498801922454,-0.168946488699,0.211423427174
1589284548205149337,23637,1589284548205075382,,0.498802183991,-0.168924399529,0.211421207706
1589284548211135768,23638,1589284548211062707,,0.498803503569,-0.168898735275,0.211418288495
1589284548217219826,23639,1589284548217075657,,0.498807424641,-0.168846588031,0.211410672268
1589284548223208904,23640,1589284548223097913,,0.498809623326,-0.168821012684,0.211405904614
1589284548229238404,23641,1589284548229121299,,0.498814752053,-0.168767207572,0.211395669366
1589284548235306127,23642,1589284548235160128,,0.498817874706,-0.168742101054,0.211392704689
1589284548239621235,23643,1589284548239559826,,0.498820341504,-0.168714194819,0.211388391889
1589284548244154247,23644,1589284548244051012,,0.498823170957,-0.168669087975,0.211380547522
1589284548250256173,23645,1589284548250113179,,0.498824589954,-0.168644680463,0.211375226671
1589284548256133909,23646,1589284548256077362,,0.498828632846,-0.168602279056,0.211371248225
1589284548262221528,23647,1589284548262103037,,0.498830378087,-0.168578918738,0.211368489787
1589284548268633592,23648,1589284548268510999,,0.498833639784,-0.168544451429,0.211365062191
1589284548274232909,23649,1589284548274134617,,0.498834151156,-0.168530278132,0.211360619888
1589284548280311024,23650,1589284548280189214,,0.498834836492,-0.168506741445,0.211355370892
1589284548286298632,23651,1589284548286142299,,0.498836051769,-0.168495732269,0.211354251817
1589284548292609625,23652,1589284548292478050,,0.498835463953,-0.168484380719,0.211352192621
1589284548299101022,23653,1589284548299022816,,0.498835901814,-0.168474231947,0.211350810138
1589284548304553750,23654,1589284548304252732,,0.498836546695,-0.168453435703,0.211346352328
1589284548308904197,23655,1589284548308719214,,0.498837213641,-0.168442290136,0.211345195821
1589284548313242351,23656,1589284548313122349,,0.498838197581,-0.168420876668,0.211342020763
1589284548319286953,23657,1589284548319173035,,0.49883885999,-0.168411118704,0.211339632519
1589284548325361982,23658,1589284548325257776,,0.49884104996,-0.168388260712,0.211336201443
1589284548331288005,23659,1589284548331190621,,0.498841983857,-0.168377246371,0.211334475285
1589284548337381117,23660,1589284548337246240,,0.498842981984,-0.168366742105,0.211333618531
1589284548343270405,23661,1589284548343189414,,0.498844239547,-0.168354954052,0.211332287878
1589284548349313108,23662,1589284548349174483,,0.498846359721,-0.168333609063,0.211329044251
1589284548355315357,23663,1589284548355186545,,0.49884841587,-0.16832362695,0.211328848968
1589284548361249567,23664,1589284548361144616,,0.498850155725,-0.168309401474,0.211327914519
1589284548367439390,23665,1589284548367308553,,0.498851571509,-0.168297284629,0.21132631792
1589284548373294426,23666,1589284548373152631,,0.498852921114,-0.16829009715,0.211327020212
1589284548379241385,23667,1589284548379126143,,0.498852747882,-0.168286160994,0.211326130723
1589284548385242080,23668,1589284548385143672,,0.498853294288,-0.168279907614,0.211325526803
1589284548391231865,23669,1589284548391145596,,0.49885443382,-0.168270041404,0.211326832054
1589284548397275098,23670,1589284548397136507,,0.498854155004,-0.168264614857,0.21132669781
1589284548403297047,23671,1589284548403173550,,0.498854331961,-0.168258022194,0.211327659982
1589284548409856039,23672,1589284548409750294,,0.498853645363,-0.168254734759,0.211327002916
1589284548415252344,23673,1589284548415147150,,0.498853094195,-0.16824856403,0.211326845005
1589284548421305387,23674,1589284548421166984,,0.498851636515,-0.16824451707,0.211327463264
1589284548427366851,23675,1589284548427186459,,0.498850807216,-0.168237881777,0.211329258368
1589284548433325770,23676,1589284548433181003,,0.498849462632,-0.16823481978,0.211329345186
1589284548439189655,23677,1589284548439109340,,0.498849365345,-0.168232386893,0.211330275276
1589284548443896691,23678,1589284548443797522,,0.498846947092,-0.168227080182,0.211331799253
1589284548448269624,23679,1589284548448147401,,0.498845899909,-0.168225946083,0.211331798042
1589284548454277735,23680,1589284548454132723,,0.49884394474,-0.16822120649,0.211332168607
1589284548460227208,23681,1589284548460109496,,0.498843544137,-0.16821946246,0.211332806219
1589284548466472236,23682,1589284548466359926,,0.49884111937,-0.168217133287,0.211332521826
1589284548472205659,23683,1589284548472107044,,0.498840504326,-0.168215783819,0.211332418581
1589284548484270272,23684,1589284548484162732,,0.498837004932,-0.168210872081,0.211330565884
1589284548490211025,23685,1589284548490100525,,0.498835432485,-0.168206455755,0.211329301072
1589284548496228579,23686,1589284548496103725,,0.49883542917,-0.168204066211,0.211330919155
1589284548502207898,23687,1589284548502120127,,0.498833827861,-0.168199658021,0.21132944053
1589284548508257631,23688,1589284548508144464,,0.498833766409,-0.168197245923,0.211331218707
1589284548517280869,23689,1589284548517182268,,0.498831513243,-0.168186832945,0.211333153086
1589284548523263778,23690,1589284548523093645,,0.498831288592,-0.168179012269,0.211337633474
1589284548529283228,23691,1589284548529156889,,0.4988303734,-0.168174314176,0.211337981911
1589284548535318597,23692,1589284548535163519,,0.498830429334,-0.168163774991,0.21134147042
1589284548541231789,23693,1589284548541119892,,0.498830377104,-0.168158457163,0.211343260613
1589284548545911343,23694,1589284548545833951,,0.498830596051,-0.168148220247,0.211343761573
1589284548550265070,23695,1589284548550140618,,0.498830925385,-0.16814192268,0.211344670819
1589284548556173709,23696,1589284548556073271,,0.498830978931,-0.168129409846,0.211343707458
1589284548562280349,23697,1589284548562173467,,0.498831599303,-0.168123013948,0.211344347336
1589284548565654719,23698,1589284548565595835,,0.49883209315,-0.168109291181,0.211346898967
1589284548571268476,23699,1589284548571168946,,0.498831919668,-0.168103110523,0.211346945009
1589284548577220311,23700,1589284548577132110,,0.498832475826,-0.168088708478,0.21135026393
1589284548583294839,23701,1589284548583158085,,0.498832032722,-0.168080394043,0.211352536384
1589284548589301823,23702,1589284548589195203,,0.498832207913,-0.16806392131,0.211359004373
1589284548595275300,23703,1589284548595174339,,0.49883143097,-0.168045687239,0.211364346244
1589284548601195549,23704,1589284548601106448,,0.498832269259,-0.168036322665,0.211367900805
1589284548607167089,23705,1589284548607094321,,0.498831205475,-0.168026183279,0.211367651866
1589284548614485523,23706,1589284548614398326,,0.498831004812,-0.168008208513,0.211371818448
1589284548619233577,23707,1589284548619118776,,0.498830760831,-0.167997813615,0.211372730857
1589284548625364361,23708,1589284548625298213,,0.498830835537,-0.167977942918,0.211376045965
1589284548631223268,23709,1589284548631130919,,0.498829590383,-0.167969019684,0.211376947111
1589284548637240211,23710,1589284548637124279,,0.498829253474,-0.167950675144,0.211380371718
1589284548643233697,23711,1589284548643138662,,0.498828619273,-0.167940887871,0.211381163128
1589284548649248198,23712,1589284548649150504,,0.498827356765,-0.16792201448,0.21138506194
1589284548655211009,23713,1589284548655124296,,0.498827233978,-0.167914165029,0.211386650366
1589284548661275096,23714,1589284548661179244,,0.498826792579,-0.167893713464,0.211391360898
1589284548667396022,23715,1589284548667289649,,0.498826082611,-0.167885499241,0.211393352391
1589284548673257004,23716,1589284548673196478,,0.498826243435,-0.167875931296,0.211395304348
1589284548679173646,23717,1589284548679105037,,0.498825888392,-0.167866499586,0.21139735577
1589284548685195454,23718,1589284548685109873,,0.498823717916,-0.167848760972,0.211398847327
1589284548691223353,23719,1589284548691171942,,0.498822457382,-0.167838014714,0.211399134099
1589284548697254665,23720,1589284548697146427,,0.498819941598,-0.167817392794,0.211401831979
1589284548703291348,23721,1589284548703161859,,0.498817783481,-0.167807214402,0.211403806264
1589284548709401741,23722,1589284548709232574,,0.498814305327,-0.167788430671,0.2114065113
1589284548716740886,23723,1589284548716631479,,0.498813517756,-0.167778602877,0.211408537677
1589284548721296320,23724,1589284548721190884,,0.498811890414,-0.167759599429,0.211409328396
1589284548727204354,23725,1589284548727117034,,0.49881080393,-0.167751965698,0.211408456918
1589284548733276339,23726,1589284548733163091,,0.498809813352,-0.167733590457,0.211410365948
1589284548739253491,23727,1589284548739190284,,0.498808986207,-0.167725530112,0.211411164351
1589284548745181598,23728,1589284548745128525,,0.498808231288,-0.167716978407,0.211411410719
1589284548751244959,23729,1589284548751113204,,0.498806777479,-0.167708165446,0.211411738687
1589284548757237026,23730,1589284548757141995,,0.498805216784,-0.167695989732,0.211413367634
1589284548763248412,23731,1589284548763153911,,0.498804084276,-0.1676849554,0.211413670929
1589284548769551413,23732,1589284548769426880,,0.498804870643,-0.167678878939,0.211415018382
1589284548775345377,23733,1589284548775227359,,0.498803746551,-0.167667117969,0.211416612157
1589284548781299416,23734,1589284548781180748,,0.498804667533,-0.167662306112,0.211417986901
1589284548787303056,23735,1589284548787198464,,0.498803645638,-0.167657642051,0.211417570721
1589284548793340894,23736,1589284548793230327,,0.498804616381,-0.167648872085,0.211420722923
1589284548799204934,23737,1589284548799114392,,0.498804734628,-0.167645104227,0.211422871628
1589284548805280960,23738,1589284548805185857,,0.498804995689,-0.167636780256,0.21142534278
1589284548811194464,23739,1589284548811144773,,0.498804871609,-0.167632343037,0.211425260737
1589284548818748995,23740,1589284548818687852,,0.498806291003,-0.167624637803,0.211428467212
1589284548823278878,23741,1589284548823206491,,0.498806584885,-0.167620700363,0.211428639429
1589284548829278083,23742,1589284548829199626,,0.498807818028,-0.167613634561,0.211430766941
1589284548835472715,23743,1589284548835292756,,0.498808070317,-0.167611045203,0.211430954917
1589284548841307680,23744,1589284548841202045,,0.498808980177,-0.167604128729,0.211431247672
1589284548847312428,23745,1589284548847203213,,0.498809448624,-0.167600487738,0.211433280836
1589284548853278834,23746,1589284548853202833,,0.498810272964,-0.167594310365,0.211433906214
1589284548859230691,23747,1589284548859135419,,0.4988101101,-0.167591669145,0.211434620716
1589284548862184338,23748,1589284548862132078,,0.498810373361,-0.167588226038,0.211434281104
1589284548865599087,23749,1589284548865520839,,0.498810324628,-0.167581256469,0.21143502031
1589284548871338454,23750,1589284548871196856,,0.498810185535,-0.167577587417,0.211436048277
1589284548877220502,23751,1589284548877119443,,0.498810781718,-0.167574854903,0.211436840115
1589284548883307521,23752,1589284548883196822,,0.498810780839,-0.16756927035,0.211437943471
1589284548887389190,23753,1589284548887292996,,0.498810922186,-0.167566156127,0.21143743547
1589284548892230206,23754,1589284548892150689,,0.498810331494,-0.167560569881,0.211438081929
1589284548901325120,23755,1589284548901211123,,0.49880906216,-0.167551579645,0.211437812497
1589284548907507183,23756,1589284548907290032,,0.498808492593,-0.167549456353,0.211437884202
1589284548913249450,23757,1589284548913173358,,0.498807886228,-0.167543451153,0.211437956228
1589284548919250707,23758,1589284548919165465,,0.49880717451,-0.167539245821,0.211437169637
1589284548925216607,23759,1589284548925137154,,0.498806131031,-0.167532510978,0.211436109854
1589284548928300060,23760,1589284548928179939,,0.498806169934,-0.167528689757,0.211435280158
1589284548934373027,23761,1589284548934276315,,0.498805693628,-0.167525407234,0.211434457145
1589284548940330673,23762,1589284548940253098,,0.498805156592,-0.167520370315,0.211432879696
1589284548946276942,23763,1589284548946201344,,0.498804890146,-0.167517395606,0.211432234225
1589284548952202749,23764,1589284548952126711,,0.498804693007,-0.167513544636,0.2114306603
1589284548956016188,23765,1589284548955922045,,0.498804084569,-0.167508819237,0.211429035969
1589284548961215305,23766,1589284548961128163,,0.498804085246,-0.167506050394,0.211428615976
1589284548964235404,23767,1589284548964153660,,0.498804440143,-0.167503485103,0.211426485943
1589284548970230504,23768,1589284548970169273,,0.49880478444,-0.167501723229,0.211427025311
1589284548976239543,23769,1589284548976174711,,0.49880506345,-0.16750039167,0.211426528681
1589284548982288034,23770,1589284548982205895,,0.498805185265,-0.167498416529,0.211424450501
1589284548988318818,23771,1589284548988202119,,0.498805499685,-0.167497861998,0.211424055861
1589284548994287010,23772,1589284548994223969,,0.49880591944,-0.167496383861,0.211424166574
1589284549000266575,23773,1589284549000183451,,0.498805879028,-0.16749698927,0.211423547828
1589284549006242573,23774,1589284549006158226,,0.498806655917,-0.167497131606,0.211421902249
1589284549009249674,23775,1589284549009157046,,0.498806299269,-0.167496635436,0.211419990814
1589284549015284560,23776,1589284549015230690,,0.498806911355,-0.167497914998,0.2114179818
1589284549021292522,23777,1589284549021178315,,0.498807361359,-0.167498207773,0.211416462532
1589284549027307744,23778,1589284549027232086,,0.498807720363,-0.167498777566,0.211411883125
1589284549033218850,23779,1589284549033159294,,0.498808451348,-0.167500620137,0.211408412837
1589284549039257868,23780,1589284549039214558,,0.498809237254,-0.167501588388,0.211404527738
1589284549045258629,23781,1589284549045199634,,0.498809175675,-0.167503541173,0.211401114977
1589284549051752900,23782,1589284549051694532,,0.498810277037,-0.167506113367,0.211392084874
1589284549058495631,23783,1589284549058424634,,0.498811373441,-0.167506758471,0.211386324066
1589284549063303353,23784,1589284549063179140,,0.498812397751,-0.167512013581,0.211374859224
1589284549069657364,23785,1589284549069559652,,0.498813211945,-0.16751343479,0.211368236936
1589284549075418318,23786,1589284549075258335,,0.498814489439,-0.167519659508,0.211354284994
1589284549081316271,23787,1589284549081248519,,0.498815221394,-0.167521598513,0.21134809838
1589284549087366720,23788,1589284549087242551,,0.498817001171,-0.167528143348,0.211337073224
1589284549093307057,23789,1589284549093205388,,0.49881726022,-0.167530980292,0.211331307467
1589284549099240540,23790,1589284549099181244,,0.498818886171,-0.167539248874,0.211320325418
1589284549105376031,23791,1589284549105277666,,0.498819376794,-0.167542360025,0.211316642151
1589284549111312752,23792,1589284549111249493,,0.498820795468,-0.167552013793,0.211306466165
1589284549117334853,23793,1589284549117222419,,0.498821226801,-0.16755563988,0.211301475081
1589284549123373997,23794,1589284549123246095,,0.498823991577,-0.167569174885,0.211288797068
1589284549129360023,23795,1589284549129223317,,0.498825964293,-0.1675753162,0.211285400072
1589284549135367482,23796,1589284549135233677,,0.49882975085,-0.167590442484,0.211282496439
1589284549141344419,23797,1589284549141241967,,0.498832973376,-0.167598107353,0.211282946441
1589284549147300664,23798,1589284549147209854,,0.498838950065,-0.167617842678,0.211285316769
1589284549153341573,23799,1589284549153238644,,0.498842187859,-0.167627692305,0.211285537262
1589284549160984082,23800,1589284549160904062,,0.498846381671,-0.167650114429,0.211284100706
1589284549165652305,23801,1589284549165574358,,0.498847074176,-0.167663172757,0.211282636149
1589284549174272060,23802,1589284549174214468,,0.498847405897,-0.16770271556,0.211275154899
1589284549180286551,23803,1589284549180208310,,0.498847669419,-0.167716237221,0.211272348178
1589284549186285340,23804,1589284549186212386,,0.498848523189,-0.167742134028,0.21126646233
1589284549192295924,23805,1589284549192205847,,0.498847746011,-0.167756434703,0.211262046968
1589284549201347059,23806,1589284549201236924,,0.498848974024,-0.167791297873,0.211254124814
1589284549207308079,23807,1589284549207210952,,0.498851027161,-0.167811763915,0.211250056309
1589284549213292753,23808,1589284549213194614,,0.498851426376,-0.167822654361,0.211246565317
1589284549219318924,23809,1589284549219212033,,0.498852672945,-0.167839424105,0.2112438258
1589284549225230196,23810,1589284549225174059,,0.498853513742,-0.167846571288,0.211241997953
1589284549228904650,23811,1589284549228842287,,0.498852809558,-0.167862648756,0.211232376661
1589284549234365384,23812,1589284549234258861,,0.498853344886,-0.167868914592,0.211225930153
1589284549240338158,23813,1589284549240243690,,0.498855786048,-0.167884036194,0.211209295126
1589284549246366583,23814,1589284549246237249,,0.49885535326,-0.167892562235,0.211200592213
1589284549252367174,23815,1589284549252260311,,0.498857847244,-0.167906454061,0.211188199896
1589284549258534407,23816,1589284549258473733,,0.498858890942,-0.167913786352,0.211181845742
1589284549261349698,23817,1589284549261272890,,0.49886031891,-0.167926781979,0.211169892545
1589284549264270221,23818,1589284549264213007,,0.498862718195,-0.167932169209,0.211163568409
1589284549270383813,23819,1589284549270259904,,0.498864093333,-0.167938373923,0.211156272688
1589284549276274231,23820,1589284549276185583,,0.498865325171,-0.16794489544,0.211151298972
1589284549282315580,23821,1589284549282236826,,0.49886703183,-0.167950702822,0.211143684187
1589284549288375475,23822,1589284549288251963,,0.498870295433,-0.167961822427,0.211127353398
1589284549294291979,23823,1589284549294216343,,0.498871533525,-0.167968997331,0.211119425453
1589284549300369919,23824,1589284549300282583,,0.498872978895,-0.167973055714,0.211111537747
1589284549306276240,23825,1589284549306227277,,0.498873841063,-0.167978447703,0.211105648413
1589284549312310618,23826,1589284549312247839,,0.498875502296,-0.167990292903,0.211090152103
1589284549321330700,23827,1589284549321244164,,0.498877106986,-0.168001204055,0.211074520732
1589284549327308576,23828,1589284549327221709,,0.498879316892,-0.168013332236,0.211056804487
1589284549333314290,23829,1589284549333252884,,0.498879463375,-0.168018979777,0.211051235336
1589284549339363088,23830,1589284549339257613,,0.498880298631,-0.168030419838,0.211040099194
1589284549345859264,23831,1589284549345787233,,0.498880503386,-0.168036843823,0.211033756375
1589284549351835509,23832,1589284549351760947,,0.498880322359,-0.168043606529,0.211026310561
1589284549357511813,23833,1589284549357322230,,0.49888079943,-0.168050010035,0.211019041231
1589284549363420020,23834,1589284549363273249,,0.498880876164,-0.168066952477,0.211006215536
1589284549369645653,23835,1589284549369536702,,0.498880927261,-0.168076258218,0.210999774242
1589284549375333990,23836,1589284549375244190,,0.4988804754,-0.16808678273,0.210995137433
1589284549381501374,23837,1589284549381278056,,0.498879585442,-0.168106967114,0.210982197827
1589284549387366903,23838,1589284549387264766,,0.498879741505,-0.168118261702,0.210974473415
1589284549393330797,23839,1589284549393241988,,0.498879774735,-0.168128515497,0.210968517267
1589284549399497667,23840,1589284549399396095,,0.498878895109,-0.168140247778,0.210961914642
1589284549405319461,23841,1589284549405239346,,0.498878506494,-0.168163401979,0.210947938473
1589284549417393729,23842,1589284549417327549,,0.49887906995,-0.168197329733,0.210928569796
1589284549423431686,23843,1589284549423309296,,0.498880647527,-0.168208879526,0.21092342125
1589284549429461149,23844,1589284549429324796,,0.498883128732,-0.168236821908,0.21091213968
1589284549435395065,23845,1589284549435299046,,0.4988848554,-0.168252405519,0.210909122277
1589284549441422827,23846,1589284549441291241,,0.498886222025,-0.168265884868,0.210903292122
1589284549447495110,23847,1589284549447411510,,0.498887685731,-0.168282654198,0.21089775077
1589284549453418590,23848,1589284549453334109,,0.498888908143,-0.168314359968,0.210883591187
1589284549459332235,23849,1589284549459262954,,0.498889446838,-0.168331188415,0.210875615848
1589284549462333001,23850,1589284549462218754,,0.498890828381,-0.168364108084,0.210860774078
1589284549465293658,23851,1589284549465223161,,0.498890967635,-0.168382066815,0.210852294441
1589284549477364062,23852,1589284549477265691,,0.498893894876,-0.168443257616,0.210815718188
1589284549483336587,23853,1589284549483243365,,0.498895544829,-0.168458595091,0.210806589869
1589284549489307736,23854,1589284549489216236,,0.498896587625,-0.168473752478,0.210797447254
1589284549495385892,23855,1589284549495282334,,0.498899457861,-0.168500496516,0.210779830057
1589284549501494810,23856,1589284549501400559,,0.498900717676,-0.168515929762,0.210770798782
1589284549507432242,23857,1589284549507273272,,0.498904904466,-0.168543179408,0.210756543028
1589284549513416475,23858,1589284549513304813,,0.498905684599,-0.168557686574,0.210745183515
1589284549519321408,23859,1589284549519230547,,0.498909035449,-0.168585815157,0.210728079649
1589284549528415684,23860,1589284549528274356,,0.498914384106,-0.168624257836,0.210699062392
1589284549535002166,23861,1589284549534869615,,0.498915273094,-0.168636968525,0.210685860982
1589284549540410735,23862,1589284549540243347,,0.498920777642,-0.168661570428,0.210664636977
1589284549546430990,23863,1589284549546291611,,0.498923247798,-0.168672990668,0.210656883103
1589284549552557792,23864,1589284549552470924,,0.498927388774,-0.168696049679,0.210636693393
1589284549558604993,23865,1589284549558531076,,0.498929440406,-0.168708856326,0.210624418087
1589284549564373857,23866,1589284549564260227,,0.498933373205,-0.168732122824,0.210606098479
1589284549568802914,23867,1589284549568684104,,0.498935412529,-0.168745079658,0.210594013093
1589284549573355153,23868,1589284549573272935,,0.498940286584,-0.168768180645,0.210573646349
1589284549579381735,23869,1589284549579278677,,0.498942304087,-0.168778980148,0.210563396769
1589284549588478135,23870,1589284549588322309,,0.498950243318,-0.168815862957,0.210531637571
1589284549594384185,23871,1589284549594278217,,0.498952121109,-0.168828535499,0.210522689406
1589284549600331498,23872,1589284549600237407,,0.498954524654,-0.168841983111,0.210508939604
