%time,field.header.seq,field.header.stamp,field.header.frame_id,field.vector.x,field.vector.y,field.vector.z
1588764567916239001,899,1588764567916130494,,-0.0387322362108,-22.7908312193,16.3840209504
1588764567919091505,900,1588764567919009110,,-0.0402449180705,-22.8550456424,16.4186391425
1588764567922150673,901,1588764567922064990,,-0.0408346079306,-22.7596689434,16.3498619961
1588764567928424959,902,1588764567928284736,,-0.0389468957082,-23.0680171774,16.5527560353
1588764567931323726,903,1588764567931222089,,-0.0415750016909,-23.3583571858,16.7404774965
1588764567934402316,904,1588764567934288662,,-0.0430305044125,-23.2649731616,16.676676601
1588764567940467310,905,1588764567940337888,,-0.0420514663874,-23.5562329083,16.8713298321
1588764567943565578,906,1588764567943451299,,-0.0410770149286,-23.8408333667,17.0613824546
1588764567946310430,907,1588764567946192000,,-0.0439349348423,-23.7636241738,17.0036857291
1588764567952385759,908,1588764567952278849,,-0.0420248639331,-24.0447500284,17.1937585591
1588764567955418352,909,1588764567955279239,,-0.0422669896553,-23.9634927084,17.1377989832
1588764567958353829,910,1588764567958212684,,-0.0415538375166,-24.2413550304,17.3209455715
1588764567964433101,911,1588764567964267856,,-0.0407927017132,-24.5168878447,17.5014244487
1588764567967519560,912,1588764567967373131,,-0.0411079692316,-24.4303259028,17.4392860069
1588764567971054459,913,1588764567970786227,,-0.0400312269793,-24.6990492164,17.6154588035
1588764567976327791,914,1588764567976231635,,-0.0399720654176,-24.8146852787,17.6862409737
1588764567979202426,915,1588764567979055253,,-0.0412509761707,-24.883443521,17.7223554414
1588764567982414347,916,1588764567982245218,,-0.0420460316675,-24.7949483245,17.655406842
1588764567988313037,917,1588764567988214151,,-0.0423046658599,-25.0577223675,17.8275486485
1588764567991418520,918,1588764567991291352,,-0.0435199594093,-25.3202581837,17.9932974539
1588764567994382526,919,1588764567994226064,,-0.0439011973176,-25.2233869958,17.9256331354
1588764568000320533,920,1588764568000233785,,-0.0435095686988,-25.4754372588,18.089276264
1588764568009485092,921,1588764568009339862,,-0.0429462905674,-25.6263408806,18.1850282163
1588764568012292520,922,1588764568012201731,,-0.0425387834582,-25.8728657567,18.3440871212
1588764568015409801,923,1588764568015219040,,-0.0425132511562,-25.7747752195,18.277187881
1588764568018311712,924,1588764568018218399,,-0.0422086422786,-26.0126338705,18.4349080056
1588764568024363273,925,1588764568024264882,,-0.042050946125,-26.2566483131,18.5930521859
1588764568027347556,926,1588764568027228717,,-0.0409284878461,-26.15113483,18.522827834
1588764568033385897,927,1588764568033245733,,-0.0399738829406,-26.3861228751,18.6785518636
1588764568036302416,928,1588764568036215394,,-0.0383269896227,-26.3095984866,18.7307487563
1588764568039418009,929,1588764568039281835,,-0.0375927012373,-26.5389628619,18.773364719
1588764568045378812,930,1588764568045239493,,-0.0361523422248,-26.7556707257,18.9168839354
1588764568048347020,931,1588764568048259563,,-0.0340494849563,-26.6821375882,18.8611003906
1588764568051382407,932,1588764568051258633,,-0.0334003319157,-26.9090445907,19.0110995437
1588764568057416699,933,1588764568057314670,,-0.0347979461524,-27.1263960669,19.1532293442
1588764568060350353,934,1588764568060247010,,-0.0359747762071,-27.0373292226,19.0931598081
1588764568063541638,935,1588764568063417328,,-0.037270500285,-27.2676596852,19.2448889166
1588764568069275633,936,1588764568069143629,,-0.039364804753,-27.1764954201,19.1850699595
1588764568072444690,937,1588764568072340910,,-0.0388632822582,-27.4022726411,19.3369097053
1588764568075488382,938,1588764568075315780,,-0.0384306351757,-27.3114420941,19.2750205009
1588764568081387515,939,1588764568081294551,,-0.038516389341,-27.5303192153,19.4186908087
1588764568084290802,940,1588764568084193568,,-0.0385961693397,-27.7424847082,19.5605966483
1588764568087378050,941,1588764568087247922,,-0.0397333096276,-27.6494048822,19.4952639545
1588764568093391230,942,1588764568093303224,,-0.0414624735229,-27.856045151,19.6292892392
1588764568096461647,943,1588764568096347957,,-0.0429341713536,-27.8786157837,19.6415689902
1588764568099379503,944,1588764568099231740,,-0.0437120310638,-27.9521183565,19.6864983282
1588764568105386526,945,1588764568105253399,,-0.0455220476575,-28.1471318873,19.8059448535
1588764568108414603,946,1588764568108277171,,-0.0462029198755,-28.0391788571,19.7248115027
1588764568111393130,947,1588764568111272809,,-0.0469740453344,-28.227184495,19.8429134183
1588764568117451071,948,1588764568117327433,,-0.0468982581288,-28.405879088,19.9563121213
1588764568120755924,949,1588764568120627802,,-0.04755806176,-28.2982455063,19.8760498009
1588764568124072112,950,1588764568123942786,,-0.0473575147508,-28.4737738069,19.9889089413
1588764568129480394,951,1588764568129339468,,-0.0459823253959,-28.3605056794,19.9129110016
1588764568132272419,952,1588764568132119975,,-0.0457476341963,-28.5319658534,20.0255453515
1588764568135377606,953,1588764568135246803,,-0.0448768699355,-28.4237050188,19.9535824986
1588764568141396400,954,1588764568141276314,,-0.0443039494972,-28.5910786339,20.0653828942
1588764568144384684,955,1588764568144274126,,-0.043926272935,-28.7576592777,20.1751908715
1588764568147323276,956,1588764568147225410,,-0.043834036408,-28.6501404683,20.1025641872
1588764568153114657,957,1588764568153028554,,-0.0424999276843,-28.8110578184,20.2085001995
1588764568156483757,958,1588764568156377142,,-0.0431149230535,-28.9683080954,20.3081004964
1588764568159327611,959,1588764568159244873,,-0.0425359216321,-28.8574050361,20.2331282132
1588764568165323861,960,1588764568165221800,,-0.0421714374674,-29.0100972684,20.3303830826
1588764568168362703,961,1588764568168262931,,-0.0433486559623,-28.9022670955,20.2519786522
1588764568174745495,962,1588764568174614457,,-0.043827101703,-29.0490650751,20.3437301583
1588764568177263744,963,1588764568177158635,,-0.0463035824358,-29.193209132,20.4282873968
1588764568180299086,964,1588764568180192492,,-0.0482834250417,-29.0810042992,20.3440931641
1588764568186497044,965,1588764568186392538,,-0.0494045488395,-29.2160065083,20.4272234574
1588764568189052088,966,1588764568188967913,,-0.0526796717812,-29.1062796928,20.3448242519
1588764568192020049,967,1588764568191936962,,-0.0524908352872,-29.2364052228,20.4290564078
1588764568198199146,968,1588764568198082380,,-0.0540405470139,-29.3653217157,20.50897418
1588764568201447541,969,1588764568201308366,,-0.0534175984652,-29.2533332746,20.4339067163
1588764568204447211,970,1588764568204336702,,-0.0523460792233,-29.3779257766,20.5160347339
1588764568210470509,971,1588764568210327605,,-0.0543959360182,-29.4985598916,20.5933150571
1588764568213411711,972,1588764568213305950,,-0.0515037792687,-29.3868960327,20.5233020303
1588764568216419891,973,1588764568216346728,,-0.0518125832951,-29.315804854,20.4759264151
1588764568222269675,974,1588764568222193245,,-0.0524033665658,-29.3933481301,20.5300129367
1588764568225276748,975,1588764568225183408,,-0.0523973447956,-29.5089472142,20.6057166815
1588764568231278185,976,1588764568231162664,,-0.0541989979393,-29.6174435362,20.673146128
1588764568234302919,977,1588764568234208471,,-0.0536724385534,-29.5105350084,20.6016460116
1588764568237520543,978,1588764568237389309,,-0.0533865487677,-29.6126435656,20.6675839017
1588764568240288313,979,1588764568240174850,,-0.0526752441406,-29.5077843601,20.5919300518
1588764568246277053,980,1588764568246188082,,-0.0525743241421,-29.6065795975,20.6515996224
1588764568249308453,981,1588764568249219855,,-0.0511994680982,-29.4992155272,20.5750833502
1588764568255553831,982,1588764568255443852,,-0.0515777633995,-29.591913706,20.6283042635
1588764568258318291,983,1588764568258231983,,-0.0499938770395,-29.6779004721,20.6828290416
1588764568261354096,984,1588764568261272497,,-0.0504756657659,-29.5709677554,20.6032770785
1588764568264449728,985,1588764568264319044,,-0.0500425978051,-29.6492417348,20.6541698597
1588764568270655379,986,1588764568270564824,,-0.0483819148103,-29.7247405851,20.7038127173
1588764568273621954,987,1588764568273541967,,-0.0470354067896,-29.614243477,20.6300149588
1588764568279326622,988,1588764568279237601,,-0.0451509440725,-29.6820356386,20.6774846144
1588764568282427212,989,1588764568282330566,,-0.043993593293,-29.5704340846,20.6041380607
1588764568285778684,990,1588764568285666807,,-0.0415747768948,-29.6341932517,20.6513178462
1588764568288602105,991,1588764568288501065,,-0.0389080621413,-29.5213976017,20.580688391
1588764568294357370,992,1588764568294290847,,-0.0386021499379,-29.5821097475,20.6193673633
1588764568297393266,993,1588764568297310604,,-0.0357965378192,-29.6358678533,20.6583573389
1588764568306287532,994,1588764568306213706,,-0.0334631878508,-29.5731698057,20.6168172218
1588764568309451949,995,1588764568309254419,,-0.0322274801158,-29.4669396411,20.5429540499
1588764568312363864,996,1588764568312282033,,-0.0310328436042,-29.5105504901,20.5696082043
1588764568318744825,997,1588764568318582272,,-0.0299620833361,-29.5498172591,20.5909104728
1588764568321549945,998,1588764568321469760,,-0.0284360147459,-29.443699053,20.5181603241
1588764568327623212,999,1588764568327469831,,-0.028334067967,-29.479139153,20.5382364334
1588764568330458944,1000,1588764568330333520,,-0.0276209840619,-29.5203528436,20.5586005118
1588764568333464523,1001,1588764568333342853,,-0.0244332838141,-29.4353444736,20.498352717
1588764568339482089,1002,1588764568339383895,,-0.0246081516801,-29.4628939375,20.5134826697
1588764568342437065,1003,1588764568342341255,,-0.0246052752197,-29.3514249872,20.4368386599
1588764568345488514,1004,1588764568345378570,,-0.0204748771012,-29.3972038844,20.4669005789
1588764568351191292,1005,1588764568351096256,,-0.0218667733927,-29.4241811755,20.4787204269
1588764568354291189,1006,1588764568354210903,,-0.0210692664893,-29.3124203892,20.4080021191
1588764568357150124,1007,1588764568357071577,,-0.019037677354,-29.3382148077,20.4231989179
1588764568366490249,1008,1588764568366360810,,-0.0185901069951,-29.2592600103,20.3670476584
1588764568369732573,1009,1588764568369614468,,-0.017914504941,-29.2745442841,20.3710622981
1588764568378399943,1010,1588764568378291961,,-0.0139402640276,-29.2771713252,20.3692076186
1588764568381591488,1011,1588764568381458409,,-0.0113105258519,-29.1794424382,20.2992949049
1588764568384473143,1012,1588764568384289521,,-0.00601691750057,-29.1761352287,20.2963810488
1588764568387387794,1013,1588764568387205806,,-0.00444693515633,-29.0731188328,20.2193786008
1588764568390309756,1014,1588764568390226476,,-0.000705447616878,-29.0611151752,20.2103587483
1588764568396407264,1015,1588764568396314453,,0.00271827082265,-29.06408604,20.2131844502
1588764568399435061,1016,1588764568399265663,,0.00427465920494,-28.9566625169,20.1428855277
1588764568402296252,1017,1588764568402202805,,0.00714018413694,-28.8378949037,20.0661044548
1588764568405305842,1018,1588764568405230507,,0.0111334412943,-28.8394822865,20.0655057627
1588764568411538112,1019,1588764568411445065,,0.0131822130915,-28.8101961981,20.0496393744
1588764568414563661,1020,1588764568414399846,,0.016094345211,-28.6943021133,19.9799078478
1588764568420296150,1021,1588764568420211431,,0.0199883381445,-28.6705422453,19.9664639711
1588764568423343934,1022,1588764568423275350,,0.020601590632,-28.6378273679,19.9436021451
1588764568426290042,1023,1588764568426210393,,0.0244457665973,-28.5425003611,19.8824526637
1588764568429259210,1024,1588764568429177314,,0.0269527560901,-28.4509359542,19.8208319126
1588764568435458161,1025,1588764568435340498,,0.0301021140702,-28.4133169267,19.7936525108
1588764568438366329,1026,1588764568438233232,,0.0343359055861,-28.3725393475,19.7633718134
1588764568441324252,1027,1588764568441189232,,0.0378886603711,-28.2761734713,19.6982426434
1588764568447230171,1028,1588764568447142914,,0.0384114919529,-28.2286874214,19.6568364194
1588764568450410975,1029,1588764568450290882,,0.0420047363895,-28.1745982714,19.6171671964
1588764568456499018,1030,1588764568456414239,,0.0437256745952,-28.1135895582,19.5756899849
1588764568459245683,1031,1588764568459174916,,0.0451067458798,-28.018076621,19.504612021
1588764568462286100,1032,1588764568462207362,,0.0474887818097,-27.9212999937,19.4338513424
1588764568468280846,1033,1588764568468181499,,0.0496779268994,-27.8581292283,19.3883354313
1588764568471521352,1034,1588764568471431299,,0.0534883946355,-27.7852294116,19.3382822817
1588764568474590171,1035,1588764568474487810,,0.0554165618005,-27.6906493508,19.2661732335
1588764568480249904,1036,1588764568480180649,,0.0618733327824,-27.6107350047,19.2188331281
1588764568486533937,1037,1588764568486431328,,0.0703499012528,-27.4325085233,19.0992124509
1588764568492334116,1038,1588764568492217972,,0.0754394560468,-27.3420447754,19.0427565366
1588764568495348610,1039,1588764568495240931,,0.0815547751105,-27.2435860042,18.9810713886
1588764568498253658,1040,1588764568498156381,,0.087358059475,-27.1490580249,18.9214510605
1588764568504250564,1041,1588764568504160732,,0.0925773206959,-27.0493801718,18.8555634138
1588764568507254106,1042,1588764568507178949,,0.101043506812,-26.9495568129,18.7927384799
1588764568510307135,1043,1588764568510201201,,0.107844467183,-26.8509340916,18.7268858339
1588764568516396700,1044,1588764568516302572,,0.113273037348,-26.7602883852,18.6623135354
1588764568518909466,1045,1588764568518805766,,0.121069743907,-26.6602020218,18.5991397241
1588764568521949575,1046,1588764568521874074,,0.126535260681,-26.5577713218,18.5331666071
1588764568528034257,1047,1588764568527922859,,0.131024461759,-26.4675351254,18.4702238568
1588764568530995069,1048,1588764568530918556,,0.133560183222,-26.3529086067,18.3982827484
1588764568534180319,1049,1588764568534080370,,0.1340288917,-26.2550466893,18.3333158468
1588764568540132953,1050,1588764568540058793,,0.139851908407,-26.1464402341,18.2615358255
1588764568543333893,1051,1588764568543258285,,0.146965542292,-26.0407364063,18.192209742
1588764568546165559,1052,1588764568546077039,,0.147583537617,-25.9633164006,18.1372112252
1588764568552133827,1053,1588764568552054629,,0.150398939248,-25.8504509855,18.0622767153
1588764568555113644,1054,1588764568555044932,,0.152703793466,-25.7744139075,18.0091439054
1588764568558099655,1055,1588764568558023867,,0.156849476572,-25.6495874972,17.9279584781
1588764568564069353,1056,1588764568563972900,,0.162262238504,-25.5263132902,17.8439418623
1588764568567215582,1057,1588764568567137729,,0.170109044246,-25.4485850582,17.7879382026
1588764568570466870,1058,1588764568570386402,,0.174739953189,-25.312130966,17.6984368202
1588764568576428144,1059,1588764568576252312,,0.176686371693,-25.2256564766,17.6387744062
1588764568579139936,1060,1588764568579054740,,0.178958919048,-25.0821514043,17.5404481952
1588764568585196608,1061,1588764568585109999,,0.180882897879,-24.9344300444,17.4377956475
1588764568588183273,1062,1588764568588093467,,0.18650746155,-24.8423823602,17.3813159611
1588764568591158830,1063,1588764568591062072,,0.189627139691,-24.6895481768,17.2784014597
1588764568597349966,1064,1588764568597216371,,0.197451645172,-24.5346506596,17.1726661474
1588764568600311969,1065,1588764568600224670,,0.20359639319,-24.4463643302,17.1199234311
1588764568603297101,1066,1588764568603195228,,0.206427046235,-24.2827565348,17.0084585688
1588764568609535276,1067,1588764568609410799,,0.211503862635,-24.1961592017,16.9551020949
1588764568612510340,1068,1588764568612393100,,0.214088673134,-24.0313442734,16.8462108602
1588764568618219614,1069,1588764568618112315,,0.22456826979,-23.8660280498,16.7400950198
1588764568621275240,1070,1588764568621161459,,0.229001240409,-23.783398544,16.6884843074
1588764568624283696,1071,1588764568624162222,,0.23200757811,-23.6091673474,16.5761987137
1588764568627218335,1072,1588764568627151719,,0.23338189459,-23.529163856,16.5214685615
1588764568633048949,1073,1588764568632957590,,0.23611628654,-23.3559929785,16.4092026853
1588764568636173547,1074,1588764568635975149,,0.24673634528,-23.2784396335,16.3568359322
1588764568642113924,1075,1588764568642030524,,0.250665656059,-23.1023630818,16.2368357895
1588764568645078081,1076,1588764568645001482,,0.254148020362,-22.9155629275,16.1146200635
1588764568648108011,1077,1588764568647996890,,0.25565134322,-22.8414732381,16.0582776911
1588764568651096405,1078,1588764568650968259,,0.25843581852,-22.6525577283,15.9332828057
1588764568657114545,1079,1588764568657013300,,0.261843390024,-22.463717899,15.8079364551
1588764568659984288,1080,1588764568659906481,,0.267381840219,-22.3863077314,15.7599921082
1588764568666055823,1081,1588764568665974941,,0.270379723489,-22.1943455023,15.6331888766
1588764568669169151,1082,1588764568669034469,,0.281062547961,-22.126338426,15.5857283424
1588764568672196821,1083,1588764568672067690,,0.286028683619,-21.9287771358,15.45763465
1588764568675389585,1084,1588764568675250183,,0.290704001253,-21.8524339512,15.4124631947
1588764568681071898,1085,1588764568681001607,,0.293477621225,-21.6557622323,15.2798924751
1588764568684043252,1086,1588764568683972312,,0.296695183802,-21.4505936291,15.1479820111
1588764568693002620,1087,1588764568692933925,,0.305087150518,-21.17064272,14.9682149087
1588764568696253706,1088,1588764568695950707,,0.308938435781,-21.0979691,14.9222481523
1588764568699027084,1089,1588764568698963767,,0.321314566434,-20.9007284677,14.7879555172
1588764568705105777,1090,1588764568704970643,,0.325768087284,-20.6867443994,14.6467166074
1588764568708064014,1091,1588764568707984269,,0.328675300494,-20.6136374685,14.596439756
1588764568714130810,1092,1588764568714012293,,0.332070536023,-20.398861148,14.4532548265
1588764568717115579,1093,1588764568717036140,,0.336178884251,-20.1847592318,14.3121997517
1588764568720045245,1094,1588764568719961991,,0.338932633314,-20.1285841841,14.2703229918
1588764568726042569,1095,1588764568725947053,,0.343464621546,-19.9066426806,14.124122487
1588764568729066490,1096,1588764568728954891,,0.34843348454,-19.8328714162,14.0821216198
1588764568732031447,1097,1588764568731917511,,0.351717831016,-19.6293259981,13.9418197583
1588764568738307886,1098,1588764568738210566,,0.356115569653,-19.4041991013,13.7979526959
1588764568741080035,1099,1588764568741003577,,0.361036557078,-19.3351582799,13.7600389662
1588764568744072350,1100,1588764568743956493,,0.374872252344,-19.1259114396,13.6179157528
1588764568750318896,1101,1588764568750253890,,0.379313349645,-18.9019230209,13.4701724732
1588764568753064635,1102,1588764568752987826,,0.381950618213,-18.8431172268,13.435381174
1588764568759206271,1103,1588764568759145211,,0.38431644705,-18.623426479,13.2868381696
1588764568762075670,1104,1588764568762007965,,0.383466519841,-18.5643390164,13.2440427027
1588764568765052007,1105,1588764568764962161,,0.386201391948,-18.3364716944,13.091371264
1588764568768102611,1106,1588764568768024122,,0.389825606678,-18.2838076932,13.058215471
1588764568774408200,1107,1588764568774316028,,0.390608666295,-18.050534144,12.8989732972
1588764568777757239,1108,1588764568777642436,,0.39427927277,-17.8164263793,12.7423970691
1588764568783288465,1109,1588764568783198704,,0.399013924254,-17.5787129143,12.5873566708
1588764568786168693,1110,1588764568786094858,,0.40339011934,-17.5237157105,12.5493055014
1588764568789592931,1111,1588764568789348316,,0.416162374454,-17.4813254651,12.5182002464
1588764568792202869,1112,1588764568792115204,,0.422436660201,-17.2399844467,12.3613688411
1588764568798408549,1113,1588764568798319438,,0.425020218329,-16.9931893812,12.2009479214
1588764568801196723,1114,1588764568801081337,,0.429729760302,-16.9392067536,12.1673537104
1588764568807193845,1115,1588764568807107589,,0.432430724621,-16.6926647167,12.0049393479
1588764568810499116,1116,1588764568810340609,,0.436038101096,-16.4443461924,11.8419199643
1588764568813327061,1117,1588764568813240873,,0.439195090803,-16.3894525641,11.8050993364
1588764568816695376,1118,1588764568816596359,,0.444010078938,-16.0488031353,11.580705364
1588764568822303149,1119,1588764568822193768,,0.447985712013,-16.0854751802,11.6083324655
1588764568825523728,1120,1588764568825445940,,0.451984088276,-15.8371425947,11.4425558988
1588764568828166472,1121,1588764568828058920,,0.45649517183,-15.7876419415,11.410335144
1588764568834119106,1122,1588764568834060478,,0.471186719661,-15.5428087039,11.2493534009
1588764568837167845,1123,1588764568837100763,,0.47645578511,-15.2921003885,11.0842176744
1588764568846422827,1124,1588764568846318990,,0.485225771118,-14.9903559047,10.8877507046
1588764568849440861,1125,1588764568849282988,,0.487779220277,-14.9441081841,10.8574997498
1588764568852639299,1126,1588764568852535837,,0.490215858097,-14.6902325394,10.689526474
1588764568858441754,1127,1588764568858274773,,0.494760175059,-14.4378074256,10.5238814793
1588764568861344803,1128,1588764568861271226,,0.499143247863,-14.3935098964,10.4975829526
1588764568867612662,1129,1588764568867450362,,0.503473851628,-14.1398154143,10.3301345989
1588764568870908992,1130,1588764568870783788,,0.506922424418,-13.8907047449,10.1630880882
1588764568873923506,1131,1588764568873820683,,0.511450975314,-13.856718051,10.1446551195
1588764568879638970,1132,1588764568879557319,,0.516357730059,-13.6041977114,9.97749653862
1588764568882508187,1133,1588764568882407816,,0.52863320435,-13.5718151301,9.9531022773
1588764568885520792,1134,1588764568885431352,,0.534324538056,-13.324986262,9.7914334291
1588764568891538423,1135,1588764568891438595,,0.537517388726,-13.0704489679,9.6232172343
1588764568894172116,1136,1588764568894101374,,0.541769701369,-13.034569642,9.60230038096
1588764568900290714,1137,1588764568900188678,,0.545118062295,-12.7841079205,9.43647906663
1588764568906396051,1138,1588764568906298342,,0.550652351716,-12.4981967828,9.24796852569
1588764568909513619,1139,1588764568909348354,,0.554405418673,-12.4650195492,9.22529591988
1588764568915333591,1140,1588764568915236006,,0.559406639174,-12.2132810112,9.06022444614
1588764568918456112,1141,1588764568918298492,,0.563464628725,-11.9650946805,8.89602282812
1588764568921195816,1142,1588764568921121057,,0.568008931983,-11.9330324508,8.87463204619
1588764568927269667,1143,1588764568927193295,,0.573169301174,-11.682353434,8.71135096638
1588764568930232004,1144,1588764568930137211,,0.5785408849,-11.4294533356,8.54706388531
1588764568933199650,1145,1588764568933123914,,0.582582570986,-11.4033838963,8.5295985737
1588764568939484759,1146,1588764568939339332,,0.586911694309,-11.1562414183,8.36562638632
1588764568942404646,1147,1588764568942303182,,0.591690435181,-11.1259362283,8.34582775696
1588764568945414502,1148,1588764568945311957,,0.59664933205,-10.8805007338,8.18436962801
1588764568951436498,1149,1588764568951277014,,0.601222924809,-10.6331850479,8.02116579804
1588764568954162169,1150,1588764568954063516,,0.606178803316,-10.6070157737,8.00221282217
1588764568957174332,1151,1588764568957082521,,0.610659043,-10.36227765,7.83956050666
1588764568966523914,1152,1588764568966382268,,0.619414111417,-10.0913227414,7.66153080292
1588764568969359768,1153,1588764568969270428,,0.623342003921,-10.0676010416,7.64390775439
1588764568975391538,1154,1588764568975293575,,0.627289425376,-9.82616207005,7.48474610266
1588764568978233123,1155,1588764568978143272,,0.632203973637,-9.58819122538,7.32505761212
1588764568984205929,1156,1588764568984108610,,0.636632942209,-9.34872179173,7.1651518887
1588764568987122780,1157,1588764568987039972,,0.641739763769,-9.32577233906,7.15241928974
1588764568990244037,1158,1588764568990148205,,0.646833626526,-9.08980676761,6.99586852847
1588764568996616151,1159,1588764568996365438,,0.650491194391,-9.0735636016,6.98479221505
1588764568999373158,1160,1588764568999273205,,0.655345603208,-8.83931845956,6.8292792187
1588764569002377605,1161,1588764569002277724,,0.660492470819,-8.81947511191,6.81824309009
1588764569008230174,1162,1588764569008101255,,0.664006181237,-8.5874407797,6.66348738882
1588764569011398714,1163,1588764569011297134,,0.669017033879,-8.35827709217,6.51221743262
1588764569014173964,1164,1588764569014079105,,0.67339989866,-8.33963717932,6.50124517152
1588764569020091251,1165,1588764569020015536,,0.677600809431,-8.11321367988,6.35019188851
1588764569023786403,1166,1588764569023703024,,0.681974125728,-7.8896160126,6.20033602461
1588764569026386207,1167,1588764569026302018,,0.685506808241,-7.87516655526,6.19023792881
1588764569032309150,1168,1588764569032214662,,0.689218663505,-7.65474914257,6.04350571377
1588764569035389534,1169,1588764569035281606,,0.693475004479,-7.63983970862,6.03341465565
1588764569038373238,1170,1588764569038235698,,0.698199565406,-7.4199555629,5.88931377745
1588764569044283566,1171,1588764569044196306,,0.702053375415,-7.20572983148,5.74715382596
1588764569047085004,1172,1588764569046996736,,0.706664982313,-7.19243381361,5.73857653931
1588764569053120573,1173,1588764569053042062,,0.710369651425,-6.98321781768,5.59553267967
1588764569056273622,1174,1588764569056075862,,0.714456499602,-6.97197123329,5.58823127509
1588764569059136391,1175,1588764569059061957,,0.71874722361,-6.76483385634,5.45170367849
1588764569062406903,1176,1588764569062308666,,0.72308224929,-6.75222189316,5.44524681998
1588764569068223900,1177,1588764569068064711,,0.727261955321,-6.54784886913,5.30949580267
1588764569071558160,1178,1588764569071452506,,0.731825322116,-6.34568834959,5.17613807997
1588764569077444151,1179,1588764569077360911,,0.736210697916,-6.14776351007,5.04553521713
1588764569080535188,1180,1588764569080441107,,0.741122862446,-6.13804668526,5.03849130397
1588764569086388512,1181,1588764569086196663,,0.748177264361,-5.9388406881,4.90390717846
1588764569092501588,1182,1588764569092376549,,0.750999557665,-5.75212707625,4.77740853356
1588764569095254306,1183,1588764569095176258,,0.754514390671,-5.74512092415,4.77275989561
1588764569101251911,1184,1588764569101118985,,0.757515723406,-5.56412172997,4.65085756434
1588764569104160707,1185,1588764569104066506,,0.760134616103,-5.38777022469,4.53019705424
1588764569107140714,1186,1588764569107056440,,0.763682464477,-5.3814362519,4.52538091771
1588764569110133612,1187,1588764569110023079,,0.76621286997,-5.20883506358,4.40870780757
1588764569116339116,1188,1588764569116125736,,0.768629733196,-5.20479961894,4.40462434713
1588764569119185838,1189,1588764569119100083,,0.7718513977,-5.03723361746,4.29300459204
1588764569125182678,1190,1588764569125096838,,0.774320628101,-4.87547708283,4.18406201297
1588764569128177896,1191,1588764569128094258,,0.777124232735,-4.87121728836,4.18091225138
1588764569131145439,1192,1588764569131079622,,0.77985576429,-4.71520968545,4.07666225892
1588764569137161876,1193,1588764569137085559,,0.782949353184,-4.56326012922,3.9764828096
1588764569140182443,1194,1588764569140114103,,0.785563616695,-4.56097574465,3.97278093743
1588764569149294731,1195,1588764569149211546,,0.792162418624,-4.41250106393,3.87517815776
1588764569152173039,1196,1588764569152079644,,0.794775024299,-4.27379460088,3.78233089178
1588764569155160276,1197,1588764569155067126,,0.797923983787,-4.27237330784,3.7809099864
1588764569161242908,1198,1588764569161172804,,0.801784414582,-4.13984678,3.69503224079
1588764569164206412,1199,1588764569164136309,,0.805853684143,-4.01574780599,3.61268177919
1588764569167193412,1200,1588764569167119144,,0.810216639019,-4.01554487878,3.61441661715
1588764569173565966,1201,1588764569173453269,,0.815224953242,-3.89653587864,3.53790073183
1588764569176342198,1202,1588764569176059324,,0.81981435592,-3.8983789349,3.54141451635
1588764569179311423,1203,1588764569179221530,,0.824475564365,-3.78664462306,3.46881676984
1588764569185738365,1204,1588764569185577513,,0.830482386633,-3.68306193999,3.40560879786
1588764569188572628,1205,1588764569188481773,,0.835447069076,-3.68505586847,3.40911855677
1588764569191625333,1206,1588764569191457644,,0.840920269581,-3.58852216567,3.34972380297
1588764569197471646,1207,1588764569197390628,,0.846836890545,-3.50016634925,3.29600014019
1588764569200545267,1208,1588764569200459588,,0.852212828269,-3.50157156658,3.30023664033
1588764569209571093,1209,1588764569209386934,,0.861705947438,-3.42279735477,3.25439683387
1588764569212401848,1210,1588764569212322361,,0.865874801706,-3.349460729,3.20760147711
1588764569215582349,1211,1588764569215500811,,0.870139032871,-3.35435755339,3.21203772466
1588764569221544911,1212,1588764569221463583,,0.875034665329,-3.28742070005,3.17169609083
1588764569224770708,1213,1588764569224655193,,0.880283758266,-3.23071282297,3.13636256524
1588764569227769696,1214,1588764569227656339,,0.884338410694,-3.23417323562,3.1409254001
1588764569233922046,1215,1588764569233792633,,0.88966364115,-3.18508042988,3.11192940573
1588764569236868844,1216,1588764569236792010,,0.893499308796,-3.14616683272,3.08708739214
1588764569239826352,1217,1588764569239671677,,0.897727209231,-3.14981469701,3.09118829451
1588764569245804956,1218,1588764569245634182,,0.902573951011,-3.11922412992,3.07433855456
1588764569248674360,1219,1588764569248570798,,0.906221114985,-3.12332053586,3.07960711226
1588764569254538849,1220,1588764569254433240,,0.910650866084,-3.10340874988,3.068771615
1588764569257369393,1221,1588764569257257235,,0.915269932276,-3.0919506296,3.06465880239
1588764569260409633,1222,1588764569260291759,,0.919925768611,-3.09676740537,3.07072610876
1588764569266447478,1223,1588764569266346654,,0.923535418303,-3.09650223154,3.07332883464
1588764569269387723,1224,1588764569269284002,,0.927827237294,-3.10103127286,3.07789198008
1588764569272584518,1225,1588764569272504997,,0.931120946848,-3.10644454039,3.08409025594
1588764569278422870,1226,1588764569278258457,,0.933811384531,-3.10805326369,3.09146493941
1588764569281402718,1227,1588764569281326527,,0.936991376768,-3.11275917279,3.09750385407
1588764569284502775,1228,1588764569284388469,,0.939288032702,-3.10460155829,3.11368661377
1588764569290552984,1229,1588764569290460389,,0.943289627082,-3.08581858008,3.13690350771
1588764569293466180,1230,1588764569293332310,,0.946182478844,-3.09400869211,3.14365711234
1588764569296811852,1231,1588764569296678787,,0.949016723222,-3.10390344476,3.14898719341
1588764569302565489,1232,1588764569302413101,,0.951896316653,-3.07837648652,3.17734875243
1588764569305538565,1233,1588764569305439523,,0.954258645791,-3.04382631864,3.21082979701
1588764569308497331,1234,1588764569308398240,,0.957355341038,-3.05198666146,3.21741530141
1588764569314483048,1235,1588764569314369600,,0.960418695951,-3.00668265938,3.25921979124
1588764569317437830,1236,1588764569317285646,,0.962791756761,-2.95220516738,3.30546517639
1588764569320396749,1237,1588764569320299664,,0.965483409866,-2.9611210352,3.31123545912
1588764569326417906,1238,1588764569326325573,,0.9684342175,-2.89743444767,3.36450975154
1588764569329545021,1239,1588764569329352117,,0.971245256618,-2.9063760137,3.37062615789
1588764569332441268,1240,1588764569332359575,,0.972965402415,-2.83532680712,3.42940468029
1588764569338419031,1241,1588764569338305508,,0.975286231173,-2.75509062203,3.49392197674
1588764569341441820,1242,1588764569341356485,,0.976456961206,-2.76459020353,3.49877860852
1588764569344351174,1243,1588764569344266749,,0.978051316356,-2.6752004799,3.56824766844
1588764569350742342,1244,1588764569350588256,,0.979534002301,-2.57922226441,3.64441983159
1588764569353525830,1245,1588764569353415472,,0.980644409862,-2.58839411682,3.6481465678
1588764569357044841,1246,1588764569356857252,,0.982657467421,-2.59850558398,3.65309093891
1588764569362599040,1247,1588764569362467508,,0.984454693619,-2.49367771004,3.73393096533
1588764569365525686,1248,1588764569365415672,,0.986129665527,-2.38146529839,3.8195521409
1588764569371754547,1249,1588764569371639800,,0.988002961587,-2.25934583212,3.9097263181
1588764569375123810,1250,1588764569374987944,,0.989805346259,-2.2686768085,3.9125373799
1588764569377658946,1251,1588764569377519967,,0.990926937503,-2.14050930346,4.00809973191
1588764569384146595,1252,1588764569384063217,,0.992918064962,-2.001202195,4.10798729832
1588764569386523768,1253,1588764569386404236,,0.993867648793,-2.01289522215,4.1099269703
1588764569389685654,1254,1588764569389516813,,0.995208627914,-2.02198407491,4.11125270458
1588764569395711719,1255,1588764569395563734,,0.997358005342,-1.87674014014,4.21748914991
1588764569398637130,1256,1588764569398470115,,0.999246870202,-1.72261792129,4.32757133467
1588764569401548838,1257,1588764569401465866,,1.00156507256,-1.73072438531,4.32840821189
1588764569407593524,1258,1588764569407503435,,1.00355351278,-1.56866176689,4.44267901925
1588764569410778081,1259,1588764569410665667,,1.00602756932,-1.39992145777,4.56204215329
1588764569417052850,1260,1588764569416951358,,1.00819573014,-1.2246506143,4.68495642487
1588764569419622525,1261,1588764569419479816,,1.01116975522,-1.23192719058,4.68694809817
1588764569422540967,1262,1588764569422408164,,1.01370720485,-1.24105720115,4.68851447722
1588764569425468540,1263,1588764569425363157,,1.01553471432,-1.05706527657,4.81646615963
1588764569431698084,1264,1588764569431584444,,1.01697904973,-0.868551296842,4.94746007003
1588764569434667412,1265,1588764569434546974,,1.01988904931,-0.877052182404,4.9487759111
1588764569440294807,1266,1588764569440210867,,1.02290715225,-0.679997429155,5.08449452461
1588764569446583126,1267,1588764569446473386,,1.02769132771,-0.485583792388,5.22377379769
1588764569449685731,1268,1588764569449487159,,1.03074874075,-0.49537685152,5.22359489145
1588764569455525849,1269,1588764569455415512,,1.03309868765,-0.28651361965,5.36813388655
1588764569458531868,1270,1588764569458440247,,1.03551853853,-0.0726956057191,5.51614941823
1588764569464670311,1271,1588764569464551948,,1.03787589941,0.147949949727,5.66741530211
1588764569467631053,1272,1588764569467519139,,1.03961630379,0.137363165437,5.66429042153
1588764569470964961,1273,1588764569470865467,,1.04214005335,0.363668690132,5.81937795427
1588764569473906967,1274,1588764569473803775,,1.04449213751,0.352992684832,5.81729538453
1588764569479609478,1275,1588764569479509858,,1.04669885463,0.584363080837,5.97628464266
1588764569482549811,1276,1588764569482428492,,1.04825724665,0.572849364416,5.97046926141
1588764569488368936,1277,1588764569488291707,,1.04999452528,0.810300977026,6.13352951665
1588764569491381339,1278,1588764569491267940,,1.0512028064,1.05234301117,6.29973637232
1588764569494434733,1279,1588764569494354396,,1.05361387048,1.03971260986,6.29372121577
1588764569497279842,1280,1588764569497196142,,1.05513272688,1.28747472306,6.46278538821
1588764569506665093,1281,1588764569506490450,,1.05926788051,1.52730196497,6.6282958371
1588764569515524693,1282,1588764569515429228,,1.06129742208,1.7855894153,6.80254649977
1588764569518437867,1283,1588764569518331882,,1.0631053686,2.04875705853,6.98113025279
1588764569521531347,1284,1588764569521378129,,1.06424825077,2.03461207737,6.97492876987
1588764569524496309,1285,1588764569524363320,,1.0667124684,2.30289049175,7.15595071828
1588764569527509978,1286,1588764569527424530,,1.06890998104,2.28669802949,7.14898203939
1588764569530305345,1287,1588764569530233433,,1.07041499229,2.55929338107,7.33062557177
1588764569536528786,1288,1588764569536445077,,1.07251053585,2.83776277332,7.51873920212
1588764569539636723,1289,1588764569539503528,,1.07445181997,2.82163921849,7.50912048233
1588764569542509828,1290,1588764569542399745,,1.07663605532,2.80469165694,7.49891600425
1588764569548516176,1291,1588764569548399607,,1.07788522386,3.08489712671,7.6900388687
1588764569551616639,1292,1588764569551446525,,1.07964151705,3.36732202397,7.88042640161
1588764569554516303,1293,1588764569554420506,,1.0817392018,3.34782191433,7.86939979549
1588764569560475603,1294,1588764569560395007,,1.08268313208,3.63288628607,8.06158163156
1588764569566634069,1295,1588764569566519967,,1.08555007606,3.90304791014,8.24895566748
1588764569572935562,1296,1588764569572823665,,1.08669700356,4.19606981094,8.44662418358
1588764569575584569,1297,1588764569575462253,,1.08734928212,4.1763062831,8.43665928236
1588764569578581755,1298,1588764569578484122,,1.08897210482,4.47290910766,8.63535847603
1588764569584672833,1299,1588764569584585955,,1.09095691782,4.77358068071,8.83797325911
1588764569587541430,1300,1588764569587444663,,1.09197818391,4.74843956528,8.82579348774
1588764569590646711,1301,1588764569590524484,,1.09422375204,5.05239600385,9.02601673105
1588764569596903279,1302,1588764569596801801,,1.09621005532,5.36412557641,9.23610183228
1588764569599530010,1303,1588764569599436290,,1.09729262232,5.3404323987,9.22258055589
1588764569602929195,1304,1588764569602669499,,1.09834110281,5.31496684733,9.20610852277
1588764569608485234,1305,1588764569608385183,,1.09775874456,5.62414787493,9.41693375316
1588764569611546849,1306,1588764569611395138,,1.09932883047,5.93534563882,9.6269668675
1588764569614408287,1307,1588764569614292336,,1.10249874135,5.90819049443,9.61395288796
1588764569620576932,1308,1588764569620470102,,1.10623914603,6.22324134083,9.82674445473
1588764569629737723,1309,1588764569629634218,,1.10736806934,6.51118059979,10.0241655665
1588764569632540454,1310,1588764569632440268,,1.10806594938,6.82960597198,10.2397532507
1588764569635632759,1311,1588764569635507789,,1.10910013352,6.80160891653,10.2241585408
1588764569638604077,1312,1588764569638473188,,1.11011775055,7.12328560989,10.4410034039
1588764569644478985,1313,1588764569644398178,,1.11073268636,7.44617029423,10.6589660123
1588764569647660892,1314,1588764569647502734,,1.11367015359,7.4152592689,10.638202507
1588764569653672445,1315,1588764569653580062,,1.11419224464,7.73857478163,10.8516730141
1588764569656778603,1316,1588764569656679348,,1.11566356073,7.99970888363,11.0261177586
1588764569659575893,1317,1588764569659470309,,1.11725798542,8.03955577832,11.0518473282
1588764569665410511,1318,1588764569665280926,,1.11904066306,8.36472925539,11.2726212375
1588764569668432353,1319,1588764569668350947,,1.11989590216,8.33867324151,11.2560632156
1588764569671770828,1320,1588764569671684468,,1.1216190939,8.66964874715,11.4769524712
1588764569677701849,1321,1588764569677546815,,1.12234406432,8.99802209229,11.6990471283
1588764569680546673,1322,1588764569680460502,,1.12385130214,8.96391279146,11.674656949
1588764569689655337,1323,1588764569689521250,,1.1285770966,9.26228500254,11.8791766919
1588764569692585932,1324,1588764569692485550,,1.13058114579,9.60019835848,12.102004077
1588764569695593277,1325,1588764569695485098,,1.1325605512,9.56335359601,12.0812323824
1588764569701387116,1326,1588764569701305861,,1.13416932773,9.89937662984,12.3078261817
1588764569704403017,1327,1588764569704323475,,1.13563070418,10.238385148,12.5290781643
1588764569707459618,1328,1588764569707368608,,1.13669412413,10.2000425227,12.5035993574
1588764569716693384,1329,1588764569716598104,,1.13879092693,10.8233525953,12.9204284477
1588764569719655996,1330,1588764569719549730,,1.14006302147,10.8817284014,12.9566974684
1588764569722595333,1331,1588764569722445242,,1.14194494351,10.8400543888,12.9283810733
1588764569725677817,1332,1588764569725523636,,1.14430896909,11.1733783591,13.1546096336
1588764569728600457,1333,1588764569728481837,,1.14471964162,11.1355330297,13.130850542
1588764569731673641,1334,1588764569731572481,,1.1459777469,11.4694379563,13.3528271185
1588764569737553129,1335,1588764569737441308,,1.14752588454,11.8046171072,13.5787629677
1588764569740482130,1336,1588764569740401109,,1.14834440413,11.7554901499,13.5527415997
1588764569749672087,1337,1588764569749437629,,1.1502429567,12.046658482,13.7516973987
1588764569752493184,1338,1588764569752411503,,1.15196851619,12.3844462977,13.9794897368
1588764569755591568,1339,1588764569755457757,,1.15374839756,12.3399699436,13.9519051753
1588764569761501712,1340,1588764569761390896,,1.15514572259,12.676722121,14.176829498
1588764569764444360,1341,1588764569764347927,,1.15543727272,13.0129919176,14.4020507074
1588764569770842753,1342,1588764569770738924,,1.15803164619,13.3513547138,14.6255075064
1588764569773882592,1343,1588764569773788499,,1.16132472674,13.3071703438,14.593153182
1588764569782203324,1344,1588764569782080050,,1.16457811934,13.6050176272,14.7818990413
1588764569785552076,1345,1588764569785450485,,1.16610431356,13.9400329239,15.0012562647
1588764569788280197,1346,1588764569788098559,,1.16654364466,13.9008460854,14.9710748385
1588764569794434431,1347,1588764569794348003,,1.16903618074,14.2383475487,15.1955287391
1588764569797167553,1348,1588764569797056020,,1.1719620065,14.5742775771,15.4171582359
1588764569806227512,1349,1588764569806157824,,1.17551575652,14.863629258,15.6088179828
1588764569812206937,1350,1588764569812128487,,1.17865740213,15.2137778302,15.8400717131
1588764569815172731,1351,1588764569815096081,,1.18080539194,15.1654856557,15.8059161296
1588764569818427622,1352,1588764569818252384,,1.18177671358,15.5019720647,16.0314062033
1588764569821403481,1353,1588764569821308995,,1.18406534009,15.4600078153,16.0070659635
1588764569827440289,1354,1588764569827268214,,1.1860372184,15.7994441515,16.2307665784
1588764569830552827,1355,1588764569830454484,,1.18904758139,16.1324099804,16.4511896768
1588764569833459600,1356,1588764569833364403,,1.19166437254,16.0926812065,16.427694577
1588764569836748209,1357,1588764569836652508,,1.19437312835,16.429103875,16.647865545
1588764569842587522,1358,1588764569842508759,,1.19500352221,16.3702507602,16.6140455714
1588764569845592407,1359,1588764569845501191,,1.1957291779,16.713835047,16.8449982012
1588764569851637860,1360,1588764569851555800,,1.1979082717,17.0487075259,17.0687816902
1588764569854662504,1361,1588764569854585168,,1.19825585236,16.9881980134,17.0332689043
1588764569857633314,1362,1588764569857551454,,1.20012174493,17.3162095256,17.2570615894
1588764569860591711,1363,1588764569860497888,,1.20233854169,17.2600251779,17.2176738952
1588764569866634783,1364,1588764569866517032,,1.20556996464,17.5850205332,17.4403981218
1588764569869640645,1365,1588764569869572943,,1.2071069225,17.5274360513,17.4048729999
1588764569875438485,1366,1588764569875322395,,1.20886709235,17.853153362,17.6231361086
1588764569878387452,1367,1588764569878310061,,1.20916666969,18.1731877005,17.8415607539
1588764569881336457,1368,1588764569881211607,,1.21061086585,18.1109453831,17.803031902
1588764569884314975,1369,1588764569884236130,,1.2109098303,18.4299685152,18.0194525524
1588764569890499297,1370,1588764569890424408,,1.21266878437,18.748286129,18.229594343
1588764569893677882,1371,1588764569893575828,,1.21642806579,18.6834267853,18.1855123002
1588764569899470056,1372,1588764569899333727,,1.21918515076,18.9993047407,18.3922128404
1588764569902293159,1373,1588764569902212734,,1.22176830513,18.9303643279,18.3442277416
1588764569905361389,1374,1588764569905275583,,1.22525605512,19.2421192621,18.5504762774
1588764569908288016,1375,1588764569908217627,,1.22595857774,19.1712772727,18.5010251809
1588764569914533648,1376,1588764569914473100,,1.22814020981,19.4822425198,18.7043053231
1588764569917268071,1377,1588764569917211736,,1.23041114019,19.7881753048,18.9075445649
1588764569926765786,1378,1588764569926635744,,1.23273892557,20.0193788243,19.0556611134
1588764569929827205,1379,1588764569929757172,,1.23512772715,20.319645072,19.2530414847
1588764569935241388,1380,1588764569935143511,,1.23987232721,20.251069881,19.2059803223
1588764569938595466,1381,1588764569938472273,,1.24138986561,20.544059155,19.4012916557
1588764569941628167,1382,1588764569941534195,,1.24405173953,20.4746690849,19.3508124717
1588764569947325581,1383,1588764569947250465,,1.24851082314,20.7710705865,19.5532216434
1588764569950561024,1384,1588764569950463413,,1.24908503251,21.0649304337,19.7469902833
1588764569953600798,1385,1588764569953504333,,1.25097141038,21.0093463107,19.705284252
1588764569959528063,1386,1588764569959428874,,1.2531144051,21.3003465123,19.9002598795
1588764569962324348,1387,1588764569962216134,,1.25571640872,21.2207971635,19.8506557644
1588764569965277448,1388,1588764569965207427,,1.25668245681,21.524786554,20.0524260955
1588764569971593370,1389,1588764569971489892,,1.25955872129,21.8123675013,20.2385237046
1588764569974648108,1390,1588764569974550204,,1.26421890682,21.7364287077,20.1902375915
1588764569977515892,1391,1588764569977445687,,1.26481342226,22.0216105053,20.3880798765
1588764569983969641,1392,1588764569983904661,,1.26803299843,22.3088558081,20.5790649926
1588764569986339965,1393,1588764569986271325,,1.27032170599,22.2410037009,20.5386680049
1588764569992347719,1394,1588764569992258150,,1.27135295621,22.5217758625,20.7315585063
1588764569995399654,1395,1588764569995325880,,1.27169486377,22.4522151021,20.6859370115
1588764569998442306,1396,1588764569998383281,,1.27340777729,22.7293235789,20.8753698877
1588764570001400910,1397,1588764570001326850,,1.27651190986,22.6552374579,20.8274201389
1588764570007323236,1398,1588764570007257104,,1.27909033765,22.927449823,21.0093668532
1588764570013349780,1399,1588764570013276731,,1.28077748033,23.1958258518,21.1843197066
1588764570019831466,1400,1588764570019682629,,1.28596311108,23.3829885817,21.3113772872
1588764570022731942,1401,1588764570022627939,,1.28805557809,23.305618013,21.2571602972
1588764570025476444,1402,1588764570025356863,,1.28866398759,23.5654291392,21.4270988827
1588764570031490897,1403,1588764570031428638,,1.29218553133,23.8246759711,21.6001271939
1588764570034491920,1404,1588764570034403065,,1.29244475366,23.7434293036,21.538746919
1588764570040147662,1405,1588764570040070580,,1.29673433118,23.9976036999,21.7036260038
1588764570043411277,1406,1588764570043321015,,1.29915553754,24.2489077651,21.8649130487
1588764570046476142,1407,1588764570046383532,,1.30119672514,24.1852501221,21.8129898171
1588764570052247282,1408,1588764570052175186,,1.30459954287,24.4328439078,21.9786588816
1588764570055716139,1409,1588764570055600701,,1.30529881466,24.3422812142,21.92233622
1588764570058254978,1410,1588764570058178061,,1.30461503849,24.6051724073,22.0912549131
1588764570064599431,1411,1588764570064504211,,1.30878625426,24.8431215456,22.2540454942
1588764570067600673,1412,1588764570067520288,,1.31102212308,24.7565186792,22.2005295911
1588764570071064788,1413,1588764570070969302,,1.31394718723,24.9959335063,22.3639483162
1588764570076903241,1414,1588764570076822604,,1.31739569911,24.916086403,22.3076920262
1588764570079559638,1415,1588764570079495531,,1.32019024781,25.1536631175,22.4703679363
1588764570082895485,1416,1588764570082656544,,1.32320391592,25.0754376335,22.4211295234
1588764570088145495,1417,1588764570088094342,,1.32532658907,25.3084174672,22.5811104381
1588764570091093825,1418,1588764570091035914,,1.32626203896,25.5331831755,22.7392503739
1588764570094159713,1419,1588764570094107838,,1.32705184636,25.4493726297,22.6954722836
1588764570100142467,1420,1588764570100078611,,1.32338891491,25.6736249199,22.8761968454
1588764570106444794,1421,1588764570106327797,,1.33177045337,25.8035117904,22.9557612949
1588764570115585784,1422,1588764570115471151,,1.33416856167,26.0157417995,23.097013531
1588764570118495787,1423,1588764570118417309,,1.33800022318,26.2205490451,23.2228933113
1588764570121482288,1424,1588764570121362245,,1.34131618564,26.1370736151,23.1616197215
1588764570124432338,1425,1588764570124334428,,1.34578444229,26.3419684454,23.2914977025
1588764570127431561,1426,1588764570127297701,,1.34987525215,26.2533253996,23.2283126758
1588764570130508137,1427,1588764570130370801,,1.35459609048,26.4556999137,23.3588849412
1588764570137203557,1428,1588764570137108799,,1.35782097052,26.486057366,23.3733485201
1588764570139609931,1429,1588764570139522356,,1.36214204886,26.5851853059,23.4377661876
1588764570142706706,1430,1588764570142579353,,1.36299011293,26.4878154305,23.3789052104
1588764570148283362,1431,1588764570148208969,,1.36509005133,26.6997003611,23.5161834874
1588764570151326311,1432,1588764570151183948,,1.36558335077,26.8890790235,23.6456482782
1588764570154329997,1433,1588764570154231724,,1.3600661149,26.8005388699,23.6285543444
1588764570160373172,1434,1588764570160264942,,1.36235099912,26.9859138647,23.7358766733
1588764570166493311,1435,1588764570166311488,,1.36609114716,27.0899854639,23.7979029017
1588764570172634168,1436,1588764570172546237,,1.36726878658,27.2649838107,23.9000222949
1588764570175497885,1437,1588764570175379745,,1.36879330588,27.1859909993,23.8399781656
1588764570181592869,1438,1588764570181455214,,1.37037030822,27.3588485229,23.9519818145
1588764570184469341,1439,1588764570184352991,,1.37309185158,27.5235825897,24.0549937139
1588764570187454680,1440,1588764570187379589,,1.37746261838,27.4371365535,23.998119427
1588764570193300522,1441,1588764570193237262,,1.38457644033,27.6035194772,24.1035314673
1588764570199267893,1442,1588764570199185933,,1.39214869173,27.6879572922,24.1568913532
1588764570205589981,1443,1588764570205472586,,1.39564487986,27.8322618269,24.2545716721
1588764570208485927,1444,1588764570208391725,,1.39659448644,27.7650332207,24.204447099
1588764570211549671,1445,1588764570211466873,,1.40080895172,27.9160017571,24.3075131966
1588764570217465082,1446,1588764570217398238,,1.39742850711,28.0565299226,24.4308062781
1588764570220661600,1447,1588764570220554274,,1.40279561265,27.9766077417,24.3598080603
1588764570223734000,1448,1588764570223656555,,1.40533421187,28.1247003938,24.4472167187
1588764570229948893,1449,1588764570229840216,,1.4067572622,28.0681507302,24.3991473848
1588764570232609910,1450,1588764570232508848,,1.40902283293,28.2049611476,24.4768334275
1588764570235650819,1451,1588764570235533067,,1.41121338442,28.1263824555,24.4206204119
1588764570241714085,1452,1588764570241620109,,1.41260790963,28.2804125869,24.514918399
1588764570244689963,1453,1588764570244589562,,1.4183316178,28.4091187081,24.5902920099
1588764570247681030,1454,1588764570247579063,,1.42556518371,28.320758719,24.52642214
1588764570253626011,1455,1588764570253546228,,1.43416026766,28.4490613811,24.606319118
1588764570257465554,1456,1588764570257347127,,1.440714383,28.5693314077,24.6762350467
1588764570262753370,1457,1588764570262601676,,1.44909782262,28.4892512095,24.6253271916
1588764570265496243,1458,1588764570265413072,,1.4533036104,28.6012563972,24.6983201298
1588764570268600901,1459,1588764570268521543,,1.4547545028,28.5237411932,24.6541012674
1588764570271978175,1460,1588764570271880254,,1.4492986837,28.6314036962,24.773140141
1588764570277695252,1461,1588764570277591109,,1.45407639085,28.7314847413,24.8164511478
1588764570280806793,1462,1588764570280651964,,1.45730375386,28.6434649503,24.7491605896
1588764570286389840,1463,1588764570286286191,,1.45997600382,28.7352617047,24.799528143
1588764570289607342,1464,1588764570289497777,,1.46478065943,28.6391483405,24.7159140911
1588764570292754279,1465,1588764570292593183,,1.46986022834,28.7293633065,24.7636997175
1588764570295725213,1466,1588764570295620894,,1.47343225467,28.6352787084,24.6969078509
1588764570301647218,1467,1588764570301550424,,1.47664185556,28.7202306734,24.738276222
1588764570304801347,1468,1588764570304689839,,1.47907228312,28.7891962901,24.7847572707
1588764570313656308,1469,1588764570313517946,,1.48494404722,28.8608557251,24.8267476813
1588764570316887258,1470,1588764570316808190,,1.48914860436,28.9224656111,24.8685717092
1588764570319696073,1471,1588764570319568930,,1.49515692755,28.8328462451,24.8056281493
1588764570322195602,1472,1588764570322117829,,1.50135519788,28.7404894411,24.7404517774
1588764570325524373,1473,1588764570325434908,,1.50718911816,28.7984091759,24.7750302216
1588764570328519058,1474,1588764570328436906,,1.50879627983,28.7043747124,24.7280203986
1588764570334683285,1475,1588764570334592152,,1.50097898465,28.7640349416,24.8213171192
1588764570337563013,1476,1588764570337476223,,1.50280837713,28.8048752523,24.8273541659
1588764570340670766,1477,1588764570340549684,,1.50319684924,28.7144440739,24.7605589341
1588764570346766471,1478,1588764570346629132,,1.50291934961,28.7560062896,24.7773113359
1588764570349733522,1479,1588764570349633665,,1.50446041527,28.6048558547,24.6455616961
1588764570352596156,1480,1588764570352508113,,1.50623180306,28.700323086,24.6980185355
1588764570358304764,1481,1588764570358218487,,1.50679564473,28.7323520958,24.7031944555
1588764570361329483,1482,1588764570361249196,,1.51017064911,28.6403375017,24.6241788226
1588764570364694012,1483,1588764570364602354,,1.5143511763,28.6696846452,24.6446864327
1588764570370652403,1484,1588764570370582081,,1.51698393431,28.6930586941,24.6515496862
1588764570373684292,1485,1588764570373621209,,1.52201584083,28.6031771371,24.5867312442
1588764570382766258,1486,1588764570382640815,,1.53459121736,28.5322399581,24.526668855
1588764570385753538,1487,1588764570385644528,,1.53965011502,28.5445911004,24.5270348097
1588764570391471533,1488,1588764570391347505,,1.54448779264,28.552817176,24.5278011381
1588764570394605779,1489,1588764570394510120,,1.54786204907,28.4640713046,24.4625070672
1588764570397515658,1490,1588764570397420558,,1.54940258218,28.4685549539,24.4570206424
1588764570400608271,1491,1588764570400467144,,1.55227424309,28.3813040865,24.3852825465
1588764570406542723,1492,1588764570406449415,,1.55384629771,28.3848614964,24.3673184062
1588764570412613310,1493,1588764570412524318,,1.55236829382,28.3972224398,24.3756179933
1588764570415645544,1494,1588764570415541087,,1.54265039336,28.3136002803,24.3733190415
1588764570418524515,1495,1588764570418434264,,1.54597693919,28.2979139354,24.3282806435
1588764570421573873,1496,1588764570421485684,,1.54469888883,28.2309604915,24.2783066758
1588764570427617875,1497,1588764570427538695,,1.5452632498,28.2207979782,24.26557415
1588764570430563359,1498,1588764570430506650,,1.54871097944,28.1928961301,24.2323400117
1588764570433577284,1499,1588764570433523452,,1.55329415116,28.1200245218,24.1773707452
1588764570436973561,1500,1588764570436903876,,1.56181053227,27.9233772863,24.0391506517
1588764570442553059,1501,1588764570442500360,,1.569615508,28.0234003484,24.0994323671
1588764570445595203,1502,1588764570445524607,,1.57705073741,28.0037214427,24.0793210432
1588764570448525436,1503,1588764570448464592,,1.58186481416,27.9234551381,24.0258815282
1588764570454578934,1504,1588764570454499154,,1.58623626844,27.8967247475,24.0048568257
1588764570457557654,1505,1588764570457471098,,1.59021098315,27.859585455,23.9702686183
1588764570463854873,1506,1588764570463759631,,1.59590279854,27.8181550829,23.9324728256
1588764570466605944,1507,1588764570466512168,,1.59999425851,27.7347698562,23.8652460115
1588764570472659172,1508,1588764570472582531,,1.60560235421,27.6870419924,23.8090301836
1588764570478605301,1509,1588764570478518613,,1.61046866703,27.6280684526,23.7531236346
1588764570484523128,1510,1588764570484439409,,1.61232994715,27.5668904741,23.6953065649
1588764570487596659,1511,1588764570487471693,,1.6143175341,27.482667544,23.6247809192
1588764570493713626,1512,1588764570493619289,,1.61654636867,27.4130238472,23.563296592
1588764570502265157,1513,1588764570502142951,,1.62057388809,27.2543585068,23.4410856149
1588764570505188358,1514,1588764570505106747,,1.62352027902,27.1748948816,23.3827252885
1588764570511282850,1515,1588764570511178690,,1.62139501253,27.0822111402,23.3361807655
1588764570514194162,1516,1588764570514120425,,1.6126340153,26.9942141325,23.3287907285
1588764570517443903,1517,1588764570517371617,,1.61626749222,26.8962201239,23.2384862909
1588764570523771381,1518,1588764570523708166,,1.61666077608,26.795242093,23.1707153695
1588764570526239112,1519,1588764570526158182,,1.61477070361,26.710113169,23.1087982702
1588764570529238842,1520,1588764570529179605,,1.61682378563,26.627023552,23.0326826876
1588764570535261069,1521,1588764570535201895,,1.61431683016,26.5494195194,22.9645041422
1588764570538275406,1522,1588764570538203448,,1.61622320733,26.4640078553,22.886781715
1588764570541280503,1523,1588764570541216804,,1.62120261349,26.3826322518,22.817620212
1588764570544176639,1524,1588764570544108382,,1.62369795309,26.294423752,22.7437570722
1588764570547172409,1525,1588764570547112347,,1.63112335945,26.2405265383,22.6944358642
1588764570550442584,1526,1588764570550371528,,1.63974016061,26.1421913669,22.620340235
1588764570553454398,1527,1588764570553346517,,1.64891856095,26.0738353547,22.5752625171
1588764570557069936,1528,1588764570556997633,,1.65651354314,25.9820331471,22.5053986377
1588764570559517953,1529,1588764570559443217,,1.66382807931,25.9263442116,22.4605083592
1588764570562556514,1530,1588764570562489464,,1.67068483974,25.868434245,22.4129378856
1588764570565593190,1531,1588764570565520111,,1.67614537079,25.7657723077,22.3362007333
1588764570571824560,1532,1588764570571744950,,1.67884559886,25.6566081337,22.2587771374
1588764570574911347,1533,1588764570574827769,,1.68116224276,25.5886945229,22.2046234198
1588764570577592519,1534,1588764570577534289,,1.68419142409,25.4689907093,22.1066231262
1588764570583226131,1535,1588764570583162483,,1.68692011045,25.3433889785,22.0057231533
1588764570586679869,1536,1588764570586557110,,1.68926277483,25.269011798,21.9399466896
1588764570592456092,1537,1588764570592329640,,1.68615023482,25.1329289719,21.8464002526
1588764570598415190,1538,1588764570598337359,,1.67562111297,24.9932024463,21.7922363011
1588764570601637206,1539,1588764570601556252,,1.67735479199,24.9171690374,21.7102718083
1588764570604714214,1540,1588764570604623403,,1.67204039578,24.7688655814,21.5996727904
1588764570607596513,1541,1588764570607482445,,1.66983576652,24.6910700736,21.5433591337
1588764570613230328,1542,1588764570613166357,,1.6724189085,24.5362492799,21.4170606053
1588764570617456542,1543,1588764570617352577,,1.67226985449,24.3797194352,21.3063317614
1588764570622596609,1544,1588764570622492520,,1.67638203361,24.3009028166,21.2530784417
1588764570625648470,1545,1588764570625556842,,1.68001810409,24.1371775874,21.1349764287
1588764570631709666,1546,1588764570631570326,,1.68303086065,23.9679440045,21.0242910479
1588764570637503385,1547,1588764570637442572,,1.6848066305,23.7920178644,20.9062644623
1588764570640527206,1548,1588764570640448812,,1.68925295842,23.723505097,20.8516011816
1588764570643634020,1549,1588764570643577973,,1.69151012807,23.5490457925,20.7234106986
1588764570646515685,1550,1588764570646451467,,1.69587227012,23.4733206124,20.6635313581
1588764570652621752,1551,1588764570652503765,,1.70024076641,23.305674947,20.5307167385
1588764570658640315,1552,1588764570658559808,,1.70246637429,23.1231544203,20.3883936427
1588764570664632254,1553,1588764570664559928,,1.70449097163,22.9396001601,20.2470753426
1588764570670890388,1554,1588764570670808297,,1.70558915043,22.7574306712,20.1060446178
1588764570673861658,1555,1588764570673781377,,1.70664609603,22.6898684702,20.0423455966
1588764570679579034,1556,1588764570679467771,,1.70804325227,22.5054243666,19.8953183817
1588764570685651587,1557,1588764570685580135,,1.7091905379,22.316225204,19.7481673151
1588764570691621715,1558,1588764570691521739,,1.7130804442,22.1224951631,19.6031255481
1588764570697728017,1559,1588764570697658504,,1.71588217359,21.9226539058,19.4581554943
1588764570709908709,1560,1588764570709549464,,1.72010938656,21.6591482451,19.284423284
1588764570715710804,1561,1588764570715597527,,1.71339028328,21.4559188372,19.1877705284
1588764570721654047,1562,1588764570721557323,,1.71764607609,21.2442496055,19.0272982775
1588764570727803613,1563,1588764570727666618,,1.71947982843,21.0334720386,18.8861081001
1588764570734325640,1564,1588764570734202356,,1.7202818024,20.8175675266,18.7416870666
1588764570739718516,1565,1588764570739606149,,1.72408451241,20.5945068898,18.5723238608
1588764570745713604,1566,1588764570745636621,,1.72492154605,20.3672973698,18.4152996576
1588764570751854722,1567,1588764570751687990,,1.72751440232,20.1439165809,18.2543677446
1588764570757641174,1568,1588764570757566202,,1.73000418522,19.9092503213,18.0837730255
1588764570764110067,1569,1588764570764013354,,1.73031897826,19.6773618568,17.9144934799
1588764570769747025,1570,1588764570769631958,,1.73025379753,19.6171009088,17.8633604746
1588764570772944290,1571,1588764570772846506,,1.73252639436,19.396661867,17.7034747258
