%time,field.header.seq,field.header.stamp,field.header.frame_id,field.vector.x,field.vector.y,field.vector.z
1588764567915828016,899,1588764567915661897,,0.499961267764,-0.19516101333,0.227964142357
1588764567918675908,900,1588764567918567397,,0.499959755082,-0.19508085246,0.227902510354
1588764567921742410,901,1588764567921567934,,0.499959165392,-0.194985475761,0.227833733208
1588764567927829369,902,1588764567927654301,,0.499961053104,-0.194920780103,0.227787931319
1588764567930688888,903,1588764567930582678,,0.499958424998,-0.194839838667,0.227728131818
1588764567933732881,904,1588764567933603981,,0.499956969496,-0.194746454643,0.227664330922
1588764567939845825,905,1588764567939674743,,0.499957948534,-0.194668284723,0.227612697709
1588764567942801356,906,1588764567942612565,,0.499958922985,-0.194585395735,0.227557757367
1588764567945727205,907,1588764567945595889,,0.499956065065,-0.194508186542,0.227500060641
1588764567951732313,908,1588764567951618252,,0.499957975136,-0.194423850714,0.22744649235
1588764567954739391,909,1588764567954629472,,0.49995773301,-0.194342593394,0.227390532774
1588764567957739168,910,1588764567957604937,,0.499958446162,-0.194257108436,0.227331447842
1588764567963734871,911,1588764567963622953,,0.499959207298,-0.194171494095,0.227271161949
1588764567966860263,912,1588764567966671390,,0.499958892031,-0.194084932153,0.227209023507
1588764567970151567,913,1588764567969986231,,0.499959968773,-0.193994793233,0.227145954815
1588764567975876585,914,1588764567975669357,,0.499960027935,-0.193911223462,0.227083933096
1588764567978715134,915,1588764567978586663,,0.499958749024,-0.193822694091,0.227015189155
1588764567981810243,916,1588764567981616115,,0.499957953968,-0.193734198894,0.226948240555
1588764567987779005,917,1588764567987643832,,0.499957695334,-0.1936429312,0.226884354536
1588764567990825257,918,1588764567990654466,,0.499956480041,-0.193553958958,0.226815764637
1588764567993773679,919,1588764567993634151,,0.499956098803,-0.19345708777,0.226748100318
1588764567999762520,920,1588764567999628324,,0.499956490431,-0.193360244666,0.226679147869
1588764568008787940,921,1588764568008657284,,0.499957053709,-0.193164949655,0.226544100732
1588764568011690444,922,1588764568011575087,,0.499957461217,-0.193068049695,0.226474209747
1588764568014743073,923,1588764568014626845,,0.499957486749,-0.192969959158,0.226407310507
1588764568017774751,924,1588764568017613622,,0.499957791358,-0.192867244849,0.226337981991
1588764568023752615,925,1588764568023632745,,0.499957949054,-0.192773615289,0.22627103017
1588764568026727484,926,1588764568026635419,,0.499959071512,-0.192668101806,0.226200805818
1588764568032729644,927,1588764568032604456,,0.499960026117,-0.192568450884,0.226133437203
1588764568035887397,928,1588764568035629455,,0.49996167301,-0.192491926496,0.226076718874
1588764568038736701,929,1588764568038628527,,0.499962407299,-0.192389732004,0.226007210814
1588764568044776802,930,1588764568044631312,,0.499963847658,-0.192278035144,0.225931793547
1588764568047783008,931,1588764568047616422,,0.499965950515,-0.192204502006,0.225876010003
1588764568050705594,932,1588764568050610316,,0.499966599668,-0.192106231438,0.225809224108
1588764568056870698,933,1588764568056674298,,0.499965202054,-0.192001704467,0.225736768278
1588764568059722130,934,1588764568059589137,,0.499964025224,-0.191912637623,0.225676698741
1588764568062778874,935,1588764568062612323,,0.4999627295,-0.191824459685,0.225616088917
1588764568068920623,936,1588764568068692605,,0.499960635195,-0.19173329542,0.225556269959
1588764568071933459,937,1588764568071739349,,0.499961136718,-0.191644004152,0.225498064046
1588764568074791720,938,1588764568074656573,,0.499961569365,-0.191553173605,0.225436174842
1588764568080784620,939,1588764568080605275,,0.499961483611,-0.191460490946,0.225372138629
1588764568083684591,940,1588764568083585236,,0.499961403831,-0.19136467309,0.225308722236
1588764568086760237,941,1588764568086614839,,0.49996026669,-0.191271593264,0.225243389542
1588764568092747399,942,1588764568092628614,,0.499958537526,-0.191173893253,0.225174521307
1588764568095706572,943,1588764568095598349,,0.499957065829,-0.191072650052,0.225104258503
1588764568098800680,944,1588764568098654386,,0.499956287969,-0.190969334792,0.225031309285
1588764568104818676,945,1588764568104657389,,0.499954477952,-0.190867489711,0.224952850069
1588764568107818702,946,1588764568107647816,,0.49995379708,-0.190759536681,0.224871716719
1588764568110735096,947,1588764568110610052,,0.499953025955,-0.190654520094,0.224794470485
1588764568116955931,948,1588764568116692186,,0.499953101742,-0.190544091061,0.224715120103
1588764568119947960,949,1588764568119768795,,0.499952441938,-0.190436457479,0.224634857783
1588764568123205360,950,1588764568123069367,,0.499952642485,-0.190326821833,0.224557607625
1588764568128840368,951,1588764568128687351,,0.499954017675,-0.190213553705,0.224481609686
1588764568131838964,952,1588764568131671099,,0.499954252366,-0.190103869557,0.224406814487
1588764568134738144,953,1588764568134613410,,0.49995512313,-0.189995608722,0.224334851634
1588764568140790605,954,1588764568140656262,,0.499955696051,-0.189885916437,0.22426194143
1588764568143847241,955,1588764568143666146,,0.499956073727,-0.189779567246,0.224189796183
1588764568146770250,956,1588764568146643797,,0.499956165964,-0.189672048436,0.224117169499
1588764568152693131,957,1588764568152577628,,0.499957500072,-0.189564228493,0.224043947316
1588764568155803667,958,1588764568155643919,,0.499956885077,-0.189456989323,0.223967221315
1588764568158772374,959,1588764568158649138,,0.499957464078,-0.189346086264,0.223892249032
1588764568164818232,960,1588764568164642593,,0.499957828563,-0.189238591018,0.223816045583
1588764568167886126,961,1588764568167685475,,0.499956651344,-0.189130760846,0.223737641152
1588764568174172313,962,1588764568173992921,,0.499956172898,-0.189021726247,0.223658837606
1588764568176695788,963,1588764568176583428,,0.499953696418,-0.188914444357,0.223575777547
1588764568179786604,964,1588764568179605675,,0.499951716575,-0.188802239525,0.223491583314
1588764568185899535,965,1588764568185673783,,0.499950595451,-0.18869027294,0.223410067745
1588764568188692948,966,1588764568188577992,,0.499947320328,-0.188580546125,0.22332766854
1588764568191710343,967,1588764568191593993,,0.499947509165,-0.188468209319,0.223250259139
1588764568197907766,968,1588764568197704921,,0.499945959453,-0.188359218012,0.223171571711
1588764568200762526,969,1588764568200638915,,0.499946582402,-0.188247229571,0.223096504247
1588764568203839990,970,1588764568203668696,,0.499947653921,-0.188138515651,0.22302309465
1588764568209753838,971,1588764568209627420,,0.499945604064,-0.188030490319,0.222947935342
1588764568212767488,972,1588764568212647824,,0.499948496221,-0.18791882646,0.222877922315
1588764568215771210,973,1588764568215687003,,0.499948187417,-0.187810329448,0.222805609478
1588764568221741689,974,1588764568221587875,,0.499947596633,-0.187701310431,0.222735321137
1588764568224776435,975,1588764568224609346,,0.499947602655,-0.18759767579,0.222664869065
1588764568230781463,976,1588764568230626178,,0.499945801002,-0.187491714601,0.222589326838
1588764568233842304,977,1588764568233667548,,0.499946327561,-0.187384806073,0.222517826721
1588764568236780103,978,1588764568236665771,,0.499946613451,-0.187277273864,0.2224440041
1588764568239763297,979,1588764568239624620,,0.499947324756,-0.187172414658,0.222368350251
1588764568245796490,980,1588764568245605066,,0.499947425676,-0.187066425116,0.222291496634
1588764568248764017,981,1588764568248643036,,0.499948800532,-0.186959061045,0.222214980362
1588764568254855826,982,1588764568254702804,,0.499948422237,-0.186851868375,0.22213494071
1588764568257755672,983,1588764568257647108,,0.499950006123,-0.186742894861,0.222059491968
1588764568260820804,984,1588764568260736446,,0.499949524334,-0.186635962144,0.221979940004
1588764568263740064,985,1588764568263612993,,0.499949957402,-0.186524241735,0.22190416986
1588764568270170869,986,1588764568269998868,,0.499951618085,-0.186414746085,0.221830483051
1588764568273137659,987,1588764568272994662,,0.499952964593,-0.186304248977,0.221756685292
1588764568278813288,988,1588764568278660510,,0.499954849056,-0.186192079192,0.221684180317
1588764568281790278,989,1588764568281692099,,0.499956006407,-0.186080477638,0.221610833763
1588764568284846036,990,1588764568284732772,,0.499958425223,-0.185969338734,0.221541414834
1588764568287825416,991,1588764568287680723,,0.499961091938,-0.185856543084,0.221470785379
1588764568293745701,992,1588764568293673317,,0.49996139785,-0.185747451005,0.221396261535
1588764568296774866,993,1588764568296632679,,0.499964203462,-0.185636527344,0.221325463666
1588764568305759524,994,1588764568305626524,,0.499966536812,-0.18541429723,0.221177568838
1588764568308843241,995,1588764568308699802,,0.49996777252,-0.185308067065,0.221103705666
1588764568311822898,996,1588764568311654786,,0.499968967156,-0.185197321412,0.221027455485
1588764568317940676,997,1588764568317714484,,0.499970037917,-0.185087431721,0.220949320114
1588764568320842656,998,1588764568320727350,,0.499971563985,-0.184981313515,0.220876569965
1588764568326988083,999,1588764568326689512,,0.499971665932,-0.184872820279,0.220800690517
1588764568329780068,1000,1588764568329674652,,0.499972379016,-0.184775345436,0.220728595574
1588764568332747362,1001,1588764568332605916,,0.499975566716,-0.184690337066,0.220668347779
1588764568338772791,1002,1588764568338652643,,0.499975391848,-0.184584463063,0.220594528754
1588764568341750327,1003,1588764568341652503,,0.499975394725,-0.184472994113,0.220517884744
1588764568344855788,1004,1588764568344669393,,0.499979525123,-0.184390633452,0.220462520291
1588764568350792583,1005,1588764568350690067,,0.499978133227,-0.184294772506,0.22039244798
1588764568353809430,1006,1588764568353675263,,0.499978930734,-0.184183011719,0.220321729673
1588764568356781372,1007,1588764568356664098,,0.499980962323,-0.184091285191,0.220258579174
1588764568365804441,1008,1588764568365644772,,0.499981409893,-0.18390014126,0.220127635158
1588764568368992427,1009,1588764568368839824,,0.499982085495,-0.183808581278,0.220060420294
1588764568377841170,1010,1588764568377684786,,0.499986059736,-0.18370972054,0.219990907095
1588764568380841692,1011,1588764568380695249,,0.499988689474,-0.183611991653,0.219920994381
1588764568383795692,1012,1588764568383608832,,0.499993983082,-0.183512563261,0.219853999737
1588764568386805564,1013,1588764568386647966,,0.499995553065,-0.183409546865,0.219776997289
1588764568389770094,1014,1588764568389673768,,0.499999294552,-0.18330679726,0.219707480138
1588764568395771055,1015,1588764568395653488,,0.500002718271,-0.183224404558,0.219653396796
1588764568398834312,1016,1588764568398683728,,0.500004274659,-0.183116981035,0.219583097873
1588764568401740560,1017,1588764568401668044,,0.500007140184,-0.182998213422,0.2195063168
1588764568404792909,1018,1588764568404661055,,0.500011133441,-0.182919825261,0.219452401079
1588764568410775117,1019,1588764568410689914,,0.500013182213,-0.182815955781,0.21938681243
1588764568413759764,1020,1588764568413642091,,0.500016094345,-0.182700061696,0.219317080903
1588764568419764246,1021,1588764568419647326,,0.500019988338,-0.182607113201,0.219257511275
1588764568422819470,1022,1588764568422738582,,0.500020601591,-0.182510605544,0.219192120929
1588764568425753998,1023,1588764568425657698,,0.500024445767,-0.182415278537,0.219130971448
1588764568428773257,1024,1588764568428657904,,0.500026952756,-0.18232371413,0.219069350697
1588764568434812677,1025,1588764568434684997,,0.500030102114,-0.182227697714,0.219003239702
1588764568437756396,1026,1588764568437634834,,0.500034335906,-0.182133916134,0.218937623005
1588764568440831485,1027,1588764568440671427,,0.50003788866,-0.182037550258,0.218872493835
1588764568446790784,1028,1588764568446633605,,0.500038411492,-0.181942450039,0.218799344831
1588764568449871511,1029,1588764568449723278,,0.500042004736,-0.181846131429,0.218731522635
1588764568455796950,1030,1588764568455638809,,0.500043725675,-0.181748271269,0.218665477792
1588764568458724672,1031,1588764568458646829,,0.500045106746,-0.181652758332,0.218594399828
1588764568461749804,1032,1588764568461670605,,0.500047488782,-0.181555981705,0.21852363915
1588764568467810897,1033,1588764568467659380,,0.500049677927,-0.181461329228,0.218457135431
1588764568470946204,1034,1588764568470871810,,0.500053488395,-0.181362307567,0.218389667719
1588764568474063294,1035,1588764568473946642,,0.500055416562,-0.181267727506,0.218317558671
1588764568479796765,1036,1588764568479665052,,0.500061873333,-0.181167039713,0.218256369601
1588764568485922793,1037,1588764568485764821,,0.500070349901,-0.180973375105,0.218126456839
1588764568491773739,1038,1588764568491655712,,0.500075439456,-0.180872793855,0.218063255923
1588764568494803328,1039,1588764568494638267,,0.500081554775,-0.180774335084,0.218001570775
1588764568497788954,1040,1588764568497647352,,0.500087358059,-0.180674993904,0.217938741647
1588764568503788237,1041,1588764568503643343,,0.500092577321,-0.180575789196,0.21787316943
1588764568506793350,1042,1588764568506648761,,0.500101043507,-0.180475965837,0.217810344496
1588764568509745432,1043,1588764568509659001,,0.500107844467,-0.180383083002,0.217748318441
1588764568515726735,1044,1588764568515643246,,0.500113273037,-0.180303422669,0.217691069725
1588764568518641404,1045,1588764568518557835,,0.500121069744,-0.180203336306,0.217627895913
1588764568521775871,1046,1588764568521609133,,0.500126535261,-0.180100905606,0.217561922796
1588764568527760482,1047,1588764568527607912,,0.500131024462,-0.180026877351,0.217509785341
1588764568530722985,1048,1588764568530624463,,0.500133560183,-0.179933656755,0.217452114847
1588764568533766654,1049,1588764568533611191,,0.500134028892,-0.179835794837,0.217387147946
1588764568539751173,1050,1588764568539632132,,0.500139851908,-0.179753766016,0.217333086346
1588764568542983527,1051,1588764568542802528,,0.500146965542,-0.179679783574,0.217284907854
1588764568545849049,1052,1588764568545666347,,0.500147583538,-0.179602363569,0.217229909337
1588764568551763810,1053,1588764568551667312,,0.500150398939,-0.179526333638,0.217179531817
1588764568554772230,1054,1588764568554621086,,0.500152703793,-0.17945029656,0.217126399007
1588764568557783644,1055,1588764568557626769,,0.500156849477,-0.179367388369,0.21707315906
1588764568563705233,1056,1588764568563605362,,0.500162262239,-0.17929108204,0.217020454362
1588764568566794307,1057,1588764568566663525,,0.500170109044,-0.179213353808,0.216964450703
1588764568570151252,1058,1588764568570007713,,0.500174739953,-0.179128882449,0.216909604476
1588764568575799092,1059,1588764568575700682,,0.500176686372,-0.17904240796,0.216849942062
1588764568578833661,1060,1588764568578669988,,0.500178958919,-0.178955863941,0.216789589886
1588764568584783668,1061,1588764568584651795,,0.500180882898,-0.178870043676,0.216728204735
1588764568587770144,1062,1588764568587646501,,0.500186507462,-0.178777995992,0.216671725049
1588764568590722579,1063,1588764568590624017,,0.50018962714,-0.178691962918,0.21661334462
1588764568596835046,1064,1588764568596669489,,0.500197451645,-0.178608724734,0.216555382197
1588764568599851836,1065,1588764568599652997,,0.500203596393,-0.178520438404,0.216502639481
1588764568602899956,1066,1588764568602796013,,0.500206427046,-0.178433304609,0.216442157285
1588764568608850382,1067,1588764568608734863,,0.500211503863,-0.178346707276,0.216388800811
1588764568611852837,1068,1588764568611729287,,0.500214088673,-0.178263135678,0.216334071797
1588764568617810775,1069,1588764568617630174,,0.50022456827,-0.178183784995,0.216285266316
1588764568620793699,1070,1588764568620633190,,0.50022900124,-0.178101155489,0.216233655604
1588764568623733328,1071,1588764568623647737,,0.500232007578,-0.178017563123,0.216181795898
1588764568626748538,1072,1588764568626643370,,0.500233381895,-0.177937559632,0.216127065746
1588764568632846009,1073,1588764568632633369,,0.500236116287,-0.177859650154,0.216078307469
1588764568635845380,1074,1588764568635661536,,0.500246736345,-0.177782096809,0.216025940716
1588764568641846163,1075,1588764568641647826,,0.500250665656,-0.177705851691,0.215972494862
1588764568644845560,1076,1588764568644637284,,0.50025414802,-0.177623398646,0.215919843875
1588764568647776272,1077,1588764568647629621,,0.500255651343,-0.177549308956,0.215863501503
1588764568650771880,1078,1588764568650646125,,0.500258435819,-0.177469200042,0.215811044348
1588764568656711352,1079,1588764568656622484,,0.50026184339,-0.177393568266,0.215761170033
1588764568659706579,1080,1588764568659594988,,0.50026738184,-0.177316158098,0.215713225686
1588764568665787622,1081,1588764568665639597,,0.500270379723,-0.177241745502,0.215664788877
1588764568668848436,1082,1588764568668706433,,0.500281062548,-0.177173738426,0.215617328342
1588764568671884050,1083,1588764568671752187,,0.500286028684,-0.177098006614,0.215570454302
1588764568674794762,1084,1588764568674655609,,0.500290704001,-0.177021663429,0.215525282846
1588764568680810522,1085,1588764568680682511,,0.500293477621,-0.17695103743,0.215476742607
1588764568683754193,1086,1588764568683646462,,0.500296695184,-0.176876065311,0.215431629799
1588764568692733594,1087,1588764568692622010,,0.500305087151,-0.176730394289,0.215341382621
1588764568695762695,1088,1588764568695623353,,0.500308938436,-0.176657720669,0.215295415865
1588764568698737206,1089,1588764568698634010,,0.500321314566,-0.17659877407,0.215253319252
1588764568704731106,1090,1588764568704630670,,0.500325768087,-0.176527027023,0.215206905023
1588764568707716907,1091,1588764568707624895,,0.5003286753,-0.176453920093,0.215156628172
1588764568713750079,1092,1588764568713657794,,0.500332070536,-0.176385250714,0.215110847871
1588764568716858347,1093,1588764568716684278,,0.500336178884,-0.176321050671,0.215069727378
1588764568719808114,1094,1588764568719639193,,0.500338932633,-0.176264875623,0.215027850618
1588764568725804277,1095,1588764568725595472,,0.500343464622,-0.176196554007,0.214984063371
1588764568728866861,1096,1588764568728623917,,0.500348433485,-0.176122782742,0.214942062504
1588764568731720425,1097,1588764568731601634,,0.500351717831,-0.176076496368,0.214906600005
1588764568737881262,1098,1588764568737747712,,0.50035611557,-0.176012186872,0.214869944543
1588764568740761163,1099,1588764568740650875,,0.500361036557,-0.17594314605,0.214832030813
1588764568743773918,1100,1588764568743649924,,0.500374872252,-0.175898192208,0.214799436265
1588764568750014029,1101,1588764568749932125,,0.50037931335,-0.175841887662,0.214763482234
1588764568752754904,1102,1588764568752642764,,0.500381950618,-0.175783081868,0.214728690935
1588764568758918037,1103,1588764568758775914,,0.500384316447,-0.175734379174,0.214694139966
1588764568761785717,1104,1588764568761692639,,0.50038346652,-0.175675291711,0.214651344499
1588764568764753955,1105,1588764568764641409,,0.500386201392,-0.175621627944,0.214614808764
1588764568767782405,1106,1588764568767668094,,0.500389825607,-0.175568963943,0.214581652971
1588764568774169288,1107,1588764568773954380,,0.500390608666,-0.175513018783,0.214540629723
1588764568776867764,1108,1588764568776723270,,0.500394279273,-0.175459271571,0.214504293864
1588764568782884260,1109,1588764568782797535,,0.500399013924,-0.175404856146,0.214471452159
1588764568785809153,1110,1588764568785705001,,0.500403390119,-0.175349858942,0.214433400989
1588764568788925957,1111,1588764568788764130,,0.500416162374,-0.175307468697,0.214402295734
1588764568791787310,1112,1588764568791697266,,0.50042243666,-0.17525226651,0.214369556883
1588764568797866318,1113,1588764568797697613,,0.500425020218,-0.175194352344,0.214335056563
1588764568800761823,1114,1588764568800663384,,0.50042972976,-0.175140369717,0.214301462352
1588764568806741739,1115,1588764568806664297,,0.500432430725,-0.175085349891,0.214266729464
1588764568809850519,1116,1588764568809729716,,0.500436038101,-0.175031092086,0.214233083894
1588764568812872027,1117,1588764568812722780,,0.500439195091,-0.174976198458,0.214196263266
1588764568815913496,1118,1588764568815805002,,0.500444010079,-0.174923263196,0.214163678738
1588764568821812886,1119,1588764568821700783,,0.500447985712,-0.174868715447,0.214130492644
1588764568824880580,1120,1588764568824737902,,0.500451984088,-0.174819203971,0.214097263483
1588764568827794225,1121,1588764568827654831,,0.500456495172,-0.174769703318,0.214065042728
1588764568833801012,1122,1588764568833661063,,0.50047118672,-0.174725908935,0.214038086889
1588764568836771622,1123,1588764568836673686,,0.500476455785,-0.174678346153,0.214008381518
1588764568845844228,1124,1588764568845743028,,0.500485225771,-0.174581740723,0.213948673917
1588764568848855730,1125,1588764568848723327,,0.50048777922,-0.174535493002,0.213918422962
1588764568851845300,1126,1588764568851731363,,0.500490215858,-0.174488634675,0.213888461231
1588764568857916183,1127,1588764568857767997,,0.500494760175,-0.174444987781,0.213862001716
1588764568860893154,1128,1588764568860744908,,0.500499143248,-0.174400690252,0.21383570319
1588764568866920887,1129,1588764568866742785,,0.500503473852,-0.174357415414,0.213808534599
1588764568870162184,1130,1588764568870066040,,0.500506922424,-0.174320244211,0.213782781066
1588764568873164821,1131,1588764568873069323,,0.500511450975,-0.174286257518,0.213764348097
1588764568878902573,1132,1588764568878766059,,0.50051635773,-0.174247072731,0.213739413219
1588764568881832404,1133,1588764568881735189,,0.500528633204,-0.17421469015,0.213715018957
1588764568884859933,1134,1588764568884740770,,0.500534324538,-0.174182467044,0.213696420617
1588764568890940858,1135,1588764568890767485,,0.500537517389,-0.174143677692,0.213672036384
1588764568893817715,1136,1588764568893710824,,0.500541769701,-0.174107798366,0.21365111953
1588764568899780684,1137,1588764568899682291,,0.500545118062,-0.174074096578,0.213629804838
1588764568905861157,1138,1588764568905708013,,0.500550652352,-0.174005825007,0.213586387342
1588764568908861677,1139,1588764568908708561,,0.500554405419,-0.173972647773,0.213563714736
1588764568914855849,1140,1588764568914720340,,0.500559406639,-0.1739392939,0.213544233038
1588764568917866501,1141,1588764568917721305,,0.500563464629,-0.173910100609,0.21352602678
1588764568920928940,1142,1588764568920725231,,0.500568008932,-0.173878038379,0.213504635998
1588764568926940086,1143,1588764568926767481,,0.500573169301,-0.17384682186,0.21348766325
1588764568929741262,1144,1588764568929648195,,0.500578540885,-0.173813712595,0.213469903391
1588764568932776456,1145,1588764568932707390,,0.500582582571,-0.173787643156,0.21345243808
1588764568938886557,1146,1588764568938740778,,0.500586911694,-0.173760476511,0.213435116448
1588764568941855464,1147,1588764568941713599,,0.500591690435,-0.173730171321,0.213415317819
1588764568944850478,1148,1588764568944715192,,0.500596649332,-0.173704751102,0.21340053654
1588764568950863544,1149,1588764568950726579,,0.500601222925,-0.173677342345,0.213383937329
1588764568953830681,1150,1588764568953720804,,0.500606178803,-0.173651173071,0.213364984353
1588764568956772275,1151,1588764568956677901,,0.500610659043,-0.1736260835,0.213348764407
1588764568965870418,1152,1588764568965745625,,0.500619414111,-0.173574366491,0.213316893303
1588764568968927933,1153,1588764568968721419,,0.500623342004,-0.173550644792,0.213299270254
1588764568974922694,1154,1588764568974714632,,0.500627289425,-0.173527878531,0.21328589041
1588764568977789516,1155,1588764568977665611,,0.500632203974,-0.173507858406,0.213271502399
1588764568983856759,1156,1588764568983722556,,0.500636632942,-0.173485458624,0.213256309777
1588764568986806708,1157,1588764568986701667,,0.500641739764,-0.173462509171,0.213243577178
1588764568989891936,1158,1588764568989766109,,0.500646833627,-0.17344257082,0.213231044563
1588764568995942809,1159,1588764568995803082,,0.500650491194,-0.173426327654,0.21321996825
1588764568998929816,1160,1588764568998760100,,0.500655345603,-0.173406903645,0.213207669342
1588764569001872601,1161,1588764569001734774,,0.500660492471,-0.173387060297,0.213196633214
1588764569007884068,1162,1588764569007683242,,0.500664006181,-0.173368475054,0.213184176905
1588764569010845693,1163,1588764569010733582,,0.500669017034,-0.173351220142,0.213174179466
1588764569013801294,1164,1588764569013691276,,0.500673399899,-0.173332580229,0.213163207205
1588764569019852986,1165,1588764569019665181,,0.500677600809,-0.173316354603,0.213152285837
1588764569023449742,1166,1588764569023336275,,0.500681974126,-0.173301070989,0.213141306009
1588764569025969928,1167,1588764569025768623,,0.500685506808,-0.173286621531,0.213131207913
1588764569031863934,1168,1588764569031721396,,0.500689218664,-0.173272459096,0.213121979016
1588764569034962612,1169,1588764569034754294,,0.500693475004,-0.173257549662,0.213111887958
1588764569037816982,1170,1588764569037720712,,0.500698199565,-0.173241683817,0.21310379928
1588764569043811523,1171,1588764569043698021,,0.500702053375,-0.173229059749,0.213096040438
1588764569046786240,1172,1588764569046671620,,0.500706664982,-0.173215763732,0.213087463151
1588764569052789757,1173,1588764569052693415,,0.500710369651,-0.173205550442,0.213077087763
1588764569055817105,1174,1588764569055703546,,0.5007144565,-0.173194303858,0.213069786358
1588764569058832491,1175,1588764569058723108,,0.500718747224,-0.173183385534,0.213064071464
1588764569062010286,1176,1588764569061859150,,0.500723082249,-0.173170773571,0.213057614605
1588764569067901537,1177,1588764569067751314,,0.500727261955,-0.173159648869,0.213050695803
1588764569071090871,1178,1588764569070946722,,0.500731825322,-0.173147576472,0.213044063495
1588764569076932833,1179,1588764569076805324,,0.500736210698,-0.173136387685,0.213037951334
1588764569079960366,1180,1588764569079809284,,0.500741122862,-0.173126670861,0.213030907421
1588764569085886812,1181,1588764569085774189,,0.500748177264,-0.17311065457,0.213018449766
1588764569091914320,1182,1588764569091794136,,0.500750999558,-0.173103387623,0.213011582231
1588764569094895193,1183,1588764569094736462,,0.500754514391,-0.173096381471,0.213006933593
1588764569100856274,1184,1588764569100720404,,0.500757515723,-0.173090886776,0.213002034262
1588764569103879627,1185,1588764569103723421,,0.500760134616,-0.173085896049,0.21299561427
1588764569106942713,1186,1588764569106728016,,0.500763682464,-0.173079562076,0.212990798134
1588764569109787376,1187,1588764569109684548,,0.50076621287,-0.173073973941,0.212985467059
1588764569115915585,1188,1588764569115751886,,0.500768629733,-0.173069938496,0.212981383599
1588764569118935547,1189,1588764569118759562,,0.500771851398,-0.173064831368,0.212978069759
1588764569124907198,1190,1588764569124754473,,0.500774320628,-0.173060770609,0.212974257697
1588764569127934763,1191,1588764569127756930,,0.500777124233,-0.173056510814,0.212971107935
1588764569130849175,1192,1588764569130743924,,0.500779855764,-0.1730532245,0.212968672135
1588764569136883474,1193,1588764569136732170,,0.500782949353,-0.173048807877,0.212966847975
1588764569139926340,1194,1588764569139735347,,0.500785563617,-0.173046523493,0.212963146103
1588764569148931518,1195,1588764569148760902,,0.500792162419,-0.173040177032,0.21296029547
1588764569151823684,1196,1588764569151731982,,0.500794775024,-0.17303797522,0.212958451304
1588764569154842318,1197,1588764569154715101,,0.500797923984,-0.173036553927,0.212957030399
1588764569160977234,1198,1588764569160806632,,0.500801784415,-0.173034687119,0.212958259133
1588764569163868870,1199,1588764569163773503,,0.500805853684,-0.173035179056,0.212958969279
1588764569166895889,1200,1588764569166791078,,0.500810216639,-0.173034976129,0.212960704117
1588764569173211877,1201,1588764569173074146,,0.500815224953,-0.173034262829,0.212963052032
1588764569175852195,1202,1588764569175727861,,0.500819814356,-0.173036105885,0.212966565816
1588764569178889721,1203,1588764569178759802,,0.500824475564,-0.173036143126,0.212968482439
1588764569185010398,1204,1588764569184812864,,0.500830482387,-0.173037576372,0.212975285086
1588764569187957820,1205,1588764569187827217,,0.500835447069,-0.1730395703,0.212978794845
1588764569190951041,1206,1588764569190817495,,0.50084092027,-0.173041062873,0.212984750941
1588764569196952403,1207,1588764569196788110,,0.500846836891,-0.17304350709,0.212991560634
1588764569199985341,1208,1588764569199849441,,0.500852212828,-0.173044912307,0.212995797134
1588764569209045560,1209,1588764569208779160,,0.500861705947,-0.173049472729,0.21300551375
1588764569211904291,1210,1588764569211773159,,0.500865874802,-0.173051763601,0.213009136725
1588764569214982606,1211,1588764569214856927,,0.500870139033,-0.173056660425,0.213013572972
1588764569221029672,1212,1588764569220843850,,0.500875034665,-0.173057399612,0.213018348699
1588764569223982384,1213,1588764569223821081,,0.500880283758,-0.173060169399,0.213022666949
1588764569226964418,1214,1588764569226817076,,0.500884338411,-0.173063629812,0.213027229784
1588764569233009763,1215,1588764569232911928,,0.500889663641,-0.173065566772,0.213032253634
1588764569235899538,1216,1588764569235812652,,0.500893499309,-0.173068982909,0.213035631443
1588764569238977988,1217,1588764569238822838,,0.500897727209,-0.173072630773,0.213039732345
1588764569244983765,1218,1588764569244828513,,0.500902573951,-0.173075415148,0.213045132567
1588764569247931252,1219,1588764569247793554,,0.500906221115,-0.173079511554,0.213050401124
1588764569254022122,1220,1588764569253839540,,0.500910650866,-0.17308376253,0.213055674135
1588764569256893592,1221,1588764569256767218,,0.500915269932,-0.173086994963,0.213061355025
1588764569259897960,1222,1588764569259785741,,0.500919925769,-0.173091811739,0.213067422331
1588764569266049835,1223,1588764569265833214,,0.500923535418,-0.173096502232,0.213073328835
1588764569268916762,1224,1588764569268776272,,0.500927827237,-0.173101031273,0.21307789198
1588764569272100948,1225,1588764569271961023,,0.500931120947,-0.17310644454,0.213084090256
1588764569277895911,1226,1588764569277770295,,0.500933811385,-0.173113031042,0.213088146421
1588764569281017163,1227,1588764569280814706,,0.500936991377,-0.173117736951,0.213094185336
1588764569283971622,1228,1588764569283811294,,0.500939288033,-0.173124423783,0.213100471797
1588764569290137438,1229,1588764569289951731,,0.500943289627,-0.173130218598,0.213107303496
1588764569292913985,1230,1588764569292796217,,0.500946182479,-0.17313840871,0.2131140571
1588764569296012856,1231,1588764569295861465,,0.500949016723,-0.173148303463,0.213119387181
1588764569302023117,1232,1588764569301844607,,0.500951896317,-0.17315695434,0.213124963517
1588764569304982062,1233,1588764569304792924,,0.500954258646,-0.173166048772,0.213129348161
1588764569307881402,1234,1588764569307769060,,0.500957355341,-0.173174209115,0.213135933666
1588764569313920326,1235,1588764569313812652,,0.500960418696,-0.173181883235,0.213142419407
1588764569316883815,1236,1588764569316778622,,0.500962791757,-0.17318958419,0.213147212495
1588764569319987206,1237,1588764569319799515,,0.50096548341,-0.173198500058,0.213152982777
1588764569325912288,1238,1588764569325809614,,0.500968434218,-0.173206059097,0.213158759985
1588764569328963238,1239,1588764569328804854,,0.500971245257,-0.173215000663,0.213164876392
1588764569331979684,1240,1588764569331817414,,0.500972965402,-0.173224131181,0.213170201764
1588764569337920153,1241,1588764569337811156,,0.500975286231,-0.173232875807,0.21317539852
1588764569340886041,1242,1588764569340792260,,0.500976456961,-0.173242375389,0.213180255152
1588764569343870865,1243,1588764569343750603,,0.500978051316,-0.173250634632,0.2131846249
1588764569350123188,1244,1588764569349999306,,0.500979534002,-0.173260840696,0.213190007544
1588764569352996735,1245,1588764569352833357,,0.50098064441,-0.173270012549,0.21319373428
1588764569356053181,1246,1588764569355857959,,0.500982657467,-0.173280124016,0.213198678651
1588764569362040628,1247,1588764569361874698,,0.500984454694,-0.173289882991,0.213203127445
1588764569364973981,1248,1588764569364819168,,0.500986129666,-0.173300527359,0.2132068441
1588764569371145920,1249,1588764569371023004,,0.500988002962,-0.173309402082,0.213209688818
1588764569374368208,1250,1588764569374156533,,0.500989805346,-0.173318733058,0.21321249988
1588764569376938577,1251,1588764569376823139,,0.500990926938,-0.173329564754,0.213215396099
1588764569383564741,1252,1588764569383396778,,0.500992918065,-0.173337129592,0.213217369034
1588764569385957539,1253,1588764569385826649,,0.500993867649,-0.173348822619,0.213219308706
1588764569389070707,1254,1588764569388852434,,0.500995208628,-0.173357911472,0.21322063444
1588764569394966174,1255,1588764569394823037,,0.500997358005,-0.173367280108,0.213223795838
1588764569397952003,1256,1588764569397837054,,0.50099924687,-0.173375379114,0.21322573054
1588764569400984730,1257,1588764569400859193,,0.501001565073,-0.173383485578,0.213226567417
1588764569407024710,1258,1588764569406865857,,0.501003553513,-0.173391121026,0.21322770618
1588764569410107448,1259,1588764569409994125,,0.501006027569,-0.173399423984,0.213229040469
1588764569415913534,1260,1588764569415822489,,0.50100819573,-0.173408410143,0.213229116739
1588764569418983725,1261,1588764569418846622,,0.501011169755,-0.173415686719,0.213231108413
1588764569421996139,1262,1588764569421837510,,0.501013707205,-0.173424816729,0.213232674792
1588764569424976296,1263,1588764569424805431,,0.501015534714,-0.173432164265,0.213233066834
1588764569431038174,1264,1588764569430859170,,0.50101697905,-0.173441941121,0.213231866854
1588764569433976427,1265,1588764569433834999,,0.501019889049,-0.173450442006,0.213233182695
1588764569439919343,1266,1588764569439799085,,0.501022907152,-0.173458498587,0.21323216042
1588764569445999204,1267,1588764569445864862,,0.501027691328,-0.173475886117,0.213230238915
1588764569448909367,1268,1588764569448767306,,0.501030748741,-0.173485679176,0.213230060009
1588764569455031608,1269,1588764569454840782,,0.501033098688,-0.173495176502,0.213229025299
1588764569457926990,1270,1588764569457793971,,0.501035518539,-0.173506148226,0.213227181005
1588764569464133489,1271,1588764569463864616,,0.501037875899,-0.173516591617,0.213224387591
1588764569466928718,1272,1588764569466829471,,0.501039616304,-0.173527178401,0.21322126271
1588764569470298822,1273,1588764569470212534,,0.501042140053,-0.17353813131,0.213218177954
1588764569473284776,1274,1588764569473143716,,0.501044492138,-0.173548807315,0.213216095385
1588764569478960638,1275,1588764569478829585,,0.501046698855,-0.173560735375,0.213212885672
1588764569482007010,1276,1588764569481829799,,0.501048257247,-0.173572249091,0.213207070291
1588764569487968552,1277,1588764569487796522,,0.501049994525,-0.173584006759,0.213203991026
1588764569490923301,1278,1588764569490779673,,0.501051202806,-0.173596955907,0.21320020376
1588764569493978789,1279,1588764569493830237,,0.50105361387,-0.173609586308,0.213194188604
1588764569496961257,1280,1588764569496805005,,0.501055132727,-0.173622468642,0.213189489812
1588764569506033746,1281,1588764569505875203,,0.501059267881,-0.173648810767,0.213177554016
1588764569515019017,1282,1588764569514850952,,0.501061297422,-0.173662089561,0.213170760516
1588764569517900748,1283,1588764569517808174,,0.501063105369,-0.173675757309,0.213164787341
1588764569520962562,1284,1588764569520821554,,0.501064248251,-0.17368990229,0.213158585858
1588764569523959931,1285,1588764569523833662,,0.501066712468,-0.173703601002,0.213151623056
1588764569526952983,1286,1588764569526839122,,0.501068909981,-0.173719793464,0.213144654377
1588764569529886394,1287,1588764569529794309,,0.501070414992,-0.173734189893,0.213134970056
1588764569535898822,1288,1588764569535808867,,0.501072510536,-0.17374760019,0.213128497227
1588764569539007250,1289,1588764569538867127,,0.50107445182,-0.173763723744,0.213118878507
1588764569542005510,1290,1588764569541850768,,0.501076636055,-0.173780671306,0.213108674029
1588764569548022103,1291,1588764569547845093,,0.501077885224,-0.173797107036,0.213102036093
1588764569551045931,1292,1588764569550879406,,0.501079641517,-0.173815958808,0.213091572514
1588764569554030247,1293,1588764569553832186,,0.501081739202,-0.173835458918,0.213080545907
1588764569559978099,1294,1588764569559862636,,0.501082683132,-0.173856181006,0.213068870104
1588764569566032521,1295,1588764569565861676,,0.501085550076,-0.173896190329,0.213049463508
1588764569572164042,1296,1588764569571972140,,0.501086697004,-0.173917598939,0.213037511684
1588764569574959659,1297,1588764569574853169,,0.501087349282,-0.173937362467,0.213027546782
1588764569578014663,1298,1588764569577883443,,0.501088972105,-0.173959325187,0.213013868946
1588764569584068561,1299,1588764569583912123,,0.501090956918,-0.173981230061,0.213001432765
1588764569586896477,1300,1588764569586799443,,0.501091978184,-0.174006371176,0.212989252994
1588764569589976879,1301,1588764569589880454,,0.501094223752,-0.174028878364,0.212971833819
1588764569595924205,1302,1588764569595818051,,0.501096210055,-0.174047376294,0.212961767252
1588764569599011451,1303,1588764569598875765,,0.501097292622,-0.174071069472,0.212948245976
1588764569601998473,1304,1588764569601891110,,0.501098341103,-0.174096535023,0.212931773943
1588764569607973696,1305,1588764569607853020,,0.501097758745,-0.174121222495,0.212920020173
1588764569610963848,1306,1588764569610831440,,0.50109932883,-0.174147411787,0.212905128584
1588764569613947252,1307,1588764569613811829,,0.501102498741,-0.174174566932,0.212892114604
1588764569619938271,1308,1588764569619803550,,0.501106239146,-0.174200299699,0.212877717095
1588764569628954381,1309,1588764569628825946,,0.501107368069,-0.174256419066,0.212845765789
1588764569632009930,1310,1588764569631864212,,0.501108065949,-0.174285206252,0.212829878435
1588764569634951104,1311,1588764569634826943,,0.501109100134,-0.174313203307,0.212814283725
1588764569638010883,1312,1588764569637883423,,0.501110117751,-0.174341772492,0.212797631336
1588764569643961561,1313,1588764569643853207,,0.501110732686,-0.174372046874,0.212780154567
1588764569647012836,1314,1588764569646881508,,0.501113670154,-0.1744029579,0.212759391061
1588764569653058431,1315,1588764569652902810,,0.501114192245,-0.174435595,0.212735559826
1588764569655898205,1316,1588764569655808927,,0.501115663561,-0.174461077287,0.212718926978
1588764569658945950,1317,1588764569658857960,,0.501117257985,-0.174493241019,0.212696649463
1588764569665000823,1318,1588764569664826548,,0.501119040663,-0.174529250322,0.212676634852
1588764569668004432,1319,1588764569667843791,,0.501119895902,-0.174555306336,0.21266007683
1588764569671134675,1320,1588764569671026523,,0.501121619094,-0.174587951253,0.212638552471
1588764569676975948,1321,1588764569676887516,,0.501122344064,-0.174625518374,0.212616686817
1588764569679935642,1322,1588764569679809347,,0.501123851302,-0.174659627675,0.212592296638
1588764569688965852,1323,1588764569688822090,,0.501128577097,-0.174729398911,0.212551387416
1588764569691962279,1324,1588764569691823256,,0.501130581146,-0.17476171546,0.212527394865
1588764569694969909,1325,1588764569694875941,,0.501132560551,-0.174798560222,0.21250662317
1588764569701099393,1326,1588764569700888959,,0.501134169328,-0.174834737579,0.212485083376
1588764569703951053,1327,1588764569703816290,,0.501135630704,-0.174869784528,0.212456965047
1588764569706998946,1328,1588764569706837994,,0.501136694124,-0.174908127153,0.21243148624
1588764569716039769,1329,1588764569715824618,,0.501138790927,-0.17494873417,0.212405703938
1588764569719039750,1330,1588764569718823622,,0.501140063021,-0.174979658644,0.212382439438
1588764569721917305,1331,1588764569721815225,,0.501141944944,-0.175021332656,0.212354123043
1588764569724988792,1332,1588764569724872715,,0.501144308969,-0.175066942646,0.212327728964
1588764569727981052,1333,1588764569727844229,,0.501144719642,-0.175104787975,0.212303969872
1588764569731034298,1334,1588764569730880665,,0.501145977747,-0.175151216218,0.212272391002
1588764569736960110,1335,1588764569736859298,,0.501147525885,-0.175197656967,0.212243913585
1588764569739971333,1336,1588764569739861923,,0.501148344404,-0.175246783924,0.212217892217
1588764569749037356,1337,1588764569748878352,,0.501150242957,-0.175338410359,0.212161651505
1588764569751989641,1338,1588764569751869647,,0.501151968516,-0.175384480934,0.212133538249
1588764569754992405,1339,1588764569754873770,,0.501153748398,-0.175428957288,0.212105953687
1588764569761041548,1340,1588764569760865118,,0.501155145723,-0.175477016515,0.212074337074
1588764569764012463,1341,1588764569763824594,,0.501155437273,-0.175526401166,0.212042455319
1588764569770341450,1342,1588764569770221727,,0.501158031646,-0.175574426536,0.212008320006
1588764569773344713,1343,1588764569773210631,,0.501161324727,-0.175618610906,0.211975965682
1588764569781982605,1344,1588764569781808727,,0.501164578119,-0.175707776845,0.211906702726
1588764569785055501,1345,1588764569784886611,,0.501166104314,-0.175760291828,0.21186770643
1588764569787973006,1346,1588764569787825165,,0.501166543645,-0.175799478667,0.211837525004
1588764569794077042,1347,1588764569793899687,,0.501169036181,-0.175849917219,0.211803352227
1588764569796935536,1348,1588764569796782160,,0.501171962007,-0.175902230304,0.211766152982
1588764569805957424,1349,1588764569805836618,,0.501175515757,-0.17600131889,0.211698852551
1588764569811946538,1350,1588764569811811917,,0.501178657402,-0.176039702496,0.211671084829
1588764569814904440,1351,1588764569814795976,,0.501180805392,-0.17608799467,0.211636929246
1588764569817898893,1352,1588764569817783358,,0.501181776714,-0.176140027819,0.211603406281
1588764569821013251,1353,1588764569820855094,,0.50118406534,-0.176181992069,0.211579066041
1588764569826936659,1354,1588764569826819259,,0.501186037218,-0.176230958859,0.211543831238
1588764569830141078,1355,1588764569829993185,,0.501189047581,-0.176286176644,0.211505465261
1588764569833046087,1356,1588764569832828457,,0.501191664373,-0.176325905418,0.211481970161
1588764569835984930,1357,1588764569835883948,,0.501194373128,-0.176377344505,0.211443566625
1588764569842003377,1358,1588764569841906535,,0.501195003522,-0.176436197619,0.211409746652
1588764569845041931,1359,1588764569844922558,,0.501195729178,-0.176480051633,0.211382407081
1588764569850983112,1360,1588764569850871018,,0.501197908272,-0.176532093156,0.211348247902
1588764569854017562,1361,1588764569853937440,,0.501198255852,-0.176592602669,0.211312735116
1588764569857044107,1362,1588764569856892187,,0.501200121745,-0.176650880783,0.211279001384
1588764569859934810,1363,1588764569859842080,,0.501202338542,-0.176707065131,0.211239613689
1588764569865999605,1364,1588764569865867473,,0.501205569965,-0.176767635722,0.211205293951
1588764569868987422,1365,1588764569868890261,,0.501207106922,-0.176825220204,0.21116976883
1588764569874973069,1366,1588764569874855599,,0.501208867092,-0.176884246638,0.211131536109
1588764569877976705,1367,1588764569877874941,,0.50120916667,-0.176948036111,0.211094078213
1588764569880936258,1368,1588764569880820912,,0.501210610866,-0.177010278428,0.211055549361
1588764569883956448,1369,1588764569883819200,,0.50121090983,-0.177074062243,0.21101676538
1588764569890188203,1370,1588764569890082235,,0.501212668784,-0.177137438589,0.210972444531
1588764569893092232,1371,1588764569892906667,,0.501216428066,-0.177202297933,0.210928362488
1588764569899037118,1372,1588764569898904737,,0.501219185151,-0.177266905646,0.210881405916
1588764569901918009,1373,1588764569901819906,,0.501221768305,-0.177335846059,0.210833420817
1588764569904989295,1374,1588764569904855383,,0.501225256055,-0.177403274025,0.210786880753
1588764569907917047,1375,1588764569907808442,,0.501225958578,-0.177474116014,0.210737429656
1588764569914032865,1376,1588764569913846245,,0.50122814021,-0.177540937256,0.210688852139
1588764569916890600,1377,1588764569916824908,,0.50123041114,-0.177611301751,0.210641226527
1588764569926178443,1378,1588764569926002338,,0.501232738926,-0.177754814358,0.210539532325
1588764569929214739,1379,1588764569928969659,,0.501235127727,-0.177827592002,0.210488216769
1588764569934973276,1380,1588764569934822306,,0.501239872327,-0.177896167193,0.210441155606
1588764569938003321,1381,1588764569937894738,,0.501241389866,-0.177974459363,0.210388945977
1588764569941023918,1382,1588764569940915166,,0.50124405174,-0.178043849434,0.210338466793
1588764569946967990,1383,1588764569946842326,,0.501248510823,-0.178116877599,0.21029458952
1588764569950018679,1384,1588764569949843350,,0.501249085033,-0.178190507198,0.210243365195
1588764569953089743,1385,1588764569952885897,,0.50125097141,-0.178246091321,0.210201659164
1588764569958960678,1386,1588764569958811653,,0.501253114405,-0.178320552802,0.21015299367
1588764569961926222,1387,1588764569961831224,,0.501255716409,-0.178400102151,0.210103389555
1588764569965013988,1388,1588764569964826137,,0.501256682457,-0.17845946004,0.210062928366
1588764569971226066,1389,1588764569971070361,,0.501259558721,-0.178533026249,0.210008261205
1588764569974307308,1390,1588764569974192327,,0.501264218907,-0.178608965042,0.209959975091
1588764569976937365,1391,1588764569976852602,,0.501264813422,-0.178682645478,0.209918575888
1588764569983629493,1392,1588764569983546396,,0.501268032998,-0.178751893622,0.209871898706
1588764569986007679,1393,1588764569985871931,,0.501270321706,-0.178819745729,0.209831501718
1588764569992062211,1394,1588764569991891429,,0.501271352956,-0.178893015305,0.209788364394
1588764569995082621,1395,1588764569994910497,,0.501271694864,-0.178962576066,0.2097427429
1588764569997990433,1396,1588764569997893152,,0.501273407777,-0.179036975647,0.20969783707
1588764570000920860,1397,1588764570000843308,,0.50127651191,-0.179111061768,0.209649887322
1588764570006922567,1398,1588764570006847746,,0.501279090338,-0.17918774277,0.209599238458
1588764570012960257,1399,1588764570012862216,,0.50128077748,-0.179265565374,0.209543392223
1588764570019137109,1400,1588764570018946441,,0.501285963111,-0.17942182748,0.209441499913
1588764570022070705,1401,1588764570021945880,,0.501288055578,-0.179499198049,0.209387282923
1588764570025080088,1402,1588764570024853667,,0.501288663988,-0.179579959882,0.209330172868
1588764570031016000,1403,1588764570030871427,,0.501292185531,-0.179658357053,0.209278105178
1588764570033998430,1404,1588764570033873721,,0.501292444754,-0.17973960372,0.209216724903
1588764570039887542,1405,1588764570039790516,,0.501296734331,-0.179820068291,0.209158511343
1588764570042989099,1406,1588764570042919238,,0.501299155538,-0.179900323092,0.209098759144
1588764570046020315,1407,1588764570045915359,,0.501301196725,-0.179963980735,0.209046835912
1588764570051968830,1408,1588764570051856949,,0.501304599543,-0.180044791674,0.208993568494
1588764570054991436,1409,1588764570054893639,,0.501305298815,-0.180135354368,0.208937245832
1588764570057933263,1410,1588764570057835452,,0.501304615038,-0.180197640746,0.208889379478
1588764570064087474,1411,1588764570063899572,,0.501308786254,-0.180281570054,0.208837584428
1588764570067025335,1412,1588764570066901607,,0.501311022123,-0.180368172921,0.208784068524
1588764570070419384,1413,1588764570070313946,,0.501313947187,-0.180447266494,0.208735148316
1588764570076029593,1414,1588764570075927408,,0.501317395699,-0.180527113597,0.208678892026
1588764570078977077,1415,1588764570078877932,,0.501320190248,-0.180604605371,0.208631522277
1588764570082065732,1416,1588764570081954680,,0.501323203916,-0.180682830855,0.208582283864
1588764570087957021,1417,1588764570087842959,,0.501325326589,-0.180761410802,0.208534558259
1588764570090947228,1418,1588764570090792682,,0.501326262039,-0.180844628442,0.208487375962
1588764570093895129,1419,1588764570093817946,,0.501327051846,-0.180928438988,0.208443597872
1588764570099963379,1420,1588764570099829943,,0.501323388915,-0.181008526978,0.208421428913
1588764570105943886,1421,1588764570105825652,,0.501331770453,-0.181179271774,0.208300572252
1588764570115112714,1422,1588764570114952463,,0.501334168562,-0.181263900377,0.208243918747
1588764570118097960,1423,1588764570117923534,,0.501338000223,-0.181352115355,0.208174450378
1588764570121012720,1424,1588764570120907415,,0.501341316186,-0.181435590785,0.208113176788
1588764570123956363,1425,1588764570123853315,,0.501345784442,-0.181519819582,0.208050305684
1588764570126967001,1426,1588764570126873193,,0.501349875252,-0.181608462628,0.207987120658
1588764570130077178,1427,1588764570129972049,,0.50135459609,-0.18169125206,0.207927583625
1588764570136095781,1428,1588764570135934180,,0.501357820971,-0.181761478997,0.207874990945
1588764570139047223,1429,1588764570138916086,,0.501362142049,-0.18184291099,0.207819035323
1588764570141995000,1430,1588764570141879822,,0.501362990113,-0.181940280866,0.207760174346
1588764570148049491,1431,1588764570147915147,,0.501365090051,-0.182005461835,0.207712742023
1588764570151042693,1432,1588764570150881159,,0.501365583351,-0.182089013009,0.20766025359
1588764570154011612,1433,1588764570153869999,,0.501360066115,-0.182177553162,0.207643159656
1588764570160085771,1434,1588764570159903257,,0.501362350999,-0.182260915461,0.20757132379
1588764570166025550,1435,1588764570165844373,,0.501366091147,-0.182421333308,0.20745702372
1588764570172238621,1436,1588764570172033100,,0.501367268787,-0.182506522439,0.207385684795
1588764570175091310,1437,1588764570174889410,,0.501368793306,-0.182585515251,0.207325640666
1588764570181113745,1438,1588764570180922507,,0.501370370308,-0.182668490305,0.207267089263
1588764570183997357,1439,1588764570183903186,,0.501373091852,-0.182755182185,0.207202483864
1588764570187047113,1440,1588764570186887132,,0.501377462618,-0.182841628221,0.207145609577
1588764570192984615,1441,1588764570192876098,,0.50138457644,-0.182922214091,0.207086375755
1588764570198916946,1442,1588764570198836204,,0.501392148692,-0.183080238611,0.206978094084
1588764570205086749,1443,1588764570204942348,,0.50139564488,-0.183173841877,0.206917169203
1588764570207956380,1444,1588764570207877306,,0.501396594486,-0.183241070483,0.20686704463
1588764570210992609,1445,1588764570210885366,,0.501400808952,-0.183323408369,0.206814573113
1588764570216945379,1446,1588764570216875835,,0.501397428507,-0.18341153965,0.206785426563
1588764570220034605,1447,1588764570219911011,,0.501402795613,-0.183491461831,0.206714428345
1588764570223150418,1448,1588764570223065771,,0.501405334212,-0.183567337306,0.206652524919
1588764570229035486,1449,1588764570228922345,,0.501406757262,-0.183623886969,0.206604455585
1588764570232004161,1450,1588764570231900736,,0.501409022833,-0.183706310276,0.206535985812
1588764570235045299,1451,1588764570234932852,,0.501411213384,-0.183784888968,0.206479772796
1588764570241064218,1452,1588764570240904077,,0.50141260791,-0.183845316348,0.206431099109
1588764570244063737,1453,1588764570243901687,,0.501418331618,-0.183926250994,0.206366712209
1588764570247011448,1454,1588764570246901181,,0.501425565184,-0.184014610983,0.206302842339
1588764570253024013,1455,1588764570252895939,,0.501434160268,-0.184091093101,0.20624621613
1588764570256910878,1456,1588764570256778057,,0.501440714383,-0.184170713923,0.206182871493
1588764570262064178,1457,1588764570261926302,,0.501449097823,-0.184250794121,0.206131963638
1588764570265068910,1458,1588764570264889228,,0.50145330361,-0.184333749214,0.206074983056
1588764570268050239,1459,1588764570267943692,,0.501454754503,-0.184411264418,0.206030764193
1588764570271374869,1460,1588764570271231971,,0.501449298684,-0.184493596304,0.206023140141
1588764570277070658,1461,1588764570276909940,,0.501454076391,-0.184578509759,0.205943121481
1588764570280096099,1462,1588764570279950566,,0.501457303754,-0.18466652955,0.205875830923
1588764570286073880,1463,1588764570285871429,,0.501459976004,-0.184754694742,0.205806223845
1588764570289092016,1464,1588764570288921197,,0.501464780659,-0.184850808106,0.205722609793
1588764570292050895,1465,1588764570291926984,,0.501469860228,-0.184935491212,0.205653796705
1588764570295033204,1466,1588764570294929073,,0.501473432255,-0.18502957581,0.205587004839
1588764570301152650,1467,1588764570300957659,,0.501476641856,-0.185114428069,0.205515170394
1588764570304079671,1468,1588764570303980558,,0.501479072283,-0.185210144219,0.205451863598
1588764570313125578,1469,1588764570312923344,,0.501484944047,-0.185298016851,0.205387499297
1588764570316040111,1470,1588764570315917803,,0.501489148604,-0.185390763467,0.20532641899
1588764570319062787,1471,1588764570318919358,,0.501495156928,-0.185480382833,0.20526347543
1588764570321970866,1472,1588764570321836051,,0.501501355198,-0.185572739637,0.205198299059
1588764570324982570,1473,1588764570324892183,,0.501507189118,-0.185663976362,0.205133439863
1588764570328024199,1474,1588764570327899095,,0.50150879628,-0.185758010826,0.20508643004
1588764570334140256,1475,1588764570334060699,,0.501500978985,-0.185842283932,0.205083771203
1588764570337011196,1476,1588764570336912798,,0.501502808377,-0.185940132155,0.204997349228
1588764570340072582,1477,1588764570339953325,,0.501503196849,-0.186030563334,0.204930553996
1588764570346086585,1478,1588764570345928670,,0.50150291935,-0.186122424585,0.20485835742
1588764570349189743,1479,1588764570348919156,,0.501504460415,-0.186216413631,0.204764715373
1588764570352039220,1480,1588764570351914829,,0.501506231803,-0.186306247346,0.204693638247
1588764570358016593,1481,1588764570357846376,,0.501506795645,-0.186397056574,0.204616922009
1588764570361030115,1482,1588764570360896020,,0.501510170649,-0.186489071168,0.204537906376
1588764570364087374,1483,1588764570363906319,,0.501514351176,-0.186577244971,0.204480066688
1588764570370343061,1484,1588764570370245547,,0.501516983934,-0.186666060056,0.204412137186
1588764570373371934,1485,1588764570373292035,,0.501522015841,-0.186755941613,0.204347318744
1588764570382024202,1486,1588764570381947110,,0.501534591217,-0.186933723048,0.204216026851
1588764570385129795,1487,1588764570384950263,,0.501539650115,-0.187022859685,0.204148734286
1588764570391080098,1488,1588764570390955385,,0.501544487793,-0.187110754792,0.204085419826
1588764570394076150,1489,1588764570393919298,,0.501547862049,-0.187199500663,0.204020125755
1588764570396991410,1490,1588764570396889244,,0.501549402582,-0.187285762961,0.203954142033
1588764570400020039,1491,1588764570399900727,,0.501552274243,-0.187373013828,0.203882403937
1588764570406049866,1492,1588764570405928654,,0.501553846298,-0.187454819985,0.203807530752
1588764570412183783,1493,1588764570411977682,,0.501552368294,-0.187522434586,0.203762513309
1588764570415097244,1494,1588764570414947644,,0.501542650393,-0.187606056746,0.203760214357
1588764570418024890,1495,1588764570417928195,,0.501545976939,-0.187696326482,0.203665453699
1588764570421047064,1496,1588764570420954277,,0.501544698889,-0.187763279926,0.203615479731
1588764570426994202,1497,1588764570426920128,,0.50154526325,-0.187842631066,0.203556621454
1588764570430049091,1498,1588764570429924488,,0.501548710979,-0.187934325694,0.203480858796
1588764570433016274,1499,1588764570432920898,,0.501553294151,-0.188007197302,0.203425889529
1588764570436062757,1500,1588764570435954684,,0.501561810532,-0.188084613927,0.20336715651
1588764570442062230,1501,1588764570441932475,,0.501569615508,-0.188162218865,0.203309019558
1588764570445009217,1502,1588764570444938369,,0.501577050737,-0.18823490177,0.203253572234
1588764570448019694,1503,1588764570447926613,,0.501581864814,-0.188315168075,0.20320013272
1588764570454053949,1504,1588764570453948649,,0.501586236268,-0.188389512635,0.203147365238
1588764570457020674,1505,1588764570456920382,,0.501590210983,-0.188468881387,0.203084624057
1588764570463473073,1506,1588764570463349414,,0.501595902799,-0.188547163206,0.203022260633
1588764570466056380,1507,1588764570465946150,,0.501599994259,-0.188630548433,0.202955033819
1588764570472205762,1508,1588764570472074380,,0.501605602354,-0.188709758008,0.202877830184
1588764570478134220,1509,1588764570477990156,,0.501610468667,-0.188794853392,0.202804509072
1588764570484014205,1510,1588764570483919335,,0.501612329947,-0.188876804817,0.202732843037
1588764570487057583,1511,1588764570486934004,,0.501614317534,-0.188961027747,0.202662317392
1588764570493177461,1512,1588764570493004055,,0.501616546369,-0.189046109571,0.20259054098
1588764570501989139,1513,1588764570501878919,,0.501620573888,-0.189214892413,0.202461585001
1588764570504965311,1514,1588764570504861265,,0.501623520279,-0.189299169239,0.202400015875
1588764570511102331,1515,1588764570510919594,,0.501621395013,-0.189391379836,0.202353786782
1588764570513984661,1516,1588764570513875284,,0.501612634015,-0.189479376844,0.202346396744
1588764570517236138,1517,1588764570517088656,,0.501616267492,-0.189571630965,0.202259918898
1588764570523522302,1518,1588764570523430805,,0.501616660776,-0.189661623623,0.202199471559
1588764570525977552,1519,1588764570525888523,,0.501614770704,-0.189746752547,0.202137554459
1588764570528973684,1520,1588764570528891980,,0.501616823786,-0.189829842164,0.202061438877
1588764570535007429,1521,1588764570534908885,,0.50161431683,-0.189891238255,0.202004065626
1588764570538019642,1522,1588764570537904960,,0.501616223207,-0.189955243997,0.201940613814
1588764570541123733,1523,1588764570540907427,,0.501621202613,-0.1900366196,0.201871452311
1588764570543992160,1524,1588764570543866673,,0.501623697953,-0.190098250467,0.201815307593
1588764570547005751,1525,1588764570546861931,,0.501631123359,-0.19015214768,0.201765986385
1588764570549976162,1526,1588764570549906328,,0.501639740161,-0.190218761465,0.201713038347
1588764570553002001,1527,1588764570552920662,,0.501648918561,-0.190287117477,0.201667960629
1588764570556683612,1528,1588764570556600295,,0.501656513543,-0.190342084201,0.201622653739
1588764570559104222,1529,1588764570558965943,,0.501663828079,-0.190397773136,0.201577763461
1588764570562040621,1530,1588764570561950571,,0.50167068484,-0.190455683103,0.201530192987
1588764570565075209,1531,1588764570564960053,,0.501676145371,-0.19051642682,0.201481401315
1588764570571238050,1532,1588764570571141992,,0.501678845599,-0.190578623116,0.201435289637
1588764570574359883,1533,1588764570574244867,,0.501681162243,-0.190646536727,0.20138113592
1588764570577056620,1534,1588764570576961733,,0.501684191424,-0.190714257807,0.201317790782
1588764570582999224,1535,1588764570582909606,,0.50168692011,-0.190782898485,0.201254864844
1588764570586095405,1536,1588764570585978111,,0.501689262775,-0.190857275666,0.201189088381
1588764570592001371,1537,1588764570591926847,,0.501686150235,-0.190931457396,0.201136809341
1588764570598089124,1538,1588764570597950197,,0.501675621113,-0.191004382813,0.201127179462
1588764570601111855,1539,1588764570601022848,,0.501677354792,-0.191080416222,0.201045214969
1588764570604154822,1540,1588764570603990639,,0.501672040396,-0.191157060344,0.20098238884
1588764570607045411,1541,1588764570606927067,,0.501669835767,-0.191234855852,0.200926075183
1588764570612998704,1542,1588764570612902626,,0.501672418909,-0.191313202646,0.200850759321
1588764570616865983,1543,1588764570616806343,,0.501672269854,-0.19138848916,0.200794192698
1588764570622070933,1544,1588764570621972086,,0.501676382034,-0.191467305778,0.200740939378
1588764570625223315,1545,1588764570625103803,,0.501680018104,-0.191545065468,0.200680147725
1588764570631120716,1546,1588764570631025394,,0.501683030861,-0.19162366022,0.200629888232
1588764570637083915,1547,1588764570636944298,,0.501684806631,-0.19170432496,0.200575369246
1588764570640106795,1548,1588764570639961636,,0.501689252958,-0.191772837727,0.200520705966
1588764570643063856,1549,1588764570642989910,,0.501691510128,-0.191847465598,0.200459069771
1588764570646074359,1550,1588764570645959131,,0.50169587227,-0.191923190778,0.200399190431
1588764570652064940,1551,1588764570651985275,,0.501700240766,-0.191986489335,0.200335940551
1588764570658110202,1552,1588764570657997724,,0.501702466374,-0.192060203266,0.200266155185
