%time,field.header.seq,field.header.stamp,field.header.frame_id,field.vector.x,field.vector.y,field.vector.z
1589276146763935265,749,1589276146763824714,,0.0647508972009,-1.2585355732,0.949534591756
1589276146769753504,750,1589276146769645460,,0.0648576257353,-1.27728198911,0.952722586986
1589276146778778730,751,1589276146778673162,,0.0654774632441,-1.29725378549,0.955642367111
1589276146784838624,752,1589276146784716743,,0.0658803803272,-1.31648395902,0.958878002735
1589276146790853245,753,1589276146790759511,,0.0660652226541,-1.33553157871,0.962465738168
1589276146794175021,754,1589276146794060067,,0.0664274381544,-1.336312201,0.962103314836
1589276146797023560,755,1589276146796933586,,0.0665229021714,-1.35548090353,0.965664242944
1589276146802766045,756,1589276146802671372,,0.0668484266476,-1.37512228782,0.968609652004
1589276146808847251,757,1589276146808761677,,0.066942756827,-1.38961664212,0.971052009818
1589276146814794305,758,1589276146814702731,,0.0672444713631,-1.3954527204,0.971373339593
1589276146820795038,759,1589276146820710187,,0.0673709140242,-1.41475755603,0.97469711209
1589276146826877074,760,1589276146826794806,,0.0676423962462,-1.43464655584,0.977781017243
1589276146832834243,761,1589276146832727589,,0.0677092774151,-1.45430232385,0.981305611815
1589276146838830535,762,1589276146838717333,,0.0679490822271,-1.47434339178,0.984585400691
1589276146844818673,763,1589276146844682636,,0.0680238083589,-1.49434273685,0.988279118627
1589276146850517186,764,1589276146850431243,,0.0683657196886,-1.51451371491,0.991775256452
1589276146856647015,765,1589276146856558657,,0.0685141434198,-1.53460550723,0.995604493064
1589276146862655594,766,1589276146862568304,,0.068646642196,-1.5548716641,0.999263625609
1589276146868550985,767,1589276146868432639,,0.0690255885891,-1.55510832082,0.998912916715
1589276146874720015,768,1589276146874656544,,0.0693299501395,-1.57561691201,1.00251621064
1589276146880836647,769,1589276146880753017,,0.0694328578937,-1.59614591712,1.00626146622
1589276146886784977,770,1589276146886703996,,0.0697558187898,-1.61684567527,1.00952224755
1589276146892715902,771,1589276146892646873,,0.069853088737,-1.63778337258,1.01330651816
1589276146898761341,772,1589276146898674238,,0.0701911450479,-1.65861892367,1.01666433985
1589276146904765048,773,1589276146904684343,,0.070398998052,-1.67979139343,1.02048835366
1589276146911022799,774,1589276146910904014,,0.0706042355436,-1.70112318091,1.0236725935
1589276146917076690,775,1589276146916930590,,0.0707222239524,-1.72240230172,1.02749859356
1589276146922907375,776,1589276146922826049,,0.0709889991398,-1.74394240093,1.0313150334
1589276146928901117,777,1589276146928768034,,0.0710746447574,-1.74381205037,1.03083674673
1589276146935097047,778,1589276146934978387,,0.0711298575315,-1.76549015715,1.03494169581
1589276146941029249,779,1589276146940877898,,0.0713198610413,-1.78697823955,1.03903041046
1589276146946970270,780,1589276146946861134,,0.0714606185941,-1.80863115351,1.04271075512
1589276146952903375,781,1589276146952805407,,0.0715453237131,-1.83057979967,1.04688698856
1589276146958954819,782,1589276146958840957,,0.0716852536507,-1.85247951426,1.05064738921
1589276146964885536,783,1589276146964812331,,0.0717895697733,-1.87441740624,1.05490239071
1589276146970812918,784,1589276146970719911,,0.0720336119547,-1.89632033548,1.05893124317
1589276146976747789,785,1589276146976669692,,0.0720580327581,-1.91854490923,1.06284262846
1589276146982861002,786,1589276146982779423,,0.0723358731255,-1.94053308987,1.06672684369
1589276146988939178,787,1589276146988781180,,0.0724516305259,-1.94030958576,1.06620758997
1589276146995010717,788,1589276146994919344,,0.0727551093856,-1.96229144941,1.07036890132
1589276146998098243,789,1589276146998015451,,0.0729438205138,-1.98449790984,1.07467411801
1589276147003766546,790,1589276147003611694,,0.0732537391226,-2.00638185895,1.07863055283
1589276147009795868,791,1589276147009681716,,0.073543572229,-2.02849868936,1.08303850063
1589276147015860976,792,1589276147015782888,,0.0742627294133,-2.04940632321,1.08732372701
1589276147021872530,793,1589276147021785059,,0.0748618758508,-2.04786457321,1.08723425067
1589276147027814449,794,1589276147027709650,,0.0752853231672,-2.06979960845,1.09170713537
1589276147033469792,795,1589276147033386097,,0.0757335830609,-2.09177565329,1.09613126846
1589276147039695202,796,1589276147039636515,,0.0764728152871,-2.11279356871,1.10041924391
1589276147045780016,797,1589276147045704167,,0.0767646309341,-2.13542908827,1.10494199674
1589276147052015494,798,1589276147051940393,,0.0773300753408,-2.15685300799,1.10901278099
1589276147057956191,799,1589276147057871587,,0.0776693540931,-2.1793426309,1.11346162037
1589276147064051480,800,1589276147063878499,,0.0787638365962,-2.1966008496,1.11696183612
1589276147070025084,801,1589276147069928159,,0.0791671921102,-2.21903060497,1.12143853639
1589276147075973629,802,1589276147075884181,,0.0796382507131,-2.24045127096,1.12538987024
1589276147081975655,803,1589276147081875871,,0.0797781345531,-2.23921178792,1.12498377482
1589276147087995061,804,1589276147087917513,,0.0800745552754,-2.2606724233,1.12849017444
1589276147094333400,805,1589276147094208967,,0.0801948684532,-2.28353117997,1.13269045012
1589276147099987292,806,1589276147099871962,,0.0799797161316,-2.30530048452,1.13560481393
1589276147105983874,807,1589276147105908079,,0.0797694605305,-2.3283507523,1.13950143108
1589276147111994341,808,1589276147111898637,,0.0792055133924,-2.35039004685,1.14240573124
1589276147118011612,809,1589276147117920862,,0.0791041585809,-2.37365749924,1.14631697283
1589276147124071230,810,1589276147123992774,,0.079080343467,-2.39603825086,1.14954137482
1589276147129918597,811,1589276147129822420,,0.079107190567,-2.41928775103,1.15362429593
1589276147141992058,812,1589276147141927485,,0.0793895774309,-2.43991095043,1.15671523505
1589276147147844797,813,1589276147147759234,,0.0796016333863,-2.46257999609,1.16089238538
1589276147154027599,814,1589276147153903067,,0.0798164794508,-2.48642394977,1.16566881416
1589276147160122831,815,1589276147159960905,,0.0802385848749,-2.50920069792,1.16989203893
1589276147165905605,816,1589276147165790141,,0.080430955655,-2.53328669878,1.17463520638
1589276147172072752,817,1589276147171963656,,0.0806706117309,-2.55689051956,1.17905954501
1589276147178012133,818,1589276147177890593,,0.0806952062942,-2.58145072906,1.18359726622
1589276147184109779,819,1589276147183948226,,0.0807690928674,-2.60548000691,1.18781731305
1589276147189979668,820,1589276147189890439,,0.0807547013904,-2.63042899942,1.19249766267
1589276147201675541,821,1589276147201598278,,0.080942286339,-2.65374340225,1.19632106383
1589276147207948283,822,1589276147207832939,,0.0810110303553,-2.6788889603,1.20119831464
1589276147214085914,823,1589276147213907099,,0.0810811810873,-2.7037939068,1.20585758917
1589276147220040029,824,1589276147219884544,,0.0812319015594,-2.72764981895,1.21006767603
1589276147226134726,825,1589276147226040602,,0.081422990874,-2.75237455797,1.21484797322
1589276147231945520,826,1589276147231787937,,0.0816507423517,-2.77657517631,1.21938105091
1589276147237830941,827,1589276147237736480,,0.0817470548025,-2.80125084431,1.2240898734
1589276147243760061,828,1589276147243614022,,0.0819118648903,-2.82587700321,1.22866062863
1589276147249719703,829,1589276147249630582,,0.0821373994264,-2.84951739036,1.2326831443
1589276147262132509,830,1589276147261925688,,0.0826267225024,-2.87169108209,1.23645585079
1589276147268131982,831,1589276147267994491,,0.0828384879579,-2.89656967811,1.24118044073
1589276147274024727,832,1589276147273890510,,0.0831228180641,-2.92084448077,1.24558772727
1589276147280082864,833,1589276147279991586,,0.0832587134342,-2.94611533798,1.25038269126
1589276147285878025,834,1589276147285786185,,0.0835439535158,-2.97048183473,1.25484091652
1589276147292073304,835,1589276147291914372,,0.0837662284448,-2.99574927376,1.25964474785
1589276147298210315,836,1589276147298089173,,0.0840609886195,-3.01995113518,1.2639627665
1589276147304033802,837,1589276147303916640,,0.084179013948,-3.04485722174,1.268675871
1589276147310101728,838,1589276147309979087,,0.084309882773,-3.07000784498,1.27333271957
1589276147322159015,839,1589276147322051742,,0.0847477453189,-3.09059997748,1.27571636509
1589276147327890727,840,1589276147327822047,,0.0848475929763,-3.11552480219,1.28016603588
1589276147333803991,841,1589276147333728973,,0.0849819937493,-3.14066773596,1.28479618288
1589276147339949733,842,1589276147339792825,,0.0854081150155,-3.16397703597,1.2888922534
1589276147345897605,843,1589276147345804618,,0.0858597997351,-3.18717241567,1.2930517473
1589276147351862342,844,1589276147351786197,,0.0861512671125,-3.2119300099,1.29770635799
1589276147357781036,845,1589276147357700747,,0.0866883355495,-3.23521007051,1.30160202624
1589276147363991287,846,1589276147363812689,,0.0868820771385,-3.26019890981,1.30630904234
1589276147369914816,847,1589276147369780980,,0.0871832968437,-3.28358508257,1.310292447
1589276147379076703,848,1589276147378979139,,0.0874250508531,-3.30709819822,1.31428963382
1589276147384917089,849,1589276147384849636,,0.0878487282008,-3.33111057758,1.31841871514
1589276147390838089,850,1589276147390673370,,0.0880810554002,-3.354992923,1.32233738003
1589276147397214231,851,1589276147397146752,,0.0882069033485,-3.38056718357,1.32707988637
1589276147402866990,852,1589276147402790006,,0.0883182624104,-3.40603670385,1.33182075391
1589276147409122764,853,1589276147409047446,,0.0885536398359,-3.43001693456,1.33578187771
1589276147415028500,854,1589276147414947612,,0.0886928842813,-3.4282712372,1.33503007644
1589276147421031311,855,1589276147420903495,,0.0892547603125,-3.45147705697,1.33906572152
1589276147426876793,856,1589276147426799469,,0.089589817353,-3.47625869041,1.34380545881
1589276147432921466,857,1589276147432850096,,0.0901805070107,-3.49884899778,1.34767832896
1589276147438825857,858,1589276147438752456,,0.0904769059907,-3.52369867794,1.35234925912
1589276147444632286,859,1589276147444548894,,0.0907964652196,-3.54853503026,1.35712042244
1589276147450745916,860,1589276147450675941,,0.0914050343747,-3.57081524002,1.36100664258
1589276147456627412,861,1589276147456552737,,0.0916993207257,-3.59527193305,1.36587804218
1589276147462556901,862,1589276147462494321,,0.0924143020291,-3.61704555067,1.36990283337
1589276147468692348,863,1589276147468524364,,0.0927114697132,-3.61475697313,1.36940085739
1589276147474662116,864,1589276147474561844,,0.0929695377504,-3.63980284155,1.37429603402
1589276147480806720,865,1589276147480722377,,0.0933883891352,-3.66250995911,1.37912881067
1589276147486711966,866,1589276147486653093,,0.0938204505666,-3.68549279324,1.38440414923
1589276147492723921,867,1589276147492637552,,0.0939595538109,-3.71039254256,1.38954068929
1589276147498803031,868,1589276147498722018,,0.094694777414,-3.7327248833,1.39427935229
1589276147504774595,869,1589276147504707573,,0.0951673168924,-3.75674086414,1.39923508729
1589276147510722485,870,1589276147510673604,,0.0958781506891,-3.77883281531,1.40325057967
1589276147516928099,871,1589276147516858927,,0.096133871402,-3.80357124611,1.40804628027
1589276147522751363,872,1589276147522699795,,0.0964212288687,-3.82779321705,1.41264720907
1589276147529034706,873,1589276147528970640,,0.0970535483863,-3.84870428709,1.41657824921
1589276147534970625,874,1589276147534903055,,0.097476267279,-3.84488352809,1.41594748634
1589276147540911244,875,1589276147540824513,,0.0980082178,-3.86511915791,1.41959719057
1589276147546943435,876,1589276147546878731,,0.098354782036,-3.88872039025,1.42438708348
1589276147552944740,877,1589276147552863176,,0.0993340699252,-3.90866650386,1.42851113335
1589276147559149513,878,1589276147559022187,,0.100028721923,-3.92844975735,1.43214589109
1589276147565058048,879,1589276147564980179,,0.10037356811,-3.95204499814,1.43688171737
1589276147571045444,880,1589276147570969818,,0.100775658553,-3.9756353502,1.44161773621
1589276147576882938,881,1589276147576712690,,0.101212182487,-3.9984118942,1.44604620326
1589276147583141100,882,1589276147583057963,,0.101828852972,-4.01849060247,1.44998819681
1589276147589303291,883,1589276147589214251,,0.102710083381,-4.0220030938,1.45057962846
1589276147595175943,884,1589276147595091957,,0.103174062102,-4.03421209964,1.45323625045
1589276147600818336,885,1589276147600733958,,0.10384471489,-4.05486894575,1.4571317237
1589276147606800318,886,1589276147606711564,,0.104110038882,-4.07914573377,1.46167381697
1589276147612940072,887,1589276147612829328,,0.105005754006,-4.09832413639,1.46568632177
1589276147618849164,888,1589276147618750360,,0.105304914834,-4.12210073498,1.47040892255
1589276147624774256,889,1589276147624661867,,0.106259966414,-4.14061802397,1.47464332552
1589276147631150960,890,1589276147631021403,,0.106603343556,-4.16391077342,1.47944494568
1589276147636840560,891,1589276147636722439,,0.107319617563,-4.18332816363,1.48394372671
1589276147642764686,892,1589276147642683998,,0.107749649372,-4.20644793084,1.48892499791
1589276147649461410,893,1589276147649383495,,0.108673716229,-4.20926474559,1.48973333083
1589276147655057804,894,1589276147654981501,,0.109025546465,-4.22186260144,1.49235543383
1589276147660901865,895,1589276147660839348,,0.109820598684,-4.24139492664,1.49666198295
1589276147666966375,896,1589276147666879103,,0.110257338916,-4.26469804998,1.50171982692
1589276147673131565,897,1589276147672969945,,0.111033470933,-4.2833564712,1.50572049079
1589276147679040230,898,1589276147678950036,,0.111480229992,-4.30662038984,1.51072272444
1589276147685064508,899,1589276147684979661,,0.112349936322,-4.32433655167,1.51468626153
1589276147691110560,900,1589276147691018579,,0.112639078846,-4.34685062647,1.51922847223
1589276147697104386,901,1589276147697030759,,0.113048628908,-4.3690764861,1.5240397574
1589276147702694356,902,1589276147702620168,,0.113769772191,-4.38760083891,1.52836423671
1589276147708953843,903,1589276147708859483,,0.114731139814,-4.37874446355,1.52704518459
1589276147715192289,904,1589276147715071758,,0.115223751262,-4.40071201774,1.53176648221
1589276147721003072,905,1589276147720896808,,0.116135969154,-4.41886092459,1.5360127813
1589276147726648072,906,1589276147726583964,,0.116463342059,-4.44164636451,1.54070297534
1589276147732671468,907,1589276147732580613,,0.117558947097,-4.45699475713,1.54484775388
1589276147738857587,908,1589276147738767978,,0.117888511642,-4.47929425894,1.54972298362
1589276147745084936,909,1589276147744961582,,0.118390428162,-4.49949650076,1.55430071148
1589276147750976760,910,1589276147750890727,,0.118851020743,-4.51573066579,1.55835613836
1589276147756988915,911,1589276147756876637,,0.119117639354,-4.53686908135,1.56304547748
1589276147762960965,912,1589276147762851456,,0.11978782768,-4.55345195641,1.56703723229
1589276147769180150,913,1589276147769098627,,0.120136965148,-4.57417644123,1.5717134827
1589276147775051941,914,1589276147774958547,,0.120734876858,-4.56450377491,1.5694256916
1589276147781089983,915,1589276147780988230,,0.121413715504,-4.58126561731,1.57375436128
1589276147787107851,916,1589276147786929616,,0.121690453266,-4.6030668797,1.57842548043
1589276147793463213,917,1589276147793347740,,0.122120641027,-4.62270766106,1.58278514816
1589276147799130437,918,1589276147799049454,,0.122445091765,-4.63873455618,1.58608246691
1589276147805106951,919,1589276147805000424,,0.122878037456,-4.65863166875,1.59086382537
1589276147811021102,920,1589276147810932738,,0.123663143883,-4.67284162393,1.59505173598
1589276147817006813,921,1589276147816919120,,0.123897402845,-4.69384357382,1.59936030616
1589276147823114134,922,1589276147823025272,,0.124305660726,-4.71398471178,1.60371889596
1589276147829142299,923,1589276147829040140,,0.125260010366,-4.71076336661,1.60364696907
1589276147835052899,924,1589276147834952605,,0.125666121654,-4.72360916653,1.60644622208
1589276147841009455,925,1589276147840920264,,0.126642545352,-4.73707816866,1.6100541483
1589276147847090085,926,1589276147847004213,,0.126879415876,-4.7580940038,1.61440507747
1589276147853040690,927,1589276147852949358,,0.127931752366,-4.77064407409,1.61830462898
1589276147859129275,928,1589276147859050772,,0.128365059071,-4.79065711477,1.62282751586
1589276147864686007,929,1589276147864595412,,0.129324294008,-4.8027585946,1.62655630703
1589276147870739724,930,1589276147870652350,,0.129925705515,-4.82169448254,1.63104002293
1589276147876795831,931,1589276147876719434,,0.130697792613,-4.8352750593,1.63452158408
1589276147883042148,932,1589276147882950822,,0.131355059862,-4.8536162534,1.63897289711
1589276147889258735,933,1589276147889171337,,0.132600621216,-4.86595117434,1.64248124567
1589276147895508541,934,1589276147895394317,,0.132982637383,-4.8597164206,1.64164282708
1589276147901162512,935,1589276147901037280,,0.133584964254,-4.87774277692,1.64592314706
1589276147907168243,936,1589276147907045390,,0.134556824515,-4.88922415809,1.64976748273
1589276147913237047,937,1589276147913098017,,0.135485982373,-4.90669097532,1.65429429643
1589276147918740599,938,1589276147918668661,,0.136533597344,-4.9182258217,1.6582221452
1589276147924756614,939,1589276147924638367,,0.137043699443,-4.93597299201,1.66273053602
1589276147930684726,940,1589276147930622589,,0.13831232186,-4.94655504909,1.66647696701
1589276147936700518,941,1589276147936625266,,0.138785578352,-4.9643483758,1.67086366874
1589276147943063151,942,1589276147942932366,,0.139740875033,-4.97458532356,1.67449996159
1589276147949107509,943,1589276147948955642,,0.140061702485,-4.96836465216,1.67384788187
1589276147955123307,944,1589276147955007058,,0.140814045098,-4.97876552789,1.67740431908
1589276147960678148,945,1589276147960604057,,0.14128635803,-4.99593017713,1.68163879106
1589276147966674897,946,1589276147966596873,,0.142085629718,-5.00683435635,1.68555822436
1589276147972899430,947,1589276147972784614,,0.142536229265,-5.02380114004,1.68972692887
1589276147978802262,948,1589276147978705975,,0.142893754748,-5.03507456039,1.69359828239
1589276147984972280,949,1589276147984906128,,0.14321163386,-5.05265001092,1.69764312664
1589276147991048672,950,1589276147990962782,,0.14360661456,-5.06363841978,1.70179416983
1589276147997302410,951,1589276147997160672,,0.143853753148,-5.0809822703,1.70571494598
1589276148003132611,952,1589276148003040077,,0.144165129507,-5.09187775995,1.71060528634
1589276148009127515,953,1589276148009043832,,0.144177337142,-5.09007117431,1.71041649047
1589276148015070027,954,1589276148014964706,,0.144356483506,-5.09720821606,1.71428677569
1589276148021011379,955,1589276148020893620,,0.144325049,-5.11393455014,1.71809257755
1589276148027053928,956,1589276148026974162,,0.144517997781,-5.12477407499,1.72244055648
1589276148033125419,957,1589276148033038381,,0.144239973226,-5.141680185,1.72625039037
1589276148038719663,958,1589276148038643238,,0.144465417177,-5.15239228163,1.73051245616
1589276148045143385,959,1589276148045024637,,0.144365194083,-5.1688434968,1.73441063466
1589276148051082055,960,1589276148051014233,,0.144374057732,-5.1793143487,1.73891827724
1589276148056776896,961,1589276148056669810,,0.14431305152,-5.19540394317,1.74315660078
1589276148062674763,962,1589276148062598185,,0.144203824146,-5.20573849411,1.74764984839
1589276148069499765,963,1589276148069330181,,0.144077344724,-5.19939712991,1.74798334915
1589276148075020033,964,1589276148074956852,,0.143885469235,-5.20944174036,1.75268431199
1589276148080841596,965,1589276148080752196,,0.143711658414,-5.22534892223,1.75720934611
1589276148086818702,966,1589276148086733496,,0.143573810945,-5.24122054076,1.76149892029
1589276148092800608,967,1589276148092682495,,0.143312711569,-5.2508870533,1.76650560844
1589276148099591055,968,1589276148099488895,,0.142975357197,-5.2607115344,1.77121228735
1589276148105101185,969,1589276148105018109,,0.142849331015,-5.27631237739,1.77578105714
1589276148110788591,970,1589276148110683574,,0.142682171858,-5.29189457778,1.78034343198
1589276148117137459,971,1589276148117034842,,0.142410143993,-5.30116151303,1.78531112615
1589276148123129389,972,1589276148123025468,,0.141810953073,-5.31140674685,1.78989859462
1589276148129219211,973,1589276148129072897,,0.141665667872,-5.30546698739,1.79042207059
1589276148135172415,974,1589276148135058409,,0.141418822913,-5.32060921263,1.79492295598
1589276148141145756,975,1589276148141043074,,0.141080795323,-5.32973347814,1.80046395313
1589276148147034708,976,1589276148146939081,,0.140645904804,-5.34478996707,1.80476298822
1589276148153083349,977,1589276148152958847,,0.140311447116,-5.35327406591,1.8096544773
1589276148159047791,978,1589276148158948166,,0.139735302429,-5.36214526373,1.81409505696
1589276148165144297,979,1589276148165013508,,0.139587496956,-5.3760791968,1.81898828424
1589276148171037679,980,1589276148170939503,,0.139490423315,-5.39018748329,1.82354701076
1589276148177090425,981,1589276148176974654,,0.139085826778,-5.39792801788,1.82795402473
1589276148183216077,982,1589276148183090000,,0.139054158162,-5.41127977939,1.8322961022
1589276148189177299,983,1589276148189053114,,0.138473073821,-5.39864785475,1.83190013492
1589276148195648588,984,1589276148195554629,,0.138051568619,-5.40618863352,1.83653783599
1589276148201016703,985,1589276148200923383,,0.137745561781,-5.41933854772,1.84026942623
1589276148207128051,986,1589276148206945572,,0.137377916977,-5.43321546852,1.84426163146
1589276148213053089,987,1589276148212964742,,0.13716662026,-5.44030708575,1.84867996186
1589276148218926368,988,1589276148218853812,,0.136798895514,-5.44784134415,1.85288378758
1589276148224928937,989,1589276148224850292,,0.136638809426,-5.4611061193,1.85695624675
1589276148230986616,990,1589276148230819744,,0.13668083377,-5.47446076612,1.86063794804
1589276148237109964,991,1589276148237002466,,0.136409471009,-5.48144892088,1.86525903276
1589276148242929590,992,1589276148242858417,,0.136216069128,-5.49444641076,1.8687517342
1589276148249225004,993,1589276148249134282,,0.13615795262,-5.50017706208,1.87268634265
1589276148254699108,994,1589276148254615175,,0.136014957222,-5.49397213287,1.87223221586
1589276148257685022,995,1589276148257615221,,0.136337124058,-5.49931806797,1.87573124652
1589276148263758748,996,1589276148263678101,,0.136532846556,-5.51121623505,1.87931236582
1589276148269936272,997,1589276148269847189,,0.136604624247,-5.51623006631,1.88262396104
1589276148276134155,998,1589276148276065410,,0.136703357469,-5.52761830325,1.88611358916
1589276148282056409,999,1589276148281855107,,0.137156460879,-5.51314820086,1.88536889111
1589276148288070949,1000,1589276148288008679,,0.137441491726,-5.52396159012,1.88883752827
1589276148294092899,1001,1589276148294021656,,0.137788081591,-5.52798322676,1.8911482478
1589276148300114077,1002,1589276148299983503,,0.13778186305,-5.53900275942,1.89451082281
1589276148306006736,1003,1589276148305929352,,0.137710931326,-5.5430594628,1.89668201285
1589276148312037000,1004,1589276148311925990,,0.137680236465,-5.55478565792,1.90038221367
1589276148318038196,1005,1589276148317966670,,0.137387771059,-5.5598847943,1.90289193627
1589276148324121506,1006,1589276148324029500,,0.137382899458,-5.57112855386,1.90657685245
1589276148330036586,1007,1589276148329958628,,0.137233270618,-5.57628023024,1.90914305298
1589276148339205765,1008,1589276148339098478,,0.137117709367,-5.57430438623,1.91132875301
1589276148344973806,1009,1589276148344882913,,0.137222257841,-5.58409120481,1.91442912966
1589276148350954311,1010,1589276148350893834,,0.137401323525,-5.58635267733,1.91594291377
1589276148356930978,1011,1589276148356876881,,0.137549976474,-5.59485726616,1.91829459239
1589276148362910070,1012,1589276148362833455,,0.138036197832,-5.59556009723,1.91924601793
1589276148369206673,1013,1589276148369095428,,0.138238207677,-5.58714765882,1.9185134984
1589276148375103290,1014,1589276148375022677,,0.138701276748,-5.5869161548,1.91952962979
1589276148380955221,1015,1589276148380868852,,0.13915730369,-5.59484808483,1.92233797799
1589276148386946403,1016,1589276148386880023,,0.1396927128,-5.59461434557,1.92346658123
1589276148392892633,1017,1589276148392816938,,0.139926276066,-5.60316523536,1.92637937091
1589276148399325128,1018,1589276148399221120,,0.140099668998,-5.61138436618,1.92893563922
1589276148404862704,1019,1589276148404803489,,0.140236110936,-5.61397217718,1.9308607826
1589276148410937867,1020,1589276148410842819,,0.140348587623,-5.62262175555,1.93346753694
1589276148417124249,1021,1589276148417042987,,0.1401416046,-5.62548588426,1.93508303029
1589276148422991108,1022,1589276148422931031,,0.139833696598,-5.62883020638,1.93677554535
1589276148429210906,1023,1589276148429093029,,0.139877645542,-5.63735357365,1.93877014244
1589276148434875594,1024,1589276148434776910,,0.13972016144,-5.63123338967,1.93824114
1589276148440917207,1025,1589276148440848903,,0.139657907382,-5.63240752452,1.93940983977
1589276148446940589,1026,1589276148446861127,,0.139906172325,-5.6392524932,1.94131827983
1589276148453010311,1027,1589276148452874816,,0.140402765416,-5.63778910626,1.94288972125
1589276148459034297,1028,1589276148458923162,,0.140685134899,-5.64356305967,1.94493606489
1589276148464850986,1029,1589276148464781032,,0.141559436017,-5.63955218147,1.94591175511
1589276148470935645,1030,1589276148470830346,,0.141974705068,-5.64458384327,1.94841881821
1589276148476936279,1031,1589276148476832723,,0.142914206711,-5.64008093132,1.94835305316
1589276148479880608,1032,1589276148479797950,,0.143041701035,-5.63097538786,1.94741793255
1589276148486182786,1033,1589276148486108627,,0.143611059119,-5.62830294097,1.94784077278
1589276148492027574,1034,1589276148491956924,,0.143600781281,-5.63369524696,1.94949884953
1589276148498392362,1035,1589276148498294969,,0.143254774971,-5.63279595159,1.94935024525
1589276148504122125,1036,1589276148504016749,,0.143056941493,-5.63969442546,1.95131092796
1589276148509947858,1037,1589276148509850884,,0.142700021495,-5.64039614364,1.95256913761
1589276148516075350,1038,1589276148516010735,,0.142520695613,-5.64753520201,1.95453148608
1589276148522028535,1039,1589276148521817214,,0.142179026173,-5.63616157686,1.95367335799
1589276148527925164,1040,1589276148527833494,,0.142139970449,-5.64241558108,1.95567393035
1589276148533976454,1041,1589276148533882494,,0.142065328721,-5.64176129454,1.95683916628
1589276148539929150,1042,1589276148539858504,,0.142190574823,-5.64664014718,1.95844457437
1589276148545889729,1043,1589276148545797973,,0.142614556224,-5.64318695045,1.95895131442
1589276148552312519,1044,1589276148552192610,,0.142957341062,-5.64635149804,1.95970779863
1589276148558230461,1045,1589276148558133806,,0.143563195833,-5.64017551588,1.95987314593
1589276148564178281,1046,1589276148564044364,,0.143956397623,-5.64219691354,1.96116367595
1589276148570000257,1047,1589276148569876664,,0.14466520994,-5.63490977882,1.96138424819
1589276148576053998,1048,1589276148575975290,,0.144931636196,-5.63745828911,1.96256138556
1589276148582625790,1049,1589276148582543009,,0.145587866512,-5.63068015831,1.96360982623
1589276148588081091,1050,1589276148587999627,,0.145709826131,-5.62324079732,1.96294439612
1589276148594095851,1051,1589276148594025155,,0.145902384963,-5.61962866689,1.96453889753
1589276148600138125,1052,1589276148600065225,,0.145845478943,-5.62424400841,1.96590220419
1589276148606144538,1053,1589276148606071956,,0.145459334675,-5.62297521971,1.96702575583
1589276148612131671,1054,1589276148612046057,,0.145185642932,-5.6280072247,1.96849666521
1589276148618101687,1055,1589276148618032496,,0.144791326624,-5.6270716009,1.96930621072
1589276148624261942,1056,1589276148624176945,,0.144372404751,-5.63219835502,1.9702617802
1589276148630219196,1057,1589276148630106326,,0.144052427319,-5.62984995159,1.9708927916
1589276148636716049,1058,1589276148636584939,,0.143848779471,-5.63386223659,1.9721301298
1589276148642181612,1059,1589276148642092824,,0.143992338367,-5.61974898926,1.97124611732
1589276148648382326,1060,1589276148648289230,,0.143924410652,-5.62202614081,1.97247017529
1589276148654284213,1061,1589276148654169290,,0.144051444793,-5.62432589924,1.97379683326
1589276148660254965,1062,1589276148660140202,,0.144298241398,-5.61821894397,1.9746332559
1589276148666475317,1063,1589276148666374401,,0.14469372334,-5.61933513923,1.97613007502
1589276148672443916,1064,1589276148672288046,,0.145115582743,-5.6122750202,1.97687625366
1589276148678322596,1065,1589276148678227467,,0.145298049729,-5.61334764824,1.97765106388
1589276148684242448,1066,1589276148684163289,,0.145415072416,-5.60722247407,1.97757270594
1589276148690321073,1067,1589276148690218000,,0.145403724091,-5.60865254641,1.97832082135
1589276148696371780,1068,1589276148696260133,,0.145253466976,-5.61060065351,1.9793013721
1589276148702400239,1069,1589276148702113643,,0.144925866146,-5.59857294875,1.9782374604
1589276148708222763,1070,1589276148708112597,,0.144673220268,-5.6013165632,1.97952183558
1589276148714203806,1071,1589276148714106638,,0.14416123345,-5.59896296016,1.98068939846
1589276148720162489,1072,1589276148720077933,,0.144016001169,-5.60204541031,1.98271046129
1589276148726230077,1073,1589276148726134126,,0.143825209048,-5.60009528962,1.98470802934
1589276148732269856,1074,1589276148732169698,,0.143694812672,-5.60233673323,1.98623020409
1589276148738132580,1075,1589276148738052209,,0.143436505203,-5.59837534495,1.98737009286
1589276148744154376,1076,1589276148744072713,,0.143531612705,-5.59885919193,1.98852418993
1589276148750172359,1077,1589276148750083456,,0.143416504706,-5.59238311168,1.98908720234
1589276148759208847,1078,1589276148759125507,,0.143844764494,-5.57569009522,1.988120397
1589276148765179600,1079,1589276148765040595,,0.144107694529,-5.57444235549,1.98949886574
1589276148771208341,1080,1589276148771128707,,0.14435962342,-5.57238968767,1.99037521677
1589276148777147678,1081,1589276148777028208,,0.144401909825,-5.57059250304,1.99049350355
1589276148783548600,1082,1589276148783428250,,0.144899164911,-5.56083944205,1.99125806343
1589276148789593323,1083,1589276148789512821,,0.145087941971,-5.5589572767,1.99178109502
1589276148795767422,1084,1589276148795460142,,0.145199688002,-5.5451632713,1.99042383732
1589276148801103030,1085,1589276148800964290,,0.145489775761,-5.54642517235,1.991964414
1589276148807051920,1086,1589276148806943939,,0.145149029415,-5.54030086653,1.99171439704
1589276148812990269,1087,1589276148812866166,,0.145147678122,-5.54235676095,1.99301971281
1589276148818910277,1088,1589276148818807918,,0.144825722717,-5.53748582354,1.99335590696
1589276148824998129,1089,1589276148824903124,,0.144530158013,-5.53834822463,1.99415195716
1589276148831204755,1090,1589276148831100086,,0.144337402021,-5.53422254798,1.99435188746
1589276148837132493,1091,1589276148837042108,,0.14434298694,-5.53424964396,1.99504370076
1589276148843446990,1092,1589276148843332208,,0.144696899853,-5.52749159663,1.99460001065
1589276148849118001,1093,1589276148848814011,,0.144891876099,-5.52128016264,1.99407940752
1589276148855253574,1094,1589276148855169591,,0.145216608189,-5.51227202867,1.99370835991
1589276148861170962,1095,1589276148861067214,,0.145725131003,-5.50893107786,1.99434450299
1589276148867194577,1096,1589276148867083242,,0.146398688851,-5.49814271746,1.99412090955
1589276148873200221,1097,1589276148873072957,,0.146895401816,-5.49433675343,1.99451735653
1589276148879242985,1098,1589276148879141417,,0.1473831262,-5.49020269004,1.99488853916
1589276148885118564,1099,1589276148885013238,,0.148123947718,-5.4785437237,1.99458155553
1589276148891049657,1100,1589276148890971178,,0.148690493083,-5.46772147303,1.99422038685
1589276148897270262,1101,1589276148897182060,,0.149122749542,-5.46351271481,1.99440733548
1589276148903524059,1102,1589276148903420645,,0.149494928493,-5.45996590743,1.994563803
1589276148909525959,1103,1589276148909415632,,0.149561514583,-5.45084859617,1.99435024878
1589276148915467937,1104,1589276148915316497,,0.149576862226,-5.43946061912,1.99369374671
1589276148921391982,1105,1589276148921281813,,0.14967824645,-5.43685522981,1.99386126811
1589276148927066942,1106,1589276148926991181,,0.14973435825,-5.43422862672,1.9942639985
1589276148933175635,1107,1589276148933065931,,0.149700185561,-5.43172821728,1.99458380774
1589276148939116202,1108,1589276148939025375,,0.149836342923,-5.42326542183,1.99430440969
1589276148945177654,1109,1589276148945083770,,0.150094508932,-5.41944745517,1.99478388405
1589276148951052068,1110,1589276148950882954,,0.150584460827,-5.40796489617,1.99400855146
1589276148957200077,1111,1589276148957109756,,0.15083416811,-5.40368353397,1.99377382519
1589276148963089426,1112,1589276148962991946,,0.151614204032,-5.3904020349,1.99269082135
1589276148968764476,1113,1589276148968688128,,0.152104899926,-5.38268963563,1.99189000583
1589276148975305322,1114,1589276148975189120,,0.15319820157,-5.36786678336,1.99043296915
1589276148981338768,1115,1589276148981217187,,0.153880384338,-5.3610370816,1.99005165167
1589276148987414290,1116,1589276148987231641,,0.154887287186,-5.34568139565,1.98835639022
1589276148993213272,1117,1589276148993146846,,0.155446207236,-5.3389344594,1.98795193139
1589276148999587855,1118,1589276148999496670,,0.156313645769,-5.32479778934,1.9862584145
1589276149004879969,1119,1589276149004789228,,0.156631879929,-5.31838601475,1.98592808318
1589276149010979581,1120,1589276149010898442,,0.156921045503,-5.30621536004,1.98429306877
1589276149017278987,1121,1589276149017192281,,0.156885848814,-5.30116379756,1.98443143033
1589276149023607292,1122,1589276149023527548,,0.156823068811,-5.29071189416,1.98346504321
1589276149029507328,1123,1589276149029310914,,0.156754747647,-5.2856236986,1.98317298947
1589276149035178934,1124,1589276149035091032,,0.156748632754,-5.27577150604,1.98269334781
1589276149041301829,1125,1589276149041190544,,0.156968020685,-5.27070934716,1.98252296135
1589276149047290201,1126,1589276149047195659,,0.156846552927,-5.26520237705,1.98170845544
1589276149053135582,1127,1589276149053038556,,0.157086279789,-5.25292180796,1.98124955753
1589276149059186738,1128,1589276149059133849,,0.157629643169,-5.23890071876,1.9792149206
1589276149065253883,1129,1589276149065153762,,0.157952219075,-5.23155985834,1.97863391263
1589276149070806324,1130,1589276149070732900,,0.158551011823,-5.22314462878,1.97791082857
1589276149074143930,1131,1589276149074067950,,0.159219669288,-5.20703114558,1.97581733189
1589276149080181672,1132,1589276149080075298,,0.160338389293,-5.18988932828,1.97437444626
1589276149085867674,1133,1589276149085755608,,0.160732736446,-5.18041804449,1.9730277142
1589276149092078656,1134,1589276149091998681,,0.16217013159,-5.156937037,1.97031200638
1589276149098346037,1135,1589276149098262250,,0.162866908295,-5.14201646372,1.96891243892
1589276149104122769,1136,1589276149104018887,,0.163196668845,-5.13458735569,1.96807397172
1589276149110132735,1137,1589276149110045774,,0.163307877771,-5.12195457418,1.9669910785
1589276149116169675,1138,1589276149116052836,,0.163316661325,-5.11525050438,1.96633525794
1589276149122295062,1139,1589276149122082770,,0.163315070356,-5.11053840024,1.96628219449
1589276149128259809,1140,1589276149128155234,,0.163590737206,-5.09969710911,1.96562644523
1589276149134233460,1141,1589276149134117798,,0.163418038582,-5.08824824907,1.96369053026
1589276149140072306,1142,1589276149139990477,,0.163530361827,-5.08109341098,1.96277503076
1589276149146097419,1143,1589276149146011659,,0.163676467798,-5.07305771519,1.96198436887
1589276149152130668,1144,1589276149151989455,,0.163963261102,-5.05856961918,1.95997647659
1589276149158307619,1145,1589276149158168805,,0.164166522416,-5.04951586105,1.95855538782
1589276149164100591,1146,1589276149164016084,,0.164799494218,-5.03323927014,1.95631154053
1589276149170172074,1147,1589276149170070562,,0.165434192755,-5.02281462911,1.95531429825
1589276149179202120,1148,1589276149179119310,,0.166745678567,-4.99627115527,1.95243056298
1589276149185330708,1149,1589276149185215857,,0.167070571105,-4.98611820652,1.95067202152
1589276149191383447,1150,1589276149191258562,,0.167771512965,-4.96768614684,1.94826128732
1589276149197527623,1151,1589276149197416117,,0.168128995543,-4.95733065422,1.94645773029
1589276149203398421,1152,1589276149203294079,,0.16854079251,-4.9401777562,1.94398269077
1589276149209544629,1153,1589276149209465367,,0.168767533012,-4.91999168419,1.94016067513
1589276149215277333,1154,1589276149215213010,,0.168939502935,-4.92091506985,1.94121620966
1589276149221202301,1155,1589276149221115773,,0.169024997602,-4.91165147203,1.93976174509
1589276149227181806,1156,1589276149227077059,,0.16874270497,-4.8999506009,1.93834292464
1589276149233288643,1157,1589276149233185921,,0.168839008645,-4.89089996762,1.93748459552
1589276149239271888,1158,1589276149239123521,,0.168857921972,-4.88265652677,1.93634415242
1589276149245321934,1159,1589276149245244554,,0.168810630726,-4.86976607659,1.93487367643
1589276149251253331,1160,1589276149251129270,,0.16876584038,-4.8613064219,1.93348740144
1589276149257315477,1161,1589276149257221259,,0.168936405471,-4.8466471472,1.93168042179
1589276149263301084,1162,1589276149263204236,,0.169124147052,-4.836043098,1.92996654363
1589276149269386476,1163,1589276149269175341,,0.169363589839,-4.82388950481,1.9283355226
1589276149275173800,1164,1589276149275084704,,0.169600421167,-4.81239718074,1.92660045181
1589276149281166957,1165,1589276149281076935,,0.169995032225,-4.79336172699,1.92380059304
1589276149287089050,1166,1589276149287023295,,0.170345785835,-4.78089380586,1.92200599605
1589276149293169725,1167,1589276149293095857,,0.170526591723,-4.76151230624,1.91919066591
1589276149299679651,1168,1589276149299523440,,0.170891645677,-4.74825730445,1.91717778199
1589276149305195678,1169,1589276149305115347,,0.171082260855,-4.72934152817,1.91458648821
1589276149311213297,1170,1589276149311114859,,0.171250659301,-4.71689598498,1.91286089066
1589276149317323590,1171,1589276149317249214,,0.171264225093,-4.69970018238,1.91069415231
1589276149323471992,1172,1589276149323348821,,0.171009227934,-4.68858053738,1.90894573445
1589276149329388339,1173,1589276149329303050,,0.170619291271,-4.67820432364,1.9076428739
1589276149335172020,1174,1589276149335075537,,0.170418809242,-4.66819361642,1.90643771257
1589276149341088849,1175,1589276149341017074,,0.169932759758,-4.65310890701,1.90382261386
1589276149347106350,1176,1589276149346977141,,0.169947747906,-4.64267956042,1.90233123314
1589276149353135145,1177,1589276149353030429,,0.169799866859,-4.62687392277,1.89958790167
1589276149359276807,1178,1589276149359187815,,0.169651805445,-4.61560968106,1.89749822823
1589276149365324722,1179,1589276149365222253,,0.169955404286,-4.59806937548,1.89524810856
1589276149371245568,1180,1589276149371161536,,0.1700368209,-4.58568128547,1.89276811121
1589276149377275805,1181,1589276149377169321,,0.170544695415,-4.56659140736,1.88997148867
1589276149383877892,1182,1589276149383742564,,0.170890010248,-4.55274439084,1.88773536216
1589276149389501196,1183,1589276149389324554,,0.171385399736,-4.53945674931,1.88601463933
1589276149395068155,1184,1589276149394993832,,0.171725473652,-4.52522428791,1.88403031365
1589276149401477267,1185,1589276149401362769,,0.172068293234,-4.51174040119,1.88180403607
1589276149407373704,1186,1589276149407253379,,0.172537234091,-4.4914421223,1.87818358102
1589276149413368686,1187,1589276149413257269,,0.173109926193,-4.47236170426,1.87530773945
1589276149419128268,1188,1589276149419033633,,0.173301786033,-4.45947079028,1.87314822135
1589276149425138144,1189,1589276149425051740,,0.173253197251,-4.44724829417,1.87094709736
1589276149431287387,1190,1589276149431143447,,0.173273257543,-4.43034105883,1.86807112428
1589276149437251535,1191,1589276149437186270,,0.173169914012,-4.41909460228,1.86644213994
1589276149443335322,1192,1589276149443236152,,0.173162888129,-4.40342535085,1.86422538925
1589276149449502604,1193,1589276149449383893,,0.17303069474,-4.39930587936,1.8637227902
1589276149455569490,1194,1589276149455378951,,0.17305503883,-4.3837860734,1.86162281955
1589276149461486774,1195,1589276149461359900,,0.173059591748,-4.36759152296,1.85894387466
1589276149467368422,1196,1589276149467234805,,0.173085584115,-4.35508774714,1.85672933146
1589276149473259267,1197,1589276149473176502,,0.173335806912,-4.33717335835,1.85438787613
1589276149479474759,1198,1589276149479271293,,0.173529656825,-4.32360551299,1.85239286377
1589276149485328719,1199,1589276149485218740,,0.173934868349,-4.31004671581,1.85031940042
1589276149491387342,1200,1589276149491288657,,0.174366832209,-4.28997858775,1.8470336394
1589276149497417413,1201,1589276149497317449,,0.174834368766,-4.27646349483,1.84504260362
1589276149503650356,1202,1589276149503530675,,0.175288148619,-4.25658240498,1.84208159277
1589276149509119016,1203,1589276149508828602,,0.175475975004,-4.25160755187,1.84172231388
1589276149515456191,1204,1589276149515304678,,0.175741622417,-4.23795507079,1.83965872213
1589276149521429767,1205,1589276149521306725,,0.175822998325,-4.2200978202,1.83698485038
1589276149527480409,1206,1589276149527326316,,0.175763456349,-4.20748066306,1.83473900887
1589276149533357006,1207,1589276149533243351,,0.17593685999,-4.19457377891,1.83290826259
1589276149539330527,1208,1589276149539224395,,0.175698258571,-4.18268665579,1.83053810881
1589276149545298748,1209,1589276149545213727,,0.175535293848,-4.17079032423,1.82865028191
1589276149551367191,1210,1589276149551253731,,0.17551196466,-4.15550128449,1.82656936254
1589276149557232921,1211,1589276149557133648,,0.175460573845,-4.14495259891,1.82468930915
1589276149563543199,1212,1589276149563430240,,0.175157688942,-4.12967105964,1.82242607611
1589276149572372092,1213,1589276149572234463,,0.175141597169,-4.11050006123,1.81981850105
1589276149578342318,1214,1589276149578242387,,0.175260549712,-4.09803904368,1.81761645278
1589276149584313536,1215,1589276149584213966,,0.175514037172,-4.08152629524,1.81496975118
1589276149590263536,1216,1589276149590188345,,0.175817406363,-4.06854217605,1.81296380736
1589276149596676006,1217,1589276149596606732,,0.176294434202,-4.05127142425,1.81030303429
1589276149602366700,1218,1589276149601954115,,0.176651732292,-4.04698169804,1.80984517954
1589276149608286957,1219,1589276149608173002,,0.176805283472,-4.03330658596,1.8072216754
1589276149614179376,1220,1589276149614104965,,0.177339557697,-4.0158042013,1.80459554091
1589276149619947858,1221,1589276149619805014,,0.177601555328,-4.00266061655,1.80252501008
1589276149623614794,1222,1589276149623522671,,0.177842037524,-3.98925041409,1.80035406747
1589276149632211127,1223,1589276149632116025,,0.178441651528,-3.96814546432,1.79741325488
1589276149638346982,1224,1589276149638222959,,0.178607493241,-3.95317215163,1.79489728658
1589276149644291398,1225,1589276149644161596,,0.178624409582,-3.94031717611,1.79247890221
1589276149650225293,1226,1589276149650133989,,0.178556465671,-3.92607527788,1.79025005704
1589276149659215238,1227,1589276149659116912,,0.17864471375,-3.90812528174,1.78764319375
1589276149665291245,1228,1589276149665187210,,0.178541097139,-3.89659486135,1.78547646482
1589276149671314339,1229,1589276149671169223,,0.178595183549,-3.8847365849,1.7834377263
1589276149677179801,1230,1589276149677033182,,0.178617800102,-3.87007791459,1.78093524804
1589276149680329203,1231,1589276149680242146,,0.178837142796,-3.86341964391,1.78062700367
1589276149686359813,1232,1589276149686260714,,0.178929113682,-3.85154444834,1.77874210923
1589276149692187469,1233,1589276149692115560,,0.179128235387,-3.83955116581,1.77671923107
1589276149698382197,1234,1589276149698266482,,0.179508697521,-3.82393037993,1.77444013933
1589276149704349297,1235,1589276149704215654,,0.179800433494,-3.80789455233,1.77207106339
1589276149710280603,1236,1589276149710181128,,0.179902778867,-3.79551806437,1.77009131594
1589276149716633118,1237,1589276149716536837,,0.179956685365,-3.78337955484,1.7682725428
1589276149722447019,1238,1589276149722182554,,0.180060117889,-3.77705565063,1.76771162209
1589276149728378674,1239,1589276149728281763,,0.180296260733,-3.76152175571,1.76515050944
1589276149734373140,1240,1589276149734281393,,0.180329010105,-3.7494801318,1.7629123275
1589276149740218253,1241,1589276149740135681,,0.180357536931,-3.73756162971,1.76067465885
1589276149746420625,1242,1589276149746302317,,0.180452255955,-3.72283609276,1.75823627645
1589276149752479382,1243,1589276149752354542,,0.180477165376,-3.71085571737,1.75607906195
1589276149758453005,1244,1589276149758339451,,0.180591412,-3.69623333939,1.75391068675
1589276149764483359,1245,1589276149764351442,,0.180556106102,-3.68484630377,1.75175855424
1589276149770485037,1246,1589276149770377814,,0.180693426917,-3.67060759273,1.74950530619
1589276149779406417,1247,1589276149779270879,,0.181047626541,-3.65396996138,1.74739062459
1589276149785506096,1248,1589276149785381990,,0.181100277565,-3.64278027571,1.74538387911
1589276149791437401,1249,1589276149791282184,,0.181254417258,-3.62927084646,1.74325685217
1589276149800640956,1250,1589276149800531372,,0.181330077091,-3.61358635116,1.74117940112
1589276149806336268,1251,1589276149806235628,,0.181319246318,-3.60287944322,1.73957436055
1589276149812395320,1252,1589276149812286005,,0.181283693001,-3.58987715087,1.7375420525
1589276149818230458,1253,1589276149818155382,,0.181242922463,-3.57923914023,1.73561047633
1589276149824637998,1254,1589276149824526435,,0.181321432754,-3.56661019904,1.73376062729
1589276149830355284,1255,1589276149830230694,,0.18126116627,-3.55595518981,1.7317999446
1589276149839489030,1256,1589276149839287511,,0.181186398097,-3.5415288276,1.72970040415
1589276149845428254,1257,1589276149845321710,,0.181270924956,-3.52932934413,1.72760951639
1589276149851460759,1258,1589276149851340632,,0.181366235129,-3.51881798126,1.72565860678
1589276149857488123,1259,1589276149857419241,,0.181551562177,-3.50657387616,1.72371002267
1589276149864149275,1260,1589276149863948484,,0.181599424982,-3.49639157109,1.72190854233
1589276149872770221,1261,1589276149872674391,,0.181856008045,-3.48278303096,1.71992216844
1589276149878468047,1262,1589276149878368090,,0.182133695072,-3.47119499838,1.7180985678
1589276149884777867,1263,1589276149884598652,,0.182312301499,-3.46149537258,1.71646195812
1589276149890347337,1264,1589276149890268964,,0.182521006127,-3.45034639924,1.71468773491
1589276149899611986,1265,1589276149899491438,,0.182780777316,-3.43770348677,1.71242079757
1589276149905356593,1266,1589276149905267775,,0.182918147711,-3.42822483338,1.71089835357
1589276149911648554,1267,1589276149911505053,,0.183071273303,-3.41746132323,1.70883881278
1589276149917362686,1268,1589276149917241898,,0.183271371428,-3.40851987836,1.70731441394
1589276149923943925,1269,1589276149923836917,,0.183411544573,-3.39823327057,1.70551243501
1589276149930423328,1270,1589276149930316106,,0.183502455287,-3.3893944674,1.70376333662
1589276149935193259,1271,1589276149935126437,,0.183681266151,-3.38684701377,1.70333212639
1589276149941284762,1272,1589276149941166474,,0.183749544788,-3.37835383043,1.70160461274
1589276149947216657,1273,1589276149947092344,,0.183993856014,-3.36879111871,1.69987876905
1589276149953526347,1274,1589276149953390385,,0.184116086986,-3.36074606081,1.69828988291
1589276149959368008,1275,1589276149959260794,,0.184387261009,-3.35130477399,1.69634951025
1589276149965478860,1276,1589276149965378073,,0.184402461529,-3.34354610916,1.69482965239
1589276149971459509,1277,1589276149971316873,,0.184696057872,-3.33561339984,1.69351456213
1589276149977302561,1278,1589276149977172488,,0.18488320527,-3.32697904548,1.69189041942
1589276149980248599,1279,1589276149980185107,,0.184945392774,-3.3259265688,1.69171267829
1589276149986211116,1280,1589276149986134298,,0.185072965788,-3.31867029624,1.69042424881
1589276149992302336,1281,1589276149992179879,,0.185265815974,-3.31028426727,1.68904686831
1589276149998397553,1282,1589276149998320066,,0.185433706167,-3.3031642096,1.68760313821
1589276150004215934,1283,1589276150004124934,,0.185631819275,-3.29555557017,1.68619552294
1589276150013331948,1284,1589276150013164456,,0.185848856018,-3.28750778178,1.68489672359
1589276150019260282,1285,1589276150019190473,,0.185904736207,-3.28091889481,1.68367905945
1589276150025530245,1286,1589276150025417985,,0.185993915927,-3.27404031716,1.68263017596
1589276150031555691,1287,1589276150031467698,,0.186004656316,-3.26795534336,1.68152648537
1589276150037469960,1288,1589276150037383856,,0.186056605339,-3.26188684226,1.68040419126
1589276150043952901,1289,1589276150043844445,,0.186073092534,-3.25616566472,1.67942076147
1589276150052386905,1290,1589276150052290193,,0.186142094255,-3.24964289488,1.67848632255
1589276150058650836,1291,1589276150058510539,,0.186199749131,-3.24415704218,1.67739810707
1589276150064384705,1292,1589276150064282951,,0.186251229675,-3.23898085153,1.67664374911
1589276150070383310,1293,1589276150070299186,,0.186322185029,-3.23323954096,1.67551457072
1589276150076878848,1294,1589276150076496577,,0.186472820477,-3.22810328196,1.67475123192
1589276150082466111,1295,1589276150082319939,,0.186534548314,-3.22760288658,1.67468991265
1589276150088443492,1296,1589276150088354359,,0.186719827222,-3.22184661399,1.67364002146
1589276150094434409,1297,1589276150094347754,,0.18683703287,-3.21739752449,1.67296339957
1589276150100864058,1298,1589276150100752615,,0.186922896057,-3.21307021983,1.67217723975
1589276150106495244,1299,1589276150106377404,,0.187212782707,-3.20808530087,1.67143239364
1589276150112481104,1300,1589276150112375888,,0.187368718908,-3.20403885042,1.67076879425
1589276150118389464,1301,1589276150118296459,,0.187490908957,-3.19996190812,1.67005101864
1589276150124475034,1302,1589276150124366059,,0.187779399499,-3.19558148307,1.66933610703
1589276150130452466,1303,1589276150130357694,,0.187926958774,-3.19221251441,1.66873030423
1589276150139572870,1304,1589276150139428143,,0.188342302331,-3.18784230911,1.66814455488
1589276150145511724,1305,1589276150145391276,,0.188591862734,-3.18439235863,1.66759714648
1589276150151479459,1306,1589276150151375422,,0.188748061336,-3.18149302061,1.66711840724
1589276150157572355,1307,1589276150157435569,,0.188998111053,-3.17855832716,1.66668479633
1589276150163632904,1308,1589276150163528586,,0.189171116303,-3.17623687943,1.66637408716
1589276150172164261,1309,1589276150172066992,,0.189513275688,-3.17337622498,1.66585960561
1589276150175377524,1310,1589276150175274483,,0.189746798933,-3.17278437414,1.665826005
1589276150181302846,1311,1589276150181229035,,0.189855201293,-3.17093300905,1.66552904734
1589276150187530720,1312,1589276150187426692,,0.190042164208,-3.16912048177,1.66513534767
1589276150193282653,1313,1589276150193189657,,0.190131322142,-3.16784787066,1.66504082842
1589276150199422242,1314,1589276150199289135,,0.190222707414,-3.16701220758,1.66484116167
1589276150205344631,1315,1589276150205263387,,0.190432855277,-3.16598897443,1.66471028433
1589276150211325235,1316,1589276150211255210,,0.190495828094,-3.16562317401,1.66456443703
1589276150217269025,1317,1589276150217182021,,0.190602414283,-3.16514387389,1.66461210414
1589276150223945292,1318,1589276150223868434,,0.190753532241,-3.16436647119,1.6646932214
1589276150230474450,1319,1589276150230341040,,0.190899622897,-3.16314041054,1.66484104691
1589276150235451163,1320,1589276150235371739,,0.190877067344,-3.16302822768,1.66460703385
1589276150241303246,1321,1589276150241223859,,0.191069561535,-3.16163491857,1.66489092335
1589276150247235087,1322,1589276150247126428,,0.191096292519,-3.16052373844,1.66505446463
1589276150253286353,1323,1589276150253194308,,0.1911492902,-3.15899697919,1.66537924218
1589276150259265777,1324,1589276150259167108,,0.191160398511,-3.15722639455,1.66574605591
1589276150265761224,1325,1589276150265393730,,0.191289064444,-3.15503464398,1.66615848964
1589276150271242199,1326,1589276150271135817,,0.191345015805,-3.15266224834,1.66659467135
1589276150277275392,1327,1589276150277196086,,0.191382891993,-3.15006300108,1.66705810086
1589276150280212503,1328,1589276150280140182,,0.191358841768,-3.15002584691,1.66702105089
1589276150286202474,1329,1589276150286119287,,0.191452361223,-3.14720642536,1.66760163768
1589276150290026153,1330,1589276150289913406,,0.191477705318,-3.14410518177,1.66826135744
1589276150295652419,1331,1589276150295293284,,0.191531715456,-3.14390064662,1.66818624448
1589276150301756750,1332,1589276150301659682,,0.191625476301,-3.14046783271,1.6689329783
1589276150307510271,1333,1589276150307382414,,0.191603283834,-3.13665040817,1.66941924565
1589276150313229296,1334,1589276150313135209,,0.191744115053,-3.13281750301,1.67029019515
1589276150316596518,1335,1589276150316486970,,0.191808619629,-3.12863574072,1.67114047169
1589276150322546170,1336,1589276150322331830,,0.191999783125,-3.12802721898,1.67121493529
1589276150328204525,1337,1589276150328067381,,0.192062096774,-3.12350774702,1.6719175819
1589276150331214305,1338,1589276150331138294,,0.192263487813,-3.11829496222,1.67290850486
1589276150337414608,1339,1589276150337328194,,0.192356158048,-3.11332370877,1.67376711475
1589276150343961545,1340,1589276150343807028,,0.192562837977,-3.10773241521,1.67488866512
1589276150350583750,1341,1589276150350420595,,0.192672180993,-3.10203532404,1.67595509145
1589276150355207922,1342,1589276150355103866,,0.192822314446,-3.10128302326,1.67604655693
1589276150361215998,1343,1589276150361115098,,0.19301312724,-3.09541203535,1.67736470744
1589276150367190693,1344,1589276150367125475,,0.193177786732,-3.08869025862,1.67888888378
1589276150373434199,1345,1589276150373331113,,0.193274102359,-3.08216250793,1.68042223836
1589276150379412578,1346,1589276150379302425,,0.193468576731,-3.07391010764,1.68240799733
1589276150385380228,1347,1589276150385264851,,0.193604044494,-3.06554123908,1.68455279695
1589276150391383279,1348,1589276150391292453,,0.193638342296,-3.05785282252,1.68611810638
1589276150397636980,1349,1589276150397550129,,0.193593714114,-3.04992677581,1.68764713289
1589276150403588116,1350,1589276150403521308,,0.193573727426,-3.04191170388,1.68954203018
1589276150412323653,1351,1589276150412124359,,0.193177215135,-3.03160585132,1.69134791227
1589276150418318719,1352,1589276150418176945,,0.192926684498,-3.02184173799,1.69297422334
1589276150424415466,1353,1589276150424323486,,0.192738967039,-3.01309958251,1.69448750118
1589276150430513993,1354,1589276150430371236,,0.192533309938,-3.00398649528,1.69613284151
1589276150436704604,1355,1589276150436653030,,0.19206714173,-2.9938823084,1.69783001392
1589276150442530145,1356,1589276150442462878,,0.191897613835,-2.99288067529,1.6981993584
1589276150448350093,1357,1589276150448281027,,0.191660372286,-2.9836990157,1.69997642781
1589276150454308843,1358,1589276150454224344,,0.191369199179,-2.97297751354,1.70193927496
1589276150457311148,1359,1589276150457244534,,0.191197116184,-2.96317609371,1.70354660111
1589276150463115221,1360,1589276150463053820,,0.1911634524,-2.95302128047,1.70554695004
1589276150466679243,1361,1589276150466584420,,0.19099130344,-2.95082894953,1.70586339795
1589276150472491102,1362,1589276150472399521,,0.190890718623,-2.94055383237,1.70777104014
1589276150478236846,1363,1589276150478138191,,0.190683854571,-2.92898823798,1.70996193824
1589276150481111585,1364,1589276150481043231,,0.190639876606,-2.9282021127,1.70993302719
1589276150484241110,1365,1589276150484158469,,0.190450773868,-2.916720208,1.71184104236
1589276150487240584,1366,1589276150487140368,,0.190378887867,-2.91490949198,1.71199769869
1589276150490384463,1367,1589276150490274112,,0.190291670253,-2.9039839209,1.71403433389
1589276150496502822,1368,1589276150496413784,,0.19027678654,-2.89292958447,1.71629528206
1589276150502678635,1369,1589276150502265605,,0.190135794926,-2.89103276507,1.71656580749
1589276150508562610,1370,1589276150508456710,,0.190084899875,-2.88005955316,1.71894946429
1589276150514481297,1371,1589276150514373220,,0.189898996093,-2.86784350263,1.7213682363
1589276150520318504,1372,1589276150520242849,,0.189794300708,-2.856300238,1.72390337024
1589276150526329829,1373,1589276150526237993,,0.189558168576,-2.84397654175,1.72634284725
1589276150532578774,1374,1589276150532431022,,0.189466989136,-2.83181476281,1.72870958287
1589276150538269335,1375,1589276150538183515,,0.189352409362,-2.81976641654,1.73121333881
1589276150544595624,1376,1589276150544480312,,0.189212195453,-2.80756866193,1.73349219508
1589276150550678428,1377,1589276150550510744,,0.189000611219,-2.79417255491,1.73625940686
1589276150557450097,1378,1589276150557281945,,0.188876586201,-2.78134494561,1.73881025027
1589276150562717217,1379,1589276150562329174,,0.188722297402,-2.78017155692,1.7392671128
1589276150568546993,1380,1589276150568441823,,0.188627120703,-2.76724969962,1.74176650495
1589276150574485991,1381,1589276150574391996,,0.188584095127,-2.75413381659,1.74445657347
1589276150580482072,1382,1589276150580390821,,0.188490093843,-2.74094559396,1.74716138412
1589276150586541687,1383,1589276150586401553,,0.188444431553,-2.72737219135,1.74970893567
1589276150592551537,1384,1589276150592422120,,0.18833861659,-2.71326545462,1.75244037847
1589276150598797754,1385,1589276150598711411,,0.188234182334,-2.69931753425,1.75509222407
1589276150604452022,1386,1589276150604365665,,0.188232261824,-2.68496017384,1.75792640212
1589276150610758103,1387,1589276150610633740,,0.188211137034,-2.67106472567,1.76076156901
1589276150616704509,1388,1589276150616581943,,0.18815300889,-2.65635555983,1.76358408996
1589276150623229997,1389,1589276150622796386,,0.188180563499,-2.6559020857,1.76374273524
1589276150628577124,1390,1589276150628465154,,0.18822350665,-2.64125966169,1.76664255406
1589276150634494027,1391,1589276150634371958,,0.18842748578,-2.62646439739,1.76971643642
1589276150640446387,1392,1589276150640344254,,0.188583861812,-2.6111229376,1.77263439527
1589276150646490880,1393,1589276150646304912,,0.188611934321,-2.59621329843,1.77554806899
1589276150652331480,1394,1589276150652190973,,0.188917900695,-2.58030991101,1.77863714989
1589276150655501251,1395,1589276150655300974,,0.189028607849,-2.58006183716,1.77866367646
1589276150661332220,1396,1589276150661254511,,0.189380975333,-2.56401789355,1.78171722729
1589276150664322773,1397,1589276150664227598,,0.189510287898,-2.54853391089,1.7847359283
1589276150667392669,1398,1589276150667302132,,0.189748858592,-2.54760834844,1.78459949909
1589276150673459838,1399,1589276150673351615,,0.189981394226,-2.53156184682,1.78771201029
1589276150679457312,1400,1589276150679343240,,0.190301859958,-2.51481791134,1.79098147173
1589276150685437061,1401,1589276150685307365,,0.190446153321,-2.49850170975,1.79408880378
1589276150691271677,1402,1589276150691198794,,0.190811613698,-2.48128801924,1.7972459583
1589276150697759971,1403,1589276150697599029,,0.191018490286,-2.46445812695,1.80042312624
1589276150703587985,1404,1589276150703484880,,0.191324355977,-2.44682742997,1.80380857859
1589276150712398201,1405,1589276150712271529,,0.191603928365,-2.42904771502,1.80719912182
1589276150718470898,1406,1589276150718395776,,0.191618202978,-2.4116220784,1.81049658092
1589276150724202399,1407,1589276150724002935,,0.191663938143,-2.39406956813,1.81395449613
1589276150727185512,1408,1589276150727093181,,0.191654468297,-2.39339930215,1.81408583143
1589276150730286274,1409,1589276150730194052,,0.191565918715,-2.37491920272,1.81789167725
1589276150733132352,1410,1589276150733002773,,0.191271009137,-2.37350272848,1.81784302517
1589276150736760817,1411,1589276150736630053,,0.191131922922,-2.35571229889,1.82124553801
1589276150742541636,1412,1589276150742264858,,0.190718028356,-2.35479384591,1.82107168375
1589276150748435522,1413,1589276150748349390,,0.190560735533,-2.33701638336,1.82444406124
1589276150754400124,1414,1589276150754317376,,0.19031007858,-2.31920130853,1.8276589731
1589276150760367829,1415,1589276150760284332,,0.189781411541,-2.30098397288,1.83077835536
1589276150766375023,1416,1589276150766242269,,0.189555634657,-2.28284870312,1.83415238544
1589276150770167457,1417,1589276150770064070,,0.189348768806,-2.26459067866,1.83763996018
