%time,field.header.seq,field.header.stamp,field.header.frame_id,field.wrench.force.x,field.wrench.force.y,field.wrench.force.z,field.wrench.torque.x,field.wrench.torque.y,field.wrench.torque.z
1589276146763570735,749,1589276146763435297,,0.119204970236,-1.02318599944,0.76509860352,0.169734605839,-0.00164707182792,-0.0266118187667
1589276146769471344,750,1589276146769307207,,0.119203098526,-1.02318614849,0.765098695807,0.169734648344,-0.00164717216893,-0.0266115414558
1589276146778402356,751,1589276146778290035,,0.118759919499,-0.892908738725,0.78551075237,0.169573771751,-0.00100447361794,-0.0257327842447
1589276146784476769,752,1589276146784375776,,0.118414479794,-0.893375302141,0.808283879396,0.169397852612,-0.00164604220748,-0.0248627978675
1589276146790548569,753,1589276146790439909,,0.118414726641,-0.893373836901,0.808285462723,0.169397847676,-0.0016460714918,-0.024862829558
1589276146793834728,754,1589276146793734694,,0.0959427826403,-0.893251021496,0.807817324932,0.16937798843,-0.00164498777003,-0.0241316704503
1589276146796765243,755,1589276146796670962,,0.118414681503,-0.893371129004,0.808288462283,0.169399375749,-0.00100195182752,-0.0248606200346
1589276146802444285,756,1589276146802352325,,0.119217946036,-1.02318233714,0.765101479407,0.169785363653,-0.00100014837177,-0.0283508571501
1589276146808493133,757,1589276146808394359,,0.119213374534,-1.02318319592,0.765101043264,0.169785423768,-0.00100060575756,-0.0283504809982
1589276146814487050,758,1589276146814370324,,0.141140337047,-1.02416012366,0.81116332794,0.171295404158,-0.00100440390516,-0.0273294671785
1589276146820474547,759,1589276146820398145,,0.118865475547,-1.02361178107,0.787934094869,0.170507153515,-0.00100144914879,-0.0266026485851
1589276146826615191,760,1589276146826480255,,0.118912545894,-1.15475235637,0.79010399172,0.171425680033,-0.00100410096457,-0.0265944873016
1589276146832511880,761,1589276146832420059,,0.118865679435,-1.02361394586,0.787931251801,0.171425608703,-0.001003901371,-0.0265949546198
1589276146838506654,762,1589276146838405336,,0.1185067398,-1.02403499337,0.810691834375,0.170365006328,-0.00164418936631,-0.0266044842023
1589276146844441306,763,1589276146844370898,,0.118502666646,-1.0240400163,0.810686084971,0.170364976303,-0.00164483371862,-0.0266046366413
1589276146850327465,764,1589276146850266326,,0.141142560359,-1.02416586497,0.811155692149,0.171295342149,-0.00100414651937,-0.0273298652943
1589276146856495247,765,1589276146856296385,,0.11849691221,-1.02403846543,0.810688885118,0.170365162313,-0.00164489860619,-0.0266034414687
1589276146862394029,766,1589276146862303113,,0.118857348906,-1.02361772231,0.787927602419,0.170507149211,-0.00100261617965,-0.0266026322102
1589276146868458139,767,1589276146868271009,,0.11885092426,-1.02361635017,0.787930354113,0.169597579103,-0.00164318723757,-0.026609745557
1589276146874407223,768,1589276146874342248,,0.118895899132,-1.15475566146,0.790101666464,0.170506173225,-0.00164585331263,-0.026601271323
1589276146880569081,769,1589276146880482100,,0.118529930608,-1.15513717374,0.812854652989,0.172216534498,-0.00164992693484,-0.0274581781996
1589276146886515869,770,1589276146886393226,,0.118528622424,-1.15514043205,0.812850213387,0.172216526557,-0.00165004274847,-0.0274582210467
1589276146892427271,771,1589276146892351182,,0.118524490719,-1.15514317074,0.812846923888,0.172216469674,-0.00165080142061,-0.0274585322096
1589276146898480012,772,1589276146898370230,,0.118161488035,-1.15552579218,0.835613086612,0.174836473807,-0.00101340388144,-0.0283082892838
1589276146904518826,773,1589276146904382893,,0.141286162752,-1.28669211591,0.815227303192,0.175022569559,-0.00101374225654,-0.0299145638562
1589276146910603159,774,1589276146910466600,,0.140872952887,-1.15564496809,0.836067956943,0.17581349033,-0.00165995312787,-0.0307926543504
1589276146916661708,775,1589276146916577473,,0.140876880496,-1.15564772653,0.836063482319,0.175813232379,-0.00166031521826,-0.03079410759
1589276146922556899,776,1589276146922465835,,0.163343807629,-1.02473496413,0.834387970724,0.175859522029,-0.00166061327259,-0.0323984210184
1589276146928555086,777,1589276146928398650,,0.163347006105,-1.02473552817,0.834386651853,0.175859429565,-0.00166045189423,-0.0323989311829
1589276146934640201,778,1589276146934524999,,0.163480597524,-1.155772062,0.836531833936,0.178653286641,-0.00231220096457,-0.0341240400584
1589276146940573558,779,1589276146940464383,,0.163481523198,-1.1557707172,0.836533511041,0.178653343263,-0.00231190216664,-0.0341237638596
1589276146946568698,780,1589276146946480551,,0.140856833535,-1.1556453508,0.836070143822,0.180483884767,-0.00231740031361,-0.0342589178271
1589276146952551189,781,1589276146952430463,,0.140851500493,-1.15564180119,0.83607594865,0.180483886483,-0.00231835874671,-0.0342588439413
1589276146958554990,782,1589276146958454421,,0.186087197597,-1.15590186376,0.83701382166,0.180527826507,-0.00167370319534,-0.0357258722027
1589276146964542225,783,1589276146964427643,,0.163457450052,-1.15576313375,0.836548692507,0.181448921973,-0.00232149679204,-0.0358586339142
1589276146970516780,784,1589276146970344181,,0.140872943751,-1.28701366115,0.838037455501,0.180509940661,-0.0023197137058,-0.0351295601002
1589276146976488381,785,1589276146976341855,,0.163179126551,-1.28746132547,0.861393649985,0.181301609684,-0.0023223900448,-0.0358588835503
1589276146982594004,786,1589276146982465405,,0.185848757654,-1.28755615332,0.861902184451,0.182242203211,-0.00168207634106,-0.0365856745248
1589276146988594761,787,1589276146988460859,,0.140127198976,-1.28763463628,0.883812138221,0.182046110944,-0.00296395490181,-0.0351204208883
1589276146994763364,788,1589276146994642353,,0.14011400538,-1.28761422054,0.88384397304,0.182046333543,-0.00296581169682,-0.0351191102707
1589276146997823659,789,1589276146997748664,,0.185842159899,-1.28751302194,0.861968035468,0.182266767467,-0.00233001979402,-0.0374608292687
1589276147003445519,790,1589276147003328585,,0.208262833052,-1.28797541816,0.885245480331,0.182191875038,-0.00168437571379,-0.0399587518006
1589276147009516696,791,1589276147009420967,,0.163157233354,-1.28737424248,0.861527938711,0.182271519648,-0.0023303266187,-0.037609364707
1589276147015554863,792,1589276147015432527,,0.163155445539,-1.28738107204,0.861518071836,0.182271970617,-0.00232882171329,-0.0376072722675
1589276147021519905,793,1589276147021414232,,0.162712323653,-1.15641721525,0.882366000374,0.183999054006,-0.00233207739631,-0.0393444776578
1589276147027579652,794,1589276147027413985,,0.163064802012,-1.15605183643,0.85955771475,0.184149994864,-0.00233198666753,-0.0393423931315
1589276147033337353,795,1589276147033222774,,0.163060955967,-1.15605850924,0.859549469795,0.184176457315,-0.00233122063719,-0.0402169409039
1589276147039504316,796,1589276147039344941,,0.163046707384,-1.15606324203,0.859545807279,0.186000934273,-0.00297374487194,-0.040203104595
1589276147045547879,797,1589276147045414481,,0.185312599016,-1.15657014434,0.88281680127,0.18585725367,-0.00233823577952,-0.0400620634991
1589276147051613558,798,1589276147051501258,,0.185293186067,-1.1565749533,0.882814575843,0.186790912954,-0.00234395420716,-0.040932397822
1589276147057579185,799,1589276147057485874,,0.185625159028,-1.15620545693,0.860017308143,0.18602402976,-0.0023447497267,-0.0409375958906
1589276147063596095,800,1589276147063510337,,0.185365780668,-1.15656982249,0.882806057861,0.18679052741,-0.00233378693052,-0.0409347381037
1589276147069627742,801,1589276147069517502,,0.185705188387,-1.15620517494,0.860000409917,0.186941096265,-0.00233604086871,-0.0409342005065
1589276147075633413,802,1589276147075541879,,0.185713123528,-1.15620406843,0.860000184013,0.186940793052,-0.00233583933567,-0.040935596718
1589276147081601449,803,1589276147081520635,,0.208633546191,-1.28767138056,0.862398074447,0.187896269054,-0.00297363418421,-0.0425538079419
1589276147087682392,804,1589276147087487639,,0.208625183813,-1.28769090911,0.862370938164,0.187895966446,-0.00297480173616,-0.0425550624807
1589276147093952574,805,1589276147093823766,,0.208079735219,-1.15673851402,0.883255100352,0.188689864422,-0.00234366508363,-0.0434279945385
1589276147099604736,806,1589276147099497469,,0.185471974586,-1.28790795412,0.884683173164,0.189583276331,-0.00298396537971,-0.0426859739462
1589276147105642443,807,1589276147105528926,,0.20862079995,-1.28771467645,0.862336508332,0.188919075629,-0.00297959990931,-0.0460724400244
1589276147111582039,808,1589276147111476757,,0.208112291566,-1.156777162,0.883196812661,0.190592131724,-0.00298290147607,-0.0460650429542
1589276147117592471,809,1589276147117501929,,0.207779976262,-1.15715263515,0.905999590712,0.192302100154,-0.00298727917062,-0.0469348639051
1589276147123719928,810,1589276147123638309,,0.23010133222,-1.15765835342,0.929316572977,0.193116178138,-0.00363870645574,-0.0485494442272
1589276147129543067,811,1589276147129433713,,0.230113727948,-1.15765288238,0.92932031897,0.193115832062,-0.00363802762518,-0.0485508716737
1589276147141667716,812,1589276147141566604,,0.253227609571,-1.15745425824,0.906965020666,0.195113329807,-0.00363899584809,-0.0492798936233
1589276147147567494,813,1589276147147411657,,0.229808037695,-1.15803402891,0.952231157219,0.196654537526,-0.00364028390725,-0.0494163464035
1589276147153653233,814,1589276147153527262,,0.22980082121,-1.15803770505,0.952228428127,0.197562246935,-0.00364212942944,-0.0494084691027
1589276147159645693,815,1589276147159557495,,0.207634924898,-1.28875411444,0.930708667786,0.197686563067,-0.00428928183619,-0.0486689453304
1589276147165494350,816,1589276147165418002,,0.252903159881,-1.15782627718,0.929778676346,0.197759641926,-0.00363952754436,-0.051026440408
1589276147171729116,817,1589276147171563749,,0.253139588886,-1.28903366757,0.931658222,0.19869412206,-0.00364113775108,-0.0518990258262
1589276147177605868,818,1589276147177512392,,0.207634444593,-1.28875630515,0.930705741451,0.199592393576,-0.00364424405041,-0.051294217979
1589276147183732349,819,1589276147183539400,,0.207470010681,-1.15752153298,0.928817975961,0.199591771581,-0.00429456491434,-0.0512933467349
1589276147189613229,820,1589276147189538772,,0.252549763078,-1.15818145608,0.952731928538,0.201314636967,-0.00365197367802,-0.0527633796769
1589276147201577518,821,1589276147201422267,,0.253113157907,-1.28902638191,0.931675483331,0.199638969631,-0.00300000725654,-0.0527735197454
1589276147207578825,822,1589276147207460715,,0.229940519473,-1.28922119577,0.954130152412,0.20038598876,-0.00300429657705,-0.0520261584815
1589276147213629009,823,1589276147213522509,,0.252534416247,-1.15817688391,0.9527415546,0.201314297289,-0.00365600476346,-0.0527643965183
1589276147219571355,824,1589276147219451920,,0.252541357087,-1.15817297463,0.952744467045,0.201313934939,-0.0036561512488,-0.0527657688395
1589276147225726944,825,1589276147225621930,,0.252544132028,-1.15816668461,0.952751377709,0.20131487163,-0.00300753148435,-0.0527657706008
1589276147231592000,826,1589276147231507495,,0.252559682382,-1.15816265726,0.952752151324,0.201368058326,-0.00365400165562,-0.054537888266
1589276147237549339,827,1589276147237344331,,0.229801801315,-1.15800781848,0.952264536533,0.201345100666,-0.00365301159484,-0.0537958689752
1589276147243445913,828,1589276147243346761,,0.207282115421,-1.28906176709,0.953682242301,0.202238100058,-0.00430441019017,-0.0530527640585
1589276147249473825,829,1589276147249370705,,0.207155577964,-1.15786841509,0.951775461663,0.202264660867,-0.00430334444834,-0.0539350440818
1589276147261656558,830,1589276147261523302,,0.229499776239,-1.15838460544,0.975091376956,0.203970651663,-0.00430428188765,-0.0546639984
1589276147267745517,831,1589276147267599172,,0.229498663902,-1.15839121948,0.975083781381,0.203970542265,-0.00430444894865,-0.0546643934475
1589276147273646690,832,1589276147273528662,,0.206814014839,-1.15825756017,0.97459874125,0.203948126747,-0.00430603705322,-0.0539240578881
1589276147279730219,833,1589276147279613842,,0.206809665032,-1.15825383498,0.974604091449,0.204882203869,-0.00430967156971,-0.0548093559296
1589276147285534883,834,1589276147285439306,,0.229470632884,-1.15838664984,0.975095807057,0.206755603529,-0.0043167546725,-0.0564192908156
1589276147291663401,835,1589276147291481624,,0.229467694681,-1.15838688457,0.975096219643,0.206755308915,-0.00431817405964,-0.0564202618384
1589276147297848522,836,1589276147297763554,,0.229622455468,-1.28954706816,0.976979965479,0.207672450699,-0.00432200029647,-0.0564134562043
1589276147303707159,837,1589276147303583998,,0.252101357514,-1.29002256881,1.00030771282,0.207545573236,-0.00367001353854,-0.0571575560371
1589276147309747442,838,1589276147309546218,,0.229276606297,-1.28988975192,0.99982463123,0.207548677718,-0.00432061817366,-0.0572970512061
1589276147321755516,839,1589276147321610620,,0.252117876157,-1.29003532437,1.00028709941,0.209420140868,-0.00496532821427,-0.0589163790332
1589276147327586194,840,1589276147327513640,,0.251788444905,-1.29037035766,1.02314661239,0.212045509545,-0.00562279724506,-0.059796122147
1589276147333522591,841,1589276147333417318,,0.251789260451,-1.29036893475,1.02314820623,0.212045561904,-0.00562260051572,-0.0597959549731
1589276147339600889,842,1589276147339483536,,0.251624138292,-1.15926836357,1.02129427004,0.212978891904,-0.00562354651905,-0.0606751368843
1589276147345637225,843,1589276147345517045,,0.251639522254,-1.15927138991,1.02128704445,0.213896367383,-0.00497284937651,-0.0606695335246
1589276147351586968,844,1589276147351480210,,0.27401316034,-1.15977852768,1.04475907832,0.216510797298,-0.00563092445148,-0.061396527446
1589276147357571100,845,1589276147357422326,,0.251482322185,-1.29070443264,1.04611107279,0.217395602717,-0.00498449760235,-0.0606499795758
1589276147363612508,846,1589276147363517687,,0.274565895963,-1.29050559924,1.02362309371,0.217591935895,-0.00498465982334,-0.0622752146124
1589276147369595257,847,1589276147369500935,,0.274242926474,-1.29084640411,1.04658141673,0.218362064069,-0.00434221273452,-0.0622710683857
1589276147378703739,848,1589276147378609614,,0.27391632669,-1.2911827573,1.06945629209,0.219127249234,-0.00498375638126,-0.0622672153611
1589276147384583969,849,1589276147384480638,,0.273899825689,-1.29118511298,1.06945767423,0.221894309268,-0.00499431140385,-0.0631338338049
1589276147390511781,850,1589276147390416714,,0.273886708298,-1.2911859536,1.06946001875,0.221894032031,-0.00499734415287,-0.0631345682097
1589276147396987245,851,1589276147396898413,,0.27354392203,-1.2915088885,1.09236386811,0.222687774001,-0.00435871245321,-0.0640244984158
1589276147402614284,852,1589276147402536587,,0.296921757812,-1.4226463757,1.07162164072,0.221027321141,-0.00435393365248,-0.0647813483858
1589276147408773907,853,1589276147408637825,,0.274039377976,-1.42250800428,1.07114873389,0.223796814637,-0.00500593636134,-0.0657904094677
1589276147414688392,854,1589276147414584254,,0.27404538504,-1.42250217531,1.07115493801,0.223796499865,-0.00500615323359,-0.0657914637034
1589276147420664796,855,1589276147420479521,,0.273883573977,-1.29117243935,1.06947713731,0.224675832267,-0.00501235034646,-0.0649029305776
1589276147426588898,856,1589276147426472574,,0.273552593857,-1.2914990338,1.09237334771,0.224508345499,-0.0050117415334,-0.0640200829786
1589276147432611598,857,1589276147432476090,,0.273560362318,-1.29150529263,1.09236400251,0.226330477485,-0.00566983436889,-0.0640109580532
1589276147438512517,858,1589276147438438155,,0.273701396378,-1.42281103567,1.094040232,0.228127928684,-0.0056760573924,-0.0631036920906
1589276147444484199,859,1589276147444376583,,0.273696800734,-1.42281592886,1.09403501803,0.22812777739,-0.0056769325958,-0.0631041603066
1589276147450575084,860,1589276147450482488,,0.27371636509,-1.42281521081,1.09403105725,0.229977931646,-0.00567990730946,-0.0639876809538
1589276147456474755,861,1589276147456380704,,0.273482980917,-1.55463152343,1.11847739837,0.232516853667,-0.00568576499482,-0.0621879623866
1589276147462389859,862,1589276147462325998,,0.250332829526,-1.55480283604,1.1410061312,0.235115823902,-0.00568709434632,-0.0623099269245
1589276147468478429,863,1589276147468352791,,0.250337674708,-1.55479544483,1.14101513981,0.236874242796,-0.00634555130899,-0.0596372496658
1589276147474432204,864,1589276147474344471,,0.204222510849,-1.55485016448,1.16303286518,0.239399637173,-0.00635597464423,-0.0572293694772
1589276147480709133,865,1589276147480527145,,0.203820306098,-1.55513400173,1.18596465245,0.242853668082,-0.00571403513813,-0.0554204519278
1589276147486567310,866,1589276147486482452,,0.202988714467,-1.68730105534,1.23341599372,0.247042397314,-0.00507628649069,-0.051818318995
1589276147492501971,867,1589276147492397623,,0.202974542718,-1.68729191257,1.23343083304,0.247042854107,-0.00507713681492,-0.0518160578873
1589276147498502490,868,1589276147498424396,,0.180398392011,-1.68693765199,1.20993530053,0.248951063638,-0.00508129526875,-0.0492631043426
1589276147504540555,869,1589276147504453713,,0.202527356853,-1.81933221012,1.25770198481,0.252313285773,-0.00508909344925,-0.0490869225814
1589276147510485077,870,1589276147510415151,,0.202942045772,-1.68729058035,1.23343800276,0.253349341264,-0.00509808921792,-0.0481902765194
1589276147516666409,871,1589276147516553804,,0.202862180989,-1.81907491729,1.23478033813,0.257898156151,-0.0057696366724,-0.0472452779477
1589276147522503274,872,1589276147522432944,,0.179481284838,-1.81924137156,1.25726471642,0.261371538666,-0.00512755429297,-0.045571747907
1589276147528573843,873,1589276147528481926,,0.179506565335,-1.81923931047,1.25726408961,0.265004404396,-0.00513578282689,-0.0446439789045
1589276147534624556,874,1589276147534540761,,0.179150095279,-1.81948096398,1.28021947265,0.268497177163,-0.00514079661868,-0.043704096122
1589276147540603986,875,1589276147540483714,,0.155886197451,-1.81964478361,1.30283185982,0.271986480943,-0.00515162968179,-0.0429208202646
1589276147546652556,876,1589276147546531522,,0.132588122885,-1.81983293018,1.32533073335,0.274564510696,-0.00516093190507,-0.0421435087808
1589276147552639325,877,1589276147552547121,,0.154711472589,-1.82041446244,1.37170557031,0.279721454787,-0.00517372600697,-0.0401576919196
1589276147558786214,878,1589276147558640743,,0.131848738203,-1.8203103769,1.37129701421,0.282439989292,-0.005835838126,-0.0393794670701
1589276147564714652,879,1589276147564594586,,0.131843683701,-1.82031466282,1.37129181088,0.282440033143,-0.00583621400294,-0.0393790968489
1589276147570677347,880,1589276147570579988,,0.131831758192,-1.82032291662,1.37128200089,0.28241896491,-0.00583832162142,-0.0384803341252
1589276147576559893,881,1589276147576462941,,0.108471184931,-1.8204910667,1.39392997797,0.285032315898,-0.00584162963768,-0.0385969890212
1589276147582795314,882,1589276147582715132,,0.13032289606,-2.08474991265,1.44277592031,0.292031691361,-0.00520478742647,-0.0374633548251
1589276147588976079,883,1589276147588674933,,0.130329232642,-2.0847285733,1.4428061819,0.292031806296,-0.00520395012714,-0.0374625752002
1589276147594902978,884,1589276147594763881,,0.130317889505,-2.08472888256,1.44280675964,0.293840453836,-0.00520891102328,-0.0365451014111
1589276147600581724,885,1589276147600482507,,0.107452516085,-1.95272730337,1.44122722266,0.295651845762,-0.00521851823021,-0.0357713117569
1589276147606562379,886,1589276147606454874,,0.107240798621,-2.08462160738,1.44242804616,0.29474332172,-0.0045716849027,-0.0357853568951
1589276147612610243,887,1589276147612508305,,0.107275476645,-2.08461716124,1.44243189314,0.299269063849,-0.00522725590219,-0.0339312242945
1589276147618603474,888,1589276147618465488,,0.107284634551,-2.08460341019,1.442451085,0.299268982872,-0.00522683163254,-0.0339320038515
1589276147624526492,889,1589276147624423559,,0.106889774609,-2.08487235243,1.46537350043,0.30095826657,-0.00457898202634,-0.0339058771263
1589276147630753995,890,1589276147630658908,,0.106497329842,-2.08509284829,1.48847040062,0.305348310186,-0.00459021283944,-0.0320622366366
1589276147636536746,891,1589276147636452550,,0.106549770081,-2.08509626095,1.48846186712,0.305348551723,-0.00458161773884,-0.0320611656854
1589276147642557489,892,1589276147642428121,,0.106552343918,-2.08509448171,1.48846417529,0.305348717995,-0.00458027791527,-0.032059773526
1589276147648924035,893,1589276147648753925,,0.106125607808,-2.08530003218,1.51148888718,0.305207627239,-0.00458407567615,-0.0320618633489
1589276147654734700,894,1589276147654584395,,0.106135804592,-2.08528875622,1.51150372777,0.30520748117,-0.00458387255441,-0.0320632828351
1589276147660586726,895,1589276147660510744,,0.0831416709077,-2.08521031288,1.51109405146,0.307019962962,-0.00459536948407,-0.031289097462
1589276147666646028,896,1589276147666543984,,0.106079186217,-2.08527233715,1.511530354,0.307965495731,-0.00459865155362,-0.0329146710099
1589276147672696265,897,1589276147672567621,,0.0829285234047,-2.2171818024,1.51220883257,0.306138562217,-0.00523976965494,-0.0330847389269
1589276147678669609,898,1589276147678581872,,0.0829117504845,-2.21716626205,1.51223253709,0.306138690882,-0.00524147494538,-0.0330832782104
1589276147684726176,899,1589276147684626916,,0.10589950581,-2.21726649135,1.51260857465,0.307054986061,-0.0052409465726,-0.0329275927146
1589276147690753440,900,1589276147690662778,,0.105892852933,-2.21728172909,1.51258670384,0.308003918618,-0.00524400593168,-0.0347084157108
1589276147696921554,901,1589276147696783976,,0.105894861682,-2.21729700456,1.51256417085,0.308004037817,-0.00524274111777,-0.0347075490012
1589276147702488749,902,1589276147702403385,,0.128962009941,-2.21739475251,1.51295374797,0.307132656618,-0.00458856742702,-0.0363606293349
1589276147708639745,903,1589276147708509244,,0.128962035425,-2.21735220103,1.51301610764,0.306253420022,-0.00458627256246,-0.0381556884755
1589276147714763258,904,1589276147714664546,,0.128943970223,-2.21733628134,1.51304097762,0.307171574026,-0.0052406587897,-0.0381434668875
1589276147720747334,905,1589276147720609602,,0.128869636903,-2.21732834994,1.51305893382,0.307171565942,-0.00525041347322,-0.038142190489
1589276147726464174,906,1589276147726375666,,0.128435322162,-2.21752402131,1.53608522262,0.305251590427,-0.00590828813441,-0.0408543012347
1589276147732439878,907,1589276147732366409,,0.12891932261,-2.21734586806,1.51302902868,0.304463573732,-0.00589220919592,-0.0399704422749
1589276147738641469,908,1589276147738559399,,0.152424811276,-2.08519602692,1.48940120025,0.300095814293,-0.00654132926244,-0.0425573372853
1589276147744712730,909,1589276147744629539,,0.152304190273,-2.21721650602,1.49044836993,0.300096137516,-0.00653281709918,-0.0425563655612
1589276147750642019,910,1589276147750546105,,0.152699725723,-2.21703559566,1.46731110178,0.297517909465,-0.00652256129484,-0.043487017164
1589276147756617733,911,1589276147756543786,,0.152712997174,-2.21704855279,1.46729014278,0.295710786922,-0.00651422497322,-0.0444003684782
1589276147762665952,912,1589276147762520757,,0.152712612279,-2.2170795651,1.46724332274,0.295711130301,-0.00651193290004,-0.0443984177183
1589276147769001802,913,1589276147768679392,,0.1525585906,-2.34915369261,1.46829024424,0.294792323107,-0.00650691275059,-0.0444085791461
1589276147774713767,914,1589276147774590875,,0.152291852559,-2.21724475611,1.4904076045,0.292836330803,-0.0065110956985,-0.0453311078808
1589276147780816507,915,1589276147780632032,,0.19863817428,-2.2171817684,1.46820859287,0.290274033005,-0.00585551692486,-0.0468578148491
1589276147786699058,916,1589276147786594893,,0.175377700363,-2.34917803337,1.4688213786,0.288385397991,-0.00585585875647,-0.0443494205657
1589276147793160545,917,1589276147793058201,,0.175427515697,-2.34920278975,1.46877583444,0.288385650712,-0.00584839168332,-0.0443487625397
1589276147799002534,918,1589276147798776413,,0.175448031557,-2.34916631259,1.46883172504,0.28747612854,-0.00584635288845,-0.0443630852089
1589276147804722640,919,1589276147804635179,,0.152283744743,-2.48129141077,1.46931202232,0.284712895513,-0.00517812781541,-0.0436462272147
1589276147810666256,920,1589276147810567719,,0.152332028675,-2.48134317429,1.4692195981,0.284713879567,-0.00516772266137,-0.0436410409305
1589276147816639169,921,1589276147816550078,,0.152341719318,-2.48133518448,1.46923208713,0.283773325331,-0.00516489066382,-0.0427535030503
1589276147822734170,922,1589276147822632817,,0.15275717677,-2.48116440988,1.446208546,0.283882124605,-0.00516409600776,-0.0409721833292
1589276147828677134,923,1589276147828505080,,0.152541066,-2.34916642597,1.46827169241,0.282863033328,-0.00581760846962,-0.0427667353022
1589276147834702801,924,1589276147834560487,,0.152535562079,-2.34915610951,1.46828876993,0.282862893475,-0.00581907054623,-0.0427674613794
1589276147840672904,925,1589276147840568779,,0.152919400614,-2.34895036856,1.44531109966,0.279348851414,-0.00515418697036,-0.0428094782091
1589276147846680194,926,1589276147846561249,,0.176237712963,-2.34880757721,1.42279667895,0.275894895358,-0.00515288252877,-0.0453875165828
1589276147852703354,927,1589276147852606143,,0.199859545824,-2.21658587365,1.39920039203,0.275211173878,-0.00580149376967,-0.0488190248349
1589276147858739679,928,1589276147858662469,,0.200216519248,-2.21634652366,1.37617997329,0.272657231605,-0.00579921872841,-0.0506254249631
1589276147864483843,929,1589276147864409513,,0.200223262386,-2.2163840577,1.37611854155,0.272657803503,-0.00579520879405,-0.0506228039635
1589276147870567024,930,1589276147870436797,,0.200082908057,-2.34852424149,1.37712442119,0.272658100492,-0.0057953634793,-0.0506211866265
1589276147876615216,931,1589276147876513897,,0.200191720805,-2.21639406792,1.37610700783,0.272680668012,-0.00579771796232,-0.0515202275332
1589276147882682815,932,1589276147882589469,,0.176596977593,-2.34865411813,1.39974640865,0.274329373168,-0.00579968927431,-0.0498509652112
1589276147888899292,933,1589276147888786582,,0.176605839573,-2.34865828683,1.3997382958,0.274329283379,-0.00579883231753,-0.0498515590049
1589276147895085391,934,1589276147894973766,,0.176456422404,-2.4808818906,1.40064539906,0.274305941894,-0.00645436067082,-0.0489638723934
1589276147900753639,935,1589276147900626371,,0.176040689668,-2.48108960244,1.42359575968,0.275029812233,-0.00645732202748,-0.0471761599644
1589276147906738691,936,1589276147906641737,,0.175601352464,-2.48128722326,1.44657247233,0.273950413603,-0.0051433944784,-0.0462858775719
1589276147912856462,937,1589276147912669638,,0.17560329644,-2.48128041246,1.44658391876,0.273950802603,-0.00514212019888,-0.0462837167427
1589276147918566769,938,1589276147918471197,,0.198668088049,-2.48135178241,1.44703290833,0.275752767762,-0.00580598344527,-0.0452305034699
1589276147924540879,939,1589276147924449467,,0.198617892557,-2.48135227558,1.44703895328,0.275753184524,-0.00580986490577,-0.0452274641244
1589276147930503939,940,1589276147930434234,,0.175285795579,-2.34929607568,1.4686435412,0.276546712292,-0.00581022262475,-0.0462452579281
1589276147936544484,941,1589276147936425973,,0.198991591794,-2.48117830407,1.42403039388,0.27688041888,-0.00515655094924,-0.0478885452315
1589276147942687232,942,1589276147942586495,,0.199601082141,-2.34877251574,1.40012742619,0.273409834907,-0.0057955312601,-0.0497073206338
1589276147948867108,943,1589276147948765366,,0.199566388318,-2.3487720321,1.40013318301,0.273409362925,-0.00580090669359,-0.0497092896499
1589276147954795969,944,1589276147954631417,,0.199998647652,-2.34857596724,1.37704844558,0.270855807096,-0.0057906043842,-0.0515282872616
1589276147960490801,945,1589276147960406726,,0.200016768654,-2.34856097881,1.37707137632,0.270855285974,-0.00579069884491,-0.0515310158189
1589276147966475656,946,1589276147966407401,,0.200027616247,-2.34855802939,1.37707483083,0.269913289468,-0.00578897639064,-0.0506457567055
1589276147972610364,947,1589276147972549086,,0.200039274285,-2.34855087113,1.37708534553,0.268084549413,-0.00644025721043,-0.0506692555195
1589276147978578406,948,1589276147978472775,,0.200056151746,-2.34852566783,1.37712587591,0.26808424814,-0.00644023610508,-0.0506708521698
1589276147984615503,949,1589276147984551828,,0.200042876476,-2.34852249853,1.37713320919,0.26806329762,-0.00513134072775,-0.0497833163947
1589276147990670575,950,1589276147990608842,,0.199102882835,-2.48108426601,1.42417867554,0.271385442041,-0.00513955740912,-0.0479654618574
1589276147996890052,951,1589276147996781728,,0.199105401212,-2.48106698155,1.42420843459,0.271384899296,-0.00514157518153,-0.0479683163374
1589276148002769277,952,1589276148002684530,,0.176194667765,-2.61307757271,1.40167386113,0.272393054201,-0.00514629522368,-0.0454118701626
1589276148008818066,953,1589276148008585270,,0.175372913827,-2.61341833026,1.44767413042,0.273884615448,-0.00515437486666,-0.0436099827363
1589276148014706076,954,1589276148014635361,,0.152353391505,-2.61333169536,1.4472691464,0.276581924264,-0.0058169485564,-0.0419361630055
1589276148020617831,955,1589276148020519750,,0.151957693134,-2.61350448501,1.47027010428,0.279178823177,-0.00516773773181,-0.041905762429
1589276148026688152,956,1589276148026593759,,0.174943833725,-2.61357019149,1.47071629433,0.27738945211,-0.00582067565924,-0.0435617464467
1589276148032833684,957,1589276148032678938,,0.174938607764,-2.6135902971,1.47068118627,0.277389002051,-0.00582213345747,-0.0435644174029
1589276148038528405,958,1589276148038447438,,0.175108001081,-2.48134191183,1.46980225198,0.277432235354,-0.00582356699963,-0.0453535558862
1589276148044887114,959,1589276148044734003,,0.175925713569,-2.48099347839,1.42377748621,0.273203080678,-0.00581109530372,-0.0471956174242
1589276148050790461,960,1589276148050680753,,0.199021642049,-2.4810541926,1.42424242046,0.271429342469,-0.0051506378581,-0.0497453530919
1589276148056556502,961,1589276148056473364,,0.244866818138,-2.34922946335,1.44714554157,0.272301625263,-0.00580547001899,-0.0539108708606
1589276148062479278,962,1589276148062402326,,0.244856671514,-2.34924168712,1.44712741475,0.272301490329,-0.00580656142292,-0.0539114348656
1589276148068791736,963,1589276148068686582,,0.22136914193,-2.34934606784,1.46969151786,0.276714824677,-0.00581913779931,-0.0531106249706
1589276148074685671,964,1589276148074620015,,0.221382918727,-2.34934619984,1.46968923169,0.276714101155,-0.00581984119361,-0.0531143174335
1589276148080589566,965,1589276148080507379,,0.221648454411,-2.48134470453,1.44761918034,0.277773622326,-0.00582173141609,-0.0531024721038
1589276148086635081,966,1589276148086517806,,0.198252123155,-2.48145806751,1.47016587603,0.278477500472,-0.00582495261627,-0.0505601414214
1589276148092537878,967,1589276148092449305,,0.197718491528,-2.6138716127,1.49415442532,0.28101106479,-0.00582732964218,-0.0478575431025
1589276148099149504,968,1589276148099043016,,0.174405226147,-2.7461064529,1.49452254792,0.282776913906,-0.00583467888026,-0.0452975958502
1589276148104859063,969,1589276148104716386,,0.127526939256,-2.74630045836,1.53968972005,0.284258550175,-0.00453363424077,-0.0428915007062
1589276148110579515,970,1589276148110472015,,0.127944763181,-2.74614726929,1.516649777,0.283427002331,-0.00453080007207,-0.0402219840927
1589276148116781715,971,1589276148116665134,,0.150362167003,-2.87871937908,1.54086030695,0.288725234957,-0.00519204458256,-0.0382185427753
1589276148122817680,972,1589276148122645611,,0.150353508303,-2.87871415704,1.54087090791,0.288724897743,-0.00519428164035,-0.0382207862447
1589276148128696817,973,1589276148128607310,,0.150327281693,-2.87871398263,1.54087379265,0.292382090552,-0.00520614869663,-0.0381706374833
1589276148134709676,974,1589276148134605118,,0.150317252402,-2.87871955295,1.54086436437,0.292382288977,-0.0052062042656,-0.0381691099595
1589276148140860436,975,1589276148140693745,,0.1268056545,-2.87879463483,1.56349231625,0.295902516342,-0.00521840662113,-0.0382583252869
1589276148146715756,976,1589276148146625863,,0.149869548705,-2.87886269807,1.56391783665,0.297787968754,-0.00588102592654,-0.0407773716755
1589276148152732140,977,1589276148152585670,,0.126412692422,-2.87893168351,1.58665505314,0.297643723171,-0.00588066400223,-0.0409216471442
1589276148158713743,978,1589276148158629543,,0.172887674597,-2.87891410541,1.56438369271,0.296038630016,-0.00653655497372,-0.0442322883831
1589276148164750516,979,1589276148164675824,,0.172885893054,-2.87891903081,1.56437482542,0.296039370196,-0.00653405498701,-0.0442277036234
1589276148170760788,980,1589276148170619474,,0.1724923179,-2.87906087028,1.58752773845,0.295892912586,-0.00587402748328,-0.0442285608403
1589276148176778927,981,1589276148176609658,,0.149081133918,-2.87911289343,1.61018849189,0.297561328471,-0.00653442636591,-0.0434610787007
1589276148182771998,982,1589276148182668897,,0.149116259649,-2.8791084181,1.61019324149,0.299328157235,-0.00587916703318,-0.0407549565529
1589276148188718773,983,1589276148188619506,,0.171594280886,-3.01167120651,1.63441415091,0.301901345131,-0.00522697175143,-0.0396808773559
1589276148195278224,984,1589276148195086651,,0.1716189053,-3.01171109885,1.63433805514,0.301901649584,-0.00522247821129,-0.0396791526284
1589276148200685538,985,1589276148200581837,,0.148166789198,-3.01180530238,1.65692686393,0.306290792057,-0.00458454258192,-0.0379805137307
1589276148206713084,986,1589276148206616856,,0.147137016974,-3.14444622969,1.7038738485,0.31151842947,-0.00459691101742,-0.0387998935081
1589276148212659856,987,1589276148212589200,,0.147509300415,-3.14431297198,1.68081032815,0.313447467677,-0.00525304681046,-0.0369839366847
1589276148218682478,988,1589276148218600804,,0.147246432214,-3.27671157199,1.68150885862,0.315246443102,-0.00526189962929,-0.0351623537233
1589276148224762452,989,1589276148224577034,,0.147208910706,-3.27674159222,1.6814536431,0.314367046932,-0.00526134770461,-0.0369686060437
1589276148230645542,990,1589276148230566794,,0.146803006333,-3.27686625273,1.70452760439,0.315134771589,-0.00526592643379,-0.0369631526012
1589276148236753655,991,1589276148236671748,,0.170009071167,-3.14453389278,1.70428141767,0.31334374643,-0.00526555540421,-0.0386216425921
1589276148242631978,992,1589276148242547066,,0.147522751971,-3.01192929612,1.68013744664,0.311719011018,-0.00592511375823,-0.0414754142981
1589276148248951087,993,1589276148248736542,,0.170951973797,-3.01189826466,1.65733657599,0.31009732039,-0.00592042626784,-0.0440363085168
1589276148254498661,994,1589276148254416671,,0.194275031527,-2.87963942988,1.65701702753,0.308347827428,-0.00657811064532,-0.0475002872662
1589276148257549169,995,1589276148257455954,,0.170859931935,-3.01193031919,1.6572878133,0.310158528837,-0.00658737298375,-0.046723121982
1589276148263583786,996,1589276148263494926,,0.194621162219,-2.87952468782,1.63391149927,0.309428982441,-0.00658545301539,-0.0483774995401
1589276148269659244,997,1589276148269557461,,0.171100153575,-2.87961780716,1.6564986757,0.31110969474,-0.00658572454625,-0.0484953451111
1589276148275820726,998,1589276148275720442,,0.171126789558,-2.87960178719,1.65652377272,0.311109893497,-0.00658278999348,-0.0484944684501
1589276148281648347,999,1589276148281556520,,0.170977452746,-3.01193104466,1.65727437467,0.311068966254,-0.00591884006599,-0.0467113034923
1589276148287775264,1000,1589276148287702645,,0.171007659211,-3.01193977973,1.65725538281,0.311069376231,-0.00591420609565,-0.0467091601893
1589276148293729324,1001,1589276148293641309,,0.171055920422,-3.0119692699,1.65719680466,0.309260407786,-0.00656413679188,-0.0476297374873
1589276148299747058,1002,1589276148299676658,,0.171063187608,-3.01198869191,1.65716075436,0.310137943722,-0.00656464042247,-0.0458212177713
1589276148305674042,1003,1589276148305591551,,0.17053041656,-3.14452272475,1.68097483359,0.310889217392,-0.00590126711198,-0.0449231539207
1589276148311683118,1004,1589276148311608494,,0.170277665657,-3.27695719569,1.68159065922,0.309040614572,-0.00589784412232,-0.0440518064492
1589276148317748015,1005,1589276148317619857,,0.146743472002,-3.2770015263,1.70427264988,0.309769281627,-0.0065649635881,-0.0423933805498
1589276148323753733,1006,1589276148323666830,,0.146656617474,-3.27701047987,1.70426291002,0.310679040455,-0.00657319178473,-0.0423765262968
1589276148329725804,1007,1589276148329643706,,0.192844858552,-3.27713238784,1.70515548361,0.312604256783,-0.00658490900287,-0.0465395959911
1589276148338762746,1008,1589276148338666743,,0.216389261522,-3.14459961575,1.68200108141,0.312815376792,-0.00659876438026,-0.0490758703849
1589276148344681039,1009,1589276148344591752,,0.193299275833,-3.14451673459,1.68159153943,0.311899128724,-0.00725519384564,-0.0492280488763
1589276148350688576,1010,1589276148350608301,,0.240190022103,-3.01211140052,1.65866482834,0.308511033258,-0.00789015395692,-0.0543550620086
1589276148356749220,1011,1589276148356595697,,0.240220412593,-3.0121098349,1.65866327038,0.308511017738,-0.00788729543946,-0.0543555649647
1589276148362628310,1012,1589276148362563506,,0.24028647416,-3.01206412519,1.65873670748,0.30582905733,-0.00787604323041,-0.0570810071811
1589276148368722616,1013,1589276148368645946,,0.239949326292,-3.01218617509,1.68191790041,0.305704988796,-0.00721857813206,-0.0579724786585
1589276148374777716,1014,1589276148374706137,,0.240108732238,-3.01221189189,1.68184909292,0.305704805543,-0.00720267304708,-0.0579754232063
1589276148380687151,1015,1589276148380592212,,0.240104791656,-3.01221408467,1.6818457282,0.306602267367,-0.00720412993748,-0.0570690282465
1589276148386691879,1016,1589276148386630901,,0.240011851212,-3.14457657313,1.68255318522,0.308342889708,-0.00720298174321,-0.0534692823591
1589276148392641509,1017,1589276148392567362,,0.240004162653,-3.14459722213,1.68251568982,0.308343529944,-0.00720115786822,-0.0534658358419
1589276148399067276,1018,1589276148398971603,,0.193794177903,-3.14443884272,1.68168022841,0.307367509769,-0.0071950690075,-0.0510822763342
1589276148404650332,1019,1589276148404556996,,0.215705176783,-3.277233169,1.72882046365,0.307115984344,-0.00654775175476,-0.0527253290781
1589276148410666955,1020,1589276148410585672,,0.19242939632,-3.40960732117,1.72900042869,0.3107001088,-0.00655647219739,-0.0492426654167
1589276148416862455,1021,1589276148416791859,,0.192290234118,-3.40961869764,1.7289934766,0.31156681677,-0.00657240428291,-0.047446566979
1589276148422776245,1022,1589276148422683072,,0.191662896734,-3.40977372771,1.75213022251,0.314187251777,-0.00659809555145,-0.0483037185222
1589276148428724943,1023,1589276148428562607,,0.191589896629,-3.40979066059,1.75210525347,0.315126793404,-0.00660802427989,-0.0491867150298
1589276148434616119,1024,1589276148434527615,,0.191740060532,-3.27736503978,1.75147966834,0.314207954703,-0.00661153417243,-0.0491962743523
1589276148440674678,1025,1589276148440579919,,0.192005598873,-3.27724013472,1.72831500549,0.312569821303,-0.00661941566888,-0.0510119014545
1589276148446681175,1026,1589276148446610529,,0.215716912305,-3.14479691773,1.70498376276,0.311839630744,-0.00727580651893,-0.0526645946475
1589276148452705341,1027,1589276148452624616,,0.238921547083,-3.14487716058,1.70540604555,0.310116559137,-0.00791199282507,-0.0570147902371
1589276148458705322,1028,1589276148458618906,,0.262455981254,-3.14479590672,1.68281062007,0.308471773399,-0.00725115906218,-0.058674408527
1589276148464628770,1029,1589276148464530110,,0.285932433483,-3.01248122186,1.68257747892,0.307638135315,-0.00788284531627,-0.0621231314929
1589276148470628444,1030,1589276148470565470,,0.285809773966,-3.14483744589,1.68328677624,0.306731981659,-0.0072230295712,-0.062127198635
1589276148476651348,1031,1589276148476564875,,0.262562971793,-3.01257020664,1.70512308037,0.307502765894,-0.00720992654966,-0.0622624301751
1589276148479608014,1032,1589276148479543731,,0.286220462536,-3.01249605808,1.68250194295,0.306753549431,-0.00784644047861,-0.0630223013184
1589276148485850557,1033,1589276148485728044,,0.286294223265,-3.01250973104,1.68246491175,0.306754271298,-0.00719001042799,-0.0630238986438
1589276148491805715,1034,1589276148491692410,,0.285768560798,-3.14503884136,1.70616683642,0.307500023253,-0.00718752702146,-0.0621210704504
1589276148498110277,1035,1589276148498007148,,0.262650863249,-3.14499973111,1.70565550873,0.308366713168,-0.00718675967021,-0.0604710047295
1589276148503822736,1036,1589276148503729393,,0.239314793188,-3.27733161584,1.70588126147,0.309222829384,-0.00719738231731,-0.0579144452095
1589276148509664979,1037,1589276148509574098,,0.261820206143,-3.27756669547,1.72934775062,0.309988724235,-0.00655403682194,-0.0577570016797
1589276148515826590,1038,1589276148515747163,,0.191756643512,-3.40988988194,1.75189390076,0.311516421485,-0.0065692172375,-0.0510115484766
1589276148521641149,1039,1589276148521578862,,0.191495409022,-3.40989220832,1.75191794691,0.311516995262,-0.00659021391248,-0.0510053359091
1589276148527711587,1040,1589276148527594796,,0.190582947911,-3.41013625179,1.79809640177,0.313962357217,-0.00660489407224,-0.0509718089403
1589276148533735204,1041,1589276148533611733,,0.190814588923,-3.41000793978,1.77504226967,0.314113410819,-0.00662081065707,-0.0509671531702
1589276148539791413,1042,1589276148539605109,,0.167603508446,-3.40993193013,1.77462175622,0.314116757859,-0.00662225404069,-0.051107108186
1589276148545657446,1043,1589276148545560014,,0.191372498419,-3.27744451104,1.75137115634,0.314296496634,-0.0066304453541,-0.0527524139668
1589276148551940066,1044,1589276148551829600,,0.238315223137,-3.14507487237,1.72838730115,0.312672022864,-0.00728195920159,-0.055183877138
1589276148557795445,1045,1589276148557708028,,0.261517742588,-3.14515498046,1.72879895105,0.310948746297,-0.00791294202214,-0.0595395583535
1589276148563767417,1046,1589276148563678949,,0.262163373292,-3.01267746853,1.70499504973,0.30838877688,-0.00724957030372,-0.0613566736701
1589276148569733958,1047,1589276148569611379,,0.262329825726,-3.01267541053,1.70497308383,0.307501615722,-0.00787871355559,-0.0622611691585
1589276148575832447,1048,1589276148575736112,,0.262611850789,-3.14489447733,1.6826020808,0.304884632288,-0.00786509789712,-0.0613983439709
1589276148582420028,1049,1589276148582315971,,0.262748837656,-3.14489702986,1.68257592396,0.304885991081,-0.0078486996652,-0.0613936948631
1589276148587834977,1050,1589276148587752477,,0.262746881877,-3.14487549336,1.68261648255,0.30392396722,-0.00719810182867,-0.0596183250503
1589276148593791207,1051,1589276148593706418,,0.262733453386,-3.14485788924,1.68265148173,0.303925690685,-0.00719543067337,-0.0596098609441
1589276148599866838,1052,1589276148599792006,,0.261694307723,-3.2775349439,1.72942698227,0.305373403117,-0.00654760744353,-0.0560140036809
1589276148605793687,1053,1589276148605722403,,0.261559332219,-3.27752561152,1.72946508718,0.305373979536,-0.0065584778852,-0.0560095892967
1589276148611765062,1054,1589276148611686158,,0.215212150641,-3.27737331509,1.72861622305,0.306169975169,-0.00591195091531,-0.0509094871159
1589276148617762633,1055,1589276148617667176,,0.215086367184,-3.27738900543,1.72860213021,0.306169666122,-0.00592373249165,-0.0509099762042
1589276148623845648,1056,1589276148623750938,,0.214539009441,-3.54225711438,1.72987970852,0.306992171641,-0.00594055964787,-0.0473258016531
1589276148629844721,1057,1589276148629719078,,0.214489901915,-3.54225138729,1.72989752534,0.306992060383,-0.00594514144732,-0.0473259480079
1589276148636145076,1058,1589276148636042911,,0.190934961974,-3.54228113665,1.75268385397,0.309594919629,-0.00595742901756,-0.0474469516062
1589276148641813777,1059,1589276148641718104,,0.21446702435,-3.54221725724,1.72997024683,0.309760791686,-0.00595534244637,-0.0481908898661
1589276148648016486,1060,1589276148647862085,,0.191263913359,-3.40979308618,1.75213614815,0.309615394984,-0.00660753627247,-0.0483370413569
1589276148653885567,1061,1589276148653761256,,0.191537953511,-3.27736430682,1.75150315333,0.306965280269,-0.00593525893545,-0.0519495662162
1589276148659856366,1062,1589276148659713405,,0.215162688005,-3.2772844174,1.72879091505,0.307184547484,-0.00724010737986,-0.0553825899721
1589276148666105064,1063,1589276148666009156,,0.238860034054,-3.27721522297,1.70616858343,0.304674389739,-0.00722104440588,-0.0588513109072
1589276148671992320,1064,1589276148671876448,,0.262108939637,-3.2772725017,1.7066102526,0.304738194468,-0.00720469064701,-0.0613839748674
1589276148677900837,1065,1589276148677810758,,0.262208831479,-3.27726839518,1.70660279373,0.304737440908,-0.00719770644324,-0.0613885350549
1589276148683888683,1066,1589276148683796517,,0.262503777232,-3.1449432157,1.70578235308,0.304781443458,-0.00718597987501,-0.0631897421521
1589276148689981833,1067,1589276148689876753,,0.262993588292,-3.14479894222,1.68272101241,0.303036792912,-0.00717689737141,-0.0605274419173
1589276148696060829,1068,1589276148695909766,,0.263016494468,-3.14482064807,1.68267686594,0.303036431419,-0.00717491524472,-0.060529486728
1589276148701853186,1069,1589276148701730773,,0.285650119571,-3.27746753846,1.70675726581,0.302882310108,-0.00651435032569,-0.0603945221277
1589276148707871394,1070,1589276148707770342,,0.262441034532,-3.27740586561,1.7063030787,0.303738698809,-0.00586113494868,-0.057837135945
1589276148713874883,1071,1589276148713764231,,0.238798693714,-3.27747896772,1.72893419516,0.304378691666,-0.00587907478374,-0.0526087317824
1589276148719764535,1072,1589276148719655187,,0.238659578765,-3.27748663365,1.72893887194,0.304379488362,-0.00588898139116,-0.0526030140071
1589276148725874014,1073,1589276148725774335,,0.214432045674,-3.54241736335,1.7529359387,0.305956751628,-0.00591091646622,-0.0482450577292
1589276148731869177,1074,1589276148731789861,,0.214371845797,-3.54239477851,1.75298894136,0.305956944384,-0.00591595336069,-0.0482432179106
1589276148737774289,1075,1589276148737689950,,0.190744832189,-3.5424416393,1.77565626487,0.307605161771,-0.0059302321327,-0.0465690517132
1589276148743958897,1076,1589276148743854519,,0.1906779277,-3.54244892623,1.77564891315,0.30758521511,-0.00527757951391,-0.0456768735887
1589276148749878484,1077,1589276148749711097,,0.19066730492,-3.54244242885,1.77566301615,0.307585518125,-0.00527765017514,-0.045674824893
1589276148758812979,1078,1589276148758716152,,0.21457362401,-3.40994472188,1.75238592146,0.305915297029,-0.00526024064541,-0.0464509234832
1589276148764806991,1079,1589276148764689847,,0.215023297938,-3.40980069165,1.72924459415,0.30516454914,-0.00591135783688,-0.0473490573893
1589276148770844226,1080,1589276148770747271,,0.21573958859,-3.27722415739,1.70556829709,0.303531854211,-0.00523788005186,-0.0491615326076
1589276148776812568,1081,1589276148776704158,,0.215831452226,-3.2772196512,1.70556533324,0.302674506138,-0.00654610995811,-0.0518651410209
1589276148783191125,1082,1589276148783097072,,0.23930773115,-3.14488239732,1.70534224066,0.301776033663,-0.00587237195158,-0.0526231061659
1589276148789249789,1083,1589276148789045059,,0.23936319333,-3.14488126795,1.70533653956,0.301775935358,-0.00586756081783,-0.0526242065699
1589276148795184060,1084,1589276148795092255,,0.216649430156,-3.14469997479,1.68177994599,0.302804090534,-0.00652558771334,-0.0509616252978
1589276148800747366,1085,1589276148800668428,,0.21595274139,-3.27723945185,1.70551193273,0.303552498008,-0.00587557711527,-0.050053961436
1589276148806726053,1086,1589276148806649300,,0.21641867253,-3.27712441362,1.68240799811,0.300968971794,-0.00520484373765,-0.0509799619108
1589276148812830410,1087,1589276148812644705,,0.215462276611,-3.27739485824,1.72854421794,0.302462176741,-0.00522116312555,-0.0491750236782
1589276148818682933,1088,1589276148818591529,,0.16951848692,-3.27715550583,1.70456192472,0.299787472932,-0.00522146358814,-0.0459138008446
1589276148824831234,1089,1589276148824667629,,0.169446694721,-3.27716060327,1.70455926268,0.299766371796,-0.00522773640983,-0.0450212793255
1589276148830838439,1090,1589276148830748565,,0.169050357849,-3.40960246547,1.70518732536,0.301532693981,-0.00459933100296,-0.0423109956068
1589276148836813637,1091,1589276148836693627,,0.168568742855,-3.40974917659,1.72822428358,0.301369761607,-0.00525301465924,-0.0414208635443
1589276148843052766,1092,1589276148842963766,,0.167472590614,-3.54242872608,1.7751194049,0.304697110562,-0.00461956638257,-0.039586594089
1589276148848695660,1093,1589276148848601193,,0.16743956048,-3.54242019275,1.77513954978,0.304697031499,-0.00462276523596,-0.039586829209
1589276148854859233,1094,1589276148854752082,,0.167432739168,-3.54242333846,1.77513391567,0.304696620315,-0.00462477271184,-0.039589759483
1589276148860768834,1095,1589276148860694950,,0.168134861744,-3.40985753182,1.75143488959,0.30305085791,-0.0046142000468,-0.0414037201416
1589276148866827589,1096,1589276148866730923,,0.215114216005,-3.27741668999,1.72854617441,0.30153119286,-0.00525115816191,-0.0482950452946
1589276148872897956,1097,1589276148872714700,,0.215152968499,-3.27741296674,1.72854841079,0.301531482086,-0.00524690420143,-0.0482937018386
1589276148878892270,1098,1589276148878759458,,0.215203747721,-3.27740372101,1.72855961983,0.299746823068,-0.00523573619675,-0.0500983589656
1589276148884802786,1099,1589276148884658552,,0.239073237911,-3.14492862044,1.70528988745,0.299039041974,-0.00654107809926,-0.0526511332519
1589276148890736616,1100,1589276148890657481,,0.262429367269,-3.2772651815,1.68332130895,0.297371778536,-0.00587296973314,-0.0534200142433
1589276148896950494,1101,1589276148896875616,,0.239591474277,-3.14481088256,1.68217513133,0.297374552921,-0.00652417178564,-0.0535627088564
1589276148903210435,1102,1589276148903112448,,0.239377028642,-3.27722087119,1.68282490454,0.295571158576,-0.00520472403014,-0.0544752493637
1589276148909023131,1103,1589276148908845432,,0.239370496116,-3.27724557961,1.68277771445,0.295571440404,-0.0052037324216,-0.0544738149393
1589276148914964715,1104,1589276148914827013,,0.239290143363,-3.27725521485,1.68277037762,0.295549779168,-0.00520974858998,-0.0535796396831
1589276148920945412,1105,1589276148920825347,,0.238832182895,-3.27738017151,1.70585561184,0.299018980287,-0.00588318644239,-0.0517443682201
1589276148926808904,1106,1589276148926734847,,0.192290104476,-3.40966611408,1.70562643878,0.299806542926,-0.00523415584924,-0.0466562648861
1589276148932846237,1107,1589276148932715670,,0.19218338204,-3.40965317808,1.7056643267,0.299806673206,-0.00524314695639,-0.0466544181524
1589276148938834563,1108,1589276148938731453,,0.191413280165,-3.54222886099,1.72936361091,0.30145134059,-0.00525985356869,-0.044849185011
1589276148944877354,1109,1589276148944709007,,0.190522459786,-3.54247451009,1.77561456051,0.304799567307,-0.00462483919776,-0.0439005066961
1589276148950700552,1110,1589276148950621936,,0.190916904723,-3.54234213332,1.75256253775,0.305838674462,-0.00463060371488,-0.0429954297315
1589276148956903064,1111,1589276148956767912,,0.190483447523,-3.54246403806,1.77563963829,0.306606602793,-0.00463536834402,-0.0429869802692
1589276148962812637,1112,1589276148962709147,,0.190788899337,-3.4100075575,1.77504576547,0.305716952544,-0.00527613453305,-0.0438924746482
1589276148968639174,1113,1589276148968505092,,0.213927062281,-3.4100590309,1.77551171394,0.304857773912,-0.00526952442743,-0.0464467022891
1589276148974992429,1114,1589276148974777182,,0.237690944892,-3.40999830622,1.75286675777,0.304171483285,-0.00525371010756,-0.0498968111667
1589276148980951866,1115,1589276148980831783,,0.238378955861,-3.27741778624,1.72910808773,0.30252227634,-0.00655921286049,-0.0517019597238
1589276148986971044,1116,1589276148986867695,,0.23855643482,-3.27742889805,1.72906254855,0.302521927492,-0.00654419618486,-0.0517059037
1589276148992894637,1117,1589276148992808893,,0.238191130329,-3.27757154393,1.75220501592,0.304213445352,-0.00588530167869,-0.0516836108383
1589276148999184177,1118,1589276148999112115,,0.238340540087,-3.27760709964,1.75211818817,0.305154860456,-0.00521567260809,-0.052577512415
1589276149004716997,1119,1589276149004601497,,0.260501613466,-3.41035403356,1.79931665776,0.304870413604,-0.00586604838807,-0.0533295334622
1589276149010744311,1120,1589276149010653643,,0.214635736667,-3.41011389067,1.77532081094,0.304985226515,-0.0052083241276,-0.0518311314311
1589276149016901168,1121,1589276149016810068,,0.214613492367,-3.4101232143,1.77530559081,0.305777579063,-0.00456357334312,-0.0464436221273
1589276149023265500,1122,1589276149023151321,,0.214332098484,-3.54257537002,1.77590179363,0.307584402452,-0.00457662155506,-0.0455295113202
1589276149028835610,1123,1589276149028728384,,0.191188349635,-3.54252449913,1.77544324546,0.308434237741,-0.00458264450858,-0.0429742149541
1589276149034934765,1124,1589276149034711911,,0.190977643437,-3.54252249899,1.77546991349,0.30843398999,-0.00460122547875,-0.0429740076742
1589276149040871287,1125,1589276149040758266,,0.190264227613,-3.67512052275,1.79911608865,0.310100773031,-0.00461212204004,-0.0420587055541
1589276149046890741,1126,1589276149046793230,,0.166521276308,-3.67516813045,1.82178497812,0.311698939594,-0.0046298573356,-0.0386012566111
1589276149052895434,1127,1589276149052744010,,0.166374527297,-3.67514910747,1.82183676097,0.311699181161,-0.00464121714967,-0.0385979416782
1589276149058907247,1128,1589276149058844394,,0.143553183596,-3.54262759855,1.82080606197,0.310811551912,-0.00528752376646,-0.039663064096
1589276149064877255,1129,1589276149064743567,,0.143515547735,-3.54262628488,1.82081158473,0.310832183976,-0.00528950818656,-0.0405531683839
1589276149070671071,1130,1589276149070562949,,0.167082096113,-3.54253625097,1.79822451016,0.310101758541,-0.00528333177295,-0.0422042983968
1589276149073775155,1131,1589276149073695360,,0.213527023282,-3.54265053898,1.79912017865,0.309258767547,-0.00527047801874,-0.045515618963
1589276149079843631,1132,1589276149079725350,,0.213685061311,-3.54258851818,1.79922353632,0.308350046067,-0.00525485175519,-0.0455262028683
1589276149085678416,1133,1589276149085577897,,0.214452033788,-3.41002395302,1.77551575426,0.3076238701,-0.00523994018093,-0.0473220266437
1589276149091766720,1134,1589276149091682697,,0.237793219396,-3.41009471891,1.77592908271,0.307727970264,-0.00457732816329,-0.0516549391042
1589276149098018566,1135,1589276149097894004,,0.237892844726,-3.41012968686,1.77584859355,0.306829902904,-0.00521313429511,-0.052568203441
1589276149103773721,1136,1589276149103674651,,0.261149548026,-3.27777962957,1.77566351443,0.305040944887,-0.00586799227279,-0.0542315194506
1589276149109849275,1137,1589276149109714311,,0.284533236176,-3.41013733527,1.7536675676,0.30609900893,-0.00521416645318,-0.0540743159679
1589276149115877928,1138,1589276149115777208,,0.238178569655,-3.40999211839,1.75281260428,0.304233980607,-0.00587308442205,-0.052594340171
1589276149121958867,1139,1589276149121755120,,0.23809438744,-3.40999735631,1.75281385117,0.304234545921,-0.00587856977652,-0.0525904571205
1589276149127902328,1140,1589276149127810795,,0.237887497614,-3.4100018434,1.75283321247,0.304214369483,-0.00523640430101,-0.0516833765742
1589276149133868138,1141,1589276149133775840,,0.237781187573,-3.41000856172,1.75283456723,0.30511109779,-0.00525033119808,-0.050782715973
1589276149139806128,1142,1589276149139718566,,0.213880516604,-3.54250924834,1.77608812602,0.303958792264,-0.00525512616478,-0.0473588310385
1589276149145816675,1143,1589276149145712529,,0.213799807968,-3.54252175941,1.77607288914,0.303959003824,-0.00526081854062,-0.0473568411684
1589276149151763393,1144,1589276149151691125,,0.189831565042,-3.54270806701,1.8217788282,0.30541642043,-0.00396250795892,-0.0439041304048
1589276149157956205,1145,1589276149157877221,,0.189835980953,-3.54273215299,1.82173152866,0.30541616578,-0.00396244176481,-0.0439059077949
1589276149163826826,1146,1589276149163751422,,0.189868582916,-3.54271431387,1.82176282253,0.305395064831,-0.00396138389108,-0.043016069215
1589276149169877898,1147,1589276149169769954,,0.190081933709,-3.67508911897,1.79919950523,0.305545089875,-0.00461566928929,-0.0430125176903
1589276149178920083,1148,1589276149178775994,,0.167518219422,-3.67488581014,1.7757026482,0.304759766575,-0.0045941159518,-0.0422702055921
1589276149184885864,1149,1589276149184810869,,0.190354543629,-3.67503161409,1.79928814164,0.305545123309,-0.00459507543049,-0.0430144851383
1589276149190974956,1150,1589276149190868191,,0.190552125488,-3.67501511204,1.79930093293,0.305566045481,-0.00457900191755,-0.0439073190773
1589276149197145500,1151,1589276149197049404,,0.213893670659,-3.54262578431,1.79912537034,0.305583091014,-0.00457871761195,-0.0446592842106
1589276149203018793,1152,1589276149202941063,,0.236788766746,-3.54282969718,1.82259988975,0.305515754323,-0.00325088082721,-0.0480985044262
1589276149209093293,1153,1589276149208969321,,0.236790095652,-3.54281303951,1.82263209646,0.305515410571,-0.0032523151379,-0.0481005908881
1589276149215069452,1154,1589276149214852420,,0.213958733571,-3.54262972201,1.79910988028,0.304664580048,-0.00391403524089,-0.0446751485602
1589276149220912612,1155,1589276149220774139,,0.213940291949,-3.54264542064,1.79908116085,0.304664439615,-0.00391566403243,-0.0446759635138
1589276149226830599,1156,1589276149226709849,,0.213810193372,-3.54263423815,1.79911864648,0.304664815678,-0.00392557084636,-0.0446725294548
1589276149232880424,1157,1589276149232775639,,0.191090363464,-3.54245832919,1.77558581566,0.303878354628,-0.00458252789621,-0.0439310798574
1589276149238941717,1158,1589276149238714923,,0.21410784819,-3.54250453569,1.77607013524,0.303917266476,-0.00458950378338,-0.0455795601209
1589276149244925568,1159,1589276149244823511,,0.190888121613,-3.54246243017,1.77559938772,0.302990808375,-0.0045950105489,-0.0448400137477
1589276149250860069,1160,1589276149250763163,,0.190822533503,-3.54243434289,1.77566247266,0.302990831567,-0.0046010644044,-0.0448392362495
1589276149256900607,1161,1589276149256794465,,0.190300290451,-3.5425625055,1.79873906343,0.303757998953,-0.00526019189846,-0.0448272969517
1589276149262909231,1162,1589276149262816438,,0.213199714711,-3.67509556402,1.79975751824,0.30285631957,-0.00525665769663,-0.0455894214439
1589276149268949611,1163,1589276149268676004,,0.213166457796,-3.6750931428,1.79976640165,0.302856163251,-0.00525984932357,-0.0455900917643
1589276149274900590,1164,1589276149274789610,,0.213195638782,-3.67509184626,1.7997655927,0.302857355074,-0.00460881575936,-0.0455900897578
1589276149280880628,1165,1589276149280782350,,0.213273388984,-3.67507311708,1.79979462529,0.302857287926,-0.0046032879726,-0.0455910942953
1589276149286850627,1166,1589276149286740632,,0.21333621753,-3.67506204159,1.79980979447,0.301948245469,-0.00459584938462,-0.0456029775171
1589276149292880000,1167,1589276149292796523,,0.189932206587,-3.67508155859,1.82250667342,0.300891472397,-0.00458412011195,-0.045761613364
1589276149299213823,1168,1589276149299115171,,0.213165325281,-3.67514729419,1.82292653374,0.301797076943,-0.00457761233108,-0.0456081676431
1589276149304840353,1169,1589276149304767909,,0.213247991286,-3.67517880072,1.82285334413,0.301797446366,-0.00456906754401,-0.0456065799044
1589276149310814833,1170,1589276149310736894,,0.190195560571,-3.67511311963,1.82241556366,0.301801156215,-0.00456300142559,-0.0457483256333
1589276149316971633,1171,1589276149316881599,,0.190185201458,-3.67512121932,1.82240031071,0.301758978778,-0.00456370405982,-0.0439544371909
1589276149323138707,1172,1589276149323044723,,0.190196664339,-3.67512540426,1.82239067488,0.301759230312,-0.00456186762325,-0.0439529009505
1589276149329083093,1173,1589276149328955646,,0.190177384972,-3.67514714173,1.82234884941,0.301759184416,-0.00456302259482,-0.0439530961651
1589276149334869249,1174,1589276149334753797,,0.166850321626,-3.67507201197,1.82194876604,0.301740874153,-0.00521959051278,-0.0431978514136
1589276149340807738,1175,1589276149340691230,,0.166747362956,-3.67507657069,1.82194899642,0.300831144985,-0.00522691203705,-0.043212598588
1589276149346822798,1176,1589276149346722243,,0.190517779061,-3.5425434226,1.79875362379,0.300082007179,-0.00458222221907,-0.0439716512318
1589276149352930884,1177,1589276149352760909,,0.190179991363,-3.67501767205,1.79933507565,0.3001040534,-0.00393392903613,-0.0448747070514
1589276149358924588,1178,1589276149358835285,,0.18997297193,-3.54268617247,1.82180666464,0.300850479986,-0.0039394504423,-0.0439663435772
