%time,field.header.seq,field.header.stamp,field.header.frame_id,field.wrench.force.x,field.wrench.force.y,field.wrench.force.z,field.wrench.torque.x,field.wrench.torque.y,field.wrench.torque.z
1589285559325786946,799,1589285559325677166,,0.0317736093126,0.0879730974588,-0.0302854829537,0.0,0.0,0.0
1589285559331939544,800,1589285559331851154,,0.0153019199837,0.0842498763098,-0.0144808858698,0.0,0.0,0.0
1589285559337910105,801,1589285559337809732,,0.000125725093328,0.215783859358,0.0190146110419,0.000663417629199,0.000381483521434,-0.000435353159346
1589285559343910024,802,1589285559343829731,,-0.000218886986901,0.216336795071,0.0380468006855,0.00170536342401,0.000931189263549,-0.000765096745707
1589285559349914933,803,1589285559349837344,,-0.000221901929575,0.216334915104,0.0380574713038,0.0017053567711,0.000931248729351,-0.000765039195172
1589285559355911760,804,1589285559355842124,,-0.0192989065274,0.216560281959,0.0377443213499,0.00111191199294,0.00066965314051,-0.00057033058593
1589285559361961348,805,1589285559361871757,,0.0147565438526,0.0842393733403,0.0150949945918,0.0016796857133,0.000991890269565,-0.00112812895836
1589285559367980702,806,1589285559367901532,,0.0188392650019,0.21648001234,0.0384307645128,0.00188224155912,0.00112823335649,-0.00147607235105
1589285559374011644,807,1589285559373908644,,0.0191393201845,0.215933387457,0.0193849254364,0.00143884034713,0.000943243542335,-0.00123618997009
1589285559379903270,808,1589285559379784465,,0.000178170820885,0.0827998005352,3.58676998896e-05,0.00108086505368,0.000609109543316,-0.000813496374203
1589285559385843264,809,1589285559385759251,,0.000183217001505,0.0827997894301,3.60812755153e-05,0.00108089684651,0.00060904578277,-0.000813501870036
1589285559391838550,810,1589285559391726483,,0.000185677576422,0.0827997838459,3.63167981984e-05,0.000354976212871,0.000293515885792,-0.000344185929037
1589285559398418388,811,1589285559398298705,,0.000457877453119,0.0835577994697,-0.0146206163976,0.0,0.0,0.0
1589285559401273058,812,1589285559401194809,,0.0153103721239,0.0842490556687,-0.0144767259186,0.000345601343037,0.000323189079827,-0.000425894440996
1589285559406995586,813,1589285559406872676,,0.0153132744629,0.0842485339946,-0.014476692093,0.000524180223961,0.000551728471438,-0.000645736783069
1589285559412904334,814,1589285559412814853,,0.0308766938799,0.0862100078397,-0.014541123508,0.000868873817899,0.00119937551679,-0.00156671148107
1589285559419450859,815,1589285559419372532,,0.0303764383059,0.0855715798397,0.000587677825662,0.00133932518612,0.00123798886042,-0.00179299966474
1589285559424725325,816,1589285559424642357,,0.0303749866475,0.0855720961443,0.000587531519427,0.00133933032076,0.00123799914818,-0.00179298872598
1589285559431093171,817,1589285559430891233,,0.000493394694091,0.215599418148,8.6348593456e-05,0.00126455092055,0.000814956320189,-0.000951381597923
1589285559436961421,818,1589285559436858357,,-0.0188833453218,0.216017854591,0.0186821438055,0.00148507989938,0.000877637125171,-0.000896944908921
1589285559442964260,819,1589285559442824963,,-0.0384559138338,0.21714874255,0.0374689102892,0.000899230151596,0.000542244111909,-0.000384269469663
1589285559449038793,820,1589285559448921295,,-0.0188930903907,0.216017064517,0.0186814266834,0.00148504547671,0.000877700876518,-0.000896939520889
1589285559455053936,821,1589285559454904621,,0.0194731608502,0.21575135602,0.000433378908021,0.00222204684638,0.00112517702591,-0.00190546737607
1589285559460974644,822,1589285559460895327,,0.0194759354261,0.215751111282,0.000430528865811,0.00104006739848,0.000752125854292,-0.000987447738815
1589285559467056300,823,1589285559466911290,,0.0194573248793,0.215752771657,0.000439847901917,0.00103999331419,0.000752259065295,-0.000987424293852
1589285559472960023,824,1589285559472867596,,0.0308585126856,0.0862158946526,-0.0145448153525,0.000608714818531,0.000568012787051,-0.00082958375529
1589285559479005647,825,1589285559478857897,,0.0148951698762,0.0835275822587,0.000305165499875,0.000512437531268,0.000477268792801,-0.000485304091325
1589285559484952811,826,1589285559484847927,,0.0,0.0,0.0,0.00121854430255,0.000992233354968,-0.0011565989609
1589285559490953959,827,1589285559490859211,,0.0308595156203,0.086217039496,-0.0145358985197,0.000763857635856,0.000802371403112,-0.00104056765718
1589285559497091537,828,1589285559496977281,,0.0308603783091,0.0862168055574,-0.0145354545731,0.00060876687805,0.000568079152212,-0.000829500107658
1589285559502994170,829,1589285559502816810,,0.0308623581345,0.0862155318616,-0.0145388055131,0.000608778490545,0.00056803331145,-0.000829522977456
1589285559508963583,830,1589285559508860068,,0.0470888080558,0.0885088278765,0.000898516103088,0.000946159406742,0.00101602729917,-0.00144766132709
1589285559514944549,831,1589285559514825666,,0.0,0.0,0.0,0.000431360474842,0.000465676526148,-0.00053379237154
1589285559521062624,832,1589285559520917328,,0.0147615048254,0.0842392509391,0.0150908265341,0.000852317041969,0.000709734556461,-0.000720300242
1589285559527026456,833,1589285559526940667,,0.0191565557923,0.215931836481,0.0193851771731,0.00214158057789,0.00142072446402,-0.00164999193475
1589285559533012709,834,1589285559532920468,,0.0147624886977,0.0842385204551,0.0150939414324,0.00168000905079,0.000991660866715,-0.00112784913163
1589285559539295974,835,1589285559539193209,,0.0001255029887,0.215783661863,0.0190168536138,0.00172684585772,0.00101905897109,-0.00118692721497
1589285559544936933,836,1589285559544847467,,0.000111338787135,0.215783571888,0.0190179627188,0.00172678774757,0.00101917736958,-0.00118691009798
1589285559550970414,837,1589285559550874240,,0.038575201062,0.216277035021,0.000793980199521,0.00222219673689,0.00160434767156,-0.00231534621241
1589285559556975526,838,1589285559556905032,,0.0385724636639,0.216277487821,0.000803572111818,0.0022221333269,0.00160448630261,-0.00231531100593
1589285559562982824,839,1589285559562891837,,0.0198271665358,0.215950163032,-0.0184858671308,0.0011147419172,0.000790243590739,-0.00103669291755
1589285559569170927,840,1589285559569064187,,0.0198262200007,0.21595036529,-0.0184845195071,0.00111472802715,0.000790254943604,-0.00103669919917
1589285559574983760,841,1589285559574875747,,0.0152940742579,0.0842536654045,-0.0144671222938,0.00143210905796,0.00101313089637,-0.00150338765613
1589285559580982082,842,1589285559580891409,,0.0152943991748,0.0842533412603,-0.0144686664667,0.00143213777199,0.00101309731642,-0.00150338293231
1589285559587254807,843,1589285559587034333,,0.0308594050529,0.0862178126577,-0.0145315467125,0.00167376633262,0.00150908318301,-0.00241203844709
1589285559592925970,844,1589285559592845641,,0.0153007521335,0.0842522253558,-0.0144684475918,7.09877170534e-05,0.000109446663412,-0.000128560162614
1589285559602271546,845,1589285559602143125,,0.015310075038,0.0842503056107,-0.0144697641932,0.000224892510009,0.000385208772534,-0.000407014680126
1589285559607928448,846,1589285559607834876,,0.0149104833462,0.0835248419983,0.000307351849963,0.0,0.0,0.0
1589285559613987898,847,1589285559613878247,,0.0191643449454,0.215931402223,0.0193823153132,0.00120427258969,0.0012669891531,-0.0015057384711
1589285559619930607,848,1589285559619841243,,0.0147638211833,0.0842387924535,0.0150911198731,0.00179352118317,0.0014707484397,-0.00153923730633
1589285559625868897,849,1589285559625786165,,0.0208725408559,0.34851687127,0.0208978004066,0.00143931683477,0.000943024437871,-0.00123580238128
1589285559632181777,850,1589285559632018851,,0.0208616485476,0.348516906592,0.0209080850996,0.0014392847798,0.000943106208988,-0.00123577731329
1589285559637937598,851,1589285559637834215,,0.041002574317,0.348966756272,0.0417330478398,0.00345336152434,0.00193241337536,-0.00248091232545
1589285559643993155,852,1589285559643901106,,0.000107018296976,0.21578291149,0.0190254791013,0.000874015888937,0.000574955714892,-0.000573018864968
1589285559650095128,853,1589285559649870900,,0.000100834281523,0.215782858855,0.019026109843,0.000874001219735,0.000574982213369,-0.000573014650792
1589285559655976295,854,1589285559655882921,,9.00469486318e-05,0.215781899224,0.0190370443631,0.000873986016911,0.000575053262111,-0.000572966539853
1589285559662069663,855,1589285559661955624,,9.10157554848e-05,0.215781752975,0.0190386973938,0.00172685531879,0.00101943446003,-0.00118659095992
1589285559668107242,856,1589285559667916485,,0.0194508491587,0.215753278938,0.000475951841251,0.00198528842851,0.00143590324014,-0.00188880260385
1589285559674102735,857,1589285559673958981,,0.0194553882986,0.215752869351,0.000476097131767,0.00198533392245,0.00143586133269,-0.00188878664368
1589285559679799103,858,1589285559679677285,,0.0198307019824,0.215951547587,-0.0184658897288,0.000524291869091,0.000551937400351,-0.000645467542557
1589285559691961239,859,1589285559691865273,,0.0167611987937,0.0890744939706,-0.0465358924947,0.0,0.0,0.0
1589285559698269740,860,1589285559698181915,,0.030871565867,0.0862157684643,-0.0145178386331,0.00104126956465,0.00109014523084,-0.00157982378283
1589285559701271479,861,1589285559701157113,,0.0303668881425,0.0855748058744,0.000611023527809,0.00208694505622,0.0013380182804,-0.00217363225295
1589285559706992679,862,1589285559706884423,,0.0303123348588,0.0861987948462,0.015745160273,0.00241806566328,0.00177359993233,-0.0028280924818
1589285559713067303,863,1589285559712969954,,0.0303696981859,0.0855738839766,0.000600382295515,0.00133981342646,0.00123815059232,-0.00179252315563
1589285559719061440,864,1589285559718943818,,0.000138847004848,0.21578341136,0.0190196031127,0.00224728625324,0.00135941596823,-0.00119654284165
1589285559724951791,865,1589285559724822132,,0.000137785381954,0.215783509573,0.0190184965392,0.00224726694269,0.001359422795,-0.00119657135322
1589285559730965182,866,1589285559730868243,,0.0216253901663,0.348532220551,-0.0198500458702,0.0,0.0,0.0
1589285559736935931,867,1589285559736853031,,0.0216193421395,0.348532659681,-0.0198489235041,0.0,0.0,0.0
1589285559742930863,868,1589285559742830933,,0.0382658208177,0.216449933914,0.0197993050657,0.00237539226528,0.00157354133094,-0.00202678218202
1589285559749088704,869,1589285559748989641,,0.0382471156415,0.216453030942,0.0198015897363,0.00237531762689,0.00157375172951,-0.00202670629661
1589285559754871252,870,1589285559754760609,,0.0379821758361,0.216981035051,0.0388964996493,0.00371556792156,0.0020765453564,-0.00298259338836
1589285559761005616,871,1589285559760893872,,-0.000270720207141,0.216333259607,0.0380665647786,0.00370354042563,0.00191496532319,-0.00196528230135
1589285559766994909,872,1589285559766888854,,0.000166236017871,0.0827998206226,4.55022977136e-05,0.00396388649803,0.00186793181951,-0.000775060628486
1589285559773010983,873,1589285559772904827,,-0.0149567057277,0.0842996633574,0.0145516384153,0.00807312947725,0.00346639735675,0.000514580413398
1589285559784955705,874,1589285559784864629,,-0.0186051261775,-0.09555772995,0.0835157190341,0.0145935522863,0.00451187127174,0.00356382604853
1589285559790891767,875,1589285559790814979,,-0.0553661387377,-0.100396365473,0.104759963373,0.0188706877581,0.00491740328705,0.00436317268162
1589285559797080956,876,1589285559796924984,,-0.0385109013721,-0.101976845412,0.124592525321,0.0214081103676,0.00557265417141,0.00402880304391
1589285559802990571,877,1589285559802848585,,-0.0204324195728,-0.101455676954,0.124244616413,0.0240703506771,0.0057470674145,0.00364364964195
1589285559809146224,878,1589285559809056328,,-0.00380048940798,-0.108152021874,0.189659146674,0.0271851774038,0.00541041423871,0.00186671107761
1589285559815078734,879,1589285559814979652,,-0.00422449385396,-0.109916151219,0.212001797681,0.034330514087,0.00518147231123,-0.000781438223326
1589285559821064283,880,1589285559820959075,,0.0155714785743,-0.229856847825,0.222055855489,0.0408670548339,0.00482039834395,-0.00505027913802
1589285559826996050,881,1589285559826907658,,0.0356924983449,-0.231639486339,0.244495604423,0.0462358863721,0.00436188256346,-0.00648721637961
1589285559832935165,882,1589285559832863796,,0.0353597540051,-0.234476776755,0.288544823639,0.050433805268,0.00441536290133,-0.00496449850842
1589285559839574647,883,1589285559839465568,,0.0140984438152,-0.236855347459,0.33272198656,0.052873099715,0.00501676477046,-0.00431240982856
1589285559845028761,884,1589285559844934393,,0.0140993842438,-0.236856988599,0.332720778423,0.0528730377259,0.00501814253016,-0.00431156676166
1589285559851002000,885,1589285559850933851,,-0.00759399236606,-0.239053449969,0.377352204052,0.05887567964,0.00450382132188,-0.00125224721709
1589285559857069388,886,1589285559856972705,,-0.0503121608668,-0.240113819224,0.399491255827,0.0668979445235,0.00633921938805,0.00340894902048
1589285559863019410,887,1589285559862852737,,-0.0955844782244,-0.367243862111,0.449525813437,0.0738543898269,0.00640982745876,0.0106348929109
1589285559869022529,888,1589285559868950406,,-0.144365608473,-0.626906204349,0.547573728657,0.084247876365,0.00771321572842,0.0206492346849
1589285559875074986,889,1589285559874989293,,-0.144381463178,-0.626912571305,0.547562258841,0.0842475208854,0.00771228210458,0.0206510336632
1589285559881004115,890,1589285559880923500,,-0.189393170027,-0.627791561665,0.569582358848,0.0877748424007,0.00834084168948,0.0247071492762
1589285559887109996,891,1589285559887015260,,-0.191312825557,-0.758176872602,0.595382950554,0.0940122785812,0.00838235107295,0.0283388006187
1589285559892844181,892,1589285559892778598,,-0.191332721401,-0.758164637424,0.595392137556,0.0940129418135,0.00837919935879,0.0283375324213
1589285559899387554,893,1589285559899276137,,-0.147180747719,-0.758527732796,0.618620266967,0.099299939803,0.00778763252715,0.0220725402138
1589285559902281519,894,1589285559902191902,,-0.125419314447,-0.75902092421,0.641581590409,0.099156282091,0.00778152018726,0.0179922889151
1589285559908065100,895,1589285559907942773,,-0.1254210005,-0.759029530145,0.641571079443,0.0991561887286,0.00778144159758,0.0179928374199
1589285559914142237,896,1589285559914039063,,-0.0800599121585,-0.629276010859,0.639071334551,0.102899596056,0.0065548399417,0.00742732885857
1589285559919951139,897,1589285559919852531,,-0.0800589931255,-0.629285287232,0.639062315362,0.102899485598,0.00655563901443,0.00742815385964
1589285559926019710,898,1589285559925888708,,-0.0351543917369,-0.373993583224,0.655508916397,0.104688659925,0.00471419254409,0.000167676508988
1589285559932174064,899,1589285559931932489,,-0.0351631187217,-0.373997196943,0.655506386535,0.104688498133,0.0047176623444,0.000171067906616
1589285559938042033,900,1589285559937965367,,-0.0132237718644,-0.374058600192,0.655889245213,0.105679200242,0.00472922836571,-0.00304355860324
1589285559944196156,901,1589285559944037863,,-0.0145428508476,-0.375863703346,0.724918000441,0.110707551438,0.00474136738625,-0.00212119547226
1589285559951447490,902,1589285559951329200,,-0.0145386539187,-0.375869452356,0.724915103785,0.110707410946,0.0047452781328,-0.0021197823831
1589285559964817248,903,1589285559964723637,,-0.0830305473725,-0.632823877529,0.775898868061,0.121252495623,0.00538365079245,0.00615924801949
1589285559971094009,904,1589285559971000871,,-0.129666282324,-0.892854856461,0.803534750914,0.129253854358,0.00602179180816,0.0129131259852
1589285559976795049,905,1589285559976697744,,-0.129708485144,-0.892787166975,0.803603147563,0.129254099746,0.00601692374027,0.0129129389911
1589285559982924793,906,1589285559982846557,,-0.130208338879,-0.893224557371,0.82642178512,0.131843607457,0.0066407047897,0.013831062016
1589285559989083681,907,1589285559988944115,,-0.130211584197,-0.89321013858,0.826436857845,0.131844267313,0.0066365118148,0.0138267838486
1589285559994902661,908,1589285559994829951,,-0.107015336781,-0.763125183204,0.824193280694,0.131904291604,0.00474793980079,0.00881484876314
1589285559998419791,909,1589285559998305447,,-0.0846325206703,-0.763146177173,0.824546842111,0.132871326309,0.00537584602338,0.0055396457323
1589285560001356969,910,1589285560001263829,,-0.0621434660699,-0.763170346206,0.824928238281,0.131986403887,0.00474085258393,0.00394400894284
1589285560007037917,911,1589285560006956160,,-0.0393297661416,-0.762702430286,0.802490271009,0.129451139269,0.0047354281168,0.000615081494161
1589285560013057848,912,1589285560012947317,,-0.0169513665614,-0.762752369762,0.802901005742,0.12772673614,0.00410585934293,-0.00441756260317
1589285560019233258,913,1589285560018926068,,-0.0166216870972,-0.633362671105,0.800010322614,0.125034238034,0.00285875800995,-0.0070206839611
1589285560025060328,914,1589285560024947237,,0.0281443695739,-0.504978380567,0.797930389943,0.124222718737,0.00349356445513,-0.0110152737754
1589285560031120049,915,1589285560031035376,,0.0281380463792,-0.505007975349,0.797911882824,0.1251848536,0.00223781968904,-0.0127176555517
1589285560037086103,916,1589285560036948625,,0.0273355725033,-0.506067688043,0.843962546255,0.13130223229,0.00286773685108,-0.0126488218508
1589285560043071555,917,1589285560042987914,,0.00480525713635,-0.634576072421,0.846263494421,0.13397461388,0.0028731722183,-0.0101684045952
1589285560049058239,918,1589285560048944552,,-0.0179925532192,-0.635047921577,0.868743348615,0.136473667962,0.00413005799713,-0.00597063816793
1589285560055125817,919,1589285560054979345,,-0.0183005781279,-0.764391881078,0.871425789411,0.137298862708,0.00476728263124,-0.00165582201127
1589285560060982373,920,1589285560060909493,,-0.0867312583618,-0.894732494156,0.895614475831,0.136950247311,0.00539048680762,0.00910018027428
1589285560067021842,921,1589285560066859107,,-0.08661907042,-0.894772502658,0.895585362609,0.136950019498,0.00540309149537,0.00909613267516
1589285560073013521,922,1589285560072921335,,-0.131795146329,-0.894707954633,0.894864434635,0.136902807263,0.00539659757187,0.0122558499465
1589285560085122357,923,1589285560084985448,,-0.109693596685,-1.0252408464,0.897556895137,0.136914224716,0.00539239839901,0.0115224827252
1589285560090998456,924,1589285560090905091,,-0.0415486628344,-0.894777767633,0.896444343557,0.138919539678,0.00475965951009,0.00166863481157
1589285560097035202,925,1589285560096933041,,-0.0415737908455,-0.894763919731,0.896457000525,0.138919928164,0.0047502599185,0.00166306786973
1589285560102969870,926,1589285560102870959,,-0.0182909714596,-0.764281531294,0.871522774662,0.138216098285,0.00411405750765,-0.00165938185469
1589285560108963366,927,1589285560108809424,,0.0490853060387,-0.764438187163,0.872912128671,0.137464311269,0.00349181725127,-0.00900273887944
1589285560115049456,928,1589285560114958124,,0.0490640238482,-0.764429247722,0.872921153618,0.135744309918,0.00222377573353,-0.0133242363424
1589285560120871681,929,1589285560120795826,,0.0269023200872,-0.763893288062,0.849557637563,0.134083273766,0.0015997635523,-0.0143305127321
1589285560126958400,930,1589285560126853118,,0.0718402358345,-0.634783951361,0.847715333601,0.131391330633,0.00223022404138,-0.0157911434086
1589285560132962543,931,1589285560132867367,,0.0494986441622,-0.634696020048,0.84721838214,0.128598916257,0.00223468522426,-0.0142427729321
1589285560145033203,932,1589285560144941661,,0.00473299247132,-0.634531428584,0.846297376279,0.126618409401,0.00350297353571,-0.00854220587266
1589285560151103167,933,1589285560151007214,,-0.018097274266,-0.634944048784,0.868817094682,0.130943479343,0.00349984050479,-0.00433041986648
1589285560156995124,934,1589285560156928764,,-0.0183286288312,-0.764319175997,0.871488969544,0.134549725756,0.00476669831454,-0.001697958336
1589285560163109769,935,1589285560163009092,,-0.0867158933792,-0.894676942103,0.895671457454,0.139684643906,0.00540064185881,0.0100256566284
1589285560169063067,936,1589285560168948909,,-0.0866721670314,-0.894726826795,0.895625857972,0.139684245349,0.00540818378404,0.0100271439613
1589285560175001122,937,1589285560174913837,,-0.10920469191,-1.0249206526,0.874619969547,0.137995446011,0.00540798304682,0.0107058027972
1589285560181072148,938,1589285560180986182,,-0.108682094034,-0.894401666378,0.872250518214,0.133431105951,0.00540183920714,0.00974489633318
1589285560186937750,939,1589285560186843323,,-0.10868817077,-0.894394215343,0.872257401232,0.133431640389,0.00539665262113,0.00974045124216
1589285560192940262,940,1589285560192855740,,-0.0857342493218,-0.893892011543,0.849865145525,0.130832547395,0.00538929996533,0.00981585610899
1589285560202251966,941,1589285560202150203,,-0.039908199949,-0.76334042338,0.825192905146,0.126500242443,0.0047428216026,0.00315109052789
1589285560207995914,942,1589285560207893233,,-0.0400593243826,-0.634520651337,0.845370083296,0.12548985077,0.00410518084376,0.000582399527568
1589285560214070302,943,1589285560213945330,,-0.0181702747573,-0.635059478737,0.868731201245,0.130074947428,0.00348898013986,-0.00605126635162
1589285560219955246,944,1589285560219864248,,-0.0181859412442,-0.635018636408,0.868760728504,0.130075085678,0.00349276919917,-0.00604610654866
1589285560226246453,945,1589285560226148830,,-0.0180659963674,-0.76384491366,0.848599459906,0.129265621302,0.00349435206648,-0.00434842166138
1589285560232130607,946,1589285560231970559,,-0.0180812955717,-0.763840020474,0.848603538511,0.129265706637,0.0034964894254,-0.00434416473666
1589285560237985306,947,1589285560237900036,,-0.040537453559,-0.763775655395,0.848194865998,0.131918896543,0.00474504437669,-0.000149959813921
1589285560244110970,948,1589285560244007487,,-0.0404513592653,-0.76381626214,0.848162409474,0.131918408748,0.00475855397572,-0.000150986187096
1589285560249987499,949,1589285560249911286,,-0.063735562728,-0.894297364709,0.873166970935,0.129823461758,0.00539157656579,0.00651759415182
1589285560256041799,950,1589285560255865138,,-0.0636879987857,-0.894344217805,0.873122452182,0.12982288518,0.0054012816208,0.00652104245426
1589285560261927894,951,1589285560261843278,,-0.0867172706835,-0.894852216161,0.895496210372,0.130538099936,0.00540619549969,0.00983187278056
1589285560267983427,952,1589285560267886184,,-0.108780345161,-0.894405912549,0.872233916454,0.12974956263,0.00603559777387,0.0113919140665
1589285560274266421,953,1589285560274017441,,-0.131897955365,-0.894886181386,0.89467105284,0.132324141588,0.00603780825133,0.013043165486
1589285560280054645,954,1589285560279974788,,-0.109311087364,-0.894822841565,0.89511407319,0.133278562819,0.00540183310753,0.00976225981463
1589285560286452652,955,1589285560286349799,,-0.0417227510543,-0.894834908681,0.896379218957,0.1352034641,0.005397545654,0.00420465312074
1589285560292112522,956,1589285560292029029,,-0.0418262063654,-0.89479458804,0.896414647138,0.135204254209,0.00537971977273,0.00420209121024
1589285560298470903,957,1589285560298340826,,-0.0190475489507,-0.764838303176,0.894340485339,0.134355470652,0.00474055891931,0.000898323363225
1589285560301412961,958,1589285560301236069,,0.00379375089253,-0.76436089635,0.871937908295,0.131827833696,0.00473201000232,-0.00244536127907
1589285560307113388,959,1589285560306990585,,0.00378782773109,-0.764355141213,0.871942979098,0.1318471029,0.00473231816824,-0.00329976605595
1589285560313115608,960,1589285560313019055,,0.00424677759564,-0.763850387103,0.849085165707,0.126516667379,0.00410000973643,-0.00424311099987
1589285560319276147,961,1589285560319048326,,0.00426765800142,-0.763874042312,0.849063779818,0.126516558503,0.00410214467708,-0.00424429369674
1589285560325053138,962,1589285560324952010,,-0.0629540437649,-0.763746878193,0.847780846881,0.128242232766,0.00410184406958,0.000491703266529
1589285560331168922,963,1589285560331064892,,-0.0628980489579,-0.763785969231,0.847749785348,0.128241917084,0.00411163764825,0.000492240054033
1589285560337085406,964,1589285560336991359,,-0.0633374033291,-0.764295829,0.870604813597,0.129882350134,0.00474959696904,0.00309697767998
1589285560343073441,965,1589285560342990561,,-0.132469538722,-0.895192693917,0.917661672504,0.133140939176,0.00538637942776,0.00961498178606
1589285560349082077,966,1589285560348986696,,-0.132416365088,-0.895237101829,0.917626024522,0.133140468376,0.00539527630077,0.00961651273023
1589285560355129127,967,1589285560355017215,,-0.109863535591,-1.02530978187,0.897457360004,0.134155760091,0.00665117477155,0.0132139652221
1589285560361019529,968,1589285560360940282,,-0.110432631914,-1.1562635835,0.899565100547,0.132293879693,0.0066471287309,0.0157526395735
1589285560367207684,969,1589285560366997886,,-0.110462235336,-1.15625913168,0.899567188058,0.132293665148,0.00664569006851,0.0157550481877
1589285560373002078,970,1589285560372935520,,-0.110500492791,-1.0256968593,0.920310429025,0.129417068839,0.00663497344472,0.0139632214283
1589285560385034500,971,1589285560384935867,,-0.110654819839,-1.02565358713,0.920340112081,0.128539396327,0.00599614926162,0.0113700259685
1589285560391084262,972,1589285560390949984,,-0.110736541132,-1.02562490078,0.920362251078,0.128539731281,0.00598714443153,0.011370984494
1589285560397131977,973,1589285560397026980,,-0.0877073070936,-1.02520785194,0.897949899496,0.128727296985,0.00535200962543,0.00809253131057
1589285560403094375,974,1589285560402895618,,-0.0871953998054,-0.894685474634,0.895616380112,0.12786497937,0.00598136105946,0.00550359267713
1589285560409067216,975,1589285560408978940,,-0.0415648342459,-1.0244051161,0.853188852849,0.126369842376,0.00598082871604,0.00318233951808
1589285560415134569,976,1589285560414985277,,-0.0415329816846,-1.02437878736,0.853222015308,0.124553152207,0.0053500056166,0.00229007413299
1589285560421223915,977,1589285560421074682,,-0.0418676306436,-1.15539656061,0.855418553065,0.122720165223,0.00472117827266,0.00224687266015
1589285560427236936,978,1589285560427128955,,-0.0638944640038,-1.02437339339,0.852774696973,0.121774017048,0.00536029712642,0.00379056316735
1589285560433177489,979,1589285560433065865,,-0.0854557708676,-0.893288667229,0.827080312439,0.120058240354,0.00599269928666,0.0053181172879
1589285560445154647,980,1589285560445015301,,-0.085763259889,-1.02403312776,0.829367684423,0.118213864282,0.00601011214035,0.00612398258574
1589285560451028749,981,1589285560450897531,,-0.0857219615748,-1.02405163323,0.829349104576,0.120028713248,0.00601862247269,0.00701385319803
1589285560457100881,982,1589285560456962607,,-0.0856671250497,-1.02408403977,0.829314754875,0.12001521441,0.00602141449002,0.00786914596369
1589285560463033248,983,1589285560462921397,,-0.108736871968,-1.15514417518,0.831054909507,0.118179899999,0.00663390736162,0.00853733997236
1589285560469246789,984,1589285560469021223,,-0.108756286628,-1.15512199266,0.831083201358,0.116339821231,0.00662308126737,0.00933667982134
1589285560475171806,985,1589285560475060980,,-0.086176161164,-1.15511545489,0.831509677701,0.114505858951,0.00599623363689,0.00942415592764
1589285560481111084,986,1589285560480981411,,-0.0857865107326,-1.15471885594,0.808745162893,0.111921017369,0.0059846539065,0.00851758235565
1589285560487121674,987,1589285560487026724,,-0.0859101096005,-1.15467203428,0.808798891261,0.109151234399,0.00596728600621,0.0101404715959
1589285560493309325,988,1589285560493204984,,-0.108690686848,-1.28572058541,0.787599299823,0.107465855979,0.00595517226559,0.010805765274
1589285560502389221,989,1589285560502287872,,-0.0860995075966,-1.28571264137,0.788047549457,0.102915150224,0.00654832077041,0.00914035531012
1589285560508075165,990,1589285560507961746,,-0.0860947363616,-1.28572768892,0.788023519898,0.1029151072,0.00654862250297,0.00914062355631
1589285560514178837,991,1589285560514056884,,-0.108256827044,-1.28536724277,0.764765148469,0.103043994629,0.00655093932216,0.00984872617946
1589285560520164659,992,1589285560520051703,,-0.108172969528,-1.28539820722,0.764724969668,0.103943757145,0.00655888130775,0.011559874375
1589285560532412170,993,1589285560532073117,,-0.107024187264,-1.15354034758,0.740029079836,0.103166986567,0.00656584882983,0.012378412789
1589285560538177814,994,1589285560538073477,,-0.106521723674,-1.15315109752,0.717334150666,0.100557770668,0.00656021260046,0.0139926244011
1589285560544156614,995,1589285560543989346,,-0.107080703867,-1.28475275837,0.719231875935,0.0987436027346,0.00717124366606,0.0130928086618
1589285560550254059,996,1589285560550139890,,-0.107017729385,-1.28476646947,0.719216756721,0.0959929357594,0.00716304049908,0.0138565274263
1589285560556105324,997,1589285560555999873,,-0.10706586029,-1.28474268408,0.71925208091,0.0959929196441,0.00716069916757,0.0138578491418
1589285560562151977,998,1589285560562047908,,-0.129784376448,-1.28475566759,0.718820688918,0.0969059564511,0.0071665663416,0.0145917866658
1589285560568121446,999,1589285560567997820,,-0.107084234086,-1.28476976593,0.719200969126,0.0969047728292,0.00654708270811,0.0138872729939
1589285560574134344,1000,1589285560574026581,,-0.1071418158,-1.28476155402,0.719207062848,0.0969051168179,0.00654264549897,0.0138869638389
1589285560580157275,1001,1589285560580073164,,-0.0840688163342,-1.15314729423,0.717742783005,0.0969178702802,0.00653559663308,0.0123365093236
1589285560586425210,1002,1589285560586315259,,-0.0850807043171,-1.41660445813,0.721311319747,0.0951028601347,0.00713994250082,0.0106113929469
1589285560592217440,1003,1589285560592112194,,-0.0841991471072,-1.28439677951,0.696965864709,0.0934358378888,0.0071257522949,0.00972014109534
1589285560598541106,1004,1589285560598442324,,-0.105794153207,-1.15234455211,0.671908450582,0.0917416480288,0.00650039264807,0.00953832433876
1589285560601527889,1005,1589285560601406484,,-0.105822093338,-1.15231618585,0.671952697739,0.0917413585086,0.00650035829537,0.00954113199948
1589285560607234607,1006,1589285560607052246,,-0.0842402450314,-1.41597423679,0.675835880997,0.0908556155704,0.00711246609878,0.0079894905522
1589285560613262196,1007,1589285560613144131,,-0.0837372191548,-1.28402713589,0.674239281981,0.0908652176284,0.00711509656073,0.00716368808828
1589285560625316416,1008,1589285560625152787,,-0.0836068982021,-1.28408068502,0.674153467594,0.0908756338154,0.00712366564731,0.00632510669886
1589285560631139689,1009,1589285560631032352,,-0.0608427242961,-1.28411476194,0.674554222765,0.0917824924231,0.00713186240068,0.0064858438277
1589285560637048774,1010,1589285560636958125,,-0.0835363814012,-1.28410494235,0.674116004082,0.0917730507412,0.00713347345503,0.00718636885426
1589285560643119953,1011,1589285560643025515,,-0.0603450063372,-1.15241295023,0.672682922117,0.0917653100567,0.00652058379453,0.00731248110516
1589285560649296093,1012,1589285560649099542,,-0.0829941832808,-1.15240674782,0.672251952951,0.0899500629442,0.00651103467671,0.00629842027166
1589285560655194972,1013,1589285560655107023,,-0.0830173818729,-1.15240038246,0.67226000026,0.0899504583961,0.00650788156732,0.00629603097181
1589285560661127643,1014,1589285560660984065,,-0.0604216041585,-1.15239342378,0.672709497437,0.0890399855196,0.00649853305939,0.00641208140804
1589285560667103145,1015,1589285560667011604,,-0.0836079427939,-1.28407588161,0.674162487176,0.0890377917911,0.00710898301329,0.00711061119831
1589285560673151041,1016,1589285560673029561,,-0.0841363667611,-1.28437070915,0.697021487065,0.0898094347448,0.00710849704549,0.00712934569717
1589285560685157173,1017,1589285560685064440,,-0.0837433846639,-1.28403428536,0.674224900517,0.0899474899024,0.0071046452838,0.00713196741203
1589285560691146335,1018,1589285560691038561,,-0.0837392648739,-1.28402378269,0.674245413726,0.0890388643171,0.00709882887566,0.00710732494327
1589285560697222091,1019,1589285560697117179,,-0.0837532184749,-1.28402648191,0.674238540185,0.0890390684964,0.00709726954105,0.00710632425935
1589285560703150524,1020,1589285560703047055,,-0.0841785415023,-1.28436390229,0.697028937571,0.0889023573184,0.00709679781415,0.00626325871638
1589285560709272927,1021,1589285560709118141,,-0.0841150944974,-1.2843832566,0.69700093344,0.0889206510952,0.00771302222185,0.00543616520179
1589285560715244035,1022,1589285560715119056,,-0.0836416752982,-1.28405400434,0.674199971087,0.0881422488862,0.00709666455955,0.00541536426232
1589285560721106181,1023,1589285560721008719,,-0.0830328726511,-1.15236349135,0.672321322735,0.0881349680346,0.00649167953162,0.00541507464173
1589285560727191613,1024,1589285560727074788,,-0.10494873937,-1.02097276797,0.669774514521,0.0881306426619,0.00589047450235,0.00528111675385
1589285560733384178,1025,1589285560733273103,,-0.0829743155995,-1.15237624522,0.67230669157,0.0890870213656,0.00589915561103,0.00295361343477
1589285560745250943,1026,1589285560745082898,,-0.0824897679444,-1.1520042562,0.649639488189,0.0892370411203,0.00529056078658,0.00212807883233
1589285560751288713,1027,1589285560751140601,,-0.0598611393973,-1.02099155148,0.67056657784,0.0891257541534,0.00528794997177,0.000600879078925
1589285560757165992,1028,1589285560757070558,,-0.0369474435432,-1.02057957285,0.648339346269,0.089337920281,0.00528967982512,-0.00258407666223
1589285560763283485,1029,1589285560763119008,,-0.0369533907753,-1.02058084166,0.648337010017,0.0893379803525,0.00528702289427,-0.00258743510841
1589285560769247246,1030,1589285560769137822,,0.00836885540582,-1.02023961232,0.626570888311,0.0877592500654,0.00467062755261,-0.00648640900679
1589285560775136514,1031,1589285560775000208,,0.00832731736717,-1.02023598935,0.626577340936,0.0877593072852,0.00466503463748,-0.00648965886869
1589285560781146106,1032,1589285560781055179,,0.00857757113209,-0.889103571712,0.624124751759,0.086968213197,0.0040550383239,-0.0106418920516
1589285560787101669,1033,1589285560787014253,,0.00858053086129,-0.88909907707,0.624131113917,0.0869679953604,0.00405364902364,-0.0106442013089
1589285560793214800,1034,1589285560793105956,,0.00925931966948,-0.757973956349,0.59865178598,0.0862255943982,0.00345263414555,-0.0114850091381
1589285560805394579,1035,1589285560805263643,,0.0542606976923,-0.757585366995,0.576885191674,0.0855798100461,0.00466795290617,-0.0145357833212
1589285560811171428,1036,1589285560811021347,,0.0542915920625,-0.757588888671,0.576877660137,0.0855794084253,0.00467031389947,-0.0145373893899
1589285560817193217,1037,1589285560817086083,,0.0546897648285,-0.757016068151,0.554334626757,0.0838636723544,0.00466479378147,-0.0137114118774
1589285560823219395,1038,1589285560823098625,,0.0543228933767,-0.757586232916,0.576878201116,0.0845979253863,0.00466700389876,-0.0128849263261
1589285560829101477,1039,1589285560828991813,,0.032406872929,-0.756924118398,0.553853860196,0.0828976182314,0.00466183927934,-0.0121920513389
1589285560835209871,1040,1589285560835113574,,0.0321200494164,-0.627568071545,0.573052340301,0.0836330672966,0.00466580650628,-0.0113576887357
1589285560841186984,1041,1589285560841107429,,0.0324980065151,-0.626903738169,0.550486108418,0.0819487999765,0.00465869244923,-0.0113621665718
1589285560847228917,1042,1589285560847123417,,0.0324980321781,-0.626901895109,0.550488205806,0.0819487378627,0.00465804001531,-0.0113628820311
1589285560853235077,1043,1589285560853130297,,0.0321252114689,-0.627560048886,0.573060836694,0.0826563815012,0.00465810427499,-0.0097159089278
1589285560865128854,1044,1589285560865021569,,0.0104053796222,-0.626818270166,0.55003649022,0.0818941090846,0.00465349298271,-0.00984978099661
1589285560871265229,1045,1589285560871155282,,-0.010886058586,-0.497092112358,0.523123841149,0.082015570901,0.00404537535291,-0.00915993060281
1589285560877023170,1046,1589285560876924606,,0.0107922747096,-0.626158544251,0.527492416777,0.0820110772231,0.00404293118881,-0.00902879329043
1589285560883150784,1047,1589285560882992969,,0.0103932673646,-0.626824875406,0.550029191843,0.0827784426631,0.00404485200697,-0.00902554902091
1589285560889011848,1048,1589285560888910847,,0.0325248128181,-0.498006712893,0.546611103649,0.0836872437191,0.00465382986012,-0.00889191415284
1589285560895026109,1049,1589285560894916789,,-0.0113042893038,-0.497848542732,0.545728654511,0.0836373474135,0.00404367384178,-0.00751029045024
1589285560898476739,1050,1589285560898360514,,0.0321598960466,-0.498731278421,0.569267718332,0.084454707513,0.00465488074213,-0.00888841221561
1589285560904288224,1051,1589285560904170896,,0.032521517511,-0.497992030382,0.546624676302,0.0828417264266,0.00525852660267,-0.0105442167676
1589285560910119397,1052,1589285560909969594,,0.0325401297669,-0.497991520751,0.546624032935,0.0828414493648,0.00526009088508,-0.0105456131938
1589285560916109430,1053,1589285560916027216,,0.0325505949918,-0.49798767377,0.546626914546,0.0846051326211,0.00465775273488,-0.00889007886152
1589285560922106583,1054,1589285560921976740,,0.0325670429376,-0.497998225274,0.546616322026,0.0846049840726,0.00466086840475,-0.0088898596343
1589285560928149843,1055,1589285560928056280,,-0.0112530726972,-0.497844764367,0.54573315985,0.0845815345327,0.00405197772634,-0.00833135785848
1589285560934260505,1056,1589285560934139770,,0.010669787503,-0.497916230501,0.546149397445,0.0836908699823,0.00465955915721,-0.00902859995462
1589285560940066345,1057,1589285560939975824,,-0.0112350040796,-0.497854394534,0.545724746863,0.0836628448238,0.00405102287393,-0.00833831615478
1589285560946382493,1058,1589285560946242000,,0.010674841706,-0.497919816348,0.546146029495,0.0845822331971,0.00466190585002,-0.00819999867873
1589285560958124998,1059,1589285560958017669,,0.0102910416482,-0.498655926523,0.568795516319,0.0853237213868,0.00466184378809,-0.00736373988904
1589285560964253161,1060,1589285560964108321,,-0.0112304265893,-0.497846933707,0.545731647359,0.0845107113872,0.00465599292018,-0.00585590691087
1589285560970332507,1061,1589285560970182401,,-0.0108751117618,-0.370500002714,0.541496963092,0.0845107969775,0.0046545965053,-0.00585578180925
1589285560976300711,1062,1589285560976137050,,-0.0108795349011,-0.370489102755,0.541504331991,0.0844875922727,0.0046525995709,-0.0050325302933
1589285560982189311,1063,1589285560982096406,,-0.0330849367152,-0.371221445702,0.563912186368,0.0851947426304,0.00465359338233,-0.00267700706006
1589285560988024690,1064,1589285560987918275,,-0.0548748316473,-0.371217815095,0.563571328239,0.0851471377009,0.00526068428919,-0.000338836567455
1589285560994255664,1065,1589285560994102430,,-0.0550642384704,-0.497792798551,0.544997713316,0.0852871467975,0.00586997656966,0.000495304941074
1589285561000391069,1066,1589285561000240844,,-0.0550528696404,-0.49779706465,0.54499496524,0.0843517557676,0.0058649775915,0.00130065976335
1589285561006335759,1067,1589285561006237465,,-0.0775819846583,-0.498555925166,0.567307277557,0.0860054771109,0.00647330585947,0.00367434143006
1589285561012131008,1068,1589285561012015586,,-0.101009389696,-0.628054771646,0.593440967753,0.084895952195,0.00646652792019,0.00681390185635
1589285561018191898,1069,1589285561018068714,,-0.101000220582,-0.62805846778,0.593438616619,0.0848959336043,0.0064672647962,0.00681343411538
1589285561024074056,1070,1589285561023985336,,-0.0783723627411,-0.627373014201,0.571071287609,0.0850402906562,0.00707780678424,0.00778314231806
1589285561030277996,1071,1589285561030162709,,-0.0995363412956,-0.49860558583,0.567009997831,0.0850265366211,0.0070780870007,0.00929952811711
1589285561036175233,1072,1589285561036020866,,-0.0995343496689,-0.498603151722,0.567012487894,0.0850266202141,0.00707783761207,0.00929895361134
1589285561042122469,1073,1589285561042039468,,-0.12322725227,-0.628108788321,0.593135266722,0.085779377408,0.00647338004777,0.0108405942703
1589285561048142372,1074,1589285561048013543,,-0.123220579832,-0.628105560557,0.593140070979,0.0857865356577,0.00708315814366,0.0108402423853
1589285561054172924,1075,1589285561054061706,,-0.122172431569,-0.499373929379,0.589522575295,0.0857818334554,0.00708324411283,0.0116747752072
1589285561060107240,1076,1589285561060015434,,-0.122168808429,-0.499373490948,0.589523697527,0.085781994805,0.00708278715534,0.0116738668681
1589285561066622317,1077,1589285561066496842,,-0.123203108334,-0.628106376531,0.593142836217,0.0857821477792,0.00708315756874,0.0116725179591
1589285561072212500,1078,1589285561072074435,,-0.123200014931,-0.628102787046,0.593147279791,0.0848576322403,0.00646711684923,0.0116422857333
1589285561078271331,1079,1589285561078068589,,-0.123199007892,-0.628102370089,0.593147930487,0.084857641181,0.00646717530047,0.011642188098
1589285561084229174,1080,1589285561084117366,,-0.12319284251,-0.628099715279,0.593152022266,0.0848693704347,0.00707628516889,0.010808041659
1589285561090417402,1081,1589285561090300592,,-0.100446453417,-0.627397865499,0.570761848069,0.0841033601369,0.00707053750354,0.0100902001505
1589285561096323611,1082,1589285561096128653,,-0.100442830519,-0.627398316748,0.570761989614,0.0841034265875,0.00707051815408,0.0100896598187
1589285561102471729,1083,1589285561102364450,,-0.100440058214,-0.627396650168,0.570764309424,0.0850215068306,0.00707656848241,0.0101156305953
1589285561108138443,1084,1589285561108019692,,-0.100946259543,-0.62804291427,0.593464258167,0.0839719382827,0.00706927050066,0.00926107152193
1589285561114183923,1085,1589285561114084800,,-0.100434684856,-0.627397664804,0.570764139663,0.0832013457399,0.007063981452,0.00923892517342
1589285561120178115,1086,1589285561120084711,,-0.10043166771,-0.62739941809,0.57076274331,0.0840984689597,0.00707114662549,0.0109215924721
1589285561129297174,1087,1589285561129178844,,-0.123647853567,-0.757351031476,0.573727831576,0.0850165242695,0.00768774598326,0.0124709627893
1589285561135159227,1088,1589285561135063377,,-0.123640834038,-0.757350385681,0.573730196837,0.0850166206205,0.0076879642142,0.0124701713936
1589285561141210346,1089,1589285561141111842,,-0.123640965733,-0.757349605177,0.573731198756,0.0840917702705,0.00707198844915,0.0124398323923
1589285561147159815,1090,1589285561147049717,,-0.123632762322,-0.757349809295,0.573732697114,0.0840918737735,0.00707225867911,0.0124389790678
1589285561153332859,1091,1589285561153215917,,-0.122627071536,-0.627455425033,0.570465968265,0.0831823441436,0.00706687161661,0.0132340132072
1589285561165242189,1092,1589285561165137123,,-0.122612826902,-0.627456054669,0.570468337564,0.082267478591,0.00706064862081,0.012378918327
1589285561171223030,1093,1589285561171111303,,-0.122605335422,-0.62745385393,0.570472368254,0.0804419358676,0.00704826214727,0.0131403238074
1589285561177284970,1094,1589285561177174685,,-0.122074446005,-0.626808278509,0.547908954333,0.0796758216255,0.00704280254076,0.0131139188451
1589285561183200767,1095,1589285561183109423,,-0.12153596713,-0.626155313911,0.525385908419,0.0770869759342,0.00702275209456,0.0122058692919
1589285561189012967,1096,1589285561188930801,,-0.121529321174,-0.626154744528,0.525388124353,0.0770883750047,0.00702220591451,0.0113873974254
1589285561195175971,1097,1589285561195022498,,-0.121517291424,-0.626168638024,0.5253743483,0.0770803213871,0.00641951161927,0.0113857092136
1589285561198479300,1098,1589285561198359996,,-0.0993264095945,-0.626106486675,0.525665130537,0.078915502294,0.00643249122752,0.00910720320101
1589285561201453170,1099,1589285561201366714,,-0.100214017017,-0.756200316622,0.528994778405,0.0798538707345,0.00704657045741,0.00749553749846
1589285561207059860,1100,1589285561206978398,,-0.100208677229,-0.756199440952,0.52899704173,0.0798538795032,0.00704688894915,0.00749514464923
1589285561213373040,1101,1589285561213220422,,-0.0550604758573,-0.626046132897,0.526328816846,0.0789808252769,0.00703993222205,0.00363308694928
1589285561225316737,1102,1589285561225179195,,-0.032482911528,-0.497050108149,0.522757849823,0.0781570949976,0.00523405241142,-0.0019774192037
1589285561231087945,1103,1589285561231018377,,-0.0324826020934,-0.4970480725,0.522759804584,0.0781571024415,0.00523384426745,-0.00197767589823
1589285561237135631,1104,1589285561237058122,,-0.0314027190643,-0.24441833047,0.514038042562,0.0809739133366,0.00464568362842,-0.00522770407631
1589285561243327355,1105,1589285561243199423,,0.033148282064,-0.369850726352,0.519645879563,0.0819799710967,0.00465275813633,-0.00810769101132
1589285561249272733,1106,1589285561249166860,,0.0331485039549,-0.369847573371,0.519648109485,0.081979966891,0.00465265406154,-0.00810779326041
1589285561255182124,1107,1589285561255100400,,0.0116186909325,-0.244501086779,0.514825975277,0.0829474597845,0.00465886744011,-0.00988975058833
1589285561261220724,1108,1589285561261131096,,0.0116191203266,-0.244498482398,0.51482720245,0.0838938548724,0.00466334829976,-0.010710660377
1589285561267142880,1109,1589285561267062059,,0.0328394953013,-0.245300486397,0.538278428189,0.083792991764,0.00405632717226,-0.0122370255397
1589285561273228083,1110,1589285561273132538,,0.0328379055919,-0.245301079054,0.538278255091,0.0837930267598,0.00405627703682,-0.0122368025233
1589285561285243806,1111,1589285561285103740,,0.0334393898643,-0.121170873536,0.488764564777,0.0832400318365,0.00405548154255,-0.0138889470637
1589285561291276233,1112,1589285561291143458,,0.0334284971844,-0.243828458244,0.49239103655,0.0832728257478,0.00405662703553,-0.0147150139625
1589285561297311038,1113,1589285561297206817,,0.0326359575253,-0.122510480687,0.558318762159,0.0864830415074,0.00346346003493,-0.0147187715976
1589285561303308311,1114,1589285561303171230,,0.0326441829869,-0.12250927235,0.558318546429,0.0864828275249,0.00346235110328,-0.0147202897137
1589285561309234263,1115,1589285561309101220,,0.0542737849481,-0.122593840054,0.558882895512,0.0946962022938,0.00408255487605,-0.014582733113
1589285561315274987,1116,1589285561315169807,,0.0542814950653,-0.122594293819,0.558882047183,0.0946960060097,0.00408203321445,-0.0145841536908
1589285561321343377,1117,1589285561321236982,,0.0323658800526,-0.122895833015,0.581625633826,0.0954128845471,0.00408109621148,-0.0130427708642
1589285561327300566,1118,1589285561327206520,,0.0322966420599,-0.000395827131735,0.60391154538,0.101635850839,0.00470970858216,-0.012175922448
1589285561333373729,1119,1589285561333254907,,0.0323011943136,-0.00039375841276,0.603911303265,0.101635761442,0.00470961492552,-0.0121767048683
1589285561345152245,1120,1589285561345058342,,0.0103362209884,-0.000353696888984,0.626719309969,0.103242415664,0.00347876956886,-0.00977272538119
1589285561351372407,1121,1589285561351220852,,0.0103353055783,-0.000353609668691,0.626719325115,0.10415135122,0.00347950915238,-0.00976497228359
1589285561357244647,1122,1589285561357120259,,0.010341070063,-0.000352612538517,0.626719230587,0.106874747518,0.00348050041476,-0.00889998410576
1589285561363243332,1123,1589285561363097364,,-0.0117493005351,-0.000314084660286,0.649593677069,0.109452278959,0.0034814504797,-0.00816634740972
1589285561369268591,1124,1589285561369126938,,0.00961089708327,-0.000373114754311,0.673409837593,0.112968101612,0.00348264399493,-0.00799387779244
1589285561375345631,1125,1589285561375225171,,-0.0121662392237,-0.000323334073046,0.67298996135,0.112949929201,0.00348176951316,-0.00728434679215
1589285561381079044,1126,1589285561380969720,,0.00962073099248,-0.0003705408557,0.673409698593,0.112971319668,0.00409753092966,-0.00799535916674
1589285561387085681,1127,1589285561386995181,,-0.012156555002,-0.000320751944246,0.672990137586,0.112907924367,0.00347977312738,-0.00558582347542
1589285561393128435,1128,1589285561393025783,,-0.0118864788964,0.123444852949,0.673876978466,0.111988352106,0.00347921183648,-0.00559853371244
1589285561399657436,1129,1589285561399565021,,-0.0125635141711,-0.000333945701046,0.696286583665,0.113640079857,0.00409415069142,-0.00387744016134
1589285561402496843,1130,1589285561402413799,,-0.0125618650707,-0.000328745373885,0.696286615894,0.113640069188,0.00409416296924,-0.00387773989402
1589285561407996050,1131,1589285561407927860,,-0.012976640212,-0.000335059254762,0.719582924022,0.114408642843,0.00409408395397,-0.00386798799555
1589285561414232702,1132,1589285561414124633,,-0.0125522240837,-0.000303371382085,0.69628680128,0.11455331653,0.0047188840268,-0.00386663632752
1589285561420128474,1133,1589285561420031525,,-0.0125506145514,-0.000299776567914,0.69628683185,0.116378907307,0.00409535305535,-0.00384164121502
1589285561426430853,1134,1589285561426337591,,-0.0129733570767,-0.000309788605751,0.719582994544,0.118030371126,0.00409586098128,-0.00212114136892
1589285561432238908,1135,1589285561432139199,,-0.0129767343524,-0.000311917191592,0.719582932728,0.118030394126,0.00409549134119,-0.0021205752194
1589285561438185151,1136,1589285561438062296,,-0.0129774994593,-0.000311807821752,0.719582918977,0.118012802008,0.00409432929457,-0.0012723705481
1589285561444268494,1137,1589285561444174120,,-0.0346123070997,0.124038041925,0.719997061732,0.117099440053,0.00472002927193,-0.00142212539257
1589285561450313026,1138,1589285561450202570,,-0.0341478549697,0.123791842097,0.696747852891,0.118187932168,0.00472063910831,-0.00225339778263
1589285561456336337,1139,1589285561456232582,,-0.0779649348498,0.123931452403,0.696143605696,0.119031631693,0.00408958755545,0.00088471813432
1589285561462263013,1140,1589285561462171055,,-0.0779624792124,0.123941943743,0.696142012903,0.119031723556,0.0040869113568,0.000884725403627
1589285561468403011,1141,1589285561468240175,,-0.0565098133232,0.124119439895,0.719665105797,0.121611553065,0.00408716868349,0.00192246986239
1589285561474392630,1142,1589285561474285739,,-0.0565071616252,0.124121809701,0.71966490529,0.121611606076,0.00408568566766,0.00192226878643
1589285561480281397,1143,1589285561480180350,,-0.0350622341794,0.12429478579,0.74324660898,0.12331671228,0.0047144871441,0.00123836452808
1589285561486397252,1144,1589285561486290336,,-0.0350618118034,0.124295142504,0.743246569251,0.123316747434,0.00471354468625,0.00123845152066
1589285561492431652,1145,1589285561492099216,,-0.0565073721786,0.124120866422,0.719665051446,0.123441209211,0.00408414775654,0.00195538493083
1589285561498776959,1146,1589285561498641071,,-0.056510156735,0.124115518388,0.719665755157,0.123441199288,0.00408421094044,0.0019558793163
1589285561504288723,1147,1589285561504165312,,-0.0558769261573,0.248675872199,0.698585547215,0.123607994453,0.00408511901198,0.00110727864017
1589285561510339107,1148,1589285561510180289,,-0.0558832396529,0.248671428444,0.698586624027,0.123607953141,0.00408616086043,0.00110804586484
1589285561516261084,1149,1589285561516147350,,-0.0338123465093,0.374615115023,0.70197144135,0.125467851281,0.00408800405704,-0.000436547539187
1589285561522410710,1150,1589285561522241016,,-0.0338196767926,0.37461308128,0.701972173555,0.125467815606,0.00408917317814,-0.000435850682637
1589285561528304409,1151,1589285561528220251,,-0.0342666358065,0.375163411577,0.724972630137,0.127190806,0.0040909839768,-0.00211400885795
1589285561534311881,1152,1589285561534210730,,-0.011991489957,0.502484799529,0.728667340178,0.128168929602,0.00347310304835,-0.00538553312896
1589285561540233495,1153,1589285561540146389,,-0.0119954974005,0.502484385745,0.72866755956,0.128168921311,0.00347378167148,-0.00538529275683
1589285561552571132,1154,1589285561552351621,,0.010527027106,0.501861513486,0.706198065528,0.130182654759,0.00284505130295,-0.0069300875697
1589285561558377254,1155,1589285561558274880,,0.010471773894,0.63097920422,0.732432430199,0.13279826062,0.00221204885489,-0.00776122908629
1589285561564206321,1156,1589285561564105258,,0.0104737569269,0.630976593294,0.732434651108,0.132798234965,0.0022121458435,-0.00776164039899
1589285561570351456,1157,1589285561570233279,,0.0104140308226,0.760985368181,0.758379264394,0.135458114047,0.00221186924128,-0.0103007292378
1589285561576413156,1158,1589285561576224744,,0.0104172615485,0.760986092844,0.758378492868,0.135458071876,0.00221184090113,-0.0103012898714
1589285561582308210,1159,1589285561582199898,,0.0100181643759,0.761499432941,0.781256762125,0.138058542437,0.00220958332519,-0.010270833087
1589285561588272693,1160,1589285561588144299,,0.0100074854861,0.761502965098,0.781253456143,0.138058645304,0.00220996111623,-0.0102693689863
1589285561594297741,1161,1589285561594204389,,0.0319803785948,0.761973560876,0.804486030658,0.140695605103,0.002208485407,-0.0118257879942
1589285561600472184,1162,1589285561600372043,,0.0308123828319,0.633600941426,0.847372875028,0.143133410988,0.00220592551116,-0.0109265928119
1589285561606570606,1163,1589285561606458289,,0.0308155370383,0.633601894305,0.847372047837,0.143133319302,0.00220661881264,-0.0109276538151
1589285561612538700,1164,1589285561612237901,,0.0319739337622,0.761982983163,0.804477362356,0.146170229048,0.00220354248352,-0.0108916936981
1589285561618289288,1165,1589285561618160030,,0.031972592657,0.761980915031,0.80447937454,0.146170187325,0.00220427162393,-0.0108921060818
1589285561624296497,1166,1589285561624197247,,0.0087969136678,0.762977773645,0.849834453793,0.151332811767,0.0028361144468,-0.00924155076415
1589285561630366423,1167,1589285561630180123,,0.00879759411058,0.762977188437,0.849834972146,0.151332779782,0.00283645519451,-0.00924196993325
1589285561636220216,1168,1589285561636131597,,-0.0140275712324,0.763489065046,0.872296073744,0.152082357211,0.00219776511346,-0.00850797714852
1589285561642448019,1169,1589285561642215822,,-0.0136110461589,0.763010180856,0.849433151598,0.153123393353,0.00219628206075,-0.00763089846744
1589285561648324417,1170,1589285561648220570,,-0.0136187087559,0.76299467885,0.849446953329,0.154023834989,0.00219612477214,-0.00675381032991
1589285561654325142,1171,1589285561654212931,,0.00870409847539,0.893401957149,0.875458840706,0.156637781836,0.00219538823439,-0.00744362362746
1589285561660881782,1172,1589285561660676497,,-0.0137986087472,0.893447037959,0.875046556788,0.158432202352,0.00219347769037,-0.00581670213373
1589285561672796215,1173,1589285561672340793,,-0.0137978993737,0.893468358704,0.875024798366,0.161181183898,0.00219393472665,-0.00578028951136
1589285561678346928,1174,1589285561678186279,,-0.0137930541169,0.893477582692,0.875015456248,0.161181122095,0.00219446646273,-0.00578181079638
1589285561684366969,1175,1589285561684242285,,-0.0142054539557,0.893907743491,0.89786768664,0.163800107658,0.00283269455722,-0.00661905547599
1589285561690321225,1176,1589285561690208878,,-0.0142099258462,0.893903455143,0.897871885292,0.163800023382,0.00283476270586,-0.00662025552241
1589285561696383186,1177,1589285561696236999,,-0.0135703222318,1.0240244807,0.877537252103,0.16393898048,0.00219524382514,-0.00661871123787
1589285561702758045,1178,1589285561702639459,,-0.0142273497023,0.89390585763,0.897869217494,0.165627285516,0.00219586004352,-0.00659486261489
1589285561708346131,1179,1589285561708247409,,0.00828008006017,0.89386080058,0.898281868563,0.164727492151,0.00348070528668,-0.00733675706957
1589285561714279759,1180,1589285561714156106,,-0.0144105125932,1.024826243,0.923193528479,0.166416674649,0.00283840993631,-0.00745144272116
1589285561720260234,1181,1589285561720180638,,0.00788407384525,0.894294812979,0.92114107507,0.168243001887,0.00283570767806,-0.00728655385571
1589285561726768678,1182,1589285561726664036,,-0.0143758842476,1.02482564155,0.923194736017,0.170974421033,0.00218855002052,-0.00652018812812
1589285561732565153,1183,1589285561732457456,,0.00785482518033,1.02516732938,0.946566467689,0.171761636531,0.00218615811286,-0.00724648209133
1589285561738345871,1184,1589285561738240150,,0.00790405065578,1.02514495246,0.94659029241,0.171761296127,0.00218570214971,-0.00725468349008
1589285561744421427,1185,1589285561744286555,,0.00832848244738,1.02475120789,0.923637801541,0.171917615914,0.00218451245145,-0.0081250643827
1589285561750514315,1186,1589285561750351801,,-0.0146641823859,1.02517821111,0.94619438266,0.17174585994,0.0021820569951,-0.00652467372372
1589285561756417833,1187,1589285561756290541,,0.00791089124526,1.025127931,0.946608668955,0.172689865933,0.00218110884098,-0.00810802392905
1589285561762232109,1188,1589285561762155435,,0.00790472759519,1.02512474372,0.946612172089,0.173609706093,0.0021783205074,-0.00809200562863
1589285561768283400,1189,1589285561768167283,,0.00751693261681,1.02551227117,0.969481015759,0.175279406484,0.00217434819484,-0.00719817255456
1589285561774318383,1190,1589285561774174831,,0.00712653789582,1.02589207749,0.992367715903,0.176957828891,0.00217025796623,-0.00717328522584
1589285561780328215,1191,1589285561780210834,,0.00753143473802,1.02551249542,0.969480666003,0.177090378968,0.00216859466589,-0.00629071473875
1589285561786592046,1192,1589285561786507762,,0.00754612318181,1.02551130387,0.969481812193,0.178000113961,0.00216571348585,-0.00627805027208
1589285561792592743,1193,1589285561792505240,,0.00794598775999,1.0251246466,0.946611931819,0.179081451883,0.00280766344753,-0.0071415388589
1589285561798677920,1194,1589285561798517851,,0.00794631399022,1.02513036795,0.946605733164,0.179081529021,0.0028062674001,-0.00714015310318
1589285561801645062,1195,1589285561801557719,,-0.0150644203847,1.02556894844,0.96906033608,0.177967260749,0.00216235833286,-0.00467063324859
1589285561807208065,1196,1589285561807121567,,0.00721388079505,0.895103110626,0.967045552608,0.178922219958,0.00280510382875,-0.00625531756249
1589285561813374816,1197,1589285561813264203,,0.00749932567977,1.02553710296,0.969454884501,0.179832062165,0.00280438201544,-0.00623866614143
1589285561825511273,1198,1589285561825223206,,-0.0148520700294,1.15645727574,0.971271741636,0.180718827412,0.00280226237164,-0.00461978159205
1589285561831319274,1199,1589285561831241431,,-0.0148525453174,1.15646816446,0.97125876942,0.180718852344,0.00280171728779,-0.00461913686784
1589285561837387882,1200,1589285561837216683,,0.00779436505118,1.15642670758,0.971663183836,0.180733841742,0.00280184047436,-0.00535066073111
1589285561843344645,1201,1589285561843251511,,-0.0155247180851,1.02600683721,0.991886562062,0.181450380393,0.00215568247004,-0.00285284139062
1589285561849222529,1202,1589285561849113989,,-0.0155284242137,1.02601513856,0.991877917067,0.181450396243,0.00215547413201,-0.0028519905554
1589285561855269823,1203,1589285561855199626,,0.00707916280911,1.02598145048,0.992275654489,0.179655208507,0.00280259335682,-0.00449378367541
1589285561861279188,1204,1589285561861205517,,0.00707079886111,1.02597747513,0.992279824493,0.179655193824,0.00280387913352,-0.00449356858175
1589285561867244113,1205,1589285561867155373,,0.00747658942541,1.02559382458,0.969395053685,0.180715989947,0.00280334830059,-0.00447857842496
1589285561873247919,1206,1589285561873166297,,-0.0148773802578,1.15649834079,0.971222457525,0.180699222208,0.00215910526982,-0.00374591350865
1589285561879969434,1207,1589285561879883776,,-0.0153077924183,1.15685455802,0.994087925277,0.180550171059,0.00280515052692,-0.00374608196097
1589285561885216509,1208,1589285561885120184,,-0.0153131968635,1.15685689557,0.994085121738,0.180550207536,0.00280473568647,-0.00374463421409
1589285561891158802,1209,1589285561891066130,,-0.015297934323,1.15685309832,0.994089775721,0.179622795358,0.00280366340103,-0.00287885884413
1589285561897121352,1210,1589285561897050336,,-0.0379473782129,1.15690821038,0.993685650258,0.178686495284,0.00216069755121,-0.00216378859411
1589285561903269466,1211,1589285561903128209,,-0.0144728821224,1.156130704,0.948380574886,0.178085252662,0.00280704647341,-0.00290623494102
1589285561909205595,1212,1589285561909095703,,0.00736513958083,1.1568019137,0.994506344615,0.178719684815,0.00345015650153,-0.00362748576082
1589285561915133489,1213,1589285561915047773,,-0.014884258293,1.15648969081,0.97123265215,0.178856156405,0.00344946474653,-0.00289252150929
1589285561921170072,1214,1589285561921042826,,-0.0148871774478,1.15648402128,0.971239358324,0.179748766137,0.00344824757849,-0.00200602370134
1589285561927291062,1215,1589285561927208852,,-0.0148943215315,1.15648211071,0.971241523764,0.18066859323,0.0034472746239,-0.00198960160061
1589285561933283781,1216,1589285561933198526,,-0.0375503532309,1.15653416816,0.970840622253,0.180654345177,0.00344726437465,-0.00125661178199
1589285561945143834,1217,1589285561945033623,,-0.0379704984746,1.15689952348,0.993694880795,0.182324057797,0.0027995780094,-0.000355410507175
1589285561951047398,1218,1589285561950979053,,-0.0601809828486,1.15661407267,0.970425172706,0.181543547105,0.00344340234282,0.000361740802096
1589285561957386657,1219,1589285561957257781,,-0.0603258402954,1.02575758066,0.968191109221,0.180575238005,0.00344267269311,0.00296984213289
