%time,field.header.seq,field.header.stamp,field.header.frame_id,field.wrench.force.x,field.wrench.force.y,field.wrench.force.z,field.wrench.torque.x,field.wrench.torque.y,field.wrench.torque.z
1589285291308398168,2345,1589285291308277416,,-0.036126606537,-0.889405408399,0.646053955022,0.0937963787228,0.00651317195555,0.00406884862549
1589285291314245268,2346,1589285291314142589,,-0.0361446592336,-0.889407077228,0.64605064784,0.0937963755504,0.0065123035308,0.00407031152253
1589285291320368172,2347,1589285291320237945,,-0.0357036040899,-0.758918319676,0.643178451174,0.0974234351681,0.00591891837431,0.00582331111093
1589285291323785661,2348,1589285291323642502,,-0.0370195655724,-1.02088118701,0.671207606461,0.100014266631,0.0065360604188,0.00671755413131
1589285291326663386,2349,1589285291326519656,,-0.0370317350282,-1.02088541985,0.671200497128,0.100014294453,0.00653512152489,0.00671805334102
1589285291329375305,2350,1589285291329263000,,-0.0589849994856,-0.889867719835,0.668310140886,0.102742180838,0.00654518179314,0.00832198654719
1589285291338358668,2351,1589285291338221904,,-0.0825103568417,-1.02127081721,0.693182488365,0.105343566692,0.00655448744884,0.00825051424192
1589285291341291909,2352,1589285291341195670,,-0.037423461723,-0.890871470843,0.714159808612,0.111614946295,0.00657297881486,0.00781634108758
1589285291344202510,2353,1589285291344114187,,-0.0374260242299,-0.89087539666,0.714154777078,0.111614889006,0.00657313652222,0.0078170265133
1589285291350326866,2354,1589285291350221271,,-0.0378344290651,-0.89136402113,0.736863907898,0.115121091359,0.00658431629887,0.00789515021623
1589285291353349335,2355,1589285291353263434,,-0.0390957272724,-0.892810518818,0.805213673158,0.119266224945,0.00597732328168,0.0071360220703
1589285291362333310,2356,1589285291362202983,,-0.0395096870505,-0.89328623252,0.828001458609,0.121873482259,0.00598454036629,0.00719279649489
1589285291368392933,2357,1589285291368201132,,-0.0620050704593,-0.893254320053,0.82760967263,0.122784955912,0.00598523767621,0.00707749700783
1589285291371441827,2358,1589285291371303518,,-0.0619938330811,-0.893266252863,0.827597634992,0.123727164068,0.00536064109398,0.00538603924811
1589285291374351443,2359,1589285291374234933,,-0.0619732742353,-0.893275058998,0.827589669788,0.123727100019,0.00536278139431,0.0053853798964
1589285291377353606,2360,1589285291377233818,,-0.0395272510754,-0.893288939752,0.827997699622,0.123738736874,0.00536203043729,0.00467394502712
1589285291383294644,2361,1589285291383179761,,-0.0391036132717,-0.89283137162,0.805190168299,0.123890547995,0.00473410754873,0.00382686914237
1589285291386304858,2362,1589285291386181905,,-0.0399453662775,-0.89378573165,0.850877124479,0.124524843368,0.00536691015306,0.00383993569936
1589285291395382982,2363,1589285291395251874,,-0.0624767376172,-0.893745446274,0.850491001985,0.126356678965,0.00536525583354,0.00374057424701
1589285291398299130,2364,1589285291398178046,,-0.0629049471405,-0.894213873112,0.87331270137,0.129877927114,0.00600241045102,0.00380850122245
1589285291404346929,2365,1589285291404182291,,-0.0629347087561,-0.894200995757,0.873323742512,0.129878096724,0.00599853052261,0.00380883016126
1589285291407344639,2366,1589285291407235563,,-0.0408451966604,-1.02479130124,0.876096093634,0.132582355545,0.00536729651323,0.00570956285371
1589285291410306933,2367,1589285291410148094,,-0.0408525816167,-1.02480368416,0.876081264476,0.132582370234,0.00536652299794,0.00570994882763
1589285291416404717,2368,1589285291416318308,,-0.0638605087379,-1.02518453622,0.898510774182,0.135145172843,0.00600003231008,0.00820491711378
1589285291422340147,2369,1589285291422198932,,-0.0639349145483,-1.15572747023,0.877883278336,0.135296409044,0.00599394585168,0.00820921051543
1589285291425438829,2370,1589285291425331274,,-0.0643766092419,-1.15610661403,0.900699143268,0.136977991611,0.00662031126935,0.00824681101706
1589285291431533969,2371,1589285291431319262,,-0.064351737379,-1.15609934301,0.900710253355,0.136977946398,0.0066225599551,0.00824575644653
1589285291434468538,2372,1589285291434357868,,-0.0643954967221,-1.15607417596,0.900739428016,0.13789391886,0.00599556315948,0.00826697940805
1589285291440411978,2373,1589285291440283327,,-0.0417989662532,-1.02556609099,0.921823317968,0.139593198873,0.00599789563608,0.00758205137938
1589285291443402072,2374,1589285291443275201,,-0.041788175118,-1.02557139429,0.921817907047,0.139593059745,0.00600006127066,0.00758289933908
1589285291446369484,2375,1589285291446254392,,-0.064377277215,-1.02553740013,0.921414692885,0.138675521319,0.00599961351079,0.007427803088
1589285291449251853,2376,1589285291449151418,,-0.0643856322013,-1.02551181033,0.921442589857,0.138675614052,0.00599825781648,0.0074271666729
1589285291455250946,2377,1589285291455148633,,-0.0417689329273,-1.02555392531,0.921838213916,0.139650490412,0.00600016026412,0.00413511114851
1589285291458368397,2378,1589285291458252974,,-0.0191349987851,-1.02562007873,0.922225616733,0.140584954257,0.00537140114544,0.00256953919136
1589285291464376825,2379,1589285291464281964,,-0.0191288683018,-1.02559850892,0.922249731443,0.140588431404,0.00600448208263,0.00256663498874
1589285291467442923,2380,1589285291467283011,,-0.0195171677959,-1.02600787675,0.945206924205,0.141369814888,0.0047359931443,0.00171733512626
1589285291470282263,2381,1589285291470176748,,-0.0199063515911,-1.02642908768,0.968061777404,0.143090930956,0.00474106252676,2.8196765389e-05
1589285291473285825,2382,1589285291473191253,,-0.0199016888581,-1.02644954864,0.968040178201,0.143090919482,0.00474141013022,2.79767228577e-05
1589285291479519941,2383,1589285291479382722,,-0.0198769286827,-1.02643160052,0.968059717628,0.145827418554,0.00410578356817,7.12944714107e-05
1589285291482292464,2384,1589285291482206591,,-0.0198708152951,-1.02643458413,0.968056679613,0.145844470632,0.0041065240137,-0.000799444585432
1589285291488279851,2385,1589285291488183978,,-0.0198641293447,-1.02643954157,0.968051560404,0.145844477325,0.00410598109071,-0.000801010605558
1589285291491283216,2386,1589285291491178558,,0.00272789769549,-1.02649083004,0.968470183808,0.147701296433,0.00474083142304,-0.00149469722266
1589285291494287413,2387,1589285291494197749,,0.00274681036565,-1.02649155704,0.968469359806,0.147701273339,0.00474054573311,-0.00149788204811
1589285291500379745,2388,1589285291500295182,,-0.0202750901,-1.0268389639,0.99093928261,0.148438683104,0.00473711790787,0.000108066158504
1589285291503291017,2389,1589285291503197098,,-0.0429056988756,-1.02678061491,0.990545150721,0.148374569071,0.00409505361574,0.00341671529437
1589285291506376295,2390,1589285291506259823,,-0.0429222752451,-1.02676085375,0.99056491622,0.1483746017,0.00409337496233,0.00341730978397
1589285291515291448,2391,1589285291515196429,,-0.0428998023344,-1.15721650693,0.969805335112,0.148506389997,0.00536507322026,0.00428197310362
1589285291518250795,2392,1589285291518175024,,-0.0429121390838,-1.15720474331,0.969818826036,0.148506530775,0.00536235294859,0.0042804979162
1589285291524667563,2393,1589285291524534289,,-0.0655573268049,-1.15717371621,0.969409153572,0.14847650915,0.00472425953032,0.00586488110555
1589285291527643070,2394,1589285291527552038,,-0.0664191624873,-1.15792667479,1.01514237962,0.149096131827,0.00599794147058,0.00673959303862
1589285291530340254,2395,1589285291530248752,,-0.0659810058429,-1.15756498281,0.992254079271,0.148324361003,0.00536030708829,0.0067226864609
1589285291536308031,2396,1589285291536189859,,-0.0659647134802,-1.15756621214,0.99225372837,0.148324292065,0.00536231919875,0.00672260281085
1589285291539452279,2397,1589285291539347274,,-0.0433370562978,-1.0271898255,1.01343101195,0.1500590378,0.00536572393463,0.00344545970609
1589285291542311643,2398,1589285291542219543,,-0.0432958733714,-1.15760879733,0.992650553808,0.14928741541,0.00472731121112,0.0034292042535
1589285291548261414,2399,1589285291548170089,,-0.0432735498758,-1.15762099433,0.99263730317,0.149287277641,0.0047309481236,0.00343018616876
1589285291551485340,2400,1589285291551330245,,-0.0428764796211,-1.02680801491,0.990518012848,0.149315694317,0.00409800648818,0.00170770646143
1589285291554267042,2401,1589285291554188763,,-0.0428509907238,-1.02680393482,0.990523345404,0.149329287699,0.00347197076915,0.000843048461229
1589285291560202410,2402,1589285291560113788,,-0.0428395663826,-1.02680861073,0.990518992373,0.149329223141,0.00347451895509,0.000843984989772
1589285291563249586,2403,1589285291563164955,,-0.0206323004417,-1.02727780905,1.0137972363,0.1483162288,0.00347896670883,-0.00163057119716
1589285291566276644,2404,1589285291566194690,,0.00239889900504,-1.02693204831,0.99131419802,0.146678273181,0.00348415033411,-0.00410185353114
1589285291575276354,2405,1589285291575190258,,0.00241039267582,-1.0269489119,0.991296700347,0.146713373669,0.0028512488814,-0.00583287856136
1589285291578312049,2406,1589285291578192853,,0.00242451472549,-1.02693579886,0.991310250374,0.146713289855,0.00285113936726,-0.0058350398496
1589285291584267751,2407,1589285291584172346,,0.00241413524341,-1.02694186476,0.991303991781,0.146694505772,0.00285007732641,-0.00497283665263
1589285291587299808,2408,1589285291587186030,,0.00201109489265,-1.02734619388,1.01419682875,0.147463137171,0.00284853831789,-0.0049629905156
1589285291590332438,2409,1589285291590214801,,0.00201793081101,-1.02733931261,1.01420378562,0.147463069615,0.00284619999204,-0.00496633820417
1589285291596505841,2410,1589285291596394115,,0.00255022104558,-1.15738211541,0.970552914712,0.146850453366,0.00410960076688,-0.00497534335527
1589285291600665384,2411,1589285291600497335,,0.00253437769645,-1.15738073237,0.97055460548,0.146850512258,0.00410779649501,-0.00497509509241
1589285291605506840,2412,1589285291605209943,,0.00210241815554,-1.15773972915,0.993439520898,0.146660185884,0.00347550082568,-0.00324690504961
1589285291608354616,2413,1589285291608238138,,0.00210041611164,-1.15774699761,0.993431054511,0.146660191569,0.0034751168205,-0.00324705926329
1589285291611214650,2414,1589285291611146455,,-0.0205602384803,-1.15768214212,0.993029171017,0.145753342659,0.00347523678255,-0.00339897788818
1589285291614223411,2415,1589285291614136679,,0.00248385563182,-1.15734313829,0.970599565049,0.14408287171,0.0041001990929,-0.00414775867311
1589285291620282083,2416,1589285291620199422,,0.00249534341265,-1.15734069661,0.970602447035,0.144082832804,0.00410192626109,-0.0041474024314
1589285291623640241,2417,1589285291623537598,,-0.020152087836,-1.15729709947,0.970175307665,0.14132835652,0.00410168694932,-0.00346777705925
1589285291626846352,2418,1589285291626697041,,0.00263369732378,-1.28820704074,0.94969236738,0.140556724672,0.00410361972056,-0.00334133276096
1589285291635225832,2419,1589285291635145584,,0.00333227548753,-1.15659670054,0.924795299158,0.138001698077,0.00410766739852,-0.00596243825246
1589285291641289490,2420,1589285291641178278,,0.00254308136976,-1.15735153423,0.970589400266,0.137712778865,0.0041088346792,-0.00596885237868
1589285291644310022,2421,1589285291644234635,,0.00256480214911,-1.15736396186,0.970574523945,0.137732183296,0.00411112495528,-0.00682767505227
1589285291647261815,2422,1589285291647195467,,0.0032599834859,-1.02609172094,0.94559133984,0.1351722607,0.00348811366919,-0.00858788636995
1589285291653333854,2423,1589285291653236247,,0.0260399922527,-1.15666621394,0.925206789297,0.131637928536,0.00348951884562,-0.00762981251121
1589285291656188086,2424,1589285291656132278,,0.0262608694365,-1.02575116262,0.923050024798,0.130718402406,0.00348991949535,-0.00764162579307
1589285291659307720,2425,1589285291659214562,,0.0262730903006,-1.02575432931,0.923046157992,0.13071836406,0.00349159059317,-0.00764151837236
1589285291665342973,2426,1589285291665272933,,0.0266630789308,-1.02533133708,0.900215440121,0.127219784789,0.00286108482775,-0.0085483814144
1589285291668268238,2427,1589285291668195203,,0.0266704536251,-1.02533255333,0.900213836372,0.127219765934,0.00286204523631,-0.00854834053038
1589285291671301686,2428,1589285291671231565,,0.0270868995376,-1.02491548161,0.877387279965,0.125541788313,0.00286406314235,-0.00856964802598
1589285291677210519,2429,1589285291677125587,,0.0497399688562,-1.02498579789,0.877825437215,0.125562500326,0.00349304951741,-0.00928908048416
1589285291680167918,2430,1589285291680095413,,0.0270818245049,-1.02491849856,0.877383912386,0.123694404122,0.00349213440463,-0.00773067908746
1589285291683219505,2431,1589285291683091823,,0.0274667139613,-1.02450836618,0.85456200633,0.121066368792,0.0034910869682,-0.00691066200659
1589285291689286308,2432,1589285291689173843,,0.0276603359335,-0.893914261593,0.852156915523,0.121046068468,0.003490473348,-0.00606007368761
1589285291695187172,2433,1589285291695100780,,0.00531865727434,-1.02401107159,0.831257397291,0.117482950053,0.00410537413105,-0.00368848613519
1589285291701247757,2434,1589285291701149055,,0.00530852895883,-1.02401499563,0.831252628049,0.117482989281,0.00410386303068,-0.00368891822393
1589285291704305853,2435,1589285291704214307,,-0.0172272333722,-1.02395837329,0.830843388609,0.116529485145,0.00410209289546,-0.00214449742858
1589285291707321407,2436,1589285291707236710,,-0.0172306016774,-1.02395287789,0.830850091427,0.115619783738,0.00410173207628,-0.00215738477857
1589285291713348848,2437,1589285291713263201,,0.00502784896877,-1.155078413,0.833456293548,0.114715424578,0.00409994263039,-0.00288123863072
1589285291716394798,2438,1589285291716318180,,-0.0168419689722,-1.02351851221,0.808083260698,0.111143865762,0.00347956551078,-0.000527044646798
1589285291722470306,2439,1589285291722360307,,-0.0168499105164,-1.02352173318,0.808079015438,0.111143894594,0.00347863271301,-0.000527122150245
1589285291725532606,2440,1589285291725296383,,-0.0389686565927,-1.02303409682,0.784937802127,0.108531653498,0.00347601681014,0.000137922093237
1589285291728397824,2441,1589285291728289301,,-0.0389582554237,-1.02304381794,0.784925648425,0.108535088653,0.0040902136978,0.000137623825512
1589285291734510900,2442,1589285291734378303,,0.00649310083398,-1.0227102287,0.762901664343,0.105966185912,0.00470933850799,-0.00131654958827
1589285291737406714,2443,1589285291737304690,,0.00649746982917,-1.02270757547,0.762905183916,0.105966162346,0.00470991071578,-0.0013163994682
1589285291740230965,2444,1589285291740152053,,0.00582940031531,-1.15429760497,0.787948057051,0.106756121119,0.00471131684405,-0.00215567361996
1589285291743438477,2445,1589285291743330503,,0.00582923522036,-1.15430108742,0.787942956656,0.104908776797,0.00470737041089,-0.00133373977333
1589285291749291890,2446,1589285291749193995,,0.00624319596315,-1.15391914993,0.765099605642,0.104136828483,0.00470705428013,-0.00134507821886
1589285291755312722,2447,1589285291755244660,,0.00625161180196,-1.15392204102,0.765095176579,0.0996152832164,0.00469962314207,-0.00393245066058
1589285291758367597,2448,1589285291758255286,,0.00626513972961,-1.15392363663,0.765092659404,0.099615232729,0.00470117357992,-0.00393187633152
1589285291761433318,2449,1589285291761301798,,0.00626187641733,-1.15392350545,0.76509288396,0.0987057879762,0.00469934944842,-0.00394263280632
1589285291764355998,2450,1589285291764262615,,-0.0159076882908,-1.15348566961,0.741956249682,0.0970168045333,0.00407888877244,-0.00409785074103
1589285291770445365,2451,1589285291770265795,,-0.0159178356594,-1.15348494166,0.741957163761,0.0970168462859,0.00407828042609,-0.00409746771613
1589285291773407732,2452,1589285291773310455,,-0.0381059081076,-1.02218823987,0.739354969051,0.096121691076,0.00407623948864,-0.00508525817952
1589285291782364499,2453,1589285291782233787,,-0.0155342014947,-1.15309596265,0.719258300009,0.0944406246702,0.00407180974863,-0.0049700973993
1589285291785442131,2454,1589285291785247226,,-0.0155467914386,-1.1530938578,0.719261402426,0.0953290989711,0.00407258431362,-0.0041168371785
1589285291788301749,2455,1589285291788214948,,0.00739924337215,-1.1527666068,0.696984454793,0.092771328695,0.00406662340315,-0.00568513324304
1589285291794502183,2456,1589285291794370942,,-0.0155843043237,-1.15308824672,0.71926958602,0.0934962639575,0.00346059898582,-0.00413864826026
1589285291797327646,2457,1589285291797249553,,-0.0159188072133,-1.28471581053,0.721186867968,0.0926121655895,0.00406439020704,-0.00498927183972
1589285291806503522,2458,1589285291806394269,,-0.0155157528818,-1.28437481631,0.698489679445,0.0909078995277,0.00467223868791,-0.00416947452083
1589285291809402724,2459,1589285291809298675,,-0.0159336557658,-1.2847053158,0.721205234966,0.0916762654655,0.00467375754951,-0.00416085309587
1589285291815326434,2460,1589285291815195352,,-0.0381587415119,-1.28433113343,0.698078895954,0.0899814328469,0.00466735565543,-0.00348517477028
1589285291818393548,2461,1589285291818286123,,-0.0162763002883,-1.41658021634,0.722869963092,0.0907466060202,0.00466962832567,-0.00334258608435
1589285291821354290,2462,1589285291821256662,,-0.0393665534135,-1.41683219745,0.745201405208,0.0914985882861,0.00467203048483,-0.0026365033346
1589285291827762831,2463,1589285291827652309,,-0.0389498662308,-1.41653381285,0.722461865591,0.0907301228141,0.00466966421351,-0.00264705452867
1589285291830483463,2464,1589285291830346213,,-0.0166707392366,-1.41688151513,0.745604596437,0.0915201170403,0.00528608708721,-0.00333319958727
1589285291833323625,2465,1589285291833238467,,-0.0162446932447,-1.41658159162,0.722867978993,0.0907776908741,0.0058975722096,-0.00417244203532
1589285291836330138,2466,1589285291836250924,,-0.038909529603,-1.41653111113,0.722469336355,0.0898355176462,0.00528172534573,-0.00348819611231
1589285291842342389,2467,1589285291842208712,,-0.0162252266819,-1.416572353,0.722886520524,0.0898322922372,0.00528193485456,-0.00335467583927
1589285291845484131,2468,1589285291845271537,,-0.0158087126244,-1.41627507317,0.700162841632,0.0881446262246,0.00527562537221,-0.00337574064951
1589285291851409793,2469,1589285291851237727,,-0.0162256293253,-1.41657087037,0.722889416862,0.0898323017755,0.00528246141262,-0.00335359114081
1589285291854386238,2470,1589285291854299970,,-0.0158124917406,-1.4162733,0.700166343027,0.0872298869365,0.0046620111982,-0.00338543491228
1589285291857168333,2471,1589285291857063171,,0.00673079080047,-1.28476429045,0.721611823932,0.0889199566088,0.00405665562133,-0.00405926258462
1589285291860374189,2472,1589285291860279686,,-0.0158964174445,-1.28470850672,0.721200372609,0.0889027698324,0.00405624509967,-0.00336488730417
1589285291866296592,2473,1589285291866190335,,-0.0158028692468,-1.41628208908,0.700148781735,0.088139230262,0.00466576866205,-0.00337413925725
1589285291869278910,2474,1589285291869162949,,-0.0388869536804,-1.41653301696,0.722466815142,0.0898104531598,0.00467136925631,-0.00265824104675
1589285291875343597,2475,1589285291875254206,,-0.0388806939913,-1.41653430648,0.722464623676,0.0898104329394,0.00467184053385,-0.00265809597733
1589285291878360747,2476,1589285291878182988,,-0.0380832078552,-1.28433806283,0.698070271878,0.0881225322417,0.00466646115229,-0.00268056756516
1589285291881317404,2477,1589285291881235701,,-0.0380869259908,-1.28434069582,0.69806522473,0.0881225457844,0.00466622774347,-0.00268052867428
1589285291887280460,2478,1589285291887194097,,-0.0380515840937,-1.41595149038,0.676910707243,0.0864414058249,0.0046601357249,-0.00270258677665
1589285291890353383,2479,1589285291890269141,,-0.0380508652901,-1.41594938904,0.676915143198,0.0864414041541,0.00466023153789,-0.00270247499844
1589285291893291490,2480,1589285291893174627,,-0.0380516957818,-1.41594941889,0.67691503406,0.0864172395692,0.00404977829286,-0.00187808712268
1589285291899571156,2481,1589285291899460614,,-0.0157971198974,-1.41628988973,0.70013313187,0.0862715962537,0.0046585492374,-0.00174738599534
1589285291905305459,2482,1589285291905203512,,-0.0157971336879,-1.41628794402,0.700137067495,0.0862715992526,0.00465831678859,-0.00174785756655
1589285291908269583,2483,1589285291908163122,,-0.0157985733622,-1.41629143829,0.700129966506,0.087196564687,0.00527198293835,-0.00173439345742
1589285291911322128,2484,1589285291911214572,,-0.0158036896027,-1.41628983658,0.700133091115,0.0871965796689,0.00527186486694,-0.0017339990936
1589285291914266352,2485,1589285291914164864,,-0.0380660142103,-1.41595026036,0.676912468858,0.0855028570921,0.00465508546717,-0.0018911913068
1589285291917387050,2486,1589285291917234940,,-0.0380685078391,-1.41594818399,0.676916671921,0.0855028637168,0.00465512133055,-0.00189080347715
1589285291923764400,2487,1589285291923636708,,-0.0607467683048,-1.41591320777,0.676510350725,0.0854931071153,0.00526344511074,-0.00119947940459
1589285291926647481,2488,1589285291926488148,,-0.0384488466362,-1.5480604946,0.678350200163,0.0854846212292,0.00465413022752,-0.0010669291749
1589285291929168822,2489,1589285291929085427,,-0.0384454928018,-1.54806284566,0.678345024889,0.0855276859623,0.00526451118984,-0.00271462577924
1589285291935212809,2490,1589285291935087241,,-0.0384471182504,-1.54806034395,0.678350641939,0.0855477903341,0.00526508210069,-0.0035386379957
1589285291938140275,2491,1589285291938033279,,-0.0158223397477,-1.41628547925,0.700141484209,0.0862962240014,0.00526764144238,-0.00257119245287
1589285291941153208,2492,1589285291941063117,,-0.0149921892134,-1.41570558958,0.654619426595,0.0847705662681,0.00465310764237,-0.00341493190418
1589285291947312127,2493,1589285291947230222,,-0.0149900088432,-1.41570496244,0.654620832807,0.0847705625522,0.00465334178654,-0.0034147050918
1589285291950131741,2494,1589285291950042968,,-0.0149905862777,-1.41570474335,0.654621293399,0.0847705732376,0.00465357864434,-0.00341411699053
1589285291953182580,2495,1589285291953092716,,-0.0372774614811,-1.28367804734,0.652593002518,0.083864572378,0.004650219919,-0.00355714517979
1589285291962408946,2496,1589285291962263137,,-0.0146570778463,-1.28371969825,0.653005574942,0.0829801758697,0.00404115892693,-0.00508805469664
1589285291965384189,2497,1589285291965308893,,-0.0145757177223,-1.41541902273,0.631931884326,0.0813083781102,0.00464133813183,-0.0051036267618
1589285291971337523,2498,1589285291971267702,,-0.0146529491995,-1.28372026686,0.653004549794,0.0829801534312,0.00404129863043,-0.00508830967586
1589285291974407074,2499,1589285291974311125,,-0.014562691551,-1.41541720202,0.631936262701,0.0822119973875,0.00403905905448,-0.00509533362953
1589285291977435322,2500,1589285291977366151,,-0.0145568461818,-1.41541920473,0.631931911674,0.0813082849638,0.0046420483489,-0.00510446471773
1589285291983385389,2501,1589285291983296348,,-0.0145518625028,-1.41542027554,0.631929628016,0.0813082616886,0.00464226001735,-0.00510464296443
1589285291986282559,2502,1589285291986175537,,-0.0145522202083,-1.41541760635,0.631935598304,0.0822404972312,0.00464677137252,-0.00591722676886
1589285291989373302,2503,1589285291989291078,,0.00851874248924,-1.41519650887,0.609658254626,0.0823876036611,0.00464705799274,-0.00578446337391
1589285291995390164,2504,1589285291995253361,,0.00852312861342,-1.41519715289,0.609656698362,0.0823876010518,0.00464743047655,-0.00578420127781
1589285291998523949,2505,1589285291998371746,,0.0309888974724,-1.28351940078,0.631163087537,0.0822567432803,0.00464760655567,-0.00647510770861
1589285292001362444,2506,1589285292001213133,,0.0309839122739,-1.28351794795,0.631166286729,0.0822567550697,0.00464721024973,-0.00647524238306
1589285292007289464,2507,1589285292007169667,,0.00838435500318,-1.28345374525,0.630744160129,0.0813578559466,0.00525013677253,-0.0066142437053
1589285292010356947,2508,1589285292010253460,,0.00838462953475,-1.28345301125,0.630745650029,0.0804088657259,0.00463917942179,-0.0058014785521
1589285292016445266,2509,1589285292016325929,,-0.014217907048,-1.28339829258,0.630332944963,0.0803836704183,0.00403331057804,-0.00511431463813
1589285292022416196,2510,1589285292022314741,,-0.0138086237918,-1.28308010609,0.607675509422,0.0787203315125,0.00402780508572,-0.00594689323102
1589285292028423926,2511,1589285292028330302,,0.00838980396071,-1.28345448493,0.630742582556,0.0795089199728,0.0040314487068,-0.00662782407415
1589285292031429150,2512,1589285292031299825,,0.0306004766963,-1.2838428086,0.653831327507,0.0803034618061,0.00464024851567,-0.00731058109766
1589285292034519843,2513,1589285292034397101,,0.0306108726653,-1.28384213782,0.653832158007,0.0803033940886,0.00464064383614,-0.00731107399404
1589285292040388412,2514,1589285292040298811,,0.0310001959974,-1.28352113766,0.63115900062,0.079535817751,0.00463694948317,-0.0073152835201
1589285292043340043,2515,1589285292043245648,,0.0310013284721,-1.28352145033,0.631158309144,0.0795357964278,0.00463688914798,-0.00731555359695
1589285292046276453,2516,1589285292046170657,,0.0310040639593,-1.28352231724,0.631156411825,0.0795357954734,0.004637139133,-0.00731540551699
1589285292053384894,2517,1589285292053275605,,0.0310068830677,-1.28352171292,0.631157502281,0.0786482429962,0.00403011937793,-0.00813870597048
1589285292055369326,2518,1589285292055251714,,0.031013996581,-1.28352361773,0.631153279132,0.07864820889,0.00403050773482,-0.0081388432377
1589285292058427663,2519,1589285292058271514,,0.0537156679195,-1.28360209795,0.631576155357,0.078705766463,0.00463635750626,-0.0096563372597
1589285292064363650,2520,1589285292064264118,,0.0537233574899,-1.28360434392,0.631570936609,0.0778177357002,0.00463385629178,-0.0104766300725
1589285292067471760,2521,1589285292067272694,,0.0537240020513,-1.28360434547,0.631570878644,0.0778177406411,0.0046339301795,-0.010476560692
1589285292070395515,2522,1589285292070283709,,0.053722787714,-1.28360486258,0.631569930964,0.0778120822913,0.00403036259377,-0.010476217487
1589285292076377466,2523,1589285292076274506,,0.0541198557219,-1.28328942623,0.60890731066,0.0779934229559,0.00403235110307,-0.0112947081143
1589285292079708432,2524,1589285292079635410,,0.0541182557532,-1.28329157409,0.608902926182,0.0771139776826,0.00463322030925,-0.0121130816562
1589285292082586566,2525,1589285292082464519,,0.0537223462934,-1.28361263847,0.631554164518,0.0778745435316,0.00403291951859,-0.0121133833712
1589285292088354209,2526,1589285292088265119,,0.0537302820705,-1.28361519949,0.63154828419,0.0778744779968,0.00403330085084,-0.0121136777148
1589285292091429286,2527,1589285292091234624,,0.0545154091538,-1.28298258012,0.586149946993,0.0763724912536,0.00402885093011,-0.0129379601082
1589285292094345146,2528,1589285292094256809,,0.0541299237806,-1.28330731218,0.608868719095,0.0771755400237,0.00403385625776,-0.0137592042889
1589285292100500929,2529,1589285292100311259,,0.0541295866211,-1.28331481604,0.608852933013,0.0771706108149,0.00343975900109,-0.0137583746433
1589285292106433286,2530,1589285292106336106,,0.0549213061046,-1.28270144924,0.56345763066,0.0729836602905,0.00342971465476,-0.0153700119986
1589285292109362501,2531,1589285292109237465,,0.0549205949376,-1.28270463954,0.563450437267,0.0729837011783,0.00342985239317,-0.0153697871075
1589285292115347727,2532,1589285292115233844,,0.0553302541692,-1.28239995533,0.54083552686,0.0722589831167,0.00342966766924,-0.0161884451782
1589285292118328034,2533,1589285292118231886,,0.0553383947567,-1.28239991622,0.540834786687,0.0722590357921,0.00343029313703,-0.0161880775282
1589285292124626528,2534,1589285292124532340,,0.0553418122394,-1.28239453794,0.540847189533,0.0713452380755,0.00342729378899,-0.0161788865001
1589285292127748536,2535,1589285292127648734,,0.0549500904286,-1.28269720715,0.563464481247,0.0731037257953,0.00343653826941,-0.0178298791006
1589285292133470730,2536,1589285292133246209,,0.0779290451815,-1.28248359932,0.541277847431,0.0705084879491,0.00342737183355,-0.0176677296696
1589285292136411969,2537,1589285292136320770,,0.0779303376906,-1.28248137907,0.541282921906,0.0705085530323,0.00342750325959,-0.0176674444372
1589285292145333973,2538,1589285292145254275,,0.055435630777,-1.15038854174,0.53915387545,0.0704684360819,0.002828653035,-0.0169815546424
1589285292148313525,2539,1589285292148219436,,0.0783271296445,-1.15013755766,0.51702979286,0.067927034068,0.0028226073735,-0.0176303033999
1589285292151297366,2540,1589285292151211129,,0.0783230797301,-1.15013520511,0.517035639613,0.067927163109,0.00282250959014,-0.0176298218713
1589285292157354651,2541,1589285292157264220,,0.0783225830354,-1.15013099547,0.517045079012,0.067927252615,0.00282250682652,-0.0176294774461
1589285292160391115,2542,1589285292160269177,,0.0787108745815,-1.14978794547,0.494410066983,0.0643561052678,0.00280816096697,-0.0159495475443
1589285292166717343,2543,1589285292166630338,,0.0562056990998,-1.14968551259,0.493986641069,0.063368481778,0.00339119123636,-0.014456154441
1589285292169369504,2544,1589285292169278559,,0.0562065498074,-1.14968294753,0.493992514059,0.0633684838077,0.0033911740329,-0.0144561495794
1589285292172964154,2545,1589285292172887580,,0.0565975954186,-1.14935410418,0.47145840452,0.0626054890145,0.00338735057874,-0.0144461709175
1589285292175385717,2546,1589285292175274068,,0.0566028538602,-1.14935283735,0.471460861581,0.062605296903,0.00338724913996,-0.014447027231
1589285292181414288,2547,1589285292181315674,,0.0562106776591,-1.14968325194,0.493991335905,0.0633682281047,0.00339089305669,-0.0144573363115
1589285292184460887,2548,1589285292184331498,,0.0562140852142,-1.14968461952,0.493987765324,0.0633681252091,0.00339092627661,-0.0144577795166
1589285292190440944,2549,1589285292190305217,,0.078712394006,-1.14978745738,0.494410960164,0.0643611540236,0.00339859176763,-0.0159521273318
1589285292193645858,2550,1589285292193495839,,0.0787063748723,-1.14978729993,0.494412284576,0.0643611391279,0.00339817157309,-0.0159522769469
1589285292196610709,2551,1589285292196448392,,0.0787006505746,-1.14978524501,0.494417974607,0.0643611462107,0.00339775267917,-0.0159523375983
1589285292199612991,2552,1589285292199547261,,0.0786897562956,-1.1497871377,0.49441530709,0.0643611648793,0.00339715301987,-0.0159523899905
1589285292208482771,2553,1589285292208331948,,0.0786823215738,-1.14978233744,0.494427653403,0.0643612542079,0.00339669928028,-0.0159521262048
1589285292211803782,2554,1589285292211380840,,0.0565908171387,-0.885808515126,0.46726209592,0.0635560759919,0.00280076191101,-0.0152638012382
1589285292214377686,2555,1589285292214291054,,0.0565954781376,-1.01742033198,0.469568516577,0.0626953041366,0.00338804396346,-0.0160644276054
1589285292217377042,2556,1589285292217303362,,0.0344857629014,-1.01694114011,0.446679412877,0.0619410218683,0.0033842156873,-0.0161780572823
1589285292220418094,2557,1589285292220301272,,0.0569738633829,-1.01703674972,0.4471070351,0.06193364885,0.00338385835155,-0.0160519435683
1589285292223810236,2558,1589285292223675679,,0.0344835416222,-1.01693838748,0.446685851119,0.0609931744199,0.0033772281935,-0.0153598127674
1589285292229341042,2559,1589285292229251430,,0.0569682125764,-1.01703421859,0.447113512638,0.0609794896,0.00278963420122,-0.0152245031022
1589285292238402746,2560,1589285292238264949,,0.0793622437435,-1.01714816316,0.447547059634,0.0611212893471,0.00338240925471,-0.0175158550396
1589285292241434803,2561,1589285292241281784,,0.0790116390391,-0.754251645223,0.442547136579,0.0638257968269,0.00280431701434,-0.0175670472917
1589285292244369970,2562,1589285292244276684,,0.0790168226756,-0.754251853758,0.442545855654,0.0638255428911,0.00280420644423,-0.0175679875322
1589285292247382510,2563,1589285292247245232,,0.0788785535359,-0.885936679857,0.467699728914,0.0646391737575,0.00340074914521,-0.0183921763977
1589285292253363811,2564,1589285292253286757,,0.101622172305,-0.88563139885,0.445732422933,0.065777565695,0.00340906726175,-0.0199173852301
1589285292256337078,2565,1589285292256255354,,0.100475100122,-0.624605418307,0.462028014725,0.0664841489607,0.0028155558763,-0.0191087360268
1589285292262492573,2566,1589285292262396831,,0.10076652008,-0.623942184877,0.439664924455,0.0667257542003,0.00222470213829,-0.020748585378
1589285292265647393,2567,1589285292265546314,,0.100766573645,-0.623939926457,0.439668117155,0.0667256825505,0.00222441404404,-0.0207488466844
1589285292268472368,2568,1589285292268312327,,0.122773637388,-0.624167956739,0.440192512753,0.0658133562668,0.00281666570882,-0.020600438048
1589285292271373894,2569,1589285292271281833,,0.122509779749,-0.624823995269,0.462552445291,0.06657280905,0.00281902108916,-0.0206159744864
1589285292277460391,2570,1589285292277338108,,0.122777766343,-0.624167711096,0.440191709438,0.0658133043963,0.00281703747372,-0.0206005529268
1589285292280497911,2571,1589285292280380930,,0.122775703518,-0.624165593819,0.440195286958,0.0658133230852,0.0028167273196,-0.0206005356307
1589285292286553051,2572,1589285292286384199,,0.122776196829,-0.624165976298,0.440194607037,0.0658131526053,0.00281634560895,-0.020601132448
1589285292289502556,2573,1589285292289397549,,0.100771170141,-0.623934803201,0.43967433409,0.0657719175896,0.002814685208,-0.0199180168363
1589285292298472172,2574,1589285292298363030,,0.100769986427,-0.623937284199,0.439671084626,0.0666812637243,0.00281707897581,-0.0199357374412
1589285292301433216,2575,1589285292301327289,,0.100773542857,-0.623936433341,0.439671476951,0.0675810505648,0.00281975625443,-0.0199525745649
1589285292307350608,2576,1589285292307253189,,0.100102644185,-0.494561762573,0.435612831935,0.0684868213651,0.00222541326408,-0.0199680931511
1589285292310429053,2577,1589285292310268220,,0.0783793483757,-0.624410484944,0.46152683188,0.0691679460637,0.00282090690304,-0.0184689393026
1589285292313448290,2578,1589285292313346105,,0.0783801954244,-0.624410062591,0.461527259439,0.0691679091245,0.00282088007651,-0.0184690817404
1589285292316374296,2579,1589285292316290931,,0.0779508768012,-0.495134194044,0.457452746093,0.0700364319289,0.00282177029914,-0.0176661400647
1589285292322510129,2580,1589285292322414071,,0.0779511443925,-0.495133409781,0.457453549358,0.0700364291975,0.00282177408283,-0.0176661502891
1589285292326273327,2581,1589285292326168770,,0.0780630456804,-0.625080825864,0.483933069078,0.0698866400624,0.00282120850839,-0.017663918922
1589285292328442202,2582,1589285292328307803,,0.10061502163,-0.755529382912,0.487807671789,0.0680264141547,0.00340942931239,-0.0166905671395
1589285292334586345,2583,1589285292334421667,,0.0780583090421,-0.625077903331,0.483937608033,0.068888850332,0.00281557276069,-0.0160159904863
1589285292337491623,2584,1589285292337393848,,0.078055880693,-0.625078121783,0.483937717552,0.0688889110779,0.0028155015249,-0.0160157417233
1589285292340552971,2585,1589285292340320608,,0.0565121674727,-0.754664062784,0.464468120167,0.0680959738987,0.00340698241232,-0.0153265409603
1589285292346343178,2586,1589285292346262770,,0.0783293550299,-0.755365120075,0.487335725304,0.0688132173238,0.0034081611365,-0.0143931007021
1589285292349363676,2587,1589285292349258877,,0.0780502777109,-0.625075498536,0.483942009533,0.069807571165,0.00341474105909,-0.0160258634844
1589285292353022851,2588,1589285292352944951,,0.0560265068969,-0.62492218974,0.483460790263,0.0688196761286,0.0034081682687,-0.0145228172835
1589285292358321538,2589,1589285292358237025,,0.0555179702701,-0.496525275941,0.501998878735,0.0704636497884,0.00341317051059,-0.0137248977865
1589285292361413159,2590,1589285292361312763,,0.0555143378166,-0.496524468138,0.502000079442,0.0704636878324,0.00341271444522,-0.0137248158767
1589285292364318201,2591,1589285292364233569,,0.0558178887925,-0.495743301203,0.479397539991,0.0706488273048,0.00341493564114,-0.0145377055784
1589285292370481506,2592,1589285292370388722,,0.0558143639934,-0.495741642137,0.47939966601,0.0706488974667,0.00341465665657,-0.0145374301413
1589285292373565264,2593,1589285292373412330,,0.056114781545,-0.494948357307,0.456947164734,0.0716991118747,0.00282005757583,-0.0145447474874
1589285292376440690,2594,1589285292376343351,,0.0561107213598,-0.4949489144,0.456947059899,0.0716617178362,0.0028187236869,-0.0137305326389
1589285292382504516,2595,1589285292382360988,,0.0561060383733,-0.494948161974,0.45694844992,0.0716618570586,0.00281869201135,-0.0137298124992
1589285292385927365,2596,1589285292385678090,,0.0555267343729,-0.36825302796,0.474765615343,0.0733374798661,0.00342226931204,-0.0137395498919
1589285292388544305,2597,1589285292388449096,,0.055525502593,-0.368254358356,0.474764727478,0.073337541483,0.0034225768432,-0.0137391443898
1589285292394470135,2598,1589285292394386469,,0.0557946638998,-0.495742775806,0.479400786882,0.0733073323935,0.0040122624906,-0.0129242603593
1589285292397585291,2599,1589285292397400610,,0.0557911019169,-0.495741725692,0.479402287334,0.0724321209015,0.00341929674673,-0.0137334167928
1589285292400462828,2600,1589285292400365572,,0.0557932471869,-0.495742899096,0.47940082427,0.0724320642962,0.00341936366743,-0.0137336986727
1589285292409455441,2601,1589285292409343697,,0.0338688914037,-0.495603088805,0.478918972417,0.0724017088556,0.00341798785601,-0.0130469567923
1589285292415538485,2602,1589285292415425933,,0.0559879533286,-0.62491921273,0.483469104564,0.0733431304953,0.00401356623652,-0.0137384012802
1589285292418462213,2603,1589285292418346378,,0.0559855183076,-0.62491768186,0.483471365299,0.0733431072325,0.00401301866964,-0.0137386854235
1589285292421552505,2604,1589285292421350243,,0.0338706329057,-0.495603480273,0.47891844415,0.074228856083,0.00401582839708,-0.0130556984835
1589285292427764011,2605,1589285292427626852,,0.0335312753298,-0.496390219821,0.501522382021,0.0749636355295,0.00401762822873,-0.0122425029244
1589285292430339709,2606,1589285292430265808,,0.0775978764074,-0.756490986106,0.532369421702,0.0739712992842,0.0046160657442,-0.0136119421734
1589285292433434233,2607,1589285292433273337,,0.0553966999233,-0.756360376491,0.531908042694,0.0748476425123,0.0046194716814,-0.0129310331437
1589285292442398976,2608,1589285292442268861,,0.0556533064931,-0.625596466211,0.506011415279,0.0749981155448,0.00462001683449,-0.0129314746828
1589285292445447461,2609,1589285292445349766,,0.055654149223,-0.625595849959,0.506012084481,0.0749981038971,0.00462006756559,-0.0129315241106
1589285292451365085,2610,1589285292451267272,,0.0556537189507,-0.625596214018,0.506011681708,0.0749980922482,0.00461992463685,-0.0129316427329
1589285292454471564,2611,1589285292454333870,,0.055654631322,-0.625596178759,0.506011624952,0.0749980638051,0.00461988927446,-0.0129318203228
1589285292457422030,2612,1589285292457333138,,0.0556551726944,-0.625596209824,0.506011527001,0.0749980218637,0.00461970113621,-0.012932130769
1589285292463432178,2613,1589285292463328071,,0.055653674734,-0.625595732761,0.506012281563,0.0749980575196,0.00461967128395,-0.0129319346503
1589285292466616207,2614,1589285292466528001,,0.0553182998274,-0.626263444661,0.528502808988,0.0766363582501,0.00462621548965,-0.0121102206391
1589285292469434467,2615,1589285292469341875,,0.033193943206,-0.497160559794,0.524075978374,0.0774893782712,0.00402452452529,-0.0106031179285
1589285292475400505,2616,1589285292475256505,,0.0331920081476,-0.497161534836,0.524075175965,0.077489386262,0.00402414064871,-0.0106032052278
1589285292478297933,2617,1589285292478199959,,0.0335365656068,-0.496394024139,0.501518262873,0.0776709694022,0.00402582268824,-0.0114217702308
1589285292481268200,2618,1589285292481202282,,0.0331952065388,-0.497160053533,0.524076378615,0.0784374597917,0.00402851362627,-0.0114219304861
1589285292487333084,2619,1589285292487251040,,0.0331938180749,-0.497160381952,0.524076155008,0.0784374794983,0.00402839804404,-0.0114218359206
1589285292490321126,2620,1589285292490226816,,0.033536320999,-0.496391208149,0.501521066431,0.0776709261766,0.00402523280122,-0.0114222720666
1589285292493369830,2621,1589285292493270647,,0.0335339092452,-0.496392007927,0.501520436099,0.0776709719031,0.0040251518847,-0.0114219896396
1589285292499486664,2622,1589285292499388306,,0.0331934415883,-0.497158453935,0.524078007843,0.0784374238856,0.00402761391405,-0.0114224943421
1589285292505398671,2623,1589285292505293474,,0.0331921720786,-0.497158062131,0.524078459927,0.0784374408852,0.00402748131384,-0.0114224243613
1589285292508381265,2624,1589285292508273984,,0.0551774186264,-0.497286796486,0.524558360318,0.0793454055581,0.00463534890584,-0.0112936425119
1589285292511314185,2625,1589285292511235716,,0.0551754884393,-0.497285855057,0.524559455831,0.0793454459008,0.00463531254218,-0.0112933739992
1589285292514371748,2626,1589285292514285471,,0.0551755532978,-0.497283507729,0.524561674281,0.07934546781,0.00463557118132,-0.0112931139056
1589285292520287130,2627,1589285292520223354,,0.0331884002056,-0.369777738346,0.519695259599,0.080262064198,0.00403417588724,-0.0114208227944
1589285292523736740,2628,1589285292523649352,,0.0331892212791,-0.369777542408,0.519695346579,0.0802319537322,0.00403391830198,-0.0105993702574
1589285292526690104,2629,1589285292526589885,,0.0331907733889,-0.369774522083,0.519697396485,0.0802319570394,0.00403466324097,-0.0105990616839
1589285292533277051,2630,1589285292533203617,,0.0549932100337,-0.369902695753,0.520211784008,0.0812650976294,0.00464919572136,-0.0137672370082
1589285292535391516,2631,1589285292535278105,,0.0549890136281,-0.369901524083,0.520213060733,0.0821442977339,0.00404372187091,-0.0129436602357
1589285292538534533,2632,1589285292538406212,,0.0549812343042,-0.369899868567,0.520215060148,0.0821444516278,0.00404303878374,-0.0129428969413
1589285292544475324,2633,1589285292544384682,,0.0767068597786,-0.370062305954,0.520771397947,0.0831107483407,0.00404817671526,-0.0144604407033
1589285292547390787,2634,1589285292547275546,,0.0767004360589,-0.370062173367,0.520772438303,0.0831109484591,0.00404847086231,-0.0144592081286
1589285292553405856,2635,1589285292553302100,,0.0547884108387,-0.244643399603,0.51589782657,0.0830835384955,0.00404856658734,-0.0137661447369
1589285292556406453,2636,1589285292556315525,,0.076166510201,-0.245494899392,0.539447852746,0.0839055521387,0.003454076502,-0.015286018327
1589285292559913081,2637,1589285292559828576,,0.0547900190229,-0.244659418317,0.515890059252,0.0831116977643,0.00345282710546,-0.0145905578524
1589285292562351553,2638,1589285292562224006,,0.0547898868558,-0.244671673677,0.515884261041,0.0831117274533,0.00345380753772,-0.0145901566801
1589285292568348092,2639,1589285292568266478,,0.0767150541872,-0.370101373037,0.520742427388,0.0821998069738,0.0034528614541,-0.0144561046352
1589285292571346818,2640,1589285292571237248,,0.0547940023624,-0.244683933058,0.515878009416,0.0831452457169,0.00345667893608,-0.0154160218913
1589285292577483026,2641,1589285292577368450,,0.0547944652359,-0.244689634563,0.515875255956,0.0831452421494,0.00345707505616,-0.0154159523064
1589285292580310763,2642,1589285292580231255,,0.0547989449381,-0.244696697261,0.515871430081,0.0822050978572,0.00345444973319,-0.0145887155944
1589285292583499385,2643,1589285292583415568,,0.0763568821274,-0.24484555348,0.516482007397,0.0822379420489,0.00405392817952,-0.0152824185711
1589285292586424507,2644,1589285292586331931,,0.0763556917647,-0.244847931659,0.516481055964,0.0832137872993,0.00405976336739,-0.0169468786929
1589285292595482264,2645,1589285292595247772,,0.0761327574618,-0.121845339082,0.513183634873,0.0841245311814,0.00346204337127,-0.0169518290473
1589285292603057859,2646,1589285292602933185,,0.0547144421615,-0.121736258441,0.512522240313,0.0841301722872,0.00346217074231,-0.0170849144175
1589285292607393690,2647,1589285292607282302,,0.0760086507401,-0.122285292104,0.53633702311,0.0849211028925,0.00285480658269,-0.0177830938175
1589285292610324077,2648,1589285292610232654,,0.0548339169046,-0.000394257162491,0.511264635173,0.0850419473644,0.00285381388499,-0.0170876282974
1589285292613492923,2649,1589285292613317246,,0.0548309753519,-0.000393213820729,0.511264951454,0.0850773500685,0.00285446194819,-0.017916248568
1589285292616397410,2650,1589285292616313518,,0.0334036406901,-0.000346568076777,0.510661404747,0.0859532979963,0.0028548896446,-0.0172206887608
1589285292619394268,2651,1589285292619288950,,0.0760936252665,-0.000448347060638,0.535197918029,0.0876932331301,0.00285791546304,-0.0186236435794
1589285292625713398,2652,1589285292625616445,,0.0548240223095,-0.000387300663601,0.511265701604,0.0877700603842,0.00285650167505,-0.0170943848346
1589285292628388317,2653,1589285292628305896,,0.0976613228447,-0.000488198808484,0.535935919851,0.0904185692213,0.00347396616051,-0.0185018475326
1589285292631443183,2654,1589285292631311436,,0.0976601543003,-0.000485762732886,0.535936135002,0.0914039848806,0.00347735870365,-0.0201832650729
1589285292634438163,2655,1589285292634357047,,0.0981967790919,0.12101517126,0.514047876861,0.0915190597875,0.00347689319888,-0.0193393207386
1589285292640297537,2656,1589285292640214311,,0.0981401582853,0.121417439671,0.537180483629,0.0922844266837,0.00347814538841,-0.0193410494802
1589285292643298178,2657,1589285292643199291,,0.09814413798,0.121416939158,0.537179869673,0.0931901267328,0.0034788736168,-0.0193439705291
1589285292649294473,2658,1589285292649220028,,0.076532325226,0.12139134879,0.536465612733,0.0931580805925,0.00286204967025,-0.0186393307891
1589285292658379270,2659,1589285292658293791,,0.097609526426,-0.000494874022618,0.559166116973,0.0966870339396,0.00224732841833,-0.0193510251789
1589285292661240225,2660,1589285292661168110,,0.0976114209566,-0.000493443526947,0.559165787519,0.0966869674606,0.00224731994722,-0.019351358321
1589285292664250145,2661,1589285292664179999,,0.0979729391866,0.122146383593,0.583590668277,0.09839852105,0.00286633273364,-0.0202021279577
1589285292667366077,2662,1589285292667276176,,0.0979753316001,0.12214538481,0.58359047568,0.0993116024222,0.0022477138069,-0.0202035318472
1589285292673363710,2663,1589285292673290437,,0.0987097812209,0.245946773045,0.58638288355,0.100250559556,0.00224819382338,-0.0210463663189
1589285292676291855,2664,1589285292676223108,,0.0987125381586,0.245945601659,0.586382910763,0.102018550905,0.00224637554441,-0.0193545058903
1589285292679364615,2665,1589285292679284487,,0.0776429681571,0.37141984219,0.589541535065,0.10475428664,0.00224616986511,-0.0194939155057
1589285292685593407,2666,1589285292685245586,,0.0776395936494,0.371418063381,0.589543100151,0.104754377684,0.00224638039106,-0.0194934019936
1589285292688354685,2667,1589285292688253330,,0.099599464893,0.37148706192,0.590122534507,0.106576263264,0.00286789195496,-0.0193481211897
1589285292691288866,2668,1589285292691192116,,0.0987059249922,0.245945436733,0.586384093169,0.107521218083,0.00224533126338,-0.0202010144152
1589285292697408449,2669,1589285292697312543,,0.0993825055923,0.372144783666,0.612971798576,0.110142024878,0.00224481419886,-0.0210432686966
1589285292700380160,2670,1589285292700254112,,0.0993844527701,0.372145391064,0.612971114111,0.110141963883,0.00224474911185,-0.0210435948932
1589285292706445246,2671,1589285292706321843,,0.0985422893006,0.246507399922,0.609401952362,0.111089383828,0.00224498602914,-0.0218902877221
1589285292709579704,2672,1589285292709420201,,0.0771273970686,0.372726024548,0.635285549028,0.113624528939,0.0022425477548,-0.0203213740156
1589285292715463383,2673,1589285292715273820,,0.0771309498592,0.372724936008,0.635285756341,0.112704738998,0.00162699252236,-0.0203247563987
1589285292721567700,2674,1589285292721400022,,0.0986950155156,0.373961913178,0.681804386275,0.116979214901,0.00162274904685,-0.0201776614175
1589285292724597697,2675,1589285292724503911,,0.0986902587601,0.373962038389,0.681805006148,0.116979376649,0.00162254712711,-0.0201767399029
1589285292727774736,2676,1589285292727684562,,0.0984402706814,0.374513835531,0.704773233454,0.116828748637,0.00162292184776,-0.0201768806816
1589285292733582060,2677,1589285292733424601,,0.0765838770002,0.373922236534,0.681251841206,0.119728945551,0.00223956193403,-0.0202994378481
1589285292736500686,2678,1589285292736394069,,0.0765838876436,0.373922947739,0.681251449646,0.119728923867,0.00223973556602,-0.020299546589
1589285292746328799,2679,1589285292746196869,,0.076952264184,0.501844034889,0.707606175659,0.123199475091,0.00161566082943,-0.0194313977036
1589285292748465943,2680,1589285292748347450,,0.0992005222953,0.501876020638,0.708126226862,0.125966010624,0.00161247566744,-0.0201381154048
1589285292751423899,2681,1589285292751313722,,0.0769578337784,0.501841484477,0.707607378724,0.126861654394,0.00161101974735,-0.0194111984338
1589285292760605264,2682,1589285292760384262,,0.0769532548207,0.501839329301,0.70760940517,0.127743344938,0.00161047885546,-0.0185408945158
1589285292763429825,2683,1589285292763331833,,0.0989035586196,0.502446209849,0.731000055331,0.129451053801,0.00160909066179,-0.019251044204
1589285292766364090,2684,1589285292766278246,,0.0766473654972,0.50241916928,0.73048099611,0.131255857804,0.0016062602167,-0.0185175589279
1589285292769352449,2685,1589285292769270619,,0.0766484242604,0.502419535329,0.73048063325,0.131255868473,0.00160590258661,-0.0185175143183
1589285292775347256,2686,1589285292775280575,,0.0989010972965,0.50245455863,0.730994649815,0.133076964334,0.000971720472513,-0.0183689556766
1589285292781498297,2687,1589285292781252694,,0.0988969607387,0.502455885863,0.730994297181,0.133077129353,0.000971078200885,-0.018367794099
1589285292784353701,2688,1589285292784274285,,0.0772515909977,0.630954220361,0.733797498796,0.133999704923,0.000969791572984,-0.0184947636118
1589285292787450509,2689,1589285292787331996,,0.0546516099838,0.631491394418,0.756142707757,0.135654872182,0.000966792832707,-0.0177628536519
1589285292793506421,2690,1589285292793404951,,0.0551577123761,0.760944357535,0.759254164638,0.138376661326,0.000961521624212,-0.0168812104213
1589285292796462655,2691,1589285292796363323,,0.0547947687532,0.761448473392,0.782137940204,0.141001274926,0.0015930967691,-0.0177188021672
1589285292802459965,2692,1589285292802370473,,0.0547998391402,0.761450379923,0.782135728864,0.141001149158,0.00159313584134,-0.0177197994495
1589285292808504521,2693,1589285292808385802,,0.0773645282783,0.892041790883,0.808200700198,0.141787336908,0.000958038944026,-0.0184361586537
1589285292811427564,2694,1589285292811320397,,0.099935147736,0.892051802127,0.808658014228,0.143635218279,0.000954929180423,-0.0191467027581
1589285292817585628,2695,1589285292817463426,,0.0773690418667,0.892047180309,0.808194319567,0.145444208676,0.00158784979097,-0.0184040119163
1589285292820438036,2696,1589285292820361067,,0.0993175617594,0.761952990887,0.805876085252,0.146381313534,0.000950622598747,-0.0191231032924
1589285292823866651,2697,1589285292823787437,,0.0995811436659,0.892491931704,0.831455973576,0.148084165409,0.0015853983497,-0.0199803165846
1589285292826894041,2698,1589285292826803874,,0.0999398911739,0.892054173346,0.808654812249,0.14731451477,0.000948380196664,-0.0199872896395
1589285292829406312,2699,1589285292829319159,,0.0999422432586,0.892055159896,0.808653433258,0.147363768888,0.000948834852293,-0.0217137247804
1589285292838458693,2700,1589285292838365439,,0.0999478440733,0.892060569869,0.808646773045,0.148259271528,0.00158415981795,-0.0208436621727
1589285292841382538,2701,1589285292841298918,,0.100175237244,1.02312156707,0.833972681633,0.151771006689,0.000940939036802,-0.020814322221
1589285292847518997,2702,1589285292847374532,,0.100180173487,1.02312345956,0.833969766964,0.151770890907,0.000940848574729,-0.0208151705409
1589285292850349467,2703,1589285292850231525,,0.100181643566,1.02312069483,0.833972982163,0.154506972606,0.00093621328233,-0.0207911870399
1589285292853475349,2704,1589285292853374209,,0.100180057171,1.02312183239,0.833971777156,0.154507050161,0.000935959256586,-0.0207906221282
1589285292860062049,2705,1589285292859967027,,0.0998172401157,1.02352248872,0.85686376318,0.155254450647,0.000933944189979,-0.0199182647725
1589285292862467931,2706,1589285292862358546,,0.0998268766811,1.02352460731,0.856860109886,0.155254423653,0.000932639386487,-0.0199185363132
1589285292865407878,2707,1589285292865307400,,0.0771726043948,1.02352025833,0.856417171559,0.15525801776,0.000933596865922,-0.0200552976921
1589285292868355443,2708,1589285292868267305,,0.0998293289796,1.02352111909,0.856863990863,0.157115586076,0.000929889495109,-0.0207677497304
1589285292874444206,2709,1589285292874362262,,0.0998428455969,1.02352349418,0.856859578946,0.157115465661,0.000928547593128,-0.020768720735
1589285292880342493,2710,1589285292880271592,,0.0998433150054,1.02352148192,0.856861927899,0.157115549455,0.000928006407053,-0.0207681110089
1589285292883504138,2711,1589285292883309031,,0.0998440373178,1.02352209787,0.856861107984,0.158022762873,0.000285897980807,-0.0207592957951
1589285292889469542,2712,1589285292889376355,,0.0768270333383,1.02392772485,0.879214263547,0.158770713303,0.000283704099346,-0.0200231766809
1589285292898533001,2713,1589285292898370104,,0.0994907431549,1.02393499492,0.879651238138,0.159666290487,0.00156061625093,-0.0190003344591
1589285292901590596,2714,1589285292901462555,,0.0768337223686,1.02393886055,0.879200710279,0.15964709523,0.00155937218386,-0.0182696839061
1589285292907568211,2715,1589285292907495549,,0.0768334260023,1.02394638971,0.87919196746,0.159624675904,0.00155805433548,-0.0174020677465
1589285292910511099,2716,1589285292910400548,,0.0772894351081,1.15493538869,0.881472440364,0.158728350593,0.00156246690099,-0.0182765820436
1589285292913493752,2717,1589285292913368677,,0.0772928548184,1.15493384371,0.881474164791,0.158728349014,0.00156206320153,-0.0182766302652
1589285292916450014,2718,1589285292916362170,,0.0319594495991,1.15497258967,0.880618884547,0.158666503399,0.000920844205179,-0.0159530706438
1589285292919786679,2719,1589285292919712219,,0.0315831320723,1.02398517105,0.878322696314,0.160473217108,0.000918159512369,-0.0150656961091
1589285292922532284,2720,1589285292922465947,,0.0315766030968,1.02397615324,0.878333444282,0.160473131678,0.000920033992758,-0.0150664917005
1589285292931561245,2721,1589285292931447716,,0.0768114688671,1.02393125336,0.879211514161,0.161432770296,0.00218912151827,-0.0165143525035
1589285292934509711,2722,1589285292934411926,,0.0768027584302,1.02392808251,0.879215967858,0.161432807641,0.00219014107222,-0.0165138522588
1589285292937507604,2723,1589285292937429777,,0.0542252686987,1.02393445329,0.87878626764,0.162321842337,0.00155870307697,-0.0157748882162
1589285292943473646,2724,1589285292943399519,,0.0542281511232,1.02393757888,0.878782447922,0.162321871175,0.00155798703767,-0.0157746622129
1589285292946323980,2725,1589285292946237177,,0.0319617689046,1.15496206081,0.880632609287,0.163199499195,0.000912478966831,-0.0141579189941
1589285292949486450,2726,1589285292949408375,,0.0319778600257,1.15497005097,0.880621545822,0.163178346801,0.000911045717379,-0.0132923372547
1589285292958568920,2727,1589285292958296575,,0.03198958318,1.1549673786,0.880624624947,0.163178195244,0.000910859399915,-0.0132942104281
1589285292961526790,2728,1589285292961437298,,0.0542703545996,1.02395275753,0.878762156411,0.163197736132,0.00155282247494,-0.01402452469
1589285292964560177,2729,1589285292964457895,,0.0316135950643,1.02397653733,0.878331665838,0.163180143924,0.00155145737875,-0.0132924341818
1589285292970568547,2730,1589285292970447753,,0.0316051670728,1.02398136589,0.878326339891,0.163180266596,0.00155143104409,-0.013290931228
1589285292973397495,2731,1589285292973315216,,0.0546840056233,1.15493692381,0.881058106984,0.162278585839,0.00155419406511,-0.0140330956044
1589285292976400790,2732,1589285292976286942,,0.0546911802683,1.15492969195,0.88106714147,0.162278478132,0.00155425550854,-0.0140343342637
1589285292979600745,2733,1589285292979493504,,0.05469328683,1.15493330192,0.881062278626,0.163156358496,0.00155017303584,-0.0122867182929
1589285292982635281,2734,1589285292982508851,,0.031218052809,1.02437281991,0.901159735134,0.164817191213,0.00154601563227,-0.0115333115476
1589285292988714461,2735,1589285292988486264,,0.0312341404726,1.02438089591,0.90114999738,0.164816939165,0.0015464320756,-0.0115368570637
1589285292994498135,2736,1589285292994385328,,0.0316157547784,1.15532698333,0.903441090032,0.1648188979,0.00217640597965,-0.0115367395352
1589285293000465394,2737,1589285293000367031,,0.0316279300621,1.15531992642,0.903449688235,0.164818749921,0.00217642281678,-0.0115388502614
1589285293006394597,2738,1589285293006302830,,0.031216552887,1.1556781962,0.926280653088,0.168315822118,0.00217155134831,-0.0106124093204
1589285293009625513,2739,1589285293009499907,,0.0312032499136,1.1556817542,0.926276662148,0.168315980986,0.00217143973615,-0.0106099121702
1589285293013411550,2740,1589285293013312470,,0.0539126849845,1.02434687576,0.90159005869,0.168465895687,0.00281235376365,-0.0104731495936
1589285293018598762,2741,1589285293018477824,,0.0312142551289,1.15568487097,0.926272402653,0.170106081144,0.00216755885941,-0.00884847051149
1589285293021538667,2742,1589285293021420114,,0.0312046546244,1.15568544118,0.926272014696,0.170106119298,0.00216824436459,-0.00884756903065
1589285293024732640,2743,1589285293024638372,,0.0531455529249,1.02513638437,0.94738131728,0.169986632944,0.00281069267963,-0.00958439184939
1589285293027989249,2744,1589285293027825766,,0.0531445874315,1.02513771198,0.947379934874,0.169986640258,0.00281071098962,-0.00958425675997
1589285293033554273,2745,1589285293033416553,,0.0531279658857,1.02513506052,0.947383736202,0.169067103461,0.00281300509344,-0.00959527718427
1589285293036597995,2746,1589285293036469408,,0.0304715570394,0.894278415999,0.921544881585,0.170127528325,0.00281127414153,-0.00971709407909
1589285293040240165,2747,1589285293040144259,,0.0304384313766,1.02517066429,0.946943665296,0.17181700565,0.00216667214655,-0.00969269423887
1589285293042485773,2748,1589285293042395953,,0.0304308668049,1.02516560173,0.946949389174,0.171816918426,0.00216896238092,-0.00969372813196
1589285293048549129,2749,1589285293048433915,,0.0304290443978,1.02516184668,0.946953512934,0.171816913437,0.00216932220122,-0.00969373603383
1589285293054470386,2750,1589285293054365917,,0.00782677449885,1.02518992838,0.946542223893,0.173651305941,0.00281245034502,-0.00980765624243
1589285293060988332,2751,1589285293060851898,,0.0304148340301,1.02515268987,0.946963882419,0.175475375263,0.00216724741491,-0.00964314501495
1589285293066878896,2752,1589285293066750970,,0.030370094706,1.15639716911,0.972073106425,0.176244062373,0.00216571623441,-0.00963080700936
1589285293069463721,2753,1589285293069357637,,0.053489389771,1.15600816043,0.949652399413,0.175491909221,0.00216806872196,-0.0103737541351
1589285293073747340,2754,1589285293073637354,,0.030353276815,1.15640083081,0.972069275667,0.175315264045,0.00216824408965,-0.00877212621124
1589285293078572601,2755,1589285293078461004,,0.00809867922379,1.1560704258,0.948809154283,0.175457498642,0.0015360301663,-0.00891010564012
1589285293081488170,2756,1589285293081363327,,0.0080739931937,1.15606161779,0.948820096633,0.175457491716,0.00153949415664,-0.00890964417688
1589285293087673726,2757,1589285293087473303,,0.0307192282656,1.15603596552,0.949225975802,0.174544811124,0.00153914706963,-0.00878192649745
1589285293093755946,2758,1589285293093591680,,0.00804489595323,1.15606211893,0.948819733191,0.174528837508,0.0015438378482,-0.00805112315993
1589285293099915233,2759,1589285293099740695,,0.00805608440616,1.15606289495,0.948818692741,0.175401109251,0.0015396138853,-0.00628727863414
1589285293102583029,2760,1589285293102444636,,0.00803364207876,1.15605382166,0.94882993802,0.175401175716,0.00154124210865,-0.0062850250871
1589285293108529406,2761,1589285293108409654,,0.00771264722438,1.02516541449,0.946569710731,0.175384781842,0.00217678339154,-0.00541237847677
1589285293111590385,2762,1589285293111470779,,0.00772911487595,1.02516164114,0.946573663054,0.177214227467,0.00217410045546,-0.00538699246328
1589285293117497623,2763,1589285293117397076,,0.00801855183058,1.15605198407,0.948832304584,0.177196290023,0.00217330817072,-0.00451442160668
1589285293120583062,2764,1589285293120481369,,0.00761310244587,1.15639985133,0.971696583037,0.177949059139,0.00281569858642,-0.00362148496649
1589285293123958978,2765,1589285293123850889,,0.00732286756971,1.02554805527,0.969444647448,0.178886744597,0.00281510732676,-0.00448852245385
