%time,field.header.seq,field.header.stamp,field.header.frame_id,field.vector.x,field.vector.y,field.vector.z
1589285291308116534,2345,1589285291308013773,,0.499987595432,-0.15965928808,0.202472159755
1589285291314068358,2346,1589285291313948810,,0.499988578576,-0.159574227323,0.20246380364
1589285291320094897,2347,1589285291319968983,,0.499987264763,-0.159492937108,0.202452732917
1589285291323533758,2348,1589285291323337180,,0.499988035138,-0.159407602324,0.202439648704
1589285291326363025,2349,1589285291326264593,,0.49998628855,-0.159325365504,0.202429111501
1589285291329121141,2350,1589285291328995281,,0.499985552549,-0.159240875833,0.202414518303
1589285291338165079,2351,1589285291337957738,,0.499984000521,-0.159066057149,0.202388473378
1589285291341144413,2352,1589285291340963148,,0.499982483912,-0.158979556668,0.202371419405
1589285291344046081,2353,1589285291343923691,,0.499982403247,-0.158890318871,0.202360629559
1589285291350169878,2354,1589285291349958947,,0.499982550413,-0.15879798139,0.20235047935
1589285291353121314,2355,1589285291353028276,,0.499983538771,-0.158707808935,0.202338752303
1589285291362208683,2356,1589285291361961916,,0.499983878288,-0.158534286238,0.202320460575
1589285291368094849,2357,1589285291367948634,,0.499984462672,-0.158463602569,0.202317650635
1589285291371188757,2358,1589285291371020355,,0.499983525581,-0.158381683445,0.202311536968
1589285291374184421,2359,1589285291373980650,,0.499982674057,-0.158295185791,0.202299789072
1589285291377130682,2360,1589285291376982436,,0.499983358702,-0.158234540079,0.202300867521
1589285291383164027,2361,1589285291382929157,,0.499982156386,-0.158162685216,0.202295792294
1589285291386065048,2362,1589285291385939434,,0.499980595495,-0.158088218846,0.2022888106
1589285291395151703,2363,1589285291394994188,,0.499977996465,-0.157973800869,0.20227950517
1589285291398058358,2364,1589285291397965925,,0.499976864327,-0.157905850205,0.202274035038
1589285291404081578,2365,1589285291403953310,,0.499975144195,-0.157862882497,0.20226868295
1589285291407205132,2366,1589285291406968048,,0.499972539971,-0.157805027358,0.202262335401
1589285291410151027,2367,1589285291409965617,,0.499972122774,-0.157740478189,0.202255889683
1589285291416266147,2368,1589285291416036086,,0.49997102714,-0.157680682812,0.202252103747
1589285291422173304,2369,1589285291421998326,,0.499968412108,-0.157582092237,0.202245657315
1589285291425280797,2370,1589285291425097893,,0.499966729561,-0.157520985789,0.202244262757
1589285291431190381,2371,1589285291431041746,,0.49996558645,-0.157454622632,0.202237325475
1589285291434129571,2372,1589285291434025077,,0.499967086451,-0.157402485713,0.202239356486
1589285291440167251,2373,1589285291439989803,,0.499964235244,-0.157340017335,0.202234825046
1589285291443202049,2374,1589285291442975758,,0.499964026889,-0.157268952742,0.202232001866
1589285291446127447,2375,1589285291445991545,,0.499963720095,-0.157205793868,0.202234094516
1589285291449124265,2376,1589285291448963933,,0.499964272622,-0.157152991423,0.202233456577
1589285291455130286,2377,1589285291454972633,,0.499963614077,-0.157091531962,0.202226164526
1589285291458083625,2378,1589285291457952515,,0.499963718272,-0.157020162023,0.202225706183
1589285291464143931,2379,1589285291464009935,,0.499963371617,-0.156969696201,0.202221960891
1589285291467136145,2380,1589285291467015102,,0.499961624615,-0.156910916687,0.202215834586
1589285291470119080,2381,1589285291469965842,,0.499962149669,-0.156841778057,0.202215616121
1589285291473112178,2382,1589285291472953685,,0.499961536195,-0.156782582787,0.20221454186
1589285291479243415,2383,1589285291479150324,,0.499958609772,-0.15672966986,0.20220901005
1589285291482074129,2384,1589285291481980109,,0.499958337541,-0.156675147991,0.202208898255
1589285291488089610,2385,1589285291487968939,,0.499957719246,-0.156621244578,0.202208192537
1589285291491057683,2386,1589285291490966499,,0.499956061489,-0.156574074318,0.202205491623
1589285291494142984,2387,1589285291494003591,,0.499954951908,-0.156521403367,0.202201560685
1589285291500255784,2388,1589285291500039093,,0.499952593651,-0.156473705147,0.202200921763
1589285291503071239,2389,1589285291502946782,,0.499951373045,-0.156424220074,0.20220119341
1589285291506195442,2390,1589285291506039518,,0.499950375074,-0.156374896573,0.202202655234
1589285291515099555,2391,1589285291514985709,,0.499946973685,-0.156268202444,0.20220231079
1589285291518054409,2392,1589285291517947297,,0.499945844255,-0.156215521525,0.202199085947
1589285291524416326,2393,1589285291524258423,,0.499944570762,-0.156160337751,0.202199436435
1589285291527419105,2394,1589285291527305730,,0.499943787932,-0.156105032235,0.202199064427
1589285291530170148,2395,1589285291530002245,,0.499943377376,-0.156045790432,0.202197549651
1589285291536123076,2396,1589285291535996336,,0.499943796693,-0.155985412282,0.2021990063
1589285291539198245,2397,1589285291539062197,,0.49994329015,-0.155925213109,0.202200839886
1589285291542204359,2398,1589285291542021879,,0.499942645804,-0.155877143201,0.202198397848
1589285291548115552,2399,1589285291547963647,,0.499943186578,-0.155815227211,0.202200517441
1589285291551225578,2400,1589285291551051619,,0.499944536035,-0.155750557368,0.202204547814
1589285291554115067,2401,1589285291553998654,,0.499944582995,-0.155698596009,0.202202396934
1589285291560070577,2402,1589285291559919751,,0.499943285863,-0.155643590576,0.202204522798
1589285291563100255,2403,1589285291562964611,,0.499943530967,-0.155582676712,0.202204780464
1589285291566090489,2404,1589285291565980523,,0.499943824309,-0.155529703978,0.202210101
1589285291575081188,2405,1589285291574949339,,0.499943215084,-0.155432210224,0.202213272601
1589285291578091407,2406,1589285291577969011,,0.499941316073,-0.155390856246,0.202209632852
1589285291584085651,2407,1589285291583951251,,0.499940179147,-0.155349629699,0.202213215855
1589285291587133507,2408,1589285291586958697,,0.499939614064,-0.155306010332,0.202212861866
1589285291590108764,2409,1589285291589973267,,0.49993699901,-0.155266888451,0.202211563635
1589285291596283077,2410,1589285291596031015,,0.499935532544,-0.155227575168,0.202213849399
1589285291600410745,2411,1589285291600298870,,0.499934920296,-0.155188713678,0.202218165333
1589285291605113076,2412,1589285291605004245,,0.499933254579,-0.155155821731,0.202217888362
1589285291608146765,2413,1589285291608005580,,0.499931738754,-0.155115074386,0.202219917677
1589285291611083311,2414,1589285291610979203,,0.499931414288,-0.155071865827,0.202222272475
1589285291614071805,2415,1589285291613976775,,0.499930443726,-0.155038127323,0.202222418366
1589285291620122983,2416,1589285291620024665,,0.499930263697,-0.154992987961,0.202225372503
1589285291623549096,2417,1589285291623364435,,0.499929542988,-0.154948629058,0.202225666191
1589285291626633259,2418,1589285291626536803,,0.499928732013,-0.15490176888,0.202226152475
1589285291635081056,2419,1589285291634962526,,0.499931257512,-0.154812334674,0.202232895389
1589285291641082891,2420,1589285291640984584,,0.499930088165,-0.154772292053,0.202231597694
1589285291644098270,2421,1589285291644007145,,0.499931002338,-0.154723884467,0.202231713318
1589285291647096081,2422,1589285291647010228,,0.499931474259,-0.154681676915,0.202231917964
1589285291653132588,2423,1589285291653012136,,0.499932170006,-0.154639341819,0.20223279621
1589285291656024921,2424,1589285291655957826,,0.499932001794,-0.154597291237,0.202234072569
1589285291659119491,2425,1589285291659037257,,0.499932735579,-0.154555068128,0.202236655195
1589285291665192933,2426,1589285291665031825,,0.499932966613,-0.154523417862,0.20223926268
1589285291668146193,2427,1589285291668017896,,0.49993306185,-0.154483716117,0.202240788481
1589285291671145403,2428,1589285291671079073,,0.499932409836,-0.154444660106,0.202240153175
1589285291677133915,2429,1589285291676928599,,0.499931556566,-0.154414303349,0.202240857284
1589285291680039282,2430,1589285291679930386,,0.499931950231,-0.154378643915,0.202243684839
1589285291683035924,2431,1589285291682928786,,0.499932813045,-0.154344168304,0.202247315717
1589285291689165568,2432,1589285291689009486,,0.499932876896,-0.154313467404,0.202249425379
1589285291695104994,2433,1589285291694937315,,0.499931877031,-0.154251816485,0.202251316525
1589285291701178303,2434,1589285291700991176,,0.499932341483,-0.154222118343,0.20225354708
1589285291704078458,2435,1589285291703980033,,0.499932238979,-0.154191049261,0.202253063202
1589285291707137729,2436,1589285291707013831,,0.499933749628,-0.154159838153,0.202256568979
1589285291713128510,2437,1589285291713014397,,0.499934130076,-0.154129095598,0.202258709424
1589285291716173824,2438,1589285291716072098,,0.499934209731,-0.154098054928,0.202259371715
1589285291722312945,2439,1589285291722122090,,0.499935379272,-0.154065164871,0.202262336894
1589285291725205945,2440,1589285291725088014,,0.499935216036,-0.15404031981,0.202264061106
1589285291728192407,2441,1589285291728050197,,0.49993640746,-0.154004453037,0.202266211891
1589285291734266319,2442,1589285291734084924,,0.499937419199,-0.153969956932,0.202267980655
1589285291737175333,2443,1589285291737043220,,0.499937851557,-0.153938886958,0.202270185249
1589285291740060028,2444,1589285291739956573,,0.499938390088,-0.153905419899,0.202269136153
1589285291743098332,2445,1589285291742982930,,0.499939656133,-0.153872126447,0.202270578661
1589285291749103900,2446,1589285291748972693,,0.499939576625,-0.15383793469,0.202272318697
1589285291755139126,2447,1589285291755012058,,0.499938926487,-0.153808396075,0.202271432421
1589285291758129256,2448,1589285291758020826,,0.499939826671,-0.153775291227,0.202271984963
1589285291761153454,2449,1589285291761013824,,0.499940776838,-0.153745804809,0.202273993192
1589285291764147430,2450,1589285291764016850,,0.499940220497,-0.153718224748,0.20227472095
1589285291770190361,2451,1589285291770026300,,0.499941920308,-0.153692212945,0.202277561713
1589285291773313890,2452,1589285291773072647,,0.499941804091,-0.153667535381,0.202277596258
1589285291782243235,2453,1589285291782024358,,0.499942502342,-0.153617241968,0.202279507407
1589285291785099960,2454,1589285291785017797,,0.499941745953,-0.153595204617,0.202282391653
1589285291788112490,2455,1589285291788016065,,0.499942666154,-0.1535733629,0.202284114641
1589285291794385644,2456,1589285291794081443,,0.499942229562,-0.153552936898,0.202285591239
1589285291797128700,2457,1589285291797003559,,0.499941390574,-0.153533054387,0.202285906518
1589285291806283102,2458,1589285291806061290,,0.499941560241,-0.153511509332,0.202286281033
1589285291809166408,2459,1589285291809025665,,0.499941766859,-0.153490010616,0.20228608471
1589285291815071248,2460,1589285291814976440,,0.499941104601,-0.153449393974,0.202287389539
1589285291818151059,2461,1589285291817998141,,0.499941397894,-0.153428504963,0.202287252136
1589285291821171197,2462,1589285291821018678,,0.499942031986,-0.153409089863,0.202287685558
1589285291827534930,2463,1589285291827393044,,0.499942302502,-0.153389584663,0.202287116598
1589285291830229437,2464,1589285291830085617,,0.499943727638,-0.153367887638,0.202286815881
1589285291833134752,2465,1589285291832990262,,0.499943810927,-0.153348262665,0.202285326521
1589285291836134962,2466,1589285291835994870,,0.499943598152,-0.153326801133,0.202283935296
1589285291842136680,2467,1589285291841975082,,0.49994316207,-0.153311442415,0.202285862859
1589285291845126743,2468,1589285291845004629,,0.499943043992,-0.153293738884,0.202286183634
1589285291851144963,2469,1589285291850997757,,0.49994379401,-0.153277638761,0.202288993098
1589285291854238007,2470,1589285291854055195,,0.499944061689,-0.15326207207,0.202290533725
1589285291857074072,2471,1589285291856942774,,0.499944065289,-0.153247431018,0.202289983879
1589285291860181532,2472,1589285291860054187,,0.499943849974,-0.153234480947,0.202290554314
1589285291866094677,2473,1589285291865992542,,0.499944606697,-0.153220697517,0.202291160153
1589285291869082080,2474,1589285291868991640,,0.499943971861,-0.153208585344,0.202290001743
1589285291875178051,2475,1589285291875044681,,0.49994389989,-0.153197044593,0.202290180423
1589285291878128518,2476,1589285291877992700,,0.499944026381,-0.153187352509,0.202290769178
1589285291881137572,2477,1589285291881025528,,0.499944272842,-0.153179450893,0.20229142212
1589285291887201608,2478,1589285291887020685,,0.499943790011,-0.153171741501,0.202290888539
1589285291890220494,2479,1589285291890088802,,0.49994459514,-0.153165604649,0.202292813916
1589285291893118374,2480,1589285291893003224,,0.499943853326,-0.153158999594,0.202292857453
1589285291899349357,2481,1589285291899240426,,0.499944110527,-0.1531527727,0.202293097318
1589285291905101516,2482,1589285291904989313,,0.499943489927,-0.153147441527,0.202292976358
1589285291908226791,2483,1589285291907974087,,0.499944116412,-0.153140032697,0.20229456041
1589285291911134903,2484,1589285291910993802,,0.499944088855,-0.15313499494,0.202296462399
1589285291914081637,2485,1589285291913974306,,0.499943537206,-0.153128637273,0.202295040394
1589285291917158428,2486,1589285291917003283,,0.499943388078,-0.1531229637,0.202297308195
1589285291923561632,2487,1589285291923416570,,0.499942860519,-0.153117323544,0.202297444171
1589285291926457213,2488,1589285291926344496,,0.499942845542,-0.153111627782,0.202299840229
1589285291929128139,2489,1589285291928967488,,0.499942205966,-0.153105269936,0.202299971444
1589285291935089821,2490,1589285291934983693,,0.499941471703,-0.153100609854,0.202300637493
1589285291938051579,2491,1589285291937930800,,0.499942077939,-0.153096279711,0.202304591438
1589285291941069680,2492,1589285291940958999,,0.499941368871,-0.153090412202,0.202305367504
1589285291947088212,2493,1589285291946999405,,0.499940919643,-0.153085466157,0.202307129635
1589285291950115361,2494,1589285291949938405,,0.499940817118,-0.153080870767,0.202310227891
1589285291953053080,2495,1589285291952975422,,0.49994043762,-0.153076898309,0.202311347085
1589285291962160426,2496,1589285291962033198,,0.499939456082,-0.153071927402,0.20231281972
1589285291965120018,2497,1589285291965045680,,0.499939895723,-0.153070211468,0.202314294701
1589285291971138146,2498,1589285291971021053,,0.499939155283,-0.153068245291,0.202314403899
1589285291974178320,2499,1589285291974031396,,0.499939052393,-0.153067034344,0.202316113933
1589285291977239928,2500,1589285291977085719,,0.499938564985,-0.153066810513,0.20231646886
1589285291983129199,2501,1589285291983051305,,0.499938142701,-0.153065197666,0.202316107055
1589285291986116835,2502,1589285291986004738,,0.49993786902,-0.15306575067,0.202317203486
1589285291989194015,2503,1589285291989047144,,0.499937288384,-0.153065580312,0.202316929491
1589285291995133567,2504,1589285291994996813,,0.499937322377,-0.153064595298,0.202318514112
1589285291998237494,2505,1589285291998054339,,0.4999366636,-0.153064466454,0.202318408847
1589285292001118508,2506,1589285292000996290,,0.499937141098,-0.15306522628,0.20231956637
1589285292007188254,2507,1589285292006973692,,0.499936550122,-0.153064923921,0.202320025506
1589285292010159389,2508,1589285292010014929,,0.499936920859,-0.153064971839,0.202321203543
1589285292016226142,2509,1589285292016043507,,0.499936847046,-0.153064865743,0.202322145715
1589285292022192371,2510,1589285292022068451,,0.499936489719,-0.153066595793,0.202322197278
1589285292028302752,2511,1589285292028075840,,0.499936175073,-0.153067206492,0.20232266925
1589285292031173534,2512,1589285292031064974,,0.499935801116,-0.153068246658,0.202322408658
1589285292034271654,2513,1589285292034159398,,0.499936293813,-0.153068365943,0.202322842077
1589285292040181255,2514,1589285292040035033,,0.499935968677,-0.153070713775,0.202323711564
1589285292043184839,2515,1589285292043017232,,0.499935619611,-0.153071808793,0.202323629516
1589285292046090375,2516,1589285292045992290,,0.499936048404,-0.153072816389,0.202324887561
1589285292053155502,2517,1589285292053036705,,0.499935376458,-0.153075166495,0.202324744358
1589285292055163233,2518,1589285292055021547,,0.499934848396,-0.153076132463,0.202324858948
1589285292058268339,2519,1589285292058040397,,0.499934190641,-0.153079484226,0.202324892144
1589285292064256878,2520,1589285292064042496,,0.499934145218,-0.153080867716,0.202325288302
1589285292067276746,2521,1589285292067053700,,0.499934325617,-0.15308300098,0.202326428995
1589285292070204510,2522,1589285292070039738,,0.499933778719,-0.153086220303,0.202326908876
1589285292076239977,2523,1589285292076047337,,0.499933826191,-0.153089012427,0.202327488928
1589285292079518941,2524,1589285292079418439,,0.499933547762,-0.153092464723,0.202328492122
1589285292082357435,2525,1589285292082162773,,0.499933774239,-0.153096685599,0.202330554486
1589285292088144663,2526,1589285292088030849,,0.499933601351,-0.153099407468,0.202330345394
1589285292091144828,2527,1589285292091026642,,0.499933349954,-0.153104847245,0.202333058987
1589285292094225822,2528,1589285292094040467,,0.499932068197,-0.153109431771,0.202333285332
1589285292100252307,2529,1589285292100083754,,0.499931752803,-0.153116646745,0.202336613562
1589285292106290362,2530,1589285292106091847,,0.499931432917,-0.153124447089,0.202338916122
1589285292109161463,2531,1589285292109028094,,0.49993049603,-0.153132861733,0.202341037537
1589285292115210900,2532,1589285292115020990,,0.499929438993,-0.153150300199,0.202345082437
1589285292118176781,2533,1589285292118037585,,0.499929480729,-0.153159982034,0.202347838732
1589285292124460607,2534,1589285292124321983,,0.499929822675,-0.15317016733,0.202351251955
1589285292127533690,2535,1589285292127408108,,0.499930845022,-0.153180270177,0.202355157789
1589285292133179509,2536,1589285292133025412,,0.499931679323,-0.153190908208,0.202359772327
1589285292136240162,2537,1589285292136055748,,0.499933301529,-0.153200143158,0.202363186868
1589285292145165182,2538,1589285292145055008,,0.49993739772,-0.153221398107,0.202374275051
1589285292148173347,2539,1589285292148028459,,0.499939855552,-0.153232804333,0.202380283626
1589285292151149107,2540,1589285292151028839,,0.499941861784,-0.153244459002,0.202384232051
1589285292157251887,2541,1589285292157049978,,0.499944647581,-0.15325581614,0.20238914401
1589285292160209214,2542,1589285292160077697,,0.499946661349,-0.153266048449,0.202393702722
1589285292166498842,2543,1589285292166392872,,0.499949082046,-0.153278890036,0.202396018967
1589285292169255963,2544,1589285292169040722,,0.499951247846,-0.153290048857,0.202398018098
1589285292172780159,2545,1589285292172684643,,0.499953709618,-0.153300219658,0.202398704763
1589285292175182820,2546,1589285292175047513,,0.499955563546,-0.153311151637,0.202397565395
1589285292181255175,2547,1589285292181060921,,0.499957434397,-0.153319896587,0.202397929335
1589285292184183521,2548,1589285292184064268,,0.499958647948,-0.153328228863,0.202397737186
1589285292190191776,2549,1589285292190050084,,0.499960058118,-0.153337351598,0.202397876317
1589285292193249642,2550,1589285292193166715,,0.499960780065,-0.153348423189,0.202398438742
1589285292196329419,2551,1589285292196151416,,0.49996330505,-0.153357930678,0.202399767918
1589285292199413065,2552,1589285292199286905,,0.499965621341,-0.1533683853,0.20240170527
1589285292208243118,2553,1589285292208077208,,0.499968048559,-0.153379946982,0.202403977394
1589285292211226657,2554,1589285292211078795,,0.499970490718,-0.153390833567,0.202406245379
1589285292214182670,2555,1589285292214088227,,0.499972235393,-0.153400763069,0.202407198555
1589285292217202183,2556,1589285292217078060,,0.499974510685,-0.153412139656,0.202408495926
1589285292220192677,2557,1589285292220100932,,0.499976198853,-0.153421326317,0.202408996252
1589285292223635142,2558,1589285292223456468,,0.499978926298,-0.153431750807,0.202411160942
1589285292229150997,2559,1589285292229045121,,0.499980749844,-0.153440907999,0.202410746604
1589285292238219260,2560,1589285292238056533,,0.499985952778,-0.15346118452,0.202410205367
1589285292241163594,2561,1589285292241078562,,0.499988075446,-0.153469430569,0.20240885016
1589285292244248951,2562,1589285292244068697,,0.499989915278,-0.153478788994,0.202406004472
1589285292247126542,2563,1589285292247035938,,0.499991020484,-0.153486733093,0.202405678118
1589285292253210436,2564,1589285292253062694,,0.499991635044,-0.15349543254,0.20240463597
1589285292256155383,2565,1589285292256049020,,0.499992788546,-0.153503997279,0.202404710077
1589285292262267659,2566,1589285292262118618,,0.499993362624,-0.153511663699,0.202404113264
1589285292265216092,2567,1589285292265112223,,0.499994083472,-0.153519912026,0.202403931654
1589285292268194102,2568,1589285292268075253,,0.499995802096,-0.153525618064,0.202404996349
1589285292271149554,2569,1589285292271042117,,0.499996712476,-0.153532766812,0.202404362724
1589285292277232301,2570,1589285292277098358,,0.49999851817,-0.153538624093,0.202405727409
1589285292280188010,2571,1589285292280086955,,0.500000056957,-0.153546018728,0.20240549281
1589285292286205133,2572,1589285292286107436,,0.500000907974,-0.153553244364,0.202403602894
1589285292289271781,2573,1589285292289135967,,0.500002560713,-0.153560025539,0.20240391793
1589285292298272082,2574,1589285292298097443,,0.500005856187,-0.153568382546,0.202401701064
1589285292301246709,2575,1589285292301113775,,0.500007620767,-0.153572144126,0.202399470686
1589285292307150237,2576,1589285292307065573,,0.500009229959,-0.153576596936,0.202398885764
1589285292310210556,2577,1589285292310039549,,0.500010333275,-0.153579544638,0.20239680336
1589285292313360609,2578,1589285292313069377,,0.500012467369,-0.153581798905,0.202396357624
1589285292316148780,2579,1589285292316037849,,0.500014110017,-0.153584120998,0.202396520398
1589285292322276463,2580,1589285292322141615,,0.500015645915,-0.153585514637,0.202395498416
1589285292325979946,2581,1589285292325890545,,0.500017090414,-0.153586213397,0.20239567791
1589285292328148770,2582,1589285292328055688,,0.500018622223,-0.153589841347,0.202395689186
1589285292334298025,2583,1589285292334092696,,0.500020067488,-0.15358989765,0.202395743239
1589285292337305953,2584,1589285292337147085,,0.500021883287,-0.153589917595,0.202395930487
1589285292340221320,2585,1589285292340077618,,0.500022783392,-0.153591845544,0.20239494029
1589285292346177437,2586,1589285292346041308,,0.500024881569,-0.153592064637,0.202394146767
1589285292349145499,2587,1589285292349045683,,0.500026723113,-0.153592964109,0.202393265987
1589285292352836688,2588,1589285292352758668,,0.500027190198,-0.15359435001,0.202391680166
1589285292358137460,2589,1589285292358046863,,0.500029531719,-0.153594526081,0.202390583177
1589285292361182109,2590,1589285292361075029,,0.500031011009,-0.153596975725,0.20238870378
1589285292364139646,2591,1589285292364044145,,0.500031897676,-0.153595720068,0.202386764986
1589285292370285843,2592,1589285292370178547,,0.5000331746,-0.153596422333,0.202385389543
1589285292373205888,2593,1589285292373077839,,0.500034526129,-0.153596997121,0.20238401845
1589285292376195055,2594,1589285292376102726,,0.500035677496,-0.153596451574,0.202382639339
1589285292382193096,2595,1589285292382106780,,0.50003722746,-0.153597149353,0.202382654905
1589285292385307127,2596,1589285292385161561,,0.500038718336,-0.153598481991,0.2023826914
1589285292388271714,2597,1589285292388166213,,0.500039295162,-0.153598024064,0.202381580845
1589285292394248987,2598,1589285292394143349,,0.50004083957,-0.153597396403,0.202381477871
1589285292397294663,2599,1589285292397161486,,0.500042041354,-0.153597950664,0.202381585361
1589285292400267376,2600,1589285292400056620,,0.50004310656,-0.153597479035,0.20238002204
1589285292409193072,2601,1589285292409067750,,0.500044472229,-0.153597869999,0.202380637224
1589285292415236259,2602,1589285292415148135,,0.500047092405,-0.15359719489,0.202379204073
1589285292418179467,2603,1589285292418113283,,0.5000483952,-0.153598514026,0.202378441375
1589285292421247354,2604,1589285292421120019,,0.50004968078,-0.153597291138,0.202377525457
1589285292427656002,2605,1589285292427454847,,0.500050776813,-0.153597873298,0.202376138332
1589285292430230234,2606,1589285292430094429,,0.500051686993,-0.153597488537,0.202374910848
1589285292433166370,2607,1589285292433045014,,0.500052724884,-0.153596276476,0.20237321347
1589285292442169526,2608,1589285292442059406,,0.50005461799,-0.153597140589,0.202371951815
1589285292445169743,2609,1589285292445086788,,0.500056339731,-0.153596663687,0.202372133156
1589285292451192928,2610,1589285292451066972,,0.500057151152,-0.153596355417,0.202370917525
1589285292454211010,2611,1589285292454112180,,0.500057875655,-0.153596781878,0.202369941657
1589285292457225415,2612,1589285292457088542,,0.500059400065,-0.153597299806,0.202369016898
1589285292463268794,2613,1589285292463132702,,0.500060528896,-0.153597844241,0.202368673362
1589285292466398019,2614,1589285292466304713,,0.50006144027,-0.153597222853,0.202366698781
1589285292469233094,2615,1589285292469110334,,0.500062201682,-0.153598365,0.20236524935
1589285292475186348,2616,1589285292475054786,,0.500063401442,-0.15360067496,0.202363822143
1589285292478207022,2617,1589285292478035666,,0.500063973676,-0.153601148099,0.202361715156
1589285292481138695,2618,1589285292481031791,,0.500065760596,-0.153602637118,0.202360900284
1589285292487164316,2619,1589285292487074871,,0.500067849061,-0.153602861456,0.202360308088
1589285292490148727,2620,1589285292490048813,,0.500069289675,-0.153606049641,0.20235876214
1589285292493217447,2621,1589285292493084513,,0.500071254851,-0.153607450568,0.202358404487
1589285292499373113,2622,1589285292499183082,,0.500072343092,-0.153610059151,0.202354591326
1589285292505228432,2623,1589285292505102509,,0.500074012377,-0.153612001552,0.202355445305
1589285292508240909,2624,1589285292508089273,,0.500076166666,-0.153614661736,0.202354210483
1589285292511224293,2625,1589285292511081070,,0.500078276357,-0.153617816459,0.202353925888
1589285292514239161,2626,1589285292514102213,,0.500079448548,-0.153621788086,0.202352669341
1589285292520165627,2627,1589285292520048170,,0.500081402651,-0.153624757477,0.202352607467
1589285292523628868,2628,1589285292523492544,,0.500083120206,-0.153628296408,0.202351664189
1589285292526607653,2629,1589285292526435977,,0.500084464225,-0.153633779106,0.202350793857
1589285292533158132,2630,1589285292533047779,,0.50008540105,-0.15364121455,0.202349050395
1589285292535217702,2631,1589285292535099227,,0.500086803936,-0.153651298781,0.202347902192
1589285292538276328,2632,1589285292538145645,,0.500088842007,-0.153660919061,0.202347338143
1589285292544238069,2633,1589285292544102025,,0.500089848592,-0.153667703898,0.202345088179
1589285292547263597,2634,1589285292547083453,,0.50009191997,-0.15367441799,0.202346286355
1589285292553209878,2635,1589285292553099200,,0.500092941207,-0.15368067705,0.202344602588
1589285292556220950,2636,1589285292556095083,,0.500093605454,-0.153687827295,0.202343574524
1589285292559705733,2637,1589285292559617376,,0.500094677049,-0.153693541682,0.202343361711
1589285292562170870,2638,1589285292562068172,,0.500096012019,-0.153699606735,0.202342845493
1589285292568198053,2639,1589285292568092227,,0.500096555313,-0.15370674391,0.20234164596
1589285292571214925,2640,1589285292571077371,,0.500097226659,-0.153716759045,0.202341193512
1589285292577231965,2641,1589285292577120043,,0.500098619466,-0.153725308114,0.202340679987
1589285292580203731,2642,1589285292580072049,,0.500098359647,-0.153734255551,0.20233762206
1589285292583244508,2643,1589285292583125101,,0.500098276266,-0.153747420462,0.202333378085
1589285292586245582,2644,1589285292586128611,,0.500098872239,-0.153757828884,0.202332183739
1589285292595205788,2645,1589285292595067019,,0.500097744052,-0.153782913558,0.202324601191
1589285292602839480,2646,1589285292602722555,,0.500097108,-0.153796226258,0.202322281632
1589285292607250778,2647,1589285292607103679,,0.500097545711,-0.153808395296,0.202321157383
1589285292610155767,2648,1589285292610063024,,0.500097577101,-0.153821092478,0.202317964739
1589285292613151906,2649,1589285292613069165,,0.500098110085,-0.15383536345,0.202315974307
1589285292616183876,2650,1589285292616086969,,0.500098958243,-0.153848483987,0.20231199598
1589285292619198531,2651,1589285292619086378,,0.5001003326,-0.153863707512,0.202310978951
1589285292625396799,2652,1589285292625316100,,0.500100777391,-0.153874980602,0.202307280433
1589285292628176488,2653,1589285292628099819,,0.500101117102,-0.153890606786,0.202302574187
1589285292631210713,2654,1589285292631108964,,0.50010162758,-0.15390549693,0.202299914008
1589285292634269420,2655,1589285292634123341,,0.500101192293,-0.153917396321,0.202296920441
1589285292640194135,2656,1589285292640090396,,0.500102454516,-0.153929041487,0.202295208262
1589285292643204387,2657,1589285292643076212,,0.500102754883,-0.153943530276,0.202291273914
1589285292649209104,2658,1589285292649096852,,0.500104338801,-0.153956898127,0.202289194713
1589285292658272570,2659,1589285292658153975,,0.50010493444,-0.153982503249,0.202281252886
1589285292661123267,2660,1589285292661044675,,0.500105225035,-0.153993927596,0.202276839507
1589285292664154462,2661,1589285292664049392,,0.500106205401,-0.154008408232,0.202273257373
1589285292667195561,2662,1589285292667080563,,0.500105902014,-0.154021386636,0.202267700894
1589285292673206457,2663,1589285292673088704,,0.500106836151,-0.154034219995,0.202263058771
1589285292676213052,2664,1589285292676068945,,0.500107718325,-0.154045453097,0.202257871834
1589285292679210493,2665,1589285292679135733,,0.500108605667,-0.154058209266,0.202254387521
1589285292685269806,2666,1589285292685081689,,0.500109207629,-0.154069466901,0.202250733341
1589285292688216468,2667,1589285292688092222,,0.500110427729,-0.154082830545,0.202247239966
1589285292691188627,2668,1589285292691069660,,0.500111284819,-0.154097287588,0.202243015836
1589285292697296732,2669,1589285292697099156,,0.500113101106,-0.154110750376,0.202240029347
1589285292700270776,2670,1589285292700093456,,0.500114424258,-0.154123960644,0.202235299461
1589285292706319063,2671,1589285292706148396,,0.500116563109,-0.154138240124,0.202231807484
1589285292709286942,2672,1589285292709157868,,0.500117995093,-0.154150990027,0.20222728698
1589285292715272610,2673,1589285292715124054,,0.500119988732,-0.154178346091,0.202216985293
1589285292721222436,2674,1589285292721115306,,0.500120700948,-0.154191082865,0.202211173221
1589285292724499110,2675,1589285292724354493,,0.500121875438,-0.154205705581,0.20220755495
1589285292727620577,2676,1589285292727506910,,0.500123416253,-0.154220089112,0.202203439255
1589285292733246459,2677,1589285292733135682,,0.500124395856,-0.154234954584,0.202198494026
1589285292736343417,2678,1589285292736157722,,0.500125718452,-0.154251236124,0.202193776032
1589285292746135415,2679,1589285292746019802,,0.500128007078,-0.154283631858,0.202184463876
1589285292748256399,2680,1589285292748123854,,0.500128827621,-0.154299211408,0.202177245075
1589285292751237434,2681,1589285292751132319,,0.500130624986,-0.154313802764,0.202173534528
1589285292760301003,2682,1589285292760125069,,0.500132446826,-0.154325880111,0.202170980403
1589285292763238493,2683,1589285292763096087,,0.500133743243,-0.154341505242,0.202166665875
1589285292766222372,2684,1589285292766093825,,0.500135259243,-0.154357605119,0.202161528649
1589285292769219710,2685,1589285292769091826,,0.500136696852,-0.154375461852,0.202157697086
1589285292775266688,2686,1589285292775104434,,0.500139447206,-0.154405115075,0.202150132728
1589285292781251132,2687,1589285292781103458,,0.500141063386,-0.1544231296,0.202147899114
1589285292784341088,2688,1589285292784094244,,0.500142485986,-0.154438309836,0.202145106123
1589285292787222207,2689,1589285292787130922,,0.500143108902,-0.154456794893,0.202138814442
1589285292793260973,2690,1589285292793152426,,0.500144051095,-0.15447573698,0.20213420906
1589285292796278257,2691,1589285292796148929,,0.500144935417,-0.15449381241,0.202129472485
1589285292802290669,2692,1589285292802158003,,0.500145787913,-0.154511790655,0.202125224554
1589285292808318669,2693,1589285292808186316,,0.500146431457,-0.154524781727,0.202121742908
1589285292811240666,2694,1589285292811127240,,0.500147607943,-0.154544078015,0.202118785367
1589285292817380616,2695,1589285292817151283,,0.500149339767,-0.154564444933,0.202115551943
1589285292820277387,2696,1589285292820152416,,0.500150108581,-0.154581640691,0.202111745842
1589285292823703409,2697,1589285292823546510,,0.50015162366,-0.154600981001,0.20210823946
1589285292826639362,2698,1589285292826544218,,0.500153055021,-0.154624119566,0.202104861805
1589285292829247393,2699,1589285292829148819,,0.50015443571,-0.15464668819,0.202100105366
1589285292838300394,2700,1589285292838172027,,0.50015407512,-0.154690507461,0.202091188503
1589285292841228761,2701,1589285292841122391,,0.500155619342,-0.154710914567,0.202087347962
1589285292847233521,2702,1589285292847105366,,0.500155858964,-0.154732288629,0.202081454077
1589285292850269881,2703,1589285292850088804,,0.500157260903,-0.154753956836,0.202078257744
1589285292853287731,2704,1589285292853154062,,0.500158089596,-0.154776215666,0.202073878597
1589285292859862976,2705,1589285292859760600,,0.500159148754,-0.154798247181,0.20206937275
1589285292862219402,2706,1589285292862134140,,0.500160202829,-0.154823274827,0.202063618099
1589285292865215491,2707,1589285292865145015,,0.500159849249,-0.154843786695,0.202057076231
1589285292868254001,2708,1589285292868117315,,0.500160725411,-0.154868619988,0.20205460673
1589285292874357688,2709,1589285292874176240,,0.500160275545,-0.154895374316,0.202049253768
1589285292880267002,2710,1589285292880126087,,0.500161393047,-0.154918146832,0.202046419542
1589285292883217410,2711,1589285292883107562,,0.50016363058,-0.154942378698,0.202044098295
1589285292889288707,2712,1589285292889157639,,0.500164321796,-0.154968198083,0.202039428375
1589285292898364497,2713,1589285292898173384,,0.500168589607,-0.155018417514,0.20203184692
1589285292901298983,2714,1589285292901158426,,0.500169982412,-0.155042628395,0.202026730169
1589285292907299947,2715,1589285292907184604,,0.500170504503,-0.155068251912,0.202023127923
1589285292910240248,2716,1589285292910137921,,0.500171505651,-0.155091438537,0.202021380304
1589285292913258921,2717,1589285292913149412,,0.50017149592,-0.155117389828,0.202016143586
1589285292916273381,2718,1589285292916145656,,0.500173855362,-0.155143332352,0.202012432085
1589285292919558280,2719,1589285292919469874,,0.500175774077,-0.155168678159,0.202008474778
1589285292922257523,2720,1589285292922179249,,0.500176575241,-0.155190549017,0.20200175769
1589285292931268708,2721,1589285292931190741,,0.500178918251,-0.155241035204,0.201992148555
1589285292934277244,2722,1589285292934182338,,0.500178400299,-0.155266141278,0.20198713185
1589285292937357679,2723,1589285292937205895,,0.500179359395,-0.155288729168,0.201982608744
1589285292943384346,2724,1589285292943190420,,0.500180732778,-0.155315205613,0.201978180735
1589285292946197503,2725,1589285292946100949,,0.500181435135,-0.155346807332,0.201973970126
1589285292949285179,2726,1589285292949159889,,0.500182894572,-0.155376308978,0.201969156015
1589285292958271026,2727,1589285292958155919,,0.500183689162,-0.15540246921,0.201963646668
1589285292961279482,2728,1589285292961149611,,0.500185057382,-0.155424497588,0.201959985006
1589285292964311109,2729,1589285292964211475,,0.500185952153,-0.155454024327,0.201956949013
1589285292970340560,2730,1589285292970179324,,0.500185834383,-0.155485083843,0.201955068726
1589285292973217158,2731,1589285292973133148,,0.500185013154,-0.155511749923,0.201949292941
1589285292976218690,2732,1589285292976127102,,0.500185506981,-0.155542105582,0.201941063441
1589285292979412325,2733,1589285292979293657,,0.500186416521,-0.155579028832,0.201939330934
1589285292982347489,2734,1589285292982195620,,0.500187574874,-0.15561360967,0.201933218928
1589285292988370111,2735,1589285292988200522,,0.500186778917,-0.155649157865,0.201923172263
1589285292994366528,2736,1589285292994168534,,0.500186710811,-0.155684077303,0.201917859176
1589285293000305901,2737,1589285293000194397,,0.500185537425,-0.155721917105,0.201908590251
1589285293006311548,2738,1589285293006135098,,0.500185006176,-0.155754963466,0.20190220343
1589285293009403707,2739,1589285293009219736,,0.500186906739,-0.155795798987,0.201899224391
1589285293013201379,2740,1589285293013077813,,0.500186163401,-0.155836998433,0.201889135828
1589285293018394691,2741,1589285293018231858,,0.500186413447,-0.155878666372,0.201880679004
1589285293021351175,2742,1589285293021199829,,0.500187252786,-0.155918618033,0.201876188691
1589285293024489289,2743,1589285293024384434,,0.50018722318,-0.155962626191,0.201865523015
1589285293027738916,2744,1589285293027581320,,0.500186111867,-0.156008251235,0.201857531271
1589285293033310790,2745,1589285293033203006,,0.500185945299,-0.156049849701,0.201850617322
1589285293036385555,2746,1589285293036204833,,0.500186383296,-0.156094874955,0.201842392913
1589285293040049443,2747,1589285293039928994,,0.500186228886,-0.156141803544,0.201835688601
1589285293042303256,2748,1589285293042190384,,0.500185024411,-0.156188456191,0.201826686256
1589285293048374802,2749,1589285293048198276,,0.500185067826,-0.156233493804,0.20181801669
1589285293054296857,2750,1589285293054163300,,0.500184597371,-0.156276872672,0.201809252424
1589285293060730524,2751,1589285293060544071,,0.500184689156,-0.156324510127,0.201800325654
1589285293066552641,2752,1589285293066430231,,0.500184159413,-0.156374616772,0.201793063368
1589285293069285696,2753,1589285293069184379,,0.50018444838,-0.156420640254,0.201784735525
1589285293073549075,2754,1589285293073375749,,0.50018520583,-0.156470291229,0.201776356246
1589285293078449881,2755,1589285293078224990,,0.5001853419,-0.156519713679,0.201770085351
1589285293081305962,2756,1589285293081184994,,0.500186538243,-0.156564640047,0.201762761566
1589285293087507485,2757,1589285293087229609,,0.500186230403,-0.156619777854,0.201754556544
1589285293093463567,2758,1589285293093305331,,0.500184844857,-0.156668698066,0.2017471594
1589285293099710454,2759,1589285293099556080,,0.500185585553,-0.156723364529,0.201740158314
1589285293102324036,2760,1589285293102174760,,0.500186579075,-0.156776769907,0.201734660327
1589285293108318336,2761,1589285293108192353,,0.500186709505,-0.156830711096,0.201727728146
1589285293111379080,2762,1589285293111206238,,0.500186068073,-0.156885152004,0.201716659254
1589285293117324721,2763,1589285293117202705,,0.500187196413,-0.156943543353,0.2017100494
1589285293120318611,2764,1589285293120206112,,0.500186621965,-0.15700119862,0.201701510183
1589285293123745229,2765,1589285293123613669,,0.500185126085,-0.157062576051,0.201691817159
1589285293126599410,2766,1589285293126495512,,0.500184906225,-0.157120395454,0.201684688756
1589285293138364390,2767,1589285293138259695,,0.500182921695,-0.157241947176,0.201670696439
1589285293144422147,2768,1589285293144248108,,0.500182478761,-0.157304384868,0.201660201473
1589285293150351297,2769,1589285293150211651,,0.500183281948,-0.157362364323,0.201651484141
1589285293153310389,2770,1589285293153182697,,0.500182929077,-0.157424371052,0.201643306726
1589285293159612178,2771,1589285293159485421,,0.500182414142,-0.157489193747,0.201632434835
1589285293168305640,2772,1589285293168208668,,0.500182459291,-0.157612928717,0.201615250463
1589285293174337850,2773,1589285293174236103,,0.500181417086,-0.15767479478,0.201605484766
1589285293180402675,2774,1589285293180223056,,0.500180867912,-0.157735601512,0.20159591176
1589285293186297014,2775,1589285293186195524,,0.500180354398,-0.157799657526,0.201584500916
1589285293195325813,2776,1589285293195213305,,0.50017853301,-0.157908119553,0.201564130837
1589285293201427432,2777,1589285293201293528,,0.500177209451,-0.157957809445,0.201553105336
1589285293207492919,2778,1589285293207314450,,0.500176845586,-0.158028790959,0.201545569067
1589285293210393699,2779,1589285293210269340,,0.500176328207,-0.158083577119,0.201535223527
1589285293216360422,2780,1589285293216178907,,0.50017603673,-0.158134826354,0.201525380944
1589285293219888452,2781,1589285293219780236,,0.500175154086,-0.158204262086,0.201513044659
1589285293222270255,2782,1589285293222174964,,0.500174207811,-0.158267698422,0.201502454935
1589285293231467212,2783,1589285293231236368,,0.500174316295,-0.158367959647,0.201482986164
1589285293237418966,2784,1589285293237213019,,0.500173110782,-0.158426096677,0.201470596392
1589285293240320975,2785,1589285293240188986,,0.500171494168,-0.158488109758,0.201464973758
1589285293246446093,2786,1589285293246253324,,0.500169821782,-0.158534777145,0.201456484921
1589285293255412299,2787,1589285293255227165,,0.500167455719,-0.15866691357,0.201433997604
1589285293261410316,2788,1589285293261214506,,0.500166910577,-0.158730155792,0.201418474827
1589285293267410261,2789,1589285293267230035,,0.50016741258,-0.15879418289,0.201407703435
1589285293273336275,2790,1589285293273208572,,0.500164368709,-0.158860626599,0.20139398266
1589285293276312882,2791,1589285293276193385,,0.500162195597,-0.158927801699,0.201381573432
1589285293279659250,2792,1589285293279560088,,0.500160062438,-0.158995111441,0.201371329327
1589285293286067517,2793,1589285293285912956,,0.500158353348,-0.159062568113,0.201360275039
1589285293291380806,2794,1589285293291248053,,0.500155632706,-0.159133775295,0.201350024388
1589285293297397437,2795,1589285293297253351,,0.500153999098,-0.159208287989,0.201338386767
1589285293300303644,2796,1589285293300205433,,0.500153231266,-0.15927957315,0.201327666499
1589285293306618582,2797,1589285293306526834,,0.500151257873,-0.159335660831,0.201318134433
1589285293309358810,2798,1589285293309219371,,0.500149029626,-0.159397523321,0.201308721982
1589285293315275493,2799,1589285293315159541,,0.50014658894,-0.15948042917,0.201296317219
1589285293321395221,2800,1589285293321181683,,0.500143043967,-0.159549922219,0.201287813196
1589285293324520432,2801,1589285293324414610,,0.500140653232,-0.15960866499,0.20127768919
1589285293327660150,2802,1589285293327554535,,0.500138969035,-0.15968982967,0.201268050022
1589285293333393913,2803,1589285293333262563,,0.500137983771,-0.159750366175,0.201260485954
1589285293342344446,2804,1589285293342248977,,0.50013435985,-0.159890414484,0.201237462881
1589285293346334453,2805,1589285293346231137,,0.500133744684,-0.159936211245,0.201230145399
1589285293348338531,2806,1589285293348234038,,0.500133950215,-0.159997230881,0.201222386751
1589285293351390326,2807,1589285293351227328,,0.500131751082,-0.160074386424,0.201216373168
1589285293354336446,2808,1589285293354258050,,0.500130651354,-0.160132219272,0.201206409994
1589285293360330274,2809,1589285293360198107,,0.50013014943,-0.160199454315,0.201198602045
1589285293366609639,2810,1589285293366459153,,0.500130596452,-0.160265533551,0.201192762735
1589285293378267866,2811,1589285293378183945,,0.50012867602,-0.160410124903,0.201174239362
1589285293384408482,2812,1589285293384288219,,0.500128055648,-0.160484981147,0.201166938698
1589285293387446392,2813,1589285293387214344,,0.50012604881,-0.160560633047,0.201155471348
1589285293393371181,2814,1589285293393215815,,0.500123626298,-0.160651649347,0.201145623895
1589285293405300171,2815,1589285293405196946,,0.500119270962,-0.160823426163,0.201121601615
1589285293411347555,2816,1589285293411212703,,0.500113728102,-0.160919459386,0.201104010644
1589285293417289480,2817,1589285293417204784,,0.500110851752,-0.161015621467,0.201091615132
1589285293423786976,2818,1589285293423658209,,0.500109106066,-0.161113205768,0.201079208521
1589285293426596112,2819,1589285293426491291,,0.500103706794,-0.161213286802,0.201066916508
1589285293429368916,2820,1589285293429243433,,0.500099669422,-0.161310453329,0.201048147334
1589285293435280708,2821,1589285293435181799,,0.500096479612,-0.161408618667,0.201039978663
1589285293441308866,2822,1589285293441200894,,0.500093489997,-0.161481281212,0.201027054971
1589285293447321105,2823,1589285293447187148,,0.500090972431,-0.161577175507,0.201012692444
1589285293453341050,2824,1589285293453201221,,0.500087572236,-0.161678982447,0.201002579311
1589285293459883102,2825,1589285293459791098,,0.500086344185,-0.161750157211,0.20099234803
1589285293471501607,2826,1589285293471272707,,0.500082907619,-0.161933938115,0.200969665308
1589285293477364046,2827,1589285293477228600,,0.500081328121,-0.162011410176,0.200959021979
1589285293483340938,2828,1589285293483246116,,0.500081963334,-0.162086953182,0.200944960763
1589285293489612924,2829,1589285293489354727,,0.500080220736,-0.162140792129,0.200934285786
1589285293495385844,2830,1589285293495247533,,0.500082227075,-0.162192672078,0.200925410337
1589285293501428465,2831,1589285293501285069,,0.500079498444,-0.16227771308,0.200913169086
1589285293507452898,2832,1589285293507313331,,0.500078025395,-0.16234793771,0.200900315247
1589285293513405595,2833,1589285293513254415,,0.500078893287,-0.162404646058,0.200890043984
1589285293520054277,2834,1589285293519952511,,0.500076957006,-0.162494466591,0.200876170489
1589285293531437875,2835,1589285293531247730,,0.500076120479,-0.162634112681,0.200850349707
1589285293537413412,2836,1589285293537220436,,0.500074345071,-0.162693604647,0.200839355722
1589285293543313480,2837,1589285293543185615,,0.500071565384,-0.162784790443,0.200827726715
1589285293549460523,2838,1589285293549256905,,0.500068030038,-0.162857272118,0.200819416727
1589285293555388676,2839,1589285293555231069,,0.500065437665,-0.162921963712,0.200808418877
1589285293561376915,2840,1589285293561256129,,0.50006214549,-0.163024233094,0.200793925186
1589285293567306755,2841,1589285293567199530,,0.500059031662,-0.163122927292,0.20078226285
1589285293573284945,2842,1589285293573201528,,0.500057734693,-0.163211448218,0.200766702882
1589285293576357845,2843,1589285293576267698,,0.50005879854,-0.163296707566,0.200755498169
1589285293582464694,2844,1589285293582319785,,0.500055970672,-0.163382540607,0.200742624565
1589285293588380424,2845,1589285293588265878,,0.500055040035,-0.163466978979,0.200732161022
1589285293594381912,2846,1589285293594258181,,0.500051880314,-0.163557275,0.200719561782
1589285293600426074,2847,1589285293600296319,,0.500050255545,-0.163646759128,0.200710128833
1589285293606839495,2848,1589285293606731791,,0.500049913366,-0.163734989899,0.2006951149
1589285293612446129,2849,1589285293612346100,,0.500049455449,-0.163829417616,0.200681695723
1589285293618388945,2850,1589285293618284595,,0.500049568868,-0.163922947942,0.200662803871
1589285293624689812,2851,1589285293624503620,,0.500051182165,-0.163984887949,0.200648418881
1589285293627653012,2852,1589285293627564224,,0.500051880225,-0.164058501604,0.200637965407
1589285293633413932,2853,1589285293633323134,,0.500049671196,-0.164167216818,0.200621657015
1589285293646255473,2854,1589285293646120418,,0.500047639553,-0.164321554561,0.200594561038
1589285293651470551,2855,1589285293651302273,,0.500046563792,-0.164430281697,0.200581542369
1589285293657421589,2856,1589285293657286818,,0.500046403331,-0.1645315241,0.200565629242
1589285293663403248,2857,1589285293663293018,,0.500045771438,-0.164622003957,0.200551973821
1589285293669438664,2858,1589285293669263851,,0.500044934446,-0.164714796135,0.200537701877
1589285293675521435,2859,1589285293675373860,,0.500044569215,-0.164806247821,0.200527570044
1589285293681400465,2860,1589285293681284688,,0.500042491296,-0.164901615476,0.200519890761
1589285293687464376,2861,1589285293687318682,,0.500040068469,-0.165004455928,0.200507640022
1589285293693412584,2862,1589285293693282890,,0.500036675524,-0.165106337701,0.200495034205
1589285293699439127,2863,1589285293699304882,,0.500033127814,-0.1652161458,0.200480202026
1589285293711508926,2864,1589285293711343895,,0.500028546133,-0.165405375124,0.200448657856
1589285293717466048,2865,1589285293717301784,,0.500026189955,-0.165488526916,0.20043535709
1589285293723816557,2866,1589285293723671527,,0.500022377891,-0.165618370055,0.200416966145
1589285293726677732,2867,1589285293726575227,,0.500017891277,-0.165716249565,0.200403206934
1589285293732456928,2868,1589285293732306266,,0.50001593386,-0.165794934416,0.200387657192
1589285293738426254,2869,1589285293738330428,,0.500014046831,-0.165912693141,0.200368363461
1589285293744501654,2870,1589285293744303736,,0.500013301979,-0.166020836003,0.200355722665
1589285293750464149,2871,1589285293750338239,,0.500012825721,-0.166113464234,0.200339251596
1589285293756401543,2872,1589285293756236725,,0.500012256128,-0.166201850367,0.200324997089
1589285293762452484,2873,1589285293762290584,,0.500011870825,-0.166291995791,0.200314555581
1589285293768494421,2874,1589285293768332661,,0.500011756376,-0.166377875313,0.200306134948
1589285293774526727,2875,1589285293774355689,,0.500011413496,-0.166471895887,0.200297699724
1589285293780341519,2876,1589285293780254332,,0.500009414015,-0.166565410926,0.200285944987
1589285293786671803,2877,1589285293786579228,,0.500008993298,-0.16666345307,0.200272792556
1589285293798538733,2878,1589285293798366008,,0.500006733926,-0.166874307331,0.20023774144
1589285293804529884,2879,1589285293804407702,,0.500006107498,-0.166987169788,0.200219607918
1589285293810392208,2880,1589285293810292305,,0.500002888971,-0.167103810247,0.200198075965
1589285293816413235,2881,1589285293816298720,,0.499999256407,-0.16722343769,0.20017554677
1589285293822412224,2882,1589285293822262199,,0.499995948311,-0.167340719648,0.200155122616
1589285293831409014,2883,1589285293831256507,,0.499986896751,-0.167589550055,0.200113853061
1589285293837625671,2884,1589285293837366751,,0.499984427363,-0.167712301494,0.200097994655
1589285293843456543,2885,1589285293843293534,,0.499980725149,-0.167840131173,0.200079466984
1589285293849405217,2886,1589285293849294874,,0.499976085908,-0.16797027486,0.20006366022
1589285293855338152,2887,1589285293855260255,,0.499972863993,-0.168097529363,0.200046036522
1589285293861414782,2888,1589285293861303728,,0.499969983039,-0.168221922358,0.200028785255
1589285293867447237,2889,1589285293867338384,,0.499967480342,-0.168343034589,0.200013260796
1589285293873450692,2890,1589285293873334014,,0.499964138233,-0.168432045606,0.199994494009
1589285293885437203,2891,1589285293885342687,,0.499957185294,-0.168650885161,0.19996334607
1589285293891501481,2892,1589285293891346817,,0.499953346144,-0.168744756991,0.199947931714
1589285293897443869,2893,1589285293897298122,,0.499951806658,-0.168821673247,0.199931744822
1589285293903938763,2894,1589285293903849668,,0.499950212764,-0.168936743218,0.199912491509
1589285293909458741,2895,1589285293909332050,,0.499948690191,-0.169042562934,0.199897626087
1589285293915426349,2896,1589285293915307709,,0.49994920443,-0.169126404731,0.199879627173
1589285293921389731,2897,1589285293921298504,,0.499949861777,-0.169209275281,0.199865884797
1589285293924627649,2898,1589285293924474965,,0.499949579793,-0.169292141465,0.19985317895
1589285293927692249,2899,1589285293927598662,,0.499949598195,-0.169377824952,0.199842214285
1589285293933588234,2900,1589285293933491504,,0.499949425358,-0.169468209967,0.199833671921
1589285293939688381,2901,1589285293939593324,,0.499946829416,-0.16956718636,0.199818455528
1589285293951473990,2902,1589285293951312436,,0.499946251059,-0.169783017463,0.199792763734
1589285293957409417,2903,1589285293957277258,,0.499945044815,-0.169899973396,0.199775974597
1589285293963505711,2904,1589285293963375170,,0.499939112611,-0.170118051334,0.199740796353
1589285293969485298,2905,1589285293969352608,,0.499934525207,-0.170220283811,0.199721473559
1589285293975614237,2906,1589285293975417754,,0.499927685797,-0.170372975964,0.199704879076
1589285293981477749,2907,1589285293981368564,,0.499921301857,-0.170489909053,0.199689462751
1589285293987511746,2908,1589285293987343412,,0.499917841225,-0.170591068738,0.199668042164
1589285294011480446,2909,1589285294011323113,,0.499910059628,-0.171082468911,0.19960025868
1589285294017524199,2910,1589285294017332844,,0.499908829908,-0.171182172395,0.199592919131
1589285294023874461,2911,1589285294023716209,,0.499909198536,-0.171274258311,0.199582624487
1589285294026761407,2912,1589285294026663405,,0.499907632183,-0.171370388516,0.199570432418
1589285294038509622,2913,1589285294038412427,,0.499907201486,-0.171559937105,0.199539277872
1589285294044466870,2914,1589285294044347579,,0.499908671815,-0.171660347948,0.199522103617
1589285294050414685,2915,1589285294050297908,,0.499907588037,-0.171760008111,0.199499643034
1589285294056398901,2916,1589285294056312194,,0.499911336757,-0.171859869659,0.199480550067
1589285294062514382,2917,1589285294062391429,,0.499909966828,-0.171965358859,0.199459249804
1589285294068522574,2918,1589285294068376257,,0.499908881881,-0.17207427471,0.199437570509
1589285294074473625,2919,1589285294074370998,,0.499908235427,-0.172184718516,0.199419498103
1589285294080474603,2920,1589285294080369498,,0.499905603693,-0.172301380405,0.199400132034
1589285294086483935,2921,1589285294086385464,,0.499903252567,-0.172385879309,0.199384596507
1589285294092938784,2922,1589285294092846505,,0.499899057541,-0.172487888548,0.199369112722
1589285294098466148,2923,1589285294098363266,,0.499894853273,-0.172640214965,0.199361178884
1589285294104570206,2924,1589285294104382867,,0.499889353443,-0.172760770441,0.199349937647
1589285294110491392,2925,1589285294110351290,,0.499886763773,-0.172868494956,0.19933992924
1589285294116490725,2926,1589285294116385222,,0.499883806367,-0.173023574565,0.19933073948
1589285294122392777,2927,1589285294122313741,,0.499881588961,-0.173165390015,0.199321807187
1589285294126287018,2928,1589285294126218071,,0.499880268706,-0.173283343245,0.199310805883
1589285294131439565,2929,1589285294131349384,,0.499878614153,-0.173398468736,0.199298751478
1589285294137529198,2930,1589285294137372481,,0.499876279351,-0.173477460346,0.199287691134
1589285294143495711,2931,1589285294143376009,,0.499873765073,-0.17358483479,0.199277886636
1589285294149466246,2932,1589285294149374066,,0.499868960103,-0.17370427924,0.199264424443
1589285294155469459,2933,1589285294155327513,,0.499865475228,-0.173773291504,0.199251615034
1589285294161538531,2934,1589285294161401209,,0.499866254909,-0.173871791874,0.199231674679
1589285294167571527,2935,1589285294167399843,,0.499864938207,-0.17397857817,0.199216730407
1589285294173498562,2936,1589285294173395135,,0.499867804395,-0.174065006253,0.199193858141
1589285294179983188,2937,1589285294179843658,,0.49986921184,-0.174151970652,0.199172089623
1589285294185525023,2938,1589285294185416598,,0.49987296954,-0.174231833183,0.199157408251
1589285294191528210,2939,1589285294191397746,,0.4998733074,-0.174322727862,0.199140816513
1589285294197541160,2940,1589285294197358515,,0.499873389958,-0.174412689297,0.199124753213
1589285294203520062,2941,1589285294203392276,,0.499874202003,-0.174511073808,0.199111202981
1589285294209561366,2942,1589285294209373954,,0.499873787183,-0.174606340829,0.199093596852
1589285294215546350,2943,1589285294215429995,,0.499874627031,-0.174684461951,0.199076195842
1589285294221544417,2944,1589285294221403871,,0.499874769903,-0.174775844385,0.199060527185
1589285294227831013,2945,1589285294227703254,,0.499870944765,-0.174924974827,0.199044643011
1589285294233520935,2946,1589285294233395731,,0.49986728696,-0.175037830614,0.199028637163
1589285294246369609,2947,1589285294246238015,,0.499858633969,-0.175300639011,0.198989533366
1589285294251568440,2948,1589285294251441010,,0.49985421505,-0.175441761396,0.198975434634
1589285294257550499,2949,1589285294257335357,,0.49984982197,-0.175565531541,0.198954697908
1589285294263592000,2950,1589285294263424679,,0.499845829566,-0.175687578883,0.198938515857
1589285294269429375,2951,1589285294269333541,,0.499839339538,-0.175803418521,0.198923868231
1589285294275566502,2952,1589285294275438460,,0.49983680842,-0.175916749523,0.198913577355
1589285294281686001,2953,1589285294281466275,,0.499832838367,-0.176027027489,0.198900221033
1589285294287583344,2954,1589285294287444813,,0.4998297957,-0.176138134172,0.198888316184
1589285294293553288,2955,1589285294293465420,,0.49983059745,-0.17624107807,0.198877206654
1589285294311690312,2956,1589285294311430310,,0.499834556915,-0.176501208743,0.198833371191
1589285294317546022,2957,1589285294317439230,,0.499835916687,-0.176563710331,0.198820402451
1589285294323896043,2958,1589285294323744132,,0.499837271481,-0.176675884368,0.198809751529
1589285294326809879,2959,1589285294326696945,,0.499836622522,-0.176748835776,0.198795678218
1589285294338599382,2960,1589285294338465875,,0.499839635473,-0.176922463069,0.198760172039
1589285294344530367,2961,1589285294344375750,,0.499838049887,-0.177032357037,0.198745361285
1589285294350529666,2962,1589285294350414822,,0.499836661648,-0.177129585589,0.198725117765
1589285294356534584,2963,1589285294356400000,,0.499836085797,-0.177224788727,0.198714021057
1589285294362530726,2964,1589285294362397770,,0.499832992427,-0.177330736513,0.198702563907
1589285294368573683,2965,1589285294368422816,,0.49982687223,-0.177445106243,0.198688575827
1589285294374695202,2966,1589285294374424172,,0.499822157799,-0.17755963724,0.19868217833
1589285294380524961,2967,1589285294380426209,,0.499816623382,-0.177657350838,0.198675349806
1589285294386947948,2968,1589285294386784809,,0.499810544416,-0.177757852392,0.198665329397
1589285294398576487,2969,1589285294398456266,,0.499797897749,-0.177963979946,0.198645197002
1589285294404552013,2970,1589285294404427420,,0.499793657468,-0.178049499685,0.198635631883
1589285294410660891,2971,1589285294410467768,,0.499787758347,-0.178173361237,0.198629700404
1589285294416565480,2972,1589285294416435077,,0.499784975628,-0.178276865342,0.198618231842
1589285294422513241,2973,1589285294422420517,,0.499782118252,-0.178350881641,0.198601661415
1589285294428568391,2974,1589285294428397181,,0.499784029615,-0.178434098545,0.19859367927
1589285294434493258,2975,1589285294434377017,,0.499784425004,-0.178502735069,0.198582618193
1589285294440569859,2976,1589285294440435058,,0.49978618055,-0.178517856349,0.198577885752
1589285294446528204,2977,1589285294446429160,,0.499787174478,-0.178529838729,0.198571820159
1589285294458648070,2978,1589285294458464985,,0.499791141616,-0.178594720513,0.198569501523
1589285294464629239,2979,1589285294464407622,,0.499794817821,-0.178616898616,0.198563538391
1589285294470641525,2980,1589285294470433634,,0.49980156206,-0.17867618711,0.198552954302
1589285294476579895,2981,1589285294476410152,,0.499806796525,-0.178749086915,0.198544913669
1589285294482512013,2982,1589285294482404290,,0.499811196773,-0.178810846725,0.198531843971
1589285294488531166,2983,1589285294488408787,,0.499812571063,-0.178881301294,0.198514818371
1589285294494515550,2984,1589285294494402938,,0.499812142898,-0.178959703396,0.198501910843
1589285294500606447,2985,1589285294500390718,,0.499808042568,-0.179044380483,0.198486371297
1589285294506518225,2986,1589285294506358790,,0.499801104473,-0.179145691943,0.198468337789
1589285294518530946,2987,1589285294518404474,,0.499790486851,-0.179380891008,0.198429110128
1589285294524720274,2988,1589285294524626864,,0.49978386924,-0.179515504859,0.198403598865
1589285294527820913,2989,1589285294527690973,,0.499780532634,-0.179652773532,0.198383998301
1589285294533701651,2990,1589285294533531722,,0.499773074919,-0.179798075703,0.198364685224
1589285294539981649,2991,1589285294539885917,,0.499766935852,-0.179944394799,0.198348573832
1589285294551659371,2992,1589285294551502298,,0.499754629721,-0.180228014521,0.198319077542
1589285294557588205,2993,1589285294557423708,,0.499748997575,-0.18036364788,0.198304653782
1589285294563542760,2994,1589285294563397883,,0.499746181694,-0.180490747351,0.198290025873
1589285294569660918,2995,1589285294569406330,,0.499744031152,-0.180611640387,0.198275322821
1589285294575627689,2996,1589285294575452666,,0.499744298845,-0.180732612943,0.198263103233
1589285294581571187,2997,1589285294581449901,,0.499743992627,-0.180841959472,0.198244295001
