%time,field.header.seq,field.header.stamp,field.header.frame_id,field.wrench.force.x,field.wrench.force.y,field.wrench.force.z,field.wrench.torque.x,field.wrench.torque.y,field.wrench.torque.z
1589284545790020537,23227,1589284545789962973,,-0.175365242507,-0.764625594153,0.891973290791,0.2143296752,0.00466150582495,0.0443553944082
1589284545795937717,23228,1589284545795858256,,-0.153295238687,-0.76506827722,0.915190113236,0.215104253124,0.0046628636002,0.0436336218319
1589284545801880876,23229,1589284545801797865,,-0.175868876427,-0.765088100622,0.914870015632,0.216003006745,0.00401209591977,0.0444001429995
1589284545808163568,23230,1589284545808090481,,-0.176376421312,-0.765547606762,0.937878498561,0.216784785142,0.00466253379454,0.0435298719145
1589284545814038459,23231,1589284545813971654,,-0.177129398587,-0.895466161516,0.940273849505,0.217702891499,0.00466289699705,0.0435549171822
1589284545820036478,23232,1589284545819942441,,-0.154488592403,-0.895450198266,0.94061392939,0.218609674935,0.00466183024384,0.0437270894881
1589284545826096867,23233,1589284545826038577,,-0.154969111973,-0.895882189523,0.963503162349,0.220304807832,0.00466046302234,0.0428797420307
1589284545831968396,23234,1589284545831894196,,-0.155162885599,-1.02589579415,0.942887869425,0.219525500739,0.00401200228196,0.0437526453048
1589284545837913222,23235,1589284545837823161,,-0.154968613207,-0.895879453806,0.96350578628,0.222138955202,0.0040089209905,0.0420448533907
1589284545846059640,23236,1589284545845905589,,-0.156095943476,-1.0266984227,0.988632963429,0.223827306803,0.00465835755518,0.0420880193412
1589284545850001951,23237,1589284545849834130,,-0.155630778919,-1.02629834332,0.965753966301,0.223977820949,0.00465835529749,0.0412094638774
1589284545855967539,23238,1589284545855883109,,-0.200950152711,-1.02632400643,0.965055784355,0.223950001438,0.00400694383081,0.0435764326703
1589284545858973566,23239,1589284545858858612,,-0.156728633555,-1.15750999964,0.990710109787,0.225654469968,0.0046556537614,0.0421344813356
1589284545861930219,23240,1589284545861856244,,-0.179486209471,-1.15751673645,0.990340214324,0.227461951158,0.00400147532455,0.0438067054494
1589284545868224445,23241,1589284545868166845,,-0.179481886213,-1.15751452209,0.990343586007,0.227462113836,0.00400169504173,0.0438058406827
1589284545874074549,23242,1589284545873986448,,-0.134514651565,-1.15789231209,1.01394979696,0.227339333911,0.00465323995946,0.0414345457165
1589284545880394285,23243,1589284545880288403,,-0.134507372879,-1.1578961207,1.01394641325,0.227339509523,0.0046536301239,0.0414335383497
1589284545885944237,23244,1589284545885847378,,-0.181046441936,-1.28935524563,1.03807950782,0.228072882125,0.00399835330837,0.0447131365159
1589284545892151613,23245,1589284545892027675,,-0.180413346294,-1.15825786913,1.03619299321,0.23081864871,0.0039946861905,0.0447820002649
1589284545898257508,23246,1589284545898110313,,-0.202617786551,-1.15790285781,1.01284762324,0.231857728331,0.00399160440934,0.0464319205652
1589284545904102152,23247,1589284545903943275,,-0.2030892842,-1.15827045637,1.03582977768,0.232628853682,0.00398980599968,0.0464506133425
1589284545910048410,23248,1589284545909982103,,-0.203764778208,-1.28936733463,1.03770100956,0.232619633312,0.00398807547958,0.0473338448099
1589284545916110234,23249,1589284545916041152,,-0.226483465627,-1.28938700716,1.03732799359,0.23352116402,0.00398659872609,0.048982954016
1589284545921990861,23250,1589284545921915928,,-0.226485163637,-1.28938779598,1.03732664236,0.233521427553,0.00398526751473,0.0489818059609
1589284545928137775,23251,1589284545927973194,,-0.181031319621,-1.28937493138,1.03805769386,0.234438375315,0.00463667151669,0.0484132683965
1589284545934197011,23252,1589284545934106241,,-0.182078323125,-1.42107245175,1.06266739029,0.236115306624,0.00463445000501,0.049339729021
1589284545940056454,23253,1589284545939930760,,-0.182082287069,-1.42107672392,1.06266099802,0.236115471574,0.00463304291359,0.049339071793
1589284545946162954,23254,1589284545946080834,,-0.20484708047,-1.42107149544,1.06228910206,0.237016061216,0.00463201933867,0.0501051808107
1589284545950331255,23255,1589284545950196921,,-0.182527238677,-1.42139038352,1.08555177937,0.239649827319,0.0052819707367,0.0476483445479
1589284545954931497,23256,1589284545954850992,,-0.18208062391,-1.42107905991,1.06265815912,0.239779122536,0.00462720138384,0.0485450858697
1589284545961002837,23257,1589284545960911004,,-0.181937369327,-1.29006377812,1.08382659951,0.242393631219,0.00462338235687,0.0468298227664
1589284545967396479,23258,1589284545967269911,,-0.159662056173,-1.42140301613,1.08593019211,0.244231547453,0.00527536842589,0.0461287177717
1589284545973071935,23259,1589284545972939852,,-0.159665812261,-1.42140510201,1.08592690958,0.243332982596,0.00527598693839,0.0452210360819
1589284545979029980,23260,1589284545978924535,,-0.160117451166,-1.42171205832,1.10883447263,0.246836913772,0.00526969506594,0.0461922550835
1589284545985188394,23261,1589284545985048202,,-0.160127284406,-1.42171003684,1.10883564452,0.247745620233,0.00526713558167,0.0462148457991
1589284545990964942,23262,1589284545990890904,,-0.160130000236,-1.42170759149,1.10883838766,0.247745600112,0.00526687050829,0.0462149838738
1589284545997008882,23263,1589284545996922692,,-0.183012736246,-1.42166998019,1.10848795291,0.249554377072,0.00526237362162,0.047892037817
1589284546003080467,23264,1589284546003004457,,-0.183020725461,-1.42165634949,1.10850411545,0.249554489526,0.0052611956797,0.0478915812641
1589284546009015785,23265,1589284546008918874,,-0.205820329695,-1.42161110222,1.10817473529,0.250473020594,0.00460204271873,0.0477703158221
1589284546014967753,23266,1589284546014893274,,-0.206284343831,-1.42189950555,1.13120800029,0.253071667538,0.00459724100946,0.0478335829825
1589284546019590497,23267,1589284546019513236,,-0.206310025854,-1.42187005386,1.13124033587,0.255818410017,0.00458803024212,0.0478983475413
1589284546023950372,23268,1589284546023884565,,-0.206323551784,-1.42187010534,1.13123780428,0.255818632065,0.00458478288829,0.0478974725487
1589284546029954621,23269,1589284546029889851,,-0.184553814186,-1.55370001667,1.15609413875,0.259309051182,0.0039223758877,0.0490190656621
1589284546036064699,23270,1589284546035990134,,-0.184519238409,-1.55371463755,1.15608000826,0.2593093357,0.00392627759815,0.0490172481787
1589284546041962995,23271,1589284546041903622,,-0.184499116549,-1.55373955789,1.15604972731,0.260241247592,0.00458047815664,0.0481399851647
1589284546047944313,23272,1589284546047881107,,-0.184934892434,-1.55403429163,1.17896330819,0.261009202113,0.00457981050253,0.0481581528688
1589284546054038842,23273,1589284546053963380,,-0.184923601993,-1.55404736264,1.17894784963,0.263747630684,0.00522964133838,0.0491184352858
1589284546059944848,23274,1589284546059873261,,-0.162433645119,-1.5543621392,1.20225507122,0.265444503703,0.0052284993593,0.0475113072271
1589284546063311003,23275,1589284546063232666,,-0.185766113493,-1.55463277315,1.22490763117,0.267124168225,0.00457207828287,0.048295714766
1589284546069019080,23276,1589284546068916147,,-0.208139593614,-1.55433328876,1.20148958928,0.266343723413,0.00457474315781,0.0490235824661
1589284546074993309,23277,1589284546074921000,,-0.185846559099,-1.68599445802,1.20332498982,0.26819286007,0.00523122293079,0.0474366087128
1589284546080990079,23278,1589284546080875072,,-0.186281610205,-1.68626090986,1.22636273831,0.269851206094,0.0052287684493,0.0492623146279
1589284546088697724,23279,1589284546088566668,,-0.186298629392,-1.68626204821,1.22635858776,0.272595265569,0.00456806939624,0.049330477229
1589284546093073102,23280,1589284546093002854,,-0.186308787581,-1.68626354304,1.22635498914,0.273503253804,0.00456466454414,0.0502411661915
1589284546099166128,23281,1589284546099100427,,-0.186308783095,-1.68625903652,1.22636118636,0.273503307421,0.0045646451909,0.0502408760662
1589284546104925491,23282,1589284546104848042,,-0.186321629327,-1.68626408078,1.22635229875,0.273503151701,0.00456302395725,0.0502418710426
1589284546111275178,23283,1589284546111208694,,-0.209613535945,-1.68651824255,1.24890359545,0.275170754254,0.00456103760361,0.0510283367989
1589284546117108012,23284,1589284546117045285,,-0.186746889723,-1.68654068936,1.24928423064,0.276088059924,0.00455993813547,0.0511919394329
1589284546123237076,23285,1589284546123142555,,-0.209153774891,-1.68625770779,1.22595574907,0.276230794711,0.00456102429885,0.0510520042636
1589284546129175597,23286,1589284546129100747,,-0.210111764629,-1.81830229904,1.25023200136,0.279734463461,0.00455765430948,0.0520244282647
1589284546135213799,23287,1589284546135094241,,-0.210096064073,-1.81830217179,1.25023482493,0.279734525924,0.00455978435865,0.0520239057511
1589284546141242293,23288,1589284546141115507,,-0.210517209507,-1.81855832736,1.273176165,0.280489630194,0.00390364118455,0.0529314059842
1589284546147145633,23289,1589284546147070906,,-0.210509684854,-1.81855241502,1.27318585409,0.280489310293,0.00390618873527,0.0529329132174
1589284546153097013,23290,1589284546152997215,,-0.210498129552,-1.81855308851,1.27318680262,0.280502238256,0.00456474106928,0.0520428733935
1589284546159004989,23291,1589284546158940239,,-0.210485617633,-1.81855987261,1.27317918108,0.282318457251,0.00456527623077,0.0529786653105
1589284546165170331,23292,1589284546165103325,,-0.21100194144,-1.95044989798,1.27442496998,0.28231813766,0.00456546606601,0.0529803519912
1589284546170991413,23293,1589284546170921529,,-0.211005416308,-1.95044694572,1.27442891295,0.282317812143,0.0045662041354,0.052982022951
1589284546177055838,23294,1589284546176990207,,-0.188051651682,-1.81882845444,1.29662258699,0.284016969609,0.00456395090997,0.0522763457139
1589284546182955958,23295,1589284546182875030,,-0.210950107267,-1.81880774462,1.29623182355,0.284914273263,0.00390525154137,0.053046846403
1589284546190664116,23296,1589284546190591957,,-0.211377948244,-1.819064903,1.31918321423,0.287511966359,0.00455968145789,0.0531080771107
1589284546195133360,23297,1589284546195042571,,-0.211447348111,-1.95069115408,1.29746684695,0.288568817642,0.00389911249219,0.0540323766925
1589284546201007998,23298,1589284546200936018,,-0.211443572857,-1.95068707974,1.29747358778,0.288568997987,0.00389920137868,0.0540314071098
1589284546207067294,23299,1589284546206950258,,-0.211459571854,-1.95068039814,1.29748102582,0.28855797774,0.00389670319618,0.0549218651665
1589284546213014258,23300,1589284546212924667,,-0.211912043529,-1.95091264267,1.32044090972,0.289327155211,0.00455285653492,0.0549437111574
1589284546218932500,23301,1589284546218877267,,-0.211922454853,-1.95092484386,1.3204212117,0.291154641295,0.00454884424894,0.0549884135284
1589284546225043190,23302,1589284546224937804,,-0.234833348975,-1.95090090543,1.32003774583,0.292973408869,0.00454538117122,0.0557775527909
1589284546231016336,23303,1589284546230922639,,-0.212839238556,-2.08310748647,1.34457161987,0.294648725565,0.00454242872943,0.0559589107123
1589284546237078606,23304,1589284546236951158,,-0.212787125497,-1.95137653113,1.36638332038,0.294505690141,0.00388565717594,0.055956536767
1589284546242909051,23305,1589284546242843856,,-0.235696413652,-1.95135808417,1.36599145804,0.296326202184,0.00454119420819,0.0567465804263
1589284546248993138,23306,1589284546248918810,,-0.23619895738,-2.0833181637,1.36713155843,0.298131530196,0.00453755104793,0.0585826863459
1589284546254959709,23307,1589284546254875298,,-0.236164975163,-2.08332407709,1.36712841791,0.298131731133,0.00454142216346,0.0585813637814
1589284546259018632,23308,1589284546258938337,,-0.236159746927,-2.08332892797,1.36712192893,0.297222965287,0.00454319434636,0.0585594558834
1589284546264253203,23309,1589284546264161324,,-0.236159025539,-2.08332644569,1.36712583622,0.297223152605,0.00454278805335,0.0585585366532
1589284546270135122,23310,1589284546270040525,,-0.259716723077,-2.21535487546,1.36780842442,0.297226776174,0.00519982240376,0.0584188929548
1589284546275976988,23311,1589284546275890782,,-0.237101325492,-2.2155824495,1.39128240088,0.297088673303,0.00519857263253,0.0576631339857
1589284546281993838,23312,1589284546281920364,,-0.236179497484,-2.08332210204,1.36712891889,0.297247612994,0.00519800047065,0.0567651602515
1589284546287934361,23313,1589284546287866437,,-0.236655730533,-2.21537510024,1.36820643931,0.298145222061,0.00519813128141,0.0576875938961
1589284546294009175,23314,1589284546293951072,,-0.236609075542,-2.0835426985,1.39020615319,0.298005692147,0.0045393847958,0.0576841702047
1589284546299995939,23315,1589284546299923263,,-0.259659903851,-2.08352231783,1.38981271435,0.299824033877,0.00453503284217,0.0584789887619
1589284546305933583,23316,1589284546305888696,,-0.260171022478,-2.2155494093,1.39090271564,0.301642286443,0.00519069162332,0.0594153300451
1589284546311979645,23317,1589284546311925457,,-0.236602091541,-2.08353472039,1.39021929878,0.301663473756,0.00519190918696,0.0577684507937
1589284546317995007,23318,1589284546317952407,,-0.236608440905,-2.08353060012,1.39022439323,0.299833704276,0.00453606987091,0.0577258435409
1589284546324002705,23319,1589284546323936131,,-0.236622772765,-2.08352856017,1.39022501123,0.299833764184,0.00453392688779,0.0577257007264
1589284546328073837,23320,1589284546328000692,,-0.236629847532,-2.08352927059,1.39022274234,0.301661268296,0.0045307983977,0.0577700514815
1589284546333039890,23321,1589284546332991998,,-0.213668860474,-2.08355049407,1.39062191209,0.301670840839,0.00453319640378,0.0570207158021
1589284546338995843,23322,1589284546338925739,,-0.21364716036,-2.08355830405,1.3906135445,0.299852587162,0.00388082924869,0.0560760449775
1589284546348119011,23323,1589284546348021655,,-0.236606150936,-2.08353152714,1.39022339365,0.296199167289,0.00388817199544,0.0549599767763
1589284546354131723,23324,1589284546354046362,,-0.213663414311,-2.08355164826,1.39062101957,0.297127662772,0.00388678945875,0.0542332233225
1589284546360106216,23325,1589284546359973216,,-0.259124312149,-1.95158725588,1.38866619647,0.296200995921,0.00388902368357,0.0548106271721
1589284546366475806,23326,1589284546366382356,,-0.213657563272,-2.0835616568,1.39060692275,0.296231781796,0.00388909459996,0.0524193791308
1589284546372103909,23327,1589284546372030713,,-0.19119735917,-2.21562422391,1.39209202995,0.295332138423,0.00388780468053,0.0516523676721
1589284546378128180,23328,1589284546378003109,,-0.191185193249,-2.2156268559,1.39208951181,0.296252931202,0.00388763942747,0.0507815400845
1589284546384055049,23329,1589284546383972326,,-0.213235467769,-2.08333743148,1.36753394246,0.296379355426,0.00388739236995,0.0524232893185
1589284546390100956,23330,1589284546389992762,,-0.213226440568,-2.08334129741,1.36752946055,0.296378927932,0.00389005703705,0.0524255084789
1589284546396842513,23331,1589284546396712325,,-0.213677798366,-2.08354389346,1.39063042832,0.295312373052,0.00454903484472,0.0532939319015
1589284546402054424,23332,1589284546401958365,,-0.213254278771,-2.08331557153,1.36756431071,0.292733961168,0.00389507458245,0.0514522404205
1589284546408118537,23333,1589284546408045460,,-0.213253757805,-2.08332144464,1.36755544495,0.292724428126,0.00455217571123,0.0523428956021
1589284546414011364,23334,1589284546413930894,,-0.213258814572,-2.08332482901,1.36754950067,0.292722587961,0.003893480442,0.0523426046628
1589284546420260694,23335,1589284546420175346,,-0.213245831976,-2.08333327377,1.36753866031,0.291814891471,0.00389731612361,0.0514311912013
1589284546426073399,23336,1589284546425997319,,-0.213249322979,-2.08333247301,1.36753933583,0.291814713991,0.00389751461,0.0514321831498
1589284546430974637,23337,1589284546430870177,,-0.211872172662,-1.95091846932,1.32043869911,0.288464124084,0.00456301120126,0.0504621595179
1589284546435176222,23338,1589284546435080566,,-0.211883452887,-1.95090654957,1.32045450008,0.288464057575,0.00456210018175,0.0504626220804
1589284546441035425,23339,1589284546440978555,,-0.18985149279,-2.08312110889,1.34499357081,0.286495167415,0.00456603580632,0.0496666873544
1589284546447222241,23340,1589284546447149273,,-0.18850309719,-1.95069048636,1.29789955279,0.280451755888,0.00457889609705,0.0450572257581
1589284546452962606,23341,1589284546452913754,,-0.188492287236,-1.95069289683,1.29789749991,0.280451928969,0.00457961502816,0.0450560753608
1589284546459009328,23342,1589284546458949430,,-0.18808610455,-1.95045800866,1.27484022016,0.277830307094,0.0045804310242,0.0458967596536
1589284546462061450,23343,1589284546461979653,,-0.165083312191,-1.9504840531,1.27523700265,0.276954531037,0.00458159889686,0.0433381562386
1589284546468033953,23344,1589284546467973065,,-0.164668306832,-1.95024692292,1.25229095451,0.275266549769,0.00458482360693,0.0433036624306
1589284546474008785,23345,1589284546473956818,,-0.165104088105,-1.950480816,1.27523926414,0.27238981879,0.00458893326514,0.0423493094205
1589284546480144495,23346,1589284546480021926,,-0.165105276165,-1.95047986217,1.27524056921,0.27423009029,0.0045862871551,0.0414929131603
1589284546486127470,23347,1589284546486051992,,-0.165135266756,-1.95047568493,1.27524307506,0.27421774386,0.00458372016804,0.0423939035914
1589284546492067618,23348,1589284546491971542,,-0.165132556234,-1.95048012686,1.27523663213,0.274217537457,0.00458476709816,0.0423951254516
1589284546499292403,23349,1589284546499228808,,-0.16514179354,-1.95047829082,1.27523824417,0.272386929574,0.00393178169056,0.0423554428189
1589284546504075457,23350,1589284546503955358,,-0.188171353335,-1.95044839799,1.27484234389,0.272367235323,0.00458497300919,0.0439940720454
1589284546510309593,23351,1589284546510170549,,-0.165163707329,-1.95048224368,1.27522936023,0.27143416289,0.00458815308808,0.0450136491689
1589284546516070864,23352,1589284546516010751,,-0.165177334906,-1.95047535773,1.27523812727,0.269630765603,0.00524716881331,0.0431875035347
1589284546522041548,23353,1589284546521975422,,-0.164710923267,-1.81858033065,1.27398396936,0.266891145916,0.00459733439344,0.0431258090338
1589284546528012793,23354,1589284546527950828,,-0.16429023428,-1.81833505957,1.25102693829,0.264295659501,0.00460224607851,0.0421818075718
1589284546532662219,23355,1589284546532586620,,-0.163857613019,-1.81808927087,1.22807836262,0.262616272872,0.00394996122209,0.0421438921994
1589284546537127396,23356,1589284546537042353,,-0.163842293505,-1.81809645418,1.22806977208,0.261722098523,0.00460990277123,0.0403398950851
1589284546543043821,23357,1589284546542975258,,-0.163451054416,-1.81784285611,1.20503331083,0.260027633517,0.00395254261314,0.0411906569585
1589284546549473505,23358,1589284546549386385,,-0.163000725746,-1.81760742454,1.18208427074,0.257467706324,0.00461481262356,0.0384718191161
1589284546555213984,23359,1589284546555113430,,-0.162989801538,-1.81761852032,1.18206871572,0.257467295853,0.00461760777956,0.0384742306754
1589284546561239527,23360,1589284546561160136,,-0.117133144094,-1.81767048005,1.18287849891,0.25659356038,0.00527902188966,0.0351830219779
1589284546567771192,23361,1589284546567677214,,-0.11713337152,-1.81765848868,1.18289690273,0.256593655115,0.00527893371053,0.035182344293
1589284546573241647,23362,1589284546573170259,,-0.141389882249,-1.95005859924,1.22971458287,0.253531586461,0.0039746209776,0.0367436189039
1589284546579231985,23363,1589284546579158938,,-0.140952318506,-1.94983934074,1.20665470802,0.253681078128,0.00462958978017,0.0367480353019
1589284546585235299,23364,1589284546585167149,,-0.140067347676,-1.81763754304,1.18248350343,0.249278336452,0.00398124561268,0.0348705526012
1589284546591322513,23365,1589284546591168359,,-0.140029388291,-1.81764600771,1.18247498777,0.249279564188,0.00398051857794,0.0348618578047
1589284546597189891,23366,1589284546597116387,,-0.140398004526,-1.81790992208,1.20539140637,0.251879766469,0.00463188890149,0.034910343164
1589284546601566908,23367,1589284546601481297,,-0.140383261399,-1.81790784291,1.20539625916,0.251880060246,0.00463254427989,0.0349081365207
1589284546606318257,23368,1589284546606215922,,-0.140386361387,-1.81791520773,1.20538479087,0.251878489391,0.00397601184472,0.0349053976597
1589284546612308542,23369,1589284546612205823,,-0.140401677706,-1.8179245258,1.20536895364,0.251878018079,0.00397586747247,0.034908814932
1589284546618294832,23370,1589284546618169390,,-0.140416824,-1.8179088927,1.20539076667,0.252799252465,0.00397324518257,0.0340437483509
1589284546624201103,23371,1589284546624130160,,-0.1174370722,-1.81794301892,1.20578727705,0.251938690538,0.00463226641472,0.0306128177408
1589284546630360341,23372,1589284546630267429,,-0.117434240069,-1.81793600156,1.20579813275,0.251938883632,0.00463183622631,0.0306112936612
1589284546636436493,23373,1589284546636348391,,-0.117437539218,-1.81794849324,1.20577897798,0.250118434038,0.00333779192926,0.0296789295883
1589284546642309114,23374,1589284546642202787,,-0.0941370513671,-1.81772845774,1.18325734233,0.246637580793,0.00334433143774,0.0270890166447
1589284546648227801,23375,1589284546648158923,,-0.0941341593036,-1.81772770231,1.18325873291,0.246637468909,0.00334533424852,0.0270899114766
1589284546654170623,23376,1589284546654090294,,-0.0941293379279,-1.81773522943,1.1832475532,0.243889395842,0.00334813318433,0.0270273170128
1589284546660121135,23377,1589284546660053401,,-0.0940948987873,-1.81774409514,1.18323667257,0.242979554037,0.00335567061675,0.0270101300394
1589284546666555963,23378,1589284546666485883,,-0.094107473974,-1.81774027341,1.18324154359,0.242979544928,0.00335423869876,0.0270103898422
1589284546669723876,23379,1589284546669629820,,-0.071490299991,-1.94975242562,1.18489138509,0.243006824552,0.00465361290394,0.025382192411
1589284546675246398,23380,1589284546675159932,,-0.07149820362,-1.94975908169,1.18487995548,0.243006797857,0.0046527190383,0.0253826118526
1589284546681211964,23381,1589284546681123585,,-0.117802008131,-1.94991407384,1.20700614334,0.242805277699,0.00335653411005,0.0286347979535
1589284546687207367,23382,1589284546687129434,,-0.117770660427,-1.94991345267,1.20701020591,0.246437908823,0.00335456445424,0.0304946372403
1589284546693292207,23383,1589284546693224427,,-0.117768490994,-1.94990580849,1.20702276659,0.24735732114,0.00335344003068,0.0305146914171
1589284546699323381,23384,1589284546699243297,,-0.117776572061,-1.94991418413,1.20700844742,0.247357788609,0.00335003399123,0.030511275961
1589284546705234857,23385,1589284546705172224,,-0.117785940797,-1.94991750264,1.20700217215,0.24643991411,0.00399590534031,0.0304939620319
1589284546711213172,23386,1589284546711074101,,-0.117772558116,-1.94991097034,1.20701403092,0.246440370005,0.00399551859508,0.0304903281248
1589284546717209029,23387,1589284546717129875,,-0.140748470189,-1.94988386613,1.20660655224,0.246430438735,0.00399592844146,0.0312331319148
1589284546723407717,23388,1589284546723256723,,-0.140774635227,-1.94988137633,1.20660752338,0.244626068887,0.00399742696462,0.0294161266847
1589284546729079091,23389,1589284546728980333,,-0.117379667465,-1.81795197858,1.20577935821,0.24372544509,0.00335284606379,0.0286488921611
1589284546735218063,23390,1589284546735136158,,-0.094083740231,-1.81775626249,1.18321886762,0.242060544254,0.00335572432988,0.0269862362697
1589284546741059898,23391,1589284546740988042,,-0.116959843705,-1.81771056986,1.18283404156,0.240246165528,0.00335992881161,0.0259133488253
1589284546747111711,23392,1589284546746971550,,-0.116984619675,-1.81771425067,1.18282593493,0.238429614969,0.00336174389449,0.0249934364644
1589284546753289914,23393,1589284546753177038,,-0.0941247547974,-1.81774553942,1.18323207917,0.239350110508,0.00335839277028,0.0242700811926
1589284546759344666,23394,1589284546759227867,,-0.0941109489535,-1.81774943272,1.1832271962,0.239364861978,0.00400436199938,0.0233879122018
1589284546765174157,23395,1589284546765114288,,-0.0949431229426,-1.94993512763,1.20743075774,0.241012141253,0.00335567548226,0.0260848377277
1589284546772214736,23396,1589284546772134461,,-0.117797488121,-1.9498968712,1.20703437482,0.241001741276,0.00335931107312,0.0268240652532
1589284546777170817,23397,1589284546777100568,,-0.0957134857764,-1.95040420235,1.25341931651,0.242567700331,0.00400333873227,0.0252193620667
1589284546783083666,23398,1589284546783018997,,-0.11902158328,-2.0824014696,1.25417008888,0.242517250288,0.00335756781922,0.0286225428154
1589284546789155880,23399,1589284546789013084,,-0.119007320404,-2.08242014127,1.25414043977,0.243428221894,0.00400248538628,0.0286451080459
1589284546795081799,23400,1589284546794975404,,-0.142056604424,-2.08238482865,1.25373616756,0.245244216014,0.00399677099371,0.0303163530998
1589284546801198631,23401,1589284546801135879,,-0.11903587631,-2.08240998385,1.25415459536,0.246141403501,0.00464793908742,0.0313692411695
1589284546807161263,23402,1589284546807045930,,-0.11899521873,-2.0824191108,1.25414329909,0.246141315569,0.00465256208415,0.0313692458075
1589284546813007152,23403,1589284546812952758,,-0.0960910662849,-2.08242197183,1.25460333644,0.246152037018,0.00464910107229,0.0306232880806
1589284546819213801,23404,1589284546819159484,,-0.0961337328911,-2.08243406925,1.25457998797,0.245266900236,0.00464864248131,0.0288294735191
1589284546825199667,23405,1589284546825141104,,-0.0961659590968,-2.08242666131,1.2545898143,0.244359321073,0.00465012004884,0.0279307701745
1589284546831172930,23406,1589284546831100287,,-0.0727066825459,-2.08224742308,1.23205643496,0.242720520438,0.00465628473,0.0244882033696
1589284546837181845,23407,1589284546837123021,,-0.0723490607814,-1.95018978417,1.23091111677,0.241835544456,0.00400387150385,0.0226982556535
1589284546843107874,23408,1589284546843041479,,-0.0723957943917,-1.95015808853,1.23095858457,0.241835393241,0.00400013233132,0.0227005259017
1589284546849126179,23409,1589284546849071139,,-0.072763911641,-2.08219422088,1.23214296704,0.240929325746,0.00400061652531,0.021787410597
1589284546855175172,23410,1589284546855102114,,-0.0727768186129,-2.08217951869,1.23216704961,0.240928767538,0.00400283416397,0.0217931752783
1589284546861051546,23411,1589284546860966778,,-0.0962428531936,-2.08235143323,1.25470877709,0.240774480058,0.00335791768165,0.0225363951621
1589284546864466473,23412,1589284546864391604,,-0.0739919010861,-2.21472931072,1.27915586597,0.242454135405,0.00465268431052,0.0227218090615
1589284546870224974,23413,1589284546870131038,,-0.073975353133,-2.214721155,1.27917094377,0.242453695071,0.00465689751103,0.0227256442252
1589284546874503203,23414,1589284546874405218,,-0.0513162343978,-2.34696631621,1.28059515981,0.242451758702,0.00465943745742,0.0228649778243
1589284546879098987,23415,1589284546879035500,,-0.0742867225249,-2.3469322497,1.28016062962,0.243333777192,0.00465753386751,0.025405418908
1589284546885075099,23416,1589284546885015660,,-0.0981226031937,-2.47938133188,1.30367242138,0.246817235203,0.00465345771879,0.0279982823646
1589284546891190597,23417,1589284546891107543,,-0.0980997721113,-2.47940173,1.30363534487,0.246818067743,0.00465154810014,0.0279912595847
1589284546897221349,23418,1589284546897128751,,-0.143393932247,-2.21488496897,1.30087924652,0.246808940211,0.0046520993267,0.0285991047585
1589284546903156602,23419,1589284546903087032,,-0.120687095807,-2.34712988705,1.3022495196,0.246830333788,0.00400288119307,0.0269689105987
1589284546909233151,23420,1589284546909015799,,-0.120666954491,-2.34713724718,1.30223812035,0.246830847096,0.00400227271845,0.0269643025054
1589284546915065826,23421,1589284546914990285,,-0.0977632416472,-2.34718572207,1.30262502097,0.248683867879,0.00399352595828,0.025367516354
1589284546921091196,23422,1589284546921032128,,-0.0743109129654,-2.34704574583,1.27995112978,0.246134186407,0.00399475550793,0.0219037616345
1589284546927181362,23423,1589284546927045468,,-0.0743568156008,-2.34703616179,1.27996603808,0.24613392238,0.0039919975628,0.0219072310585
1589284546933224668,23424,1589284546933161675,,-0.0740617824375,-2.21483291054,1.27897243185,0.244308199434,0.00399006258102,0.0209862584225
1589284546939157652,23425,1589284546939087588,,-0.0741133100371,-2.21481597053,1.2789987821,0.241582592558,0.00399191226058,0.0200503018847
1589284546943235949,23426,1589284546943161369,,-0.0741130525318,-2.21481227981,1.27900518814,0.238859424776,0.00335396704492,0.0182174007937
1589284546948185164,23427,1589284546948073522,,-0.0741119201829,-2.21478734037,1.27904843961,0.23887512102,0.00399928530293,0.017336819105
1589284546954125950,23428,1589284546954024905,,-0.0963383028972,-2.08242015574,1.25458739032,0.237159419897,0.0033588931646,0.0189272903619
1589284546960145526,23429,1589284546960078891,,-0.0974610418575,-2.3469777194,1.27957767263,0.239742126041,0.00399924872748,0.0207528076872
1589284546966759210,23430,1589284546966606718,,-0.120843107816,-2.34714922094,1.30220020389,0.240462509827,0.00399892091006,0.0241733171401
1589284546972245459,23431,1589284546972168560,,-0.0986806530177,-2.34759734693,1.34852327507,0.243815393363,0.00465028704912,0.0252714399012
1589284546978185572,23432,1589284546977999585,,-0.121942529131,-2.47984562773,1.34895408132,0.243766267275,0.00465574783823,0.028674821751
1589284546984202499,23433,1589284546984046497,,-0.145031206147,-2.47982040405,1.34852071994,0.245551185887,0.00596050030661,0.0321283231756
1589284546990168795,23434,1589284546990084488,,-0.145020505462,-2.47983054868,1.34850321543,0.247343634673,0.00595829761311,0.0348343970786
1589284546996199611,23435,1589284546996125263,,-0.145116687002,-2.47984646039,1.34846360693,0.248238601696,0.00594983637097,0.0366323556991
1589284547002179122,23436,1589284547002090803,,-0.145166584604,-2.47984937684,1.34845287277,0.248238413654,0.00594574136428,0.0366342947983
1589284547008120027,23437,1589284547008015825,,-0.144828801319,-2.47966056835,1.32547308936,0.247479153839,0.00528733339466,0.035736371869
1589284547014097631,23438,1589284547014028333,,-0.12139274423,-2.34744528262,1.324977403,0.246618663435,0.00528592261984,0.0314174410937
1589284547020073409,23439,1589284547020013870,,-0.121022215042,-2.34722839117,1.30204085812,0.244966471882,0.00463035126919,0.0287156242264
1589284547026133509,23440,1589284547026040130,,-0.0980674114183,-2.34726746453,1.3024548527,0.243200203835,0.00463238921285,0.0243852030485
1589284547032109260,23441,1589284547032044908,,-0.0976318308386,-2.34705655629,1.27942003951,0.241543507236,0.00398351506037,0.0225709045421
1589284547041241104,23442,1589284547041177688,,-0.0515487299553,-2.34711395882,1.28031519611,0.237969472361,0.00464668656831,0.016576386712
1589284547050516362,23443,1589284547050380064,,-0.074842884733,-2.34724157497,1.3030059027,0.239607726807,0.00465059688638,0.0200072585226
1589284547056294309,23444,1589284547056212675,,-0.0748214519553,-2.34725961994,1.3029746268,0.239607518834,0.00465349722667,0.0200090747487
1589284547062325350,23445,1589284547062243603,,-0.120910136418,-2.21518882404,1.3241354017,0.241206686747,0.00464909735363,0.0259617259106
1589284547068283536,23446,1589284547068203463,,-0.120863551455,-2.21520192418,1.32411773884,0.241206742676,0.00465318404291,0.025960474103
1589284547074216758,23447,1589284547074161131,,-0.122810830299,-2.61229949418,1.37283031668,0.243616757309,0.00530502502526,0.0286770858482
1589284547080392793,23448,1589284547080313754,,-0.192088181569,-2.48010209048,1.39379603682,0.248884934929,0.00529276573703,0.0345823433427
1589284547086293218,23449,1589284547086225628,,-0.192121950718,-2.48011440394,1.39376947175,0.248884749266,0.00528998463874,0.0345841050223
1589284547092247575,23450,1589284547092185094,,-0.170276782964,-2.7449133168,1.41885954592,0.250560342382,0.00593969610362,0.035657983097
1589284547104282831,23451,1589284547104210603,,-0.146901756412,-2.61263280256,1.41844571249,0.248781448527,0.00593714194141,0.0313161000323
1589284547110272772,23452,1589284547110208314,,-0.146957256223,-2.61262067523,1.41846230071,0.248781663444,0.00593170391254,0.0313154231867
1589284547114059525,23453,1589284547113987466,,-0.12299991292,-2.61229846682,1.37281534353,0.249152625929,0.00528010576202,0.0261316550865
1589284547119114593,23454,1589284547119010692,,-0.122588259084,-2.48000225052,1.37196715409,0.248233390992,0.00528324331319,0.0261089222805
1589284547125184782,23455,1589284547125093115,,-0.122197304893,-2.47980351497,1.34900844221,0.246594126072,0.00397833182443,0.0225270208791
1589284547131232734,23456,1589284547131115024,,-0.0757489977982,-2.34765321449,1.34890722222,0.2448433208,0.00398614100362,0.017456323133
1589284547137195602,23457,1589284547137096198,,-0.0992229895379,-2.47984506169,1.34941981374,0.243028055483,0.00334536548983,0.0164022662184
1589284547143099209,23458,1589284547143039970,,-0.075389663454,-2.34746794023,1.32591168581,0.241363122052,0.0039935020235,0.0156319034276
1589284547147508902,23459,1589284547147406529,,-0.0528630209152,-2.34770240114,1.34931473419,0.242145208588,0.00464965332729,0.0149167606963
1589284547152102100,23460,1589284547152043857,,-0.0528688039067,-2.34772360829,1.34927760816,0.242144722131,0.00465276903465,0.014923684276
1589284547161295485,23461,1589284547161201625,,-0.099247328572,-2.47990630179,1.34930547596,0.242063423389,0.00465414004628,0.0199575976913
1589284547167458279,23462,1589284547167387069,,-0.100120980037,-2.48028639841,1.39535631242,0.244486125476,0.0046472700269,0.0217758425243
1589284547173165299,23463,1589284547173114231,,-0.124303745462,-2.74503563493,1.41958435904,0.247966680495,0.00529352913052,0.0243742180612
1589284547179097971,23464,1589284547179037291,,-0.148683100934,-2.87767839149,1.46594577241,0.254006393897,0.00593513356556,0.0296891886076
1589284547185213918,23465,1589284547185103331,,-0.171821285903,-2.87763153555,1.46553452549,0.257627381854,0.00592248156219,0.0322988820709
1589284547191068617,23466,1589284547190997341,,-0.195089982333,-2.87760282737,1.46508380824,0.259420254332,0.0059085519508,0.0348631849687
1589284547197225249,23467,1589284547197144720,,-0.218634102261,-2.87769455127,1.48783237584,0.262005730902,0.00458978685669,0.0356676818755
1589284547203254196,23468,1589284547203128519,,-0.172071904603,-2.87760420161,1.46555879193,0.262189406681,0.00524041875864,0.0332910536338
1589284547209129072,23469,1589284547209080908,,-0.148781830565,-2.7452887996,1.46519933281,0.261318728724,0.00523483760036,0.0298657842435
1589284547216184212,23470,1589284547216048580,,-0.101838140837,-2.61288365875,1.44223890529,0.257941444375,0.00458928399476,0.021190999173
1589284547221133651,23471,1589284547221058622,,-0.101873155887,-2.61287198908,1.44225757401,0.257941157561,0.00458808107081,0.0211947504884
1589284547227087300,23472,1589284547227033865,,-0.0779738770731,-2.48048112229,1.41879941253,0.255400682804,0.00394221381901,0.016845764194
1589284547233082818,23473,1589284547233017980,,-0.0776116631106,-2.34831162186,1.41780930804,0.25544339035,0.00329882202337,0.0141803536556
1589284547239095280,23474,1589284547239018699,,-0.077963134943,-2.34851323721,1.44079991611,0.255330548517,0.00265651270348,0.0124012339186
1589284547245126188,23475,1589284547245013728,,-0.0552001464882,-2.48075698762,1.44215525346,0.256270235169,0.00332423887954,0.0107931077336
1589284547249871869,23476,1589284547249754801,,-0.0547270977923,-2.4805687016,1.41916444331,0.255470441435,0.00333015460687,0.0125596864362
1589284547254179113,23477,1589284547254112397,,-0.0546192306619,-2.48058389144,1.41914204818,0.25546998843,0.0033442656291,0.0125651501799
1589284547260126649,23478,1589284547260063789,,-0.0783819357036,-2.612982258,1.44258744718,0.256197562752,0.00398621132199,0.015095050567
1589284547263338380,23479,1589284547263257699,,-0.125697111757,-2.74557309387,1.48862572635,0.259480840887,0.00463966165436,0.021110813579
1589284547269344362,23480,1589284547269269093,,-0.12574405736,-2.7455734129,1.48862117319,0.259480638154,0.00463688082276,0.0211139161922
1589284547275326872,23481,1589284547275232402,,-0.103060988462,-2.87797721023,1.48977916645,0.261268999181,0.00594268266533,0.0239647251216
1589284547281156192,23482,1589284547281065622,,-0.15023128212,-2.87820704113,1.53497289819,0.263624022399,0.00592790684565,0.0299567462308
1589284547287392950,23483,1589284547287293954,,-0.174114464782,-3.0106929652,1.55830008935,0.267986510667,0.00591781061276,0.0343587967368
1589284547293271522,23484,1589284547293156861,,-0.174132901574,-3.01068163478,1.55831991986,0.267986737777,0.00591567816134,0.0343573925468
1589284547299238355,23485,1589284547299144430,,-0.150312382635,-2.87820080967,1.53497664307,0.269092195301,0.00525657309632,0.0318616073806
1589284547305406097,23486,1589284547305339841,,-0.126845321067,-2.74589611934,1.5346572977,0.269197493157,0.00460132504606,0.0248821348903
1589284547311234448,23487,1589284547311149699,,-0.126901299208,-2.74588271854,1.53467664716,0.26919762607,0.00459579618382,0.0248817187228
1589284547318762225,23488,1589284547318655989,,-0.102658506334,-2.6133101516,1.48822076073,0.263238397882,0.00395468150935,0.0151144809494
1589284547323255535,23489,1589284547323083892,,-0.102648021547,-2.61330950494,1.48822261946,0.263238484579,0.00395485951192,0.0151129243446
1589284547329162788,23490,1589284547329043964,,-0.0787574037703,-2.48092274226,1.46468100671,0.261619591711,0.00331382232582,0.0107760006495
1589284547335374282,23491,1589284547335285804,,-0.0322791810159,-2.48083610237,1.44252770047,0.256380612338,0.00397779820107,0.00475130573748
1589284547341352900,23492,1589284547341278482,,-0.0321704635274,-2.4808443043,1.4425160235,0.25638046485,0.00398844000621,0.00475034281379
1589284547347230341,23493,1589284547347155177,,-0.0552073978829,-2.34881039454,1.46414478266,0.256207468442,0.00335060695786,0.00637731506774
1589284547353190439,23494,1589284547353095112,,-0.055507268978,-2.48099700567,1.46506961181,0.258863515853,0.00399004121855,0.0117527317366
1589284547359112174,23495,1589284547359060749,,-0.0554859128364,-2.48103278994,1.46500982086,0.258863227118,0.00399474608491,0.0117574921612
1589284547365498046,23496,1589284547365407948,,-0.0789224554984,-2.48118812639,1.48766929166,0.260487924176,0.00464491394314,0.0152031600268
1589284547371301348,23497,1589284547371209330,,-0.149775517504,-2.74595083858,1.53408220695,0.264651080051,0.00528547535459,0.0228684965845
1589284547377129517,23498,1589284547377074839,,-0.149912741228,-2.74594469082,1.53407980763,0.264651132092,0.00527345297097,0.0228706697328
1589284547383119774,23499,1589284547383066752,,-0.127682325396,-2.87847579869,1.55828250872,0.266286858026,0.00591555880226,0.0257175734028
1589284547386720878,23500,1589284547386626365,,-0.174059348366,-3.01057687404,1.53515949226,0.267310232464,0.00589485706437,0.0281259686814
1589284547392158781,23501,1589284547392084988,,-0.151905325152,-3.1431719762,1.55929141323,0.268995877882,0.00588530446496,0.0283165254977
1589284547398282854,23502,1589284547398224490,,-0.151753574924,-2.87852532922,1.58106592395,0.268873678536,0.00521735647734,0.0265325350351
1589284547404104129,23503,1589284547404044467,,-0.151804819068,-2.87851067091,1.58108769165,0.268873731838,0.00521297107778,0.0265328568666
1589284547410153832,23504,1589284547410088888,,-0.0813076021576,-2.74596547946,1.5355078961,0.266558813639,0.00456241019835,0.0180154182605
1589284547416188706,23505,1589284547416076439,,-0.0812523209496,-2.74594916944,1.5355399893,0.266558586196,0.00456897270642,0.0180171203033
1589284547422160181,23506,1589284547422089119,,-0.080731266963,-2.74578175817,1.51252625846,0.265848267904,0.00392659725815,0.0144468288208
1589284547428368002,23507,1589284547428286786,,-0.0112437719787,-2.61365831286,1.51297947696,0.264184402708,0.00329823527484,0.00506799196959
1589284547434118431,23508,1589284547434058279,,-0.0110588901856,-2.61367779129,1.51294719033,0.264184166786,0.00331690299468,0.00506810683316
1589284547440365912,23509,1589284547440299077,,0.0127775757234,-2.48133996163,1.489453565,0.261632905505,0.00333390624544,0.00250312597674
1589284547446204472,23510,1589284547446142671,,-0.0107757301291,-2.61373096409,1.51285737182,0.261482566796,0.0026964842028,0.00235866158736
1589284547452205392,23511,1589284547452119611,,-0.0334965216007,-2.48143723187,1.51157810312,0.263264807638,0.00269342211521,0.00491182788614
1589284547456411367,23512,1589284547456314018,,-0.0567690834891,-2.61365280925,1.51196539655,0.265033548323,0.00334682555098,0.00834849691787
1589284547461232299,23513,1589284547461117047,,-0.033749458616,-2.61371950598,1.51236099283,0.265952135425,0.0039944213728,0.00852388294498
1589284547464388532,23514,1589284547464295166,,-0.0810013437591,-2.74622808138,1.55840173247,0.270104542734,0.00463700213807,0.0163266832794
1589284547470133988,23515,1589284547470066370,,-0.0811167890427,-2.74621650939,1.55841611981,0.270104381622,0.00462861929788,0.0163317265894
1589284547476182975,23516,1589284547476121019,,-0.104801374102,-2.74630544948,1.58116789996,0.273574254983,0.00527029020071,0.0189324482515
1589284547482200312,23517,1589284547482138982,,-0.175538982135,-3.01089907757,1.6045894836,0.277858525735,0.00523166360034,0.0283944446984
1589284547488197770,23518,1589284547488125399,,-0.175648564051,-3.010881025,1.60461136593,0.277858118308,0.00522462733628,0.0283997267063
1589284547494358125,23519,1589284547494264884,,-0.175867442517,-3.01080021974,1.60473900679,0.276922918283,0.00454977114956,0.0292760786775
1589284547500221583,23520,1589284547500080417,,-0.175349363167,-3.0107095445,1.58160079876,0.276156253189,0.00521392810677,0.0292603207361
1589284547506172192,23521,1589284547506089312,,-0.175438148156,-2.87853913073,1.60383878775,0.276005040173,0.0052105195551,0.0292594783301
1589284547512254128,23522,1589284547512182425,,-0.151833930478,-2.74637027579,1.60333973236,0.273332562699,0.00457686106426,0.024884849646
1589284547518361256,23523,1589284547518296575,,-0.0804474186333,-2.48154456133,1.53368921826,0.268413611484,0.00394026740653,0.0163139062106
1589284547524341337,23524,1589284547524254140,,-0.0802869729985,-2.48155879217,1.53367459986,0.268413293841,0.00395807854082,0.0163148207713
1589284547530202327,23525,1589284547530121106,,-0.0566847586541,-2.48139694477,1.51113052142,0.264988345873,0.0046365775428,0.0110422171597
1589284547536113444,23526,1589284547536055341,,-0.0335908562849,-2.48144110311,1.51156965459,0.264105884235,0.00399325805897,0.00939298301653
1589284547542122862,23527,1589284547542064369,,-0.0561728186893,-2.48120711451,1.48812777765,0.263339640043,0.0039943464068,0.00923815418747
1589284547548196825,23528,1589284547548114559,,-0.0566849392169,-2.48137638246,1.51116427907,0.262295071834,0.00398978858709,0.00832441188755
1589284547554208843,23529,1589284547554072016,,-0.0565671729832,-2.48144195658,1.51106101239,0.263188335724,0.00400080175351,0.00923925511682
1589284547558714166,23530,1589284547558653700,,-0.0566643178357,-2.48139914055,1.51112768239,0.264970232417,0.0039877388143,0.0119361407091
1589284547563199274,23531,1589284547563115010,,-0.0799549264318,-2.61366526217,1.51142983001,0.264958593904,0.00464799954631,0.0126848470869
1589284547569164049,23532,1589284547569064561,,-0.0800562710981,-2.61365890047,1.5114354665,0.26491192577,0.00463723571959,0.0153560448437
1589284547575300983,23533,1589284547575170539,,-0.081323522359,-2.74627040428,1.55831036821,0.26640554106,0.00528237090126,0.0180576557879
1589284547581200231,23534,1589284547581115764,,-0.127930260675,-2.87852946911,1.55816302766,0.265412432978,0.00527023533604,0.0230847935086
1589284547587167489,23535,1589284547587070897,,-0.12841072264,-3.01090531473,1.55885146619,0.265383433207,0.00526015332315,0.0248726882096
1589284547593230504,23536,1589284547593157049,,-0.151358102809,-2.87844422647,1.5577873032,0.265386470335,0.00524408008309,0.0247202063326
1589284547599390145,23537,1589284547599242330,,-0.151402477242,-2.87844177159,1.55778752712,0.265386758099,0.00523890230499,0.0247182147903
1589284547605162700,23538,1589284547605066627,,-0.12844064184,-2.87843586615,1.55829395265,0.265411306714,0.00456876765239,0.0230839802422
1589284547611183209,23539,1589284547611102103,,-0.128179491895,-2.74603043122,1.55766476633,0.264520730572,0.00456174632785,0.0212924311098
1589284547617157582,23540,1589284547617097397,,-0.104546995784,-2.74595524703,1.53500174717,0.262912237312,0.00392677614495,0.0169572491081
1589284547623137994,23541,1589284547623069982,,-0.0811056519238,-2.61368520975,1.53467886142,0.262036145918,0.00392585502269,0.0144092868729
1589284547629154460,23542,1589284547629096495,,-0.0808163570514,-2.61377094181,1.53454810621,0.260251286834,0.00331293165738,0.0117038972314
1589284547633231426,23543,1589284547633164651,,-0.0569815508445,-2.4814318834,1.51106198517,0.257728681223,0.00267194037749,0.00735901179408
1589284547641235967,23544,1589284547641189797,,-0.0110198754354,-2.61380722091,1.51272385806,0.256854493448,0.00335369176008,0.00496783068509
1589284547647204101,23545,1589284547647128187,,-0.0336563829975,-2.48154201688,1.51140252111,0.256807817349,0.00335822192651,0.00747902972225
1589284547653150137,23546,1589284547653099930,,-0.0336187465626,-2.4815571813,1.51137846033,0.256807801611,0.00336146559253,0.00747811291658
1589284547659912160,23547,1589284547659833886,,-0.0566159542589,-2.48151232397,1.51094362298,0.25859328493,0.00400264864506,0.0100385263484
1589284547665470426,23548,1589284547665399947,,-0.0572033060456,-2.48170110258,1.53395248484,0.260267819661,0.00464117975471,0.0109624297245
1589284547671248173,23549,1589284547671034233,,-0.0571485173374,-2.61372582116,1.51182488246,0.262218784022,0.00528678751122,0.0127849309813
1589284547677165069,23550,1589284547677086420,,-0.104264301633,-2.61396340652,1.557042304,0.262779423516,0.00527584987709,0.0160657581619
1589284547683385043,23551,1589284547683295471,,-0.104813674189,-2.7461807705,1.55793455982,0.263666838044,0.00460116073835,0.0178691987168
1589284547689138863,23552,1589284547689091951,,-0.129170339039,-2.87874313895,1.60449159506,0.265150175066,0.00459118148713,0.0213168243635
1589284547693675504,23553,1589284547693559400,,-0.152390859066,-2.87869506347,1.60406178784,0.265111161766,0.00523789903795,0.0238376137206
1589284547701307343,23554,1589284547701224433,,-0.152516615326,-2.87866016225,1.60411246921,0.263280244818,0.00457361093547,0.0237965088879
1589284547707237900,23555,1589284547707141365,,-0.152479520345,-2.8786503035,1.60413368758,0.263280470253,0.00457558166154,0.0237936356962
1589284547713302792,23556,1589284547713149768,,-0.106200705553,-2.87873519503,1.6050124969,0.263335956721,0.00523940645241,0.0205275509062
1589284547719374986,23557,1589284547719301701,,-0.105604438959,-2.87858152557,1.5819800216,0.263519554777,0.00459924956718,0.0178597657214
1589284547725500026,23558,1589284547725434403,,-0.0809783759835,-2.74602371701,1.53542114346,0.260207922643,0.0046287176901,0.0143717133738
1589284547731236753,23559,1589284547731165853,,-0.0808036228265,-2.74604339013,1.53539516529,0.260207660201,0.00464486022081,0.0143712569048
1589284547737153122,23560,1589284547737086063,,-0.0809868948496,-2.74624952579,1.55836469331,0.2609896503,0.00401247044793,0.0134993010066
1589284547743399729,23561,1589284547743308857,,-0.0578680841232,-2.74629572696,1.5587943534,0.260114385089,0.00402409273139,0.0109567928035
1589284547749462149,23562,1589284547749381422,,-0.0573231627657,-2.74616347958,1.53570994936,0.258419842174,0.00403693888791,0.011811207387
1589284547755447734,23563,1589284547755344359,,-0.0573721014739,-2.74617150425,1.53569377199,0.258419768639,0.00403376059709,0.0118139018383
1589284547761695527,23564,1589284547761589125,,-0.0570939489142,-2.74600699844,1.5126597869,0.2585449482,0.00402088137508,0.0127168522514
1589284547767754951,23565,1589284547767663291,,-0.0805806483059,-2.87829564303,1.51299221096,0.256671420822,0.00401132292652,0.01519964779
1589284547773538405,23566,1589284547773335311,,-0.0808433253132,-2.87826014503,1.51304572776,0.256658263998,0.00464233128487,0.0160954841961
1589284547779191552,23567,1589284547779130411,,-0.0810228436449,-2.87824422492,1.51306640982,0.256645021246,0.00528332570604,0.0169868907797
1589284547788383780,23568,1589284547788248779,,-0.128017989717,-2.87824361408,1.53532755568,0.256447740706,0.00459517912539,0.0202456141549
1589284547796123030,23569,1589284547796043335,,-0.128091556647,-2.87821040806,1.53538366897,0.257342761043,0.00458704815919,0.0211600383445
1589284547800280420,23570,1589284547800209033,,-0.151207165067,-2.87814991897,1.53498418399,0.256421068713,0.00458955538384,0.0218850898863
1589284547806240659,23571,1589284547806177358,,-0.128868588697,-3.01073603981,1.55914059887,0.25809899415,0.00524275563052,0.0220614413959
1589284547812633782,23572,1589284547812572787,,-0.128851417837,-2.87852950305,1.58154670835,0.257961238576,0.00524972518862,0.0220570347542
1589284547818226448,23573,1589284547818169192,,-0.128744493339,-2.87856148622,1.58149720327,0.257961187876,0.00525810137751,0.0220556324815
1589284547824191055,23574,1589284547824133498,,-0.105521881141,-3.01082605678,1.5595088156,0.258110928021,0.00526604392628,0.0213150206882
1589284547830560094,23575,1589284547830438827,,-0.128376359402,-2.87862313228,1.58141492062,0.257975359675,0.00528883550854,0.0211660939516
1589284547836583982,23576,1589284547836419469,,-0.10481201914,-2.87850805221,1.55871614224,0.258125330563,0.00529539105347,0.020424034674
1589284547842550233,23577,1589284547842438718,,-0.104670139627,-2.87854876441,1.55865049029,0.258125142849,0.00530720410029,0.0204233408377
1589284547848314991,23578,1589284547848234037,,-0.0814722395859,-2.87859960689,1.55907225227,0.25630819097,0.00531404469262,0.0196369104795
1589284547854491023,23579,1589284547854397730,,-0.104494869962,-3.01079259655,1.53628867121,0.256446742658,0.00531479540426,0.0203881864119
1589284547860212710,23580,1589284547860141807,,-0.104506605217,-3.01081496465,1.53624403553,0.256446540749,0.00531476139664,0.0203907347694
1589284547864059805,23581,1589284547863941127,,-0.104314333178,-2.87841279721,1.53557292021,0.257371454057,0.00530140469165,0.0195125113655
1589284547869656177,23582,1589284547869566411,,-0.105271842204,-2.87874398124,1.5817065516,0.257085025142,0.00594780550365,0.0195047551006
1589284547875247491,23583,1589284547875157261,,-0.105383479448,-2.87871296526,1.5817555663,0.25708511789,0.00593902659094,0.0195062076456
1589284547881535271,23584,1589284547881419279,,-0.128167996024,-2.87843342628,1.55832090794,0.257205170745,0.00526185370635,0.0211359325546
1589284547887186999,23585,1589284547887110971,,-0.128237770253,-2.878424499,1.55833165748,0.257205869587,0.00525235726159,0.0211297894052
1589284547893426446,23586,1589284547893341809,,-0.105253356504,-2.87845732238,1.55878008464,0.258101738626,0.00589612606778,0.02217057826
1589284547899629013,23587,1589284547899526468,,-0.128281668412,-2.87838217076,1.55840622736,0.256232586298,0.00589759691404,0.0246529835175
1589284547908429317,23588,1589284547908362428,,-0.151873276401,-2.87845233707,1.58118731511,0.256992749106,0.00589586110643,0.0254159208969
1589284547914184325,23589,1589284547914133477,,-0.17394435714,-2.74590032047,1.55692805246,0.256206841333,0.00525540485206,0.0261430732567
1589284547920270890,23590,1589284547920164937,,-0.173846705644,-2.74590054524,1.55693856283,0.256206497439,0.00526540737139,0.0261444307702
1589284547926297399,23591,1589284547926203164,,-0.151007812183,-2.87826051994,1.55816069203,0.25712350832,0.00528070180325,0.0263064958626
1589284547933068773,23592,1589284547932531128,,-0.173942910405,-2.87822005073,1.55775055214,0.255282624933,0.00529348584947,0.0270112833971
1589284547941208014,23593,1589284547941123948,,-0.196794132778,-2.87823523143,1.55726698688,0.254351327843,0.0053189200836,0.0277363397313
1589284547947385234,23594,1589284547947293622,,-0.196742654169,-2.87829104535,1.55717032879,0.254351248113,0.00532246746579,0.0277363903815
1589284547953338234,23595,1589284547953267437,,-0.196319340333,-2.87814039275,1.53412765713,0.253582743204,0.00532208539639,0.0277200069888
1589284547959411323,23596,1589284547959311749,,-0.172845827794,-2.74585330216,1.53376632503,0.253594230619,0.00531906146633,0.0269734061705
1589284547966400915,23597,1589284547966334957,,-0.149901175804,-2.74587990497,1.53419689615,0.255434613007,0.00531054541282,0.0262724800417
1589284547971493552,23598,1589284547971332309,,-0.173521078184,-2.74601175439,1.55677874151,0.254362806352,0.00529794948841,0.0269934024537
1589284547977393944,23599,1589284547977314564,,-0.150076650891,-2.87802597891,1.51196521152,0.25285544314,0.00659059972526,0.0253307092783
1589284547983337828,23600,1589284547983273878,,-0.150206771283,-2.74583376578,1.53424958458,0.253608237519,0.00593934695518,0.0262326330993
1589284547989560911,23601,1589284547989460567,,-0.150284679164,-2.74582968705,1.53424925489,0.251777471778,0.00527941784979,0.0261904958302
1589284547995287922,23602,1589284547995182128,,-0.150362679286,-2.74580547535,1.53428494336,0.251777911193,0.00527119366287,0.0261879279921
1589284548001270889,23603,1589284548001117820,,-0.149946590924,-2.7456448911,1.51125288609,0.251932897577,0.00526810273853,0.0253036602363
1589284548007286283,23604,1589284548007171311,,-0.149968785203,-2.74564804361,1.5112449563,0.251932975966,0.00526581532347,0.0253033558838
1589284548013331913,23605,1589284548013257038,,-0.149542522327,-2.61334571573,1.51045617723,0.250117622497,0.00527327794661,0.0243697552989
1589284548019360115,23606,1589284548019265836,,-0.172853627211,-2.61349425301,1.53304605386,0.250888693222,0.00528279213596,0.0242386230372
1589284548025471487,23607,1589284548025396692,,-0.149342811456,-2.61335614032,1.51045790004,0.250119908058,0.00594317840326,0.0243646867423
1589284548031650295,23608,1589284548031398475,,-0.149717548203,-2.61354709949,1.53345436058,0.249072962775,0.00595101739255,0.0234574081444
1589284548037381567,23609,1589284548037300938,,-0.148760231794,-2.48116333439,1.5095441667,0.247395223303,0.00596283806311,0.0234148387002
1589284548043462186,23610,1589284548043342551,,-0.171656232319,-2.48115308967,1.50909533977,0.247381474846,0.00531847951055,0.024156050453
1589284548049394872,23611,1589284548049251266,,-0.171608561865,-2.48115635594,1.50909539125,0.247381499054,0.00532253074787,0.0241549101994
1589284548055336159,23612,1589284548055239135,,-0.171595183289,-2.48116448711,1.50908354375,0.247395238641,0.00532424832698,0.0232704646141
1589284548061452137,23613,1589284548061359191,,-0.125492880318,-2.48123781097,1.50992145046,0.246485172228,0.00532546055841,0.0226467741962
1589284548068723740,23614,1589284548068639364,,-0.125596204374,-2.3492932741,1.5319710768,0.247267829637,0.00532190383528,0.0217781170943
1589284548073462866,23615,1589284548073405781,,-0.126039204491,-2.48141381622,1.53294353525,0.246362642969,0.0053142981693,0.0208725703767
1589284548079437465,23616,1589284548079312597,,-0.12609402795,-2.48140607311,1.53295156058,0.246362722013,0.005309165704,0.0208729435326
1589284548085408705,23617,1589284548085331658,,-0.148946460906,-2.34921295572,1.53159118415,0.245453794627,0.00464266962409,0.0207040515764
1589284548091388119,23618,1589284548091233244,,-0.149036862583,-2.34919142267,1.53161541784,0.245454125782,0.00463239935726,0.0207024260115
1589284548097249786,23619,1589284548097130328,,-0.148248268416,-2.21689857894,1.50762428337,0.244685929117,0.0046261106542,0.0206831792438
1589284548103421280,23620,1589284548103327257,,-0.148691780134,-2.34895638388,1.5086538468,0.244686030462,0.00462214753933,0.0206828663411
1589284548109199871,23621,1589284548109148686,,-0.17124569837,-2.21684307811,1.5072331528,0.243768723155,0.00462402407888,0.0205206572921
1589284548115279935,23622,1589284548115212713,,-0.17120907874,-2.21686373929,1.50720692404,0.241939704683,0.00462830626649,0.020478777277
1589284548121346644,23623,1589284548121251120,,-0.148218795516,-2.21693144862,1.50757884668,0.240122037521,0.00463457180483,0.0197005634379
1589284548127331219,23624,1589284548127218396,,-0.14777519962,-2.08494576464,1.50651367987,0.240122163713,0.00463693463674,0.0196984692245
1589284548133397993,23625,1589284548133224640,,-0.14819582417,-2.08514912458,1.52954963418,0.239045483207,0.00398694944115,0.0205577769987
1589284548139221896,23626,1589284548139153475,,-0.148143925929,-2.08513791122,1.529569948,0.239059566708,0.00399235256542,0.0196728902919
1589284548145296353,23627,1589284548145227178,,-0.147660103594,-2.08492937394,1.50654764885,0.23737348867,0.00465066403004,0.0196353443835
1589284548151522690,23628,1589284548151331265,,-0.14759173889,-2.08493785603,1.50654260938,0.237373598397,0.00465642764738,0.0196326517345
1589284548157454412,23629,1589284548157362040,,-0.147558443516,-2.08495250777,1.50652559382,0.236478209237,0.00465991318328,0.018728141087
1589284548163679512,23630,1589284548163486694,,-0.147514576462,-2.21670497413,1.48462561749,0.234773807889,0.00401095729689,0.0195758157259
1589284548171298330,23631,1589284548171196759,,-0.12528500835,-2.21717096936,1.53104662653,0.233587827514,0.00532170891489,0.0188082325626
1589284548175327251,23632,1589284548175253929,,-0.125273408014,-2.21716379032,1.53105797195,0.233588082911,0.00532098168288,0.0188052661906
1589284548181372989,23633,1589284548181286894,,-0.169988874155,-2.08469082445,1.48312708489,0.231119859687,0.00467293239463,0.0193521748452
1589284548187442388,23634,1589284548187276416,,-0.170007084297,-2.0846807889,1.48313910354,0.230186442906,0.00467202954538,0.0202149162931
1589284548193284818,23635,1589284548193181135,,-0.192651244648,-1.95275173675,1.48159570424,0.230173006378,0.00401529900448,0.0209576742165
1589284548199558768,23636,1589284548199481604,,-0.19222064953,-1.95249924025,1.45851783022,0.228478278373,0.00401438600159,0.0218016708452
1589284548205256625,23637,1589284548205187211,,-0.169655219742,-1.9527540143,1.48203604683,0.228342062989,0.00401222960425,0.0210541167041
1589284548211307498,23638,1589284548211192702,,-0.192231844935,-1.95248432355,1.45853632332,0.227545547699,0.00401243382629,0.0226705486964
1589284548217344604,23639,1589284548217249670,,-0.192664013601,-1.95271664077,1.48164029946,0.228333246958,0.00466233046519,0.0217928576859
1589284548223312565,23640,1589284548223246975,,-0.19176462425,-1.95224004826,1.4355581096,0.225881478313,0.00401397358436,0.0217374910977
1589284548229370647,23641,1589284548229313821,,-0.191752216981,-1.95223729131,1.43556351615,0.225881947036,0.00401210120928,0.021732965624
1589284548235331434,23642,1589284548235270222,,-0.192202871432,-1.95246901582,1.45856063323,0.225731041391,0.00401086032515,0.0217287177005
1589284548239762224,23643,1589284548239709666,,-0.191724408285,-1.95223258807,1.4355736263,0.224066412734,0.00401642930148,0.0208095181195
1589284548244301427,23644,1589284548244218481,,-0.191690792221,-1.95221177446,1.43560641926,0.224055310343,0.00466991576843,0.0216889549052
1589284548250393778,23645,1589284548250301224,,-0.169522132751,-2.08437034992,1.46017126958,0.223929140783,0.00467093071608,0.0200595792394
1589284548256296545,23646,1589284548256229664,,-0.192970334611,-2.08457419253,1.48284672609,0.22468947487,0.00467449085077,0.0208196009385
1589284548262313631,23647,1589284548262258455,,-0.146502551382,-2.0844305842,1.46055033391,0.223940289912,0.00467917897534,0.0193209132212
1589284548268827099,23648,1589284548268759005,,-0.146487423938,-2.08443809922,1.46054112607,0.223942390481,0.0053317104857,0.0193212693717
1589284548274561514,23649,1589284548274389490,,-0.168549056367,-1.95228316128,1.43596920082,0.223174094989,0.00468185561332,0.0191605261662
1589284548280553907,23650,1589284548280449001,,-0.123412555846,-2.084472187,1.46096042997,0.223048439929,0.00533376892592,0.0176743878215
1589284548286604908,23651,1589284548286418036,,-0.146052491399,-1.95253556005,1.45939078758,0.223050658203,0.00533336657337,0.0175357035681
1589284548292746552,23652,1589284548292635313,,-0.146893795726,-2.08465476523,1.48365009826,0.222927018516,0.00533432837035,0.0166425124312
1589284548299214930,23653,1589284548299153156,,-0.147313648856,-2.21663996387,1.48474262959,0.222910802573,0.00468108514592,0.0175325123654
1589284548306301118,23654,1589284548306168171,,-0.147325358545,-2.21662529376,1.4847633692,0.222911036594,0.0046785476411,0.0175302141584
