%time,field.header.seq,field.header.stamp,field.header.frame_id,field.wrench.force.x,field.wrench.force.y,field.wrench.force.z,field.wrench.torque.x,field.wrench.torque.y,field.wrench.torque.z
1589274947527303822,4403,1589274947527132738,,0.0148437521393,0.0862122388667,0.0305776372723,-0.000838920646357,-0.00156979630441,-0.00854896636568
1589274947530208509,4404,1589274947530069574,,0.0150475490617,0.0890277007607,0.0472062741157,-0.000478433911668,-0.00156367297218,-0.00850505127031
1589274947536242166,4405,1589274947536138501,,0.0150477022376,0.0890279311014,0.0472057908796,-0.000478412357088,-0.00156372205308,-0.00850504345901
1589274947539344573,4406,1589274947539248826,,0.000927939991515,-2.96353168234e-06,0.00193409517956,-0.00128342807367,-0.00191522724023,-0.00869012063025
1589274947545434451,4407,1589274947545356399,,0.0312517360856,0.0904694631834,0.0482764508493,-0.000475106440796,-0.00154865925023,-0.00835041076631
1589274947548442897,4408,1589274947548361700,,0.0312520379308,0.0904694282185,0.0482763209727,-0.000475115281837,-0.00154866836802,-0.0083504085723
1589274947551433981,4409,1589274947551334556,,0.0150479760565,0.0890282981785,0.0472050112959,-0.00082002755676,-0.00168027055144,-0.00684548737983
1589274947554182997,4410,1589274947554089772,,0.0150472980163,0.0890282487643,0.0472053206298,-0.000462707284925,-0.00178624271377,-0.00767281889635
1589274947560245901,4411,1589274947560139053,,0.0148433514239,0.0862126427559,0.0305766930305,-0.00083888337048,-0.00156989824126,-0.00854895130485
1589274947563156688,4412,1589274947563063210,,0.00712110605726,-2.61278130017e-05,0.0226182190993,-0.000913638920982,-0.00190399620003,-0.00862855536563
1589274947569390372,4413,1589274947569239402,,0.0148431391819,0.0862125655131,0.0305770138503,-0.000838829692973,-0.0015698758129,-0.00854896069052
1589274947572356862,4414,1589274947572213413,,0.0,0.0,0.0,-0.000356701277,-0.00155668060851,-0.00603388258393
1589274947575421718,4415,1589274947575302591,,0.0,0.0,0.0,-0.000705240736105,-0.0012866346515,-0.00600324025942
1589274947581565292,4416,1589274947581483988,,0.0,0.0,0.0,-0.000705286361431,-0.0012866302829,-0.00600323583563
1589274947584731885,4417,1589274947584655222,,0.011162933753,-3.02220969701e-05,0.0115236938051,-0.000790035054076,-0.00146303769561,-0.00749859482091
1589274947587312951,4418,1589274947587220685,,0.0184682237235,-5.46335053584e-05,0.028690186336,-0.00133437189793,-0.00156834888079,-0.00848268379984
1589274947593466929,4419,1589274947593361092,,0.0184682960634,-5.44625320049e-05,0.0286901400948,-0.00133438471166,-0.00156837710308,-0.00848267656614
1589274947596396645,4420,1589274947596303114,,0.0342132984654,-9.25610194312e-05,0.0352684592797,-0.000932308331079,-0.00162706694934,-0.0091623150143
1589274947599579931,4421,1589274947599315884,,0.0342132635096,-9.23847672468e-05,0.0352684936517,-0.000932293921327,-0.00162708706108,-0.00916231290904
1589274947605225294,4422,1589274947605114578,,0.0184683777577,-5.43722807098e-05,0.028690087678,-0.000898208377454,-0.00155639076598,-0.00840483596421
1589274947608193125,4423,1589274947608130192,,0.00712079865574,-2.6195720112e-05,0.0226183158006,-0.000860211452976,-0.00148018386044,-0.00765294090889
1589274947611221948,4424,1589274947611102395,,0.00712078317253,-2.62133344658e-05,0.0226183206547,-0.000869496121434,-0.00179687566246,-0.00772971295096
1589274947617198957,4425,1589274947617114811,,0.000927914000139,-2.94125498844e-06,0.00193410768349,-0.00122024411338,-0.00181017444712,-0.00779629093971
1589274947620224396,4426,1589274947620129204,,0.000927926878795,-2.94918404617e-06,0.00193410149266,-0.0012203006323,-0.0018101488557,-0.00779628803527
1589274947623288985,4427,1589274947623211020,,0.0111631264709,-3.00736467224e-05,0.0115235075056,-0.000790158212484,-0.00146312448755,-0.00749856490982
1589274947629344855,4428,1589274947629225164,,0.000927929376556,-2.95422336028e-06,0.00193410028661,-0.000750185875298,-0.00137869456273,-0.00674924925871
1589274947632258845,4429,1589274947632179365,,0.0148426342298,0.086212361655,0.030577833738,-0.000838798840226,-0.00156980260683,-0.00854897716052
1589274947635301238,4430,1589274947635233035,,0.0150464654678,0.0890280128406,0.0472060309492,-0.000809096235078,-0.00138069931631,-0.00676080257457
1589274947641386714,4431,1589274947641319246,,0.0150467196912,0.0890278799835,0.047206200478,-0.00080915684601,-0.00138067742399,-0.00676079979155
1589274947644373133,4432,1589274947644304479,,-0.000643639794922,0.0885350245271,0.0466444379733,-0.000695174568716,-0.00116842976568,-0.0051332764359
1589274947647331813,4433,1589274947647226074,,-0.000643471890725,0.0885349186946,0.0466446411682,-0.000695189045544,-0.00116841776128,-0.00513327720777
1589274947653353530,4434,1589274947653242502,,0.00712091406762,-2.62535223839e-05,0.0226182793988,-0.000438715855283,-0.00166762820877,-0.00678398025818
1589274947656311865,4435,1589274947656228899,,0.00712093937406,-2.61243751562e-05,0.0226182715811,-0.000438719648222,-0.00166766309811,-0.00678397143635
1589274947659538608,4436,1589274947659375172,,0.0148434120018,0.0862125498776,0.0305769254975,-0.000838870995046,-0.00156987658061,-0.00854895649685
1589274947665381638,4437,1589274947665295840,,-0.000351047240084,0.0856080207408,0.0300776834436,7.17279474488e-06,-0.00148359207164,-0.00771389500042
1589274947668377412,4438,1589274947668271510,,-0.000351417705125,0.085607988509,0.0300777708566,7.27008653432e-06,-0.00148358379606,-0.00771389650096
1589274947671390314,4439,1589274947671237734,,-0.000351643740102,0.0856077740983,0.0300783784682,7.31460129176e-06,-0.0014835288622,-0.00771390702389
1589274947677434227,4440,1589274947677341887,,-0.000643568868549,0.0885350660746,0.0466443600913,0.000345581951324,-0.00148465739657,-0.00770999729563
1589274947680777912,4441,1589274947680690890,,-0.000780810367805,-1.8467613484e-05,0.0432929554791,0.00194794653442,-0.00153295233558,-0.0079139540122
1589274947683748244,4442,1589274947683629595,,0.0152972895187,0.0922419407602,0.0651771284762,0.00251320701995,-0.00162544829218,-0.00875045376494
1589274947689335309,4443,1589274947689249771,,0.0104263276804,-4.45762149596e-05,0.0449974895211,0.00215514693982,-0.00168351305165,-0.00953617475111
1589274947692402392,4444,1589274947692254472,,0.0431444241661,-0.000131033787642,0.0745713591411,0.00273934473493,-0.00144378688203,-0.0110526825316
1589274947695350475,4445,1589274947695258958,,0.0269035429595,-9.33269800651e-05,0.0706953697404,0.00405068304443,-0.00139847564098,-0.00977801112181
1589274947701382322,4446,1589274947701293290,,0.0269037062886,-9.29271524637e-05,0.070695308111,0.00405065774983,-0.00139854583262,-0.0097780115612
1589274947704389998,4447,1589274947704309015,,0.0269036646739,-9.32475915906e-05,0.0706953235259,0.00475911579554,-0.00147046059005,-0.0107649364369
1589274947707507253,4448,1589274947707390760,,0.013513702267,-7.30020558392e-05,0.0908438083486,0.00510919584823,-0.00181961535629,-0.0102213368739
1589274947713460949,4449,1589274947713370680,,0.0123396977651,-5.93601959764e-05,0.0678112329439,0.00559451915069,-0.00179706504842,-0.00958931262534
1589274947716512846,4450,1589274947716406091,,0.0269039518995,-9.32688341566e-05,0.0706952141912,0.00827720241912,-0.00197619000333,-0.0109309778109
1589274947722517008,4451,1589274947722404470,,0.0292625767716,-0.000109096186012,0.0930263722856,0.0104180703303,-0.00210502445315,-0.012164124609
1589274947725482541,4452,1589274947725394713,,0.0269030642998,-9.32328915838e-05,0.0706955520195,0.00982852415171,-0.00207966324712,-0.012032182655
1589274947728353258,4453,1589274947728243842,,0.0269030207456,-9.30073302382e-05,0.070695568891,0.00982852216701,-0.00207976624628,-0.0120321664732
1589274947734379426,4454,1589274947734294089,,0.0123396958405,-5.94151471108e-05,0.067811233246,0.00950439653765,-0.00241783898148,-0.0106581218295
1589274947737454720,4455,1589274947737346558,,0.0135134864448,-7.29948970287e-05,0.0908438404592,0.012478104732,-0.00260655207467,-0.0120144153382
1589274947740480213,4456,1589274947740321346,,0.0135138477528,-7.28677297211e-05,0.0908437868142,0.0132055290318,-0.00219943704087,-0.012139209594
1589274947746383952,4457,1589274947746306434,,0.0328955061435,-0.0994695384489,0.105227536714,0.0142846169488,-0.00227468942413,-0.0136644480675
1589274947749501696,4458,1589274947749323685,,0.0334494488457,-0.102126600165,0.125924405105,0.0145998128554,-0.00224949855758,-0.0122841258932
1589274947752476899,4459,1589274947752377069,,0.033448881403,-0.102126425032,0.125924697869,0.0153801478803,-0.00227766620908,-0.0124200124582
1589274947755426864,4460,1589274947755320181,,0.033904110062,-0.104538237457,0.147280349405,0.0178075265746,-0.00237229117764,-0.0135207375521
1589274947761447771,4461,1589274947761362310,,0.0339041009892,-0.104537602086,0.147280802471,0.0178075941893,-0.00237223278241,-0.0135206587453
1589274947764492250,4462,1589274947764405197,,0.0342571984746,-0.106682436926,0.168979554473,0.0206929512199,-0.00243357988485,-0.0124813282122
1589274947770527350,4463,1589274947770421395,,0.0342566703744,-0.106681978221,0.168979951129,0.020693006912,-0.00243357619471,-0.0124812365984
1589274947773422418,4464,1589274947773333442,,0.0153833431571,-0.108272435405,0.190179026616,0.0220237158609,-0.00245394055752,-0.0113417838112
1589274947776370109,4465,1589274947776269760,,0.0153854594136,-0.108272719206,0.19017869385,0.0220235980413,-0.00245390203267,-0.0113420209278
1589274947782708288,4466,1589274947782517565,,0.0153846464869,-0.108272994074,0.190178603126,0.025477204165,-0.00254370001417,-0.0116811564047
1589274947785408476,4467,1589274947785290979,,0.0361103266169,-0.228524448202,0.20108493848,0.0276224786663,-0.00261621613963,-0.0146669722718
1589274947788470912,4468,1589274947788336390,,0.0361103271753,-0.228524129275,0.201085300827,0.0276224884802,-0.00261622394059,-0.0146669523977
1589274947794463078,4469,1589274947794326722,,0.0152846738919,-0.11001896006,0.212507187543,0.0299069513551,-0.00265067146255,-0.0135004985361
1589274947797507779,4470,1589274947797355456,,0.0152858174512,-0.110018479111,0.212507354285,0.0299069253273,-0.00265055268191,-0.0135005795145
1589274947800525530,4471,1589274947800404247,,0.0152868388623,-0.11001930894,0.212506851193,0.0317551156729,-0.00268964963479,-0.0143764156596
1589274947806471389,4472,1589274947806347671,,0.0151472547323,-0.111572242972,0.235118575736,0.0324887672814,-0.00217092176133,-0.0144241235681
1589274947809378303,4473,1589274947809271981,,0.0154707512817,-0.231395539969,0.24391571399,0.0350659943817,-0.00274136400162,-0.0138429051904
1589274947812505145,4474,1589274947812401579,,0.0152006362886,-0.232867785519,0.265869923433,0.037515438133,-0.002776355776,-0.0132143293601
1589274947818445911,4475,1589274947818326829,,0.0152002669236,-0.232867628432,0.265870082138,0.0375154746795,-0.00277631507723,-0.0132142341553
1589274947821429645,4476,1589274947821287900,,0.0357214204615,-0.233075136166,0.266430119414,0.0411520736253,-0.00283066033248,-0.0140166055106
1589274947824355391,4477,1589274947824265454,,0.0357186215155,-0.233074208323,0.266431306345,0.041152254534,-0.00283061316544,-0.0140160838857
1589274947830227130,4478,1589274947830137428,,0.0149143935269,-0.234262493791,0.287989838667,0.0418564095461,-0.00339266896891,-0.0134064941305
1589274947833412165,4479,1589274947833329960,,0.0355596353538,-0.23445130433,0.288540958135,0.0428066505972,-0.00285222628114,-0.0140841254127
1589274947836404929,4480,1589274947836333543,,0.035381268528,-0.235755164393,0.310792378604,0.0452973945329,-0.00288117789806,-0.0134040849789
1589274947842357338,4481,1589274947842281272,,0.0353815410119,-0.235755971743,0.310791735157,0.0452972964065,-0.00288145300583,-0.0134043574449
1589274947845579353,4482,1589274947845410501,,0.014299647305,-0.116250231314,0.326437754159,0.0459525921957,-0.00288686816611,-0.0120072099481
1589274947851454029,4483,1589274947851337487,,0.0143175394228,-0.236831703206,0.332729461424,0.04691639365,-0.0029006492997,-0.0128053089959
1589274947854373425,4484,1589274947854252925,,0.0140068997425,-0.238001647101,0.355219807658,0.0502299168699,-0.0023652324669,-0.0105474161459
1589274947857419555,4485,1589274947857329072,,0.014007449818,-0.238002042184,0.355219521257,0.050229851486,-0.00236548410598,-0.0105476710875
1589274947863397006,4486,1589274947863284357,,0.0351732335106,-0.236992882171,0.333263130256,0.0504688437519,-0.00236970404348,-0.0119905144859
1589274947866374161,4487,1589274947866283179,,-0.00735188153848,-0.239031057574,0.377371183211,0.0546442011024,-0.00240460560423,-0.0107497553161
1589274947869378510,4488,1589274947869301838,,0.0353134997879,-0.36333715477,0.361886091748,0.0548585550229,-0.00240741366903,-0.012072981923
1589274947875624345,4489,1589274947875496663,,-0.00735127198881,-0.239037029338,0.377367412438,0.0555481984028,-0.00241244388473,-0.010761978459
1589274947878603217,4490,1589274947878497338,,0.035023533317,-0.364361891352,0.384180204335,0.057353467408,-0.00242716454472,-0.0105212258657
1589274947881613312,4491,1589274947881525269,,-0.00776548580824,-0.240080321212,0.400127024305,0.0599258765045,-0.00244687910913,-0.0100067648826
1589274947887463449,4492,1589274947887342361,,-0.00776046916672,-0.240078625066,0.400128139334,0.0599257558232,-0.00244688771635,-0.0100074854555
1589274947890325770,4493,1589274947890240651,,0.0128175010987,-0.493894238795,0.433604078804,0.0616673513849,-0.00246061055751,-0.0114941506328
1589274947893407140,4494,1589274947893303845,,0.0128143003484,-0.493894553475,0.433603814974,0.0634498860568,-0.00247348711773,-0.0107005301992
1589274947899272639,4495,1589274947899215549,,0.0128107571789,-0.493893810529,0.433604765918,0.0643681558663,-0.00307002952629,-0.0107067320596
1589274947902621491,4496,1589274947902503332,,0.0128110133276,-0.493891357845,0.433607552043,0.067060321013,-0.00249880164633,-0.0099150826848
1589274947905506990,4497,1589274947905404148,,0.0345598201808,-0.494003075243,0.434052468103,0.0707795016189,-0.00252312580172,-0.0114122285943
1589274947911555461,4498,1589274947911483133,,0.0345622829638,-0.494004765776,0.434050347971,0.0707794512936,-0.00252301467366,-0.0114125652794
1589274947914516191,4499,1589274947914429866,,0.012068449882,-0.495519782204,0.478451455438,0.0740481689367,-0.00314268341618,-0.009110392335
1589274947917484239,4500,1589274947917363503,,-0.0097401895209,-0.495456556578,0.47803632447,0.0758772615284,-0.00255307800933,-0.00923716860691
1589274947923547188,4501,1589274947923449926,,-0.00974621745504,-0.495456034005,0.478036743226,0.0758773108585,-0.00255350719193,-0.00923664474529
1589274947926514008,4502,1589274947926444257,,0.0116892178572,-0.496316123951,0.501050837689,0.0802958391724,-0.00257880565607,-0.00909203277008
1589274947932555713,4503,1589274947932445190,,0.0116908746632,-0.496316185441,0.501050738126,0.0802958351423,-0.00257862361727,-0.00909211999182
1589274947935566823,4504,1589274947935461001,,0.011312930717,-0.497088565849,0.523607385742,0.0847269077979,-0.00260275301955,-0.00907237506521
1589274947938421515,4505,1589274947938333273,,0.0111105211832,-0.626077417897,0.527582096557,0.0856355052654,-0.00260785493954,-0.00906683037208
1589274947944492541,4506,1589274947944388638,,0.0111168416984,-0.626076842807,0.527582645868,0.0856355317209,-0.00260699751733,-0.0090668270781
1589274947947514949,4507,1589274947947423538,,0.0107339611007,-0.626743660224,0.550115190447,0.0890987684961,-0.00262435066989,-0.007380543936
1589274947950434478,4508,1589274947950349370,,0.0107380324333,-0.626743475208,0.55011532178,0.0890987738222,-0.0026238682331,-0.00738065116616
1589274947956438039,4509,1589274947956351437,,-0.0117505191211,-0.627343015024,0.572273094931,0.0935036254136,-0.00204030423559,-0.00664407391716
1589274947959458431,4510,1589274947959339715,,-0.0117511055317,-0.627342867887,0.572273244186,0.0935036313786,-0.00204031438686,-0.00664398685185
1589274947962432323,4511,1589274947962326584,,-0.0117571998638,-0.627343866313,0.572272024506,0.0953322266514,-0.00204797931323,-0.00662549195487
1589274947968428624,4512,1589274947968354059,,-0.0121651775554,-0.627996039303,0.594978647394,0.0979323945601,-0.0026666679714,-0.00660059061823
1589274947971445668,4513,1589274947971344682,,0.00995333452272,-0.628056415106,0.595390903216,0.0997361200611,-0.00329381783452,-0.00561161039824
1589274947980949103,4514,1589274947980822799,,0.00879370917041,-0.629948436033,0.663416703004,0.106639677958,-0.00332682123887,-0.00637332750401
1589274947983763001,4515,1589274947983678338,,0.00879930923439,-0.629947506109,0.663417511761,0.106639678721,-0.00332620925359,-0.00637363414195
1589274947986429933,4516,1589274947986344715,,-0.0137264919945,-0.759536006284,0.66621762452,0.109391273005,-0.00271545686159,-0.00647766589794
1589274947992607027,4517,1589274947992500964,,-0.0137303540072,-0.759532935562,0.666221045765,0.109391236703,-0.00271628554853,-0.00647793148979
1589274947995625894,4518,1589274947995489234,,-0.0364547499777,-0.760045061303,0.688613889797,0.114703234331,-0.00273914643992,-0.00485776266527
1589274947998406519,4519,1589274947998320100,,-0.0364568266918,-0.760040310023,0.688619023958,0.114703193108,-0.00273996925008,-0.00485827196125
1589274948004395401,4520,1589274948004320411,,-0.0364599488401,-0.760037492112,0.688621968821,0.115612804587,-0.00274416869381,-0.00484630790765
1589274948007491805,4521,1589274948007370321,,-0.0373229651395,-0.761122491819,0.734074844488,0.119879756639,-0.00276229035754,-0.0039390274855
1589274948010405185,4522,1589274948010328100,,-0.0373131674461,-0.761130568235,0.734066968486,0.119879730548,-0.00276178396226,-0.00394017645276
1589274948016407475,4523,1589274948016333657,,-0.0368812379739,-0.760594358749,0.711324667975,0.120921635947,-0.00276642247504,-0.003067346875
1589274948019317999,4524,1589274948019241082,,-0.0373055063677,-0.761129871034,0.734068080769,0.124439545009,-0.00277979350802,-0.00301562236937
1589274948022431528,4525,1589274948022310633,,-0.0372972301462,-0.761129604338,0.734068777849,0.125341323427,-0.00278306289377,-0.0021508192141
1589274948028388096,4526,1589274948028301375,,-0.037282824813,-0.761130857862,0.734068209892,0.128098535517,-0.00279195455406,-0.00296330913363
1589274948031444160,4527,1589274948031299988,,-0.0377131144928,-0.761667451723,0.75682673398,0.129786972377,-0.00279893632587,-0.00293802893492
1589274948040498036,4528,1589274948040403732,,-0.0381388066236,-0.762196644325,0.779708654026,0.131468681851,-0.00280613310236,-0.00291409230487
1589274948043391834,4529,1589274948043273956,,-0.0605047027636,-0.762170770159,0.779326309511,0.133283301238,-0.00281277686905,-0.0021689881242
1589274948046361042,4530,1589274948046264896,,-0.0609379081652,-0.762694270232,0.802127326001,0.134954475461,-0.00281860496362,-0.00128696597909
1589274948052364593,4531,1589274948052261241,,-0.0609429365606,-0.76269070465,0.802130334258,0.13676717641,-0.00282585267935,-0.000399803653457
1589274948055468784,4532,1589274948055278292,,-0.0618843077204,-0.893271107801,0.8276005919,0.140285355391,-0.00284019663568,-0.000341944698913
1589274948058391784,4533,1589274948058319951,,-0.0613998526011,-0.763196745325,0.824959497213,0.141178684147,-0.00284396575778,0.000533375040976
1589274948064540640,4534,1589274948064338417,,-0.061903536728,-0.893270463813,0.827599848905,0.143035555488,-0.0022254285098,-0.000294645667939
1589274948067510993,4535,1589274948067372381,,-0.0398672423997,-0.893761284465,0.850906467672,0.144730729226,-0.00285950264701,-0.000989069407451
1589274948070422996,4536,1589274948070338010,,-0.0402639196001,-1.02435996786,0.853305437102,0.146543641376,-0.00286486875307,-9.89604370764e-05
1589274948076362427,4537,1589274948076263484,,-0.0398346215749,-1.02393297679,0.830415730443,0.147600638502,-0.00350415025325,-8.14191630135e-05
1589274948079401927,4538,1589274948079294281,,-0.0402707135918,-1.02435358001,0.853312784803,0.150212964124,-0.00287712471772,-3.58506859495e-05
1589274948082490145,4539,1589274948082416405,,-0.0628194565903,-1.02432655374,0.852910817496,0.152028192622,-0.00352061735253,0.000719755597342
1589274948088451414,4540,1589274948088366362,,-0.0623783954758,-1.02390983247,0.830009704316,0.153086509961,-0.00288440104845,0.000738447920045
1589274948091529653,4541,1589274948091451723,,-0.0628055284797,-1.02433175159,0.85290560069,0.155703991816,-0.00353019089146,-8.05644401826e-05
1589274948094364476,4542,1589274948094279866,,-0.0636601461118,-1.02518536692,0.898524044458,0.157240970546,-0.00417399694696,-5.47064653896e-05
1589274948100483225,4543,1589274948100343348,,-0.0636604379888,-1.02519034666,0.898518342033,0.157240996297,-0.00417304127154,-5.35866371746e-05
1589274948103394236,4544,1589274948103296037,,-0.0867631139644,-1.02557295251,0.920980122316,0.15979330937,-0.00418302322521,0.00246112144957
1589274948106326869,4545,1589274948106249247,,-0.0640891720195,-1.02559322683,0.921372639199,0.160759777005,-0.00354535221956,6.67517140536e-06
1589274948112372800,4546,1589274948112302043,,-0.0640743943593,-1.02559140429,0.921375695678,0.162556760397,-0.00355134182377,0.0017788318452
1589274948115414441,4547,1589274948115319927,,-0.0640743318971,-0.895546585959,0.942026459645,0.166988092205,-0.0035678832864,0.00185846664053
1589274948118341971,4548,1589274948118275615,,-0.0640817014215,-0.895543365955,0.942029019479,0.166988082914,-0.0035673890532,0.00186024935202
1589274948124390298,4549,1589274948124311585,,-0.0876833673104,-1.02638302222,0.966808729628,0.170477199911,-0.00358183009707,0.00352608909795
1589274948127392735,4550,1589274948127303368,,-0.087680725052,-1.02638868533,0.966802957159,0.170477208332,-0.00358057291772,0.00352695868379
1589274948133361033,4551,1589274948133293613,,-0.0876623286444,-1.02639628236,0.966796560083,0.170492938269,-0.00357777356294,0.0026573388073
1589274948136344228,4552,1589274948136255819,,-0.111165662807,-1.02717290101,1.01220269128,0.175676570658,-0.00359637307674,0.00348081555422
1589274948139291134,4553,1589274948139202406,,-0.111181733426,-1.02715930081,1.01221472736,0.17567651415,-0.00359965404118,0.00348027603575
1589274948142349139,4554,1589274948142247835,,-0.0885615401974,-1.02719220959,1.01258084346,0.176593848271,-0.00360125019866,0.00363774125129
1589274948148297545,4555,1589274948148233973,,-0.0889857107127,-1.02759381897,1.03558502045,0.179180149542,-0.0036072865462,0.00455604443238
1589274948151331706,4556,1589274948151253990,,-0.0662861474203,-1.02762958385,1.03596652184,0.182851634057,-0.0042661061542,0.00388886943466
1589274948154317168,4557,1589274948154247813,,-0.0671396151175,-1.15877193235,1.06092175947,0.186402304851,-0.00363183502705,0.00220663319414
1589274948160520398,4558,1589274948160395967,,-0.0671310355712,-1.1587789643,1.06091462181,0.186402335183,-0.00362994137481,0.00220718679634
1589274948163400820,4559,1589274948163301936,,-0.0675803507042,-1.15914084692,1.08383007348,0.191750221788,-0.00364924814565,0.00230297491009
1589274948169345234,4560,1589274948169267852,,-0.0675781751574,-1.15913815335,1.08383308986,0.191750238958,-0.00364720960827,0.00230477392146
1589274948172424644,4561,1589274948172245038,,-0.0453077913373,-1.1595473798,1.10715018879,0.195271225911,-0.0043043142944,0.00163088981344
1589274948176338459,4562,1589274948176254174,,-0.0453264838199,-1.15953681368,1.10716048975,0.195287665634,-0.00430684194126,0.00074657610055
1589274948181563663,4563,1589274948181459952,,-0.0453223406059,-1.15953091391,1.1071668382,0.196207529789,-0.00430811738023,0.000763616089853
1589274948184684115,4564,1589274948184565687,,-0.0684424012113,-1.15987313406,1.12977767081,0.198811915364,-0.00431527000775,0.000669281592804
1589274948187265680,4565,1589274948187209819,,-0.069318670047,-1.1605588228,1.17570002449,0.200365940936,-0.00432207174116,-0.000179136008732
1589274948193338995,4566,1589274948193279025,,-0.0693211780167,-1.16055923332,1.17569947139,0.204978956799,-0.00433466338247,-0.00186253076693
1589274948196341763,4567,1589274948196267970,,-0.0693072121009,-1.16055719566,1.17570230617,0.204978984548,-0.00433301120613,-0.00186332113545
1589274948199390317,4568,1589274948199263536,,-0.0688716874702,-1.16019354451,1.15275879987,0.206056112238,-0.00497576348655,-0.00272501500113
1589274948205333432,4569,1589274948205265428,,-0.046175627358,-1.16022948987,1.15316372538,0.20608875122,-0.00433838309626,-0.00433941382933
1589274948208344861,4570,1589274948208266194,,-0.0234656049885,-1.16027805573,1.15357015767,0.20885192417,-0.00498765773314,-0.00503475428317
1589274948211411011,4571,1589274948211271554,,-0.0465812978863,-1.16058310438,1.17611861211,0.21053352856,-0.00499065414894,-0.00515742686285
1589274948217335951,4572,1589274948217238000,,-0.04657953335,-1.16056852228,1.17613307129,0.210551343983,-0.0049880609681,-0.00603360579771
1589274948220372666,4573,1589274948220294391,,-0.0470035478137,-1.16091555007,1.19909986494,0.213184623947,-0.00564659656183,-0.00775074990868
1589274948223500956,4574,1589274948223377383,,-0.0238619948616,-1.16059995694,1.1765563359,0.214242465167,-0.00565014592306,-0.00759463761917
1589274948229329508,4575,1589274948229233032,,-0.0246955825457,-1.16129253385,1.2225975152,0.217659139219,-0.00566097163351,-0.00931015658317
1589274948232330962,4576,1589274948232258574,,-0.0246740502931,-1.16129883858,1.22259196132,0.217659216517,-0.00565730569755,-0.00931057776664
1589274948235321182,4577,1589274948235231614,,-0.0474134366666,-1.16123937417,1.22219547564,0.218571012452,-0.00631467890509,-0.00943902602826
1589274948241306212,4578,1589274948241239270,,-0.00253221828444,-1.42348701908,1.22652098957,0.222299640104,-0.00502165817284,-0.0126225185278
1589274948244355226,4579,1589274948244256734,,-0.0025214035347,-1.42348991151,1.22651765492,0.222299819801,-0.00501833996351,-0.012620673337
1589274948247453069,4580,1589274948247241892,,-0.00266604779007,-1.29259457223,1.24779615982,0.223987269502,-0.00567812173138,-0.0125944170332
1589274948253377195,4581,1589274948253318131,,-0.0254059859991,-1.29253661089,1.24738687043,0.224928236823,-0.00632954895514,-0.0136146693681
1589274948256388074,4582,1589274948256282854,,-0.0253929518749,-1.29254222547,1.24738131801,0.224928267201,-0.00632758986243,-0.0136150781391
1589274948262527143,4583,1589274948262458868,,-0.0261372794189,-1.42404799415,1.27202107984,0.226587875096,-0.00633173800275,-0.012706431149
1589274948265403384,4584,1589274948265302597,,-0.0261482486953,-1.42403929059,1.27203059811,0.228454921658,-0.00633886036105,-0.0144418344725
1589274948268336032,4585,1589274948268243075,,-0.0261227599436,-1.42403238937,1.27203884769,0.228454174395,-0.0069882093955,-0.0144441342834
1589274948271294679,4586,1589274948271234250,,-0.00374976823381,-1.4244043185,1.29550597097,0.230181186576,-0.00699345422436,-0.0160486370548
1589274948277502199,4587,1589274948277397277,,0.0190396286513,-1.42445932749,1.29592888215,0.230216682377,-0.006996050504,-0.0176714891433
1589274948280710004,4588,1589274948280545153,,0.01837026657,-1.55613885858,1.32045014017,0.233762906279,-0.00700724266538,-0.0193874160488
1589274948286370724,4589,1589274948286270393,,0.018396213474,-1.55613831836,1.32045041559,0.234662140367,-0.00765066588277,-0.018493714298
1589274948289475209,4590,1589274948289341178,,0.0179808919601,-1.55641403023,1.34343559913,0.23825882541,-0.00702042406125,-0.0219865137587
1589274948292534809,4591,1589274948292440756,,0.0179928520276,-1.55642581263,1.34342178858,0.238258748208,-0.00701936093556,-0.0219876897776
1589274948298417075,4592,1589274948298338497,,0.0409306219046,-1.5564934486,1.34384021127,0.241053612063,-0.00767156132433,-0.0244730934568
1589274948301450762,4593,1589274948301328353,,0.0409326665743,-1.55649543303,1.34383785055,0.241053467901,-0.00767224298964,-0.0244742996893
1589274948304432158,4594,1589274948304342821,,0.0409264592343,-1.55650338059,1.34382883431,0.241053476031,-0.00767280256342,-0.0244740441896
1589274948310254459,4595,1589274948310187339,,0.0409183452923,-1.55651052776,1.34382080308,0.241993112963,-0.00767661662604,-0.0253455599656
1589274948313310308,4596,1589274948313189439,,0.0631264216008,-1.68838334071,1.36867684734,0.244607197313,-0.00768716572739,-0.0260532463979
1589274948316459941,4597,1589274948316373931,,0.0633495237227,-1.55687937846,1.36720838531,0.245588464012,-0.00768789853944,-0.0287034307374
1589274948322662536,4598,1589274948322531446,,0.0633564598023,-1.55687066305,1.36721798834,0.245588376741,-0.00768772466721,-0.0287042239922
1589274948325611892,4599,1589274948325471970,,0.0398454402512,-1.68859935117,1.39131476253,0.249099842543,-0.00900851287788,-0.0288009904965
1589274948328525537,4600,1589274948328423913,,0.0398202571689,-1.68860612492,1.39130726237,0.249099955629,-0.00901069321285,-0.0287993303039
1589274948334491472,4601,1589274948334408199,,0.0398558964518,-1.68859578513,1.39131879103,0.250959478061,-0.00901084423003,-0.0296594584037
1589274948337394793,4602,1589274948337296341,,0.039446861698,-1.68885868485,1.41431048551,0.253597616682,-0.00902151654117,-0.0314085696503
1589274948343645497,4603,1589274948343397117,,0.0623494775384,-1.68891928288,1.41474044167,0.2536354406,-0.00966322756627,-0.0330394949321
1589274948346520363,4604,1589274948346434570,,0.0845268183629,-1.68952470048,1.46115539256,0.2579908403,-0.0096760051719,-0.0364000538117
1589274948349491343,4605,1589274948349408469,,0.0845302895141,-1.68951994467,1.46116069085,0.257990669461,-0.00967654753942,-0.0364011204635
1589274948352448668,4606,1589274948352360462,,0.0845424338961,-1.68951992559,1.46116001029,0.258931117013,-0.00967757422835,-0.0372764196205
1589274948358481435,4607,1589274948358398808,,0.084548815759,-1.68949539201,1.4611880084,0.260758511304,-0.0103395648681,-0.0372552276507
1589274948361406058,4608,1589274948361325085,,0.0841500652905,-1.68973108151,1.48432357322,0.262513745088,-0.0103435156313,-0.0399033061569
1589274948367597204,4609,1589274948367503609,,0.0841275779225,-1.68974282058,1.48431148424,0.264363813831,-0.0103495265249,-0.0407649209375
1589274948370607617,4610,1589274948370515860,,0.0607390940664,-1.68991467138,1.50691556266,0.266962195433,-0.0110178243118,-0.0408862832255
1589274948373504331,4611,1589274948373423133,,0.0835418719776,-1.82160030452,1.50865641944,0.268851476761,-0.0110203583551,-0.0433896348685
1589274948379567170,4612,1589274948379468688,,0.0835002431276,-1.82158565866,1.50867640775,0.26885194176,-0.0110239118004,-0.0433858508011
1589274948382580336,4613,1589274948382507359,,0.0827219139219,-1.82208000233,1.55469955314,0.273156254446,-0.0110366669296,-0.0442347090687
1589274948385445815,4614,1589274948385364607,,0.0831046210408,-1.82184308612,1.53167398026,0.273318719866,-0.0116841679199,-0.0451197142233
1589274948391562096,4615,1589274948391439376,,0.105404290205,-1.95389779672,1.55634135235,0.275090786572,-0.0110421680775,-0.0485189480665
1589274948394466934,4616,1589274948394375480,,0.105019488539,-1.95412963778,1.57945828271,0.276747388214,-0.0116954434737,-0.0476043685139
1589274948397593919,4617,1589274948397431992,,0.104995356238,-1.95412749328,1.57946254031,0.276747438772,-0.011698191623,-0.0476033993426
1589274948403590384,4618,1589274948403513792,,0.127632688959,-1.95444023724,1.60290742679,0.281264592472,-0.0123698121167,-0.050979358558
1589274948406588018,4619,1589274948406443434,,0.127606616685,-1.95444316931,1.60290592749,0.281264007273,-0.0123751334661,-0.0509812957238
1589274948409519961,4620,1589274948409425173,,0.127622822023,-1.95444606419,1.60290110754,0.281285902348,-0.0123745388052,-0.0518832663971
1589274948415309490,4621,1589274948415250002,,0.127422474547,-2.08626307863,1.60406896066,0.283135645757,-0.0117256608767,-0.0527531157493
1589274948418477510,4622,1589274948418360259,,0.150164048026,-1.95476019592,1.62635246238,0.284852118943,-0.0123891543763,-0.0543725667224
1589274948421531407,4623,1589274948421428412,,0.149969082648,-2.0865662293,1.62751375691,0.288561044048,-0.0124044529163,-0.0561223618715
1589274948427630400,4624,1589274948427437139,,0.149961678365,-2.08658533862,1.62748993963,0.288560953017,-0.0124049999677,-0.056122709003
1589274948430495288,4625,1589274948430383716,,0.149543591537,-2.08680635267,1.65051760305,0.292130504902,-0.0130777642923,-0.0587567625718
1589274948433501006,4626,1589274948433405668,,0.149557643633,-2.08680868306,1.65051338342,0.293048951311,-0.0130795859589,-0.0587472085556
1589274948439520406,4627,1589274948439374535,,0.149522774154,-2.08682062868,1.65050143927,0.293049571008,-0.0130812832194,-0.058743739308
1589274948442468607,4628,1589274948442390652,,0.172502513013,-2.0868524864,1.65099148931,0.294939408077,-0.0130908813595,-0.0612682019467
1589274948445426832,4629,1589274948445323013,,0.172484186677,-2.08688427096,1.65095322761,0.296789234586,-0.0130969403559,-0.0621376182648
1589274948457313408,4630,1589274948457221665,,0.148532734883,-2.21911256552,1.69779521996,0.301143228803,-0.013771272056,-0.0649219394867
1589274948460510656,4631,1589274948460381412,,0.148539074597,-2.21909494043,1.69781770204,0.30116549022,-0.0144199406205,-0.06582429156
1589274948463465982,4632,1589274948463369760,,0.171287486884,-2.08747503853,1.72023997132,0.30197550639,-0.0144239324639,-0.067453229147
1589274948466446765,4633,1589274948466362265,,0.171141370483,-2.21936952035,1.72129645662,0.303824124572,-0.0144273108757,-0.0683297948869
1589274948469568647,4634,1589274948469440751,,0.194223661791,-2.21942705243,1.72175914802,0.305647423838,-0.0144348205164,-0.0681685474451
1589274948475339047,4635,1589274948475272664,,0.193845709922,-2.21959548722,1.74494658195,0.306417450371,-0.0150963707155,-0.0681615497257
1589274948478374159,4636,1589274948478302455,,0.21638574612,-2.219901262,1.76840842438,0.309077015506,-0.0151089945784,-0.0706736539277
1589274948481685017,4637,1589274948481616482,,0.216537216908,-2.35162714593,1.74643506281,0.309251568947,-0.0151169983813,-0.0715592409693
1589274948487494310,4638,1589274948487381127,,0.193146480205,-2.35175014037,1.76903390136,0.310000446248,-0.01511640157,-0.0707996706763
1589274948490465607,4639,1589274948490373597,,0.193004763866,-2.48376797375,1.77002798541,0.31194134335,-0.0144601387185,-0.0752590833723
1589274948493520964,4640,1589274948493437981,,0.215752004272,-2.35199998788,1.79254812737,0.31453064748,-0.0151354468958,-0.0750873199434
1589274948499375733,4641,1589274948499284998,,0.21571806662,-2.35201662057,1.79253038791,0.314531142536,-0.0151373878835,-0.0750848549075
1589274948502430930,4642,1589274948502334563,,0.215252313502,-2.48429363227,1.81644953096,0.316240051532,-0.0151264846924,-0.0759617836775
1589274948505451317,4643,1589274948505349425,,0.215231386138,-2.48427997678,1.81647068672,0.317170916796,-0.0151330540404,-0.076846035095
1589274948511441404,4644,1589274948511324547,,0.215215022562,-2.48430597863,1.81643706385,0.317171238845,-0.0151329586919,-0.0768447246486
1589274948514474348,4645,1589274948514385797,,0.215252721708,-2.48431896028,1.81641484186,0.319961597915,-0.0151378181033,-0.078614619241
1589274948517473776,4646,1589274948517407054,,0.215246989148,-2.48432855013,1.81640240503,0.319961651685,-0.0151379247457,-0.0786143798641
1589274948523458161,4647,1589274948523333822,,0.214877594465,-2.48451608279,1.83955146735,0.321673412088,-0.0151397124295,-0.0794909274337
1589274948526420958,4648,1589274948526341608,,0.237565762057,-2.48474265826,1.863100633,0.325217512197,-0.0151580950522,-0.0811106716059
1589274948529368674,4649,1589274948529297098,,0.237565368993,-2.48477293825,1.86306029923,0.325217489041,-0.0151568863462,-0.0811109903257
1589274948535463631,4650,1589274948535373708,,0.260611035449,-2.48480266225,1.86356137155,0.327106844126,-0.0158269051687,-0.0836370604237
1589274948538407198,4651,1589274948538307407,,0.260596179264,-2.48481498054,1.86354702422,0.327107182091,-0.0158272270474,-0.0836356777114
1589274948544549446,4652,1589274948544481109,,0.260069240555,-2.61707048883,1.8875080692,0.330687286179,-0.0164857032506,-0.0862941493078
1589274948547601064,4653,1589274948547454837,,0.26010999141,-2.61705219442,1.88752781932,0.330688025461,-0.0164799907098,-0.0862924074265
1589274948550511104,4654,1589274948550401727,,0.260070321733,-2.6170704282,1.88750800429,0.331629747603,-0.016485056807,-0.08717497283
1589274948553417798,4655,1589274948553348460,,0.282807383348,-2.61736143435,1.91096342869,0.334266864936,-0.0164894797745,-0.088793138466
1589274948559327149,4656,1589274948559229472,,0.282831166295,-2.61736142735,1.91095991843,0.334265877613,-0.0164891838282,-0.0887969101717
1589274948562552558,4657,1589274948562434321,,0.282266753973,-2.74966525838,1.934974632,0.336931334197,-0.0171586983889,-0.091466319487
1589274948568401067,4658,1589274948568330371,,0.28224533653,-2.74967746395,1.93496041157,0.336932369755,-0.0171580662779,-0.0914626233364
1589274948571783622,4659,1589274948571678369,,0.304895523966,-2.74989184172,1.95851532407,0.341439498218,-0.0171772372429,-0.0948680479008
1589274948574644433,4660,1589274948574529686,,0.30485858866,-2.74989070908,1.958522664,0.341439020985,-0.0171826603551,-0.0948687834171
1589274948580944068,4661,1589274948580850727,,0.304873725751,-2.74988881374,1.95852296891,0.341461250805,-0.0178429840652,-0.0957670056259
1589274948583815597,4662,1589274948583697619,,0.304502686181,-2.75005872758,1.98158831478,0.344123501384,-0.0178493779721,-0.0984409779268
1589274948586461669,4663,1589274948586372908,,0.327512724599,-2.88230333536,1.98284343911,0.34693152758,-0.017862155376,-0.100976814464
1589274948592419195,4664,1589274948592329475,,0.326691262848,-2.88261747488,2.02910975025,0.351282080729,-0.0185304529587,-0.103631352025
1589274948595430550,4665,1589274948595345311,,0.326690615512,-2.8826310155,2.02909061811,0.351280499535,-0.0185333448709,-0.103636194569
1589274948598398717,4666,1589274948598323154,,0.349757535908,-2.88268451609,2.0295681659,0.353171638901,-0.0185423935919,-0.106166039621
1589274948604401715,4667,1589274948604280669,,0.349734000585,-2.88269362995,2.02955927676,0.355020224518,-0.0185510159866,-0.107044462563
1589274948607381771,4668,1589274948607301309,,0.349375853323,-2.88281863999,2.05268188358,0.35857471368,-0.0185653152283,-0.108820285029
1589274948610511158,4669,1589274948610281745,,0.348969158449,-2.88298687091,2.07575409821,0.360295398286,-0.0192340602474,-0.110608980762
1589274948616351807,4670,1589274948616271610,,0.348823857461,-3.01518079982,2.07652734279,0.361212242272,-0.0185762335663,-0.110603510616
1589274948619385276,4671,1589274948619259458,,0.371528915914,-3.01539083851,2.10008034991,0.364764048297,-0.019250380564,-0.112219798533
1589274948622353431,4672,1589274948622255600,,0.371556500005,-3.01539616625,2.10006781992,0.365740666452,-0.0192517819021,-0.114918808871
1589274948628332129,4673,1589274948628267242,,0.371552468954,-3.01539945363,2.1000638129,0.366657606276,-0.0199179055383,-0.11490957074
1589274948631496932,4674,1589274948631405724,,0.371321633697,-2.88338962454,2.12244994854,0.370253433487,-0.0205894002003,-0.118477898842
1589274948634579672,4675,1589274948634489208,,0.371311663198,-2.88341136795,2.1224221537,0.37025490337,-0.0205862194657,-0.11847385797
1589274948640425410,4676,1589274948640355086,,0.37135140169,-2.88338561497,2.1224501875,0.371195560031,-0.0205863002452,-0.119364276269
1589274948643329165,4677,1589274948643205627,,0.348260437551,-2.88333057668,2.12197890332,0.373003257762,-0.0205881519974,-0.118584819595
1589274948646438556,4678,1589274948646341623,,0.370950782499,-2.88356483884,2.145513961,0.37470783024,-0.0205919795001,-0.119320030307
1589274948652460940,4679,1589274948652389572,,0.370939806556,-2.88358430313,2.14548969849,0.376580985381,-0.0205953636934,-0.121105318938
1589274948658504787,4680,1589274948658427609,,0.416819756637,-2.88387390581,2.16950855276,0.377407712569,-0.0219176218418,-0.123513805641
1589274948661359008,4681,1589274948661248768,,0.393540793046,-2.75187640278,2.1914076737,0.379983264868,-0.0219175795741,-0.122733546632
1589274948664423274,4682,1589274948664338896,,0.393810584101,-2.88378829737,2.16905770418,0.380146460289,-0.0212508137634,-0.123625771403
1589274948667675056,4683,1589274948667390511,,0.393880397712,-2.8837521842,2.16909304012,0.380168294742,-0.0219092706681,-0.124529077833
1589274948673420658,4684,1589274948673259522,,0.416540737009,-2.88400328471,2.19271907784,0.381898296843,-0.0225811814066,-0.126175907533
1589274948676308065,4685,1589274948676244625,,0.393452876325,-2.88392062314,2.19228007556,0.38374994143,-0.0225885676244,-0.127201777257
1589274948679300295,4686,1589274948679242479,,0.43972225099,-2.8840948918,2.19315288551,0.383789483384,-0.022586809497,-0.128714715546
1589274948685538004,4687,1589274948685453789,,0.462658536278,-3.01630146022,2.19441734857,0.387505234084,-0.0226060648971,-0.13124161595
1589274948688485146,4688,1589274948688394394,,0.462698218441,-3.01630764355,2.19440048258,0.38750353869,-0.0226043086032,-0.131246924174
1589274948697465634,4689,1589274948697390845,,0.439567330552,-3.01620855928,2.19398814629,0.388422420451,-0.0232703249783,-0.131385778955
1589274948700660799,4690,1589274948700569547,,0.439169606814,-3.01637812883,2.21706056786,0.389189011291,-0.0226198878836,-0.131379366436
1589274948703528931,4691,1589274948703448353,,0.439006837878,-3.14856733539,2.21782417722,0.390129444211,-0.0226274131683,-0.132269843322
1589274948709522167,4692,1589274948709439745,,0.438960803935,-3.14857741566,2.21781897829,0.390130693802,-0.0226297716255,-0.132265754107
1589274948712342644,4693,1589274948712251000,,0.461620577523,-3.14881916491,2.24134788004,0.393695623367,-0.0233000936942,-0.134793993574
1589274948715502558,4694,1589274948715421794,,0.461588590567,-3.14881216115,2.24136430708,0.39824105519,-0.0226646239996,-0.133842180744
1589274948721489799,4695,1589274948721414732,,0.461594553971,-3.14883873679,2.24132574333,0.39824065801,-0.0226631200289,-0.133843617197
1589274948724490951,4696,1589274948724308644,,0.484326256968,-3.14907089059,2.26488229974,0.399027966398,-0.0226727654799,-0.134590279167
1589274948727686295,4697,1589274948727488052,,0.43765694767,-3.14906386803,2.28717476211,0.404326897227,-0.0226866200067,-0.133019208164
1589274948733576693,4698,1589274948733471802,,0.43736416351,-3.14926495082,2.31018469991,0.408744254101,-0.0226862579051,-0.132974008421
1589274948736419047,4699,1589274948736353685,,0.437298475736,-3.14921831773,2.31026070392,0.408746777896,-0.0226916163209,-0.132965336017
1589274948739298632,4700,1589274948739222943,,0.460424314859,-3.14934039974,2.31064189926,0.407880986799,-0.0233370883565,-0.134632124929
1589274948745399865,4701,1589274948745307864,,0.460175856658,-3.14954418857,2.33364182417,0.408647885419,-0.0239815427288,-0.134626209399
1589274948748369812,4702,1589274948748295274,,0.460593600866,-3.14932409174,2.31063038795,0.410660914063,-0.0233233410925,-0.136404098064
1589274948757422599,4703,1589274948757246190,,0.437526028958,-3.14925984928,2.31016100421,0.412445613676,-0.0239844404418,-0.134722679669
1589274948760330581,4704,1589274948760219653,,0.460491533177,-3.01740213752,2.33283720867,0.413300014702,-0.0239654696173,-0.138188567489
1589274948763339317,4705,1589274948763251213,,0.483205957458,-3.01767810044,2.35635615108,0.417746508078,-0.0239896380134,-0.138898132478
1589274948766314042,4706,1589274948766222662,,0.483274422137,-3.01761138063,2.35642755337,0.420455970927,-0.0239957914951,-0.137969441148
1589274948769433914,4707,1589274948769304936,,0.483083019832,-3.14979739795,2.35714084026,0.423219170621,-0.0246818171801,-0.138844445271
1589274948772473013,4708,1589274948772353629,,0.436011606238,-3.1499682472,2.40252652981,0.425614215556,-0.0246825817041,-0.13639858357
1589274948778540639,4709,1589274948778447436,,0.481962391243,-3.1503198389,2.42645881018,0.428265989448,-0.0240236448202,-0.138793116988
1589274948781743345,4710,1589274948781629711,,0.481470343724,-3.15043586072,2.44963459423,0.430837595245,-0.0240435794363,-0.137855705227
1589274948784911566,4711,1589274948784773799,,0.481461683462,-3.15036534814,2.44972697871,0.430839274802,-0.0240448357143,-0.137850236906
1589274948790561385,4712,1589274948790464293,,0.457657590143,-3.28254479708,2.47331134701,0.432509770853,-0.024058603422,-0.137065765481
1589274948793374574,4713,1589274948793304625,,0.434290123712,-3.15042106002,2.49529163863,0.435992217121,-0.023406215172,-0.136269003191
1589274948796539347,4714,1589274948796472135,,0.456999144307,-3.15067824416,2.51881297508,0.437673448317,-0.0240749440825,-0.136093392129
1589274948802526874,4715,1589274948802454363,,0.456889184576,-3.15066870436,2.51884485587,0.437673574191,-0.0240892967297,-0.136090447547
1589274948805493382,4716,1589274948805420731,,0.480308631172,-3.28277570817,2.49689014719,0.438661678156,-0.0241009028405,-0.133221062799
1589274948808333541,4717,1589274948808255621,,0.480283765886,-3.28271400315,2.49697605439,0.438661712693,-0.0241072058762,-0.133219808645
1589274948814634106,4718,1589274948814560319,,0.480070141047,-3.15065049603,2.51941722948,0.440361330591,-0.0234408945786,-0.134108436929
1589274948817537171,4719,1589274948817425634,,0.479986036056,-3.2828088232,2.52013679698,0.440336467075,-0.0241040760732,-0.133203425269
1589274948820586231,4720,1589274948820480242,,0.480049428842,-3.28285765168,2.52006111525,0.440335911228,-0.0240949087064,-0.133206921292
1589274948826545995,4721,1589274948826441664,,0.503715280894,-3.15061788022,2.49667246636,0.441466934354,-0.0240979444765,-0.135767445519
1589274948829496397,4722,1589274948829409508,,0.503730746554,-3.15059476519,2.49669851527,0.441467584376,-0.0240956241698,-0.135765743691
1589274948832549791,4723,1589274948832438748,,0.457427965235,-3.15038592062,2.49587027877,0.441433039591,-0.0240888140321,-0.134241009291
1589274948838538885,4724,1589274948838455569,,0.457505915816,-3.1503739086,2.49587115326,0.441452951172,-0.0247482931493,-0.135149286011
1589274948841514212,4725,1589274948841396141,,0.480800884268,-3.15044205164,2.49631192304,0.442423188511,-0.0247429583812,-0.137717226419
1589274948844501856,4726,1589274948844400470,,0.457720195103,-3.01816547142,2.49521013837,0.442495725247,-0.0240769181912,-0.14056988944
1589274948850503708,4727,1589274948850404680,,0.457804758945,-3.01813167815,2.49523550002,0.442494458874,-0.0240703838061,-0.140574994782
1589274948856544472,4728,1589274948856461054,,0.481577717741,-2.88590713826,2.47186210841,0.438094796015,-0.0247157379587,-0.141385343213
1589274948859448246,4729,1589274948859384445,,0.505297669487,-3.01773073574,2.42680931778,0.433855792891,-0.0253655066443,-0.143089013544
1589274948862490229,4730,1589274948862402295,,0.481944942282,-2.88565816574,2.44876007027,0.433672259176,-0.0253669786545,-0.141435546054
1589274948865517960,4731,1589274948865442081,,0.505299822315,-3.01766484344,2.42689080416,0.42923893441,-0.0247073279795,-0.141345690439
1589274948868412550,4732,1589274948868287039,,0.505257851674,-3.0177437595,2.42680141305,0.429242161436,-0.0247009411199,-0.141337006579
1589274948877616364,4733,1589274948877495720,,0.481980447462,-3.01771718743,2.42632432919,0.428293291911,-0.0233891002978,-0.139676557221
1589274948880626820,4734,1589274948880472684,,0.481417575874,-3.15004995329,2.45014119166,0.427188806632,-0.0233908012066,-0.137887136879
1589274948886580566,4735,1589274948886509442,,0.50387490435,-3.28246166217,2.47453913093,0.429759797475,-0.0227586782723,-0.136796615166
1589274948889457823,4736,1589274948889369642,,0.503845164306,-3.28245353858,2.47455596235,0.429757755078,-0.0227673878057,-0.136801582177
1589274948892597780,4737,1589274948892450559,,0.480829883418,-3.15024814974,2.47332637324,0.429715305262,-0.0234257393094,-0.135144668623
1589274948898514115,4738,1589274948898419298,,0.480759648621,-3.15030937716,2.47326204005,0.430599944194,-0.0234367557004,-0.134234243517
1589274948901448648,4739,1589274948901337735,,0.45669682218,-3.15053067241,2.51905238421,0.432987809606,-0.0228009212728,-0.131636336514
1589274948904471047,4740,1589274948904373055,,0.456387713007,-3.28270205877,2.5197998371,0.432071275825,-0.0228126607013,-0.131639677355
1589274948910472719,4741,1589274948910374963,,0.456403316931,-3.28274850938,2.51973649549,0.432048564032,-0.0234632667112,-0.130738430486
1589274948913584052,4742,1589274948913482516,,0.456570567701,-3.28275395139,2.51969910537,0.43476881453,-0.0234561738526,-0.129813475049
1589274948916503071,4743,1589274948916383688,,0.456458489548,-3.28267250822,2.51982551407,0.435733727309,-0.0234705995667,-0.131594922658
1589274948922456007,4744,1589274948922349358,,0.456474004989,-3.28270811901,2.51977631119,0.435733725255,-0.0234668340639,-0.131595601001
1589274948925621939,4745,1589274948925481029,,0.457095849294,-3.28266889939,2.49648279213,0.432267426164,-0.0234211330917,-0.133454721222
1589274948931698366,4746,1589274948931514058,,0.457107123454,-3.28265432381,2.49649989343,0.432268601486,-0.0227640846595,-0.133453228516
1589274948937658130,4747,1589274948937545660,,0.503441264595,-3.28278523173,2.49742199584,0.431431826129,-0.023419110231,-0.13678481179
1589274948940601872,4748,1589274948940483546,,0.5036238405,-3.28280258597,2.49736237233,0.431432030087,-0.0233951111447,-0.136788275253
1589274948943613087,4749,1589274948943512954,,0.480635064192,-3.2827624047,2.49684482253,0.430526116058,-0.0240408672902,-0.136949761459
1589274948946598446,4750,1589274948946465786,,0.503714633945,-3.28287414813,2.49724998847,0.431475101059,-0.0233838686476,-0.138609544515
1589274948949556168,4751,1589274948949461751,,0.503786478356,-3.28283705661,2.49728425572,0.43061105755,-0.0233761059337,-0.140427650229
1589274948955642542,4752,1589274948955534348,,0.503745107442,-3.28284634605,2.49728038971,0.430613358555,-0.0233756394415,-0.140420671826
1589274948958592265,4753,1589274948958499561,,0.504133119188,-3.28270411619,2.47416488477,0.42894930557,-0.0240391854749,-0.141355266861
1589274948961547071,4754,1589274948961459876,,0.504159913409,-3.28263776302,2.4742474597,0.428951647596,-0.0240345973652,-0.141348939902
1589274948970652206,4755,1589274948970534793,,0.503297064437,-3.28292750804,2.52048911352,0.429531672077,-0.0233836893434,-0.139531045151
1589274948973554208,4756,1589274948973467864,,0.503235980995,-3.28298309858,2.52042890226,0.429533384804,-0.0233843329982,-0.139525664715
1589274948979606264,4757,1589274948979438286,,0.503034715932,-3.41520582926,2.52111333142,0.429512213274,-0.0227350903092,-0.138620658387
1589274948982757843,4758,1589274948982676829,,0.502182317051,-3.41545516168,2.5674996855,0.431005709532,-0.0227457975851,-0.136785365222
1589274948985980420,4759,1589274948985881510,,0.478706137534,-3.67995041921,2.56830581205,0.430987214037,-0.0227468854427,-0.136027447721
1589274948991596250,4760,1589274948991523815,,0.455038836846,-3.68001002012,2.59098621502,0.434401438455,-0.0234172860739,-0.132512524784
1589274948994441506,4761,1589274948994348638,,0.455032290962,-3.67998960613,2.59101635862,0.434401775813,-0.0234183245276,-0.132511235337
1589274948997590531,4762,1589274948997454294,,0.478504596217,-3.67987723416,2.56844822628,0.432745801493,-0.0227798680578,-0.133287323885
1589274949003588461,4763,1589274949003495537,,0.478349162433,-3.54768618387,2.5909689175,0.433534745942,-0.0227766944646,-0.134193218744
1589274949006574569,4764,1589274949006446529,,0.478452892749,-3.54767062064,2.59097107447,0.433536057534,-0.0227626666468,-0.134191361612
1589274949009522962,4765,1589274949009441182,,0.478786930717,-3.54745397174,2.56797720916,0.431850113893,-0.0227710694389,-0.13421123875
1589274949015522892,4766,1589274949015424836,,0.502073511458,-3.41523832151,2.56780939177,0.430984325543,-0.0234219678567,-0.135875058125
1589274949018471399,4767,1589274949018303468,,0.549279301241,-3.54741386529,2.52293690734,0.427680169862,-0.0227366770801,-0.138340948683
1589274949021421104,4768,1589274949021287183,,0.549331358171,-3.54736679676,2.52299175366,0.426782764857,-0.0240523098695,-0.139256430983
1589274949030585302,4769,1589274949030463219,,0.573560414822,-3.41489949652,2.47652532618,0.421753685273,-0.0240159282915,-0.14550544848
1589274949036573677,4770,1589274949036461958,,0.573539838651,-3.4148839457,2.47655153447,0.421775877919,-0.0240205830859,-0.146408415597
1589274949039597607,4771,1589274949039432969,,0.573706157763,-3.41487772622,2.47652158713,0.422748525894,-0.024675236729,-0.149125534937
1589274949042438989,4772,1589274949042278213,,0.596984669264,-3.41503705468,2.47684597925,0.423660491895,-0.0253255949245,-0.148979313552
1589274949045373411,4773,1589274949045291052,,0.573220868371,-3.54734249707,2.50019589735,0.425315605626,-0.0246804729769,-0.148201063135
1589274949051467216,4774,1589274949051304321,,0.573615523123,-3.54725388499,2.47701944289,0.425466231876,-0.0246787777007,-0.148199961335
1589274949057701985,4775,1589274949057558686,,0.573072199309,-3.54744832245,2.50007982562,0.426213089457,-0.0246891398752,-0.147280134859
1589274949063639224,4776,1589274949063551212,,0.548272868494,-3.81236330181,2.57039298399,0.429303214784,-0.0240556354795,-0.141952202872
1589274949066640077,4777,1589274949066554276,,0.548405401694,-3.68005482203,2.56976789174,0.430190191603,-0.0233919291217,-0.141036751051
1589274949069574056,4778,1589274949069495306,,0.548343916252,-3.6800800666,2.56974486049,0.430191656686,-0.0233944433954,-0.141031865132
1589274949072603080,4779,1589274949072479882,,0.501200387232,-3.8123721086,2.59263869806,0.430852811316,-0.0240836556012,-0.136787010549
1589274949075578489,4780,1589274949075505809,,0.500680386683,-3.81255419729,2.61570082944,0.431599130272,-0.0234289456592,-0.135872088428
1589274949078736802,4781,1589274949078581211,,0.476924859958,-3.94501303417,2.63898314173,0.433181056187,-0.0234310347145,-0.131474981107
1589274949085024896,4782,1589274949084930095,,0.476804451508,-3.94498736868,2.63904326606,0.433181546096,-0.0234437562956,-0.131471099092
1589274949087989105,4783,1589274949087869549,,0.499712986638,-4.0774723016,2.6399995913,0.434087093139,-0.0227956535396,-0.13131347025
1589274949093637735,4784,1589274949093552227,,0.499687643511,-4.07748696518,2.63998174031,0.43408493213,-0.0228018842387,-0.131319532028
1589274949099581052,4785,1589274949099501189,,0.47629134005,-3.94517680482,2.66208865647,0.435773418599,-0.0228094674724,-0.131445371557
1589274949102412443,4786,1589274949102341357,,0.500059072358,-3.81272135266,2.638906003,0.435068416984,-0.0228086731817,-0.13401670041
1589274949108513536,4787,1589274949108435897,,0.54754096473,-3.68027378103,2.59285919697,0.429084766414,-0.0227852838384,-0.139233739257
1589274949111572773,4788,1589274949111465612,,0.547644699538,-3.680189193,2.59295734896,0.429083051319,-0.0227818062836,-0.139239593681
1589274949114673340,4789,1589274949114589971,,0.548690078373,-3.54764041945,2.54596435677,0.424889879802,-0.0234175672548,-0.142923844478
1589274949120657726,4790,1589274949120525433,,0.548890689455,-3.54757918898,2.54600643415,0.424890460144,-0.0233967575696,-0.142925527281
1589274949126663112,4791,1589274949126542924,,0.620215422066,-3.41499938131,2.45412720373,0.413026939022,-0.0246790285501,-0.156192006963
1589274949129528381,4792,1589274949129446652,,0.620389024989,-3.41505555077,2.45400515872,0.413026637692,-0.0246553582065,-0.156196541945
1589274949135597700,4793,1589274949135467020,,0.620964232486,-3.41489117679,2.43088658496,0.411368058529,-0.0246269338892,-0.157115247308
1589274949141501376,4794,1589274949141406598,,0.667377356832,-3.41505922183,2.43176112278,0.405960043191,-0.0246009703865,-0.159589134291
1589274949147845891,4795,1589274949147640419,,0.667425910829,-3.41510060892,2.43168967341,0.402421931057,-0.0252341617569,-0.164155749428
1589274949150482411,4796,1589274949150411256,,0.644346786901,-3.41504871753,2.43118723375,0.399652033739,-0.0252099610599,-0.162515791002
1589274949156655119,4797,1589274949156508578,,0.666919577978,-3.54759847828,2.45531582788,0.400415988548,-0.0252151666361,-0.162348428915
1589274949159550593,4798,1589274949159463067,,0.619611586699,-3.68000394957,2.50137763423,0.402700632591,-0.0245722521974,-0.156285748604
1589274949162642711,4799,1589274949162458071,,0.619521143989,-3.68004557079,2.50133880257,0.402703710114,-0.0245741148866,-0.156277525646
1589274949165551203,4800,1589274949165418130,,0.61938158078,-3.68006238779,2.50134862337,0.403574625085,-0.0245888994926,-0.154449403869
1589274949168505019,4801,1589274949168433967,,0.595799647042,-3.94470590846,2.50207692113,0.407061637278,-0.0239579743558,-0.148235600739
1589274949171519301,4802,1589274949171419226,,0.595564489434,-3.94476424978,2.50204092602,0.407062969753,-0.0239761476553,-0.148229003251
1589274949174612542,4803,1589274949174410068,,0.57131555111,-3.94489902997,2.54792801993,0.410354818067,-0.0233448005089,-0.145617807137
1589274949177418517,4804,1589274949177349202,,0.546949315297,-4.07742446797,2.59446958773,0.416346611721,-0.0233920661022,-0.141177136009
1589274949180466622,4805,1589274949180367602,,0.54673994212,-4.07743624751,2.5944952053,0.416344840165,-0.0234153684756,-0.141178497538
1589274949183779079,4806,1589274949183675444,,0.545196477083,-4.21017153952,2.66456147534,0.422232445729,-0.0214676250929,-0.138397331458
1589274949186428170,4807,1589274949186332729,,0.545062237062,-4.2101517553,2.66462019841,0.422230983861,-0.0214844761524,-0.138399176517
1589274949189432683,4808,1589274949189362310,,0.544413519076,-4.34263612408,2.6883570462,0.42482431387,-0.0214982786848,-0.138366686545
1589274949192543965,4809,1589274949192433394,,0.544332350263,-4.34257398402,2.68847385696,0.426680520318,-0.0221822982726,-0.139248862799
1589274949195518884,4810,1589274949195440014,,0.543541826618,-4.3427824012,2.73484779497,0.429103853887,-0.0221878507206,-0.138317747183
1589274949201502508,4811,1589274949201406476,,0.543858966525,-4.21028301219,2.73443082887,0.429149171973,-0.0221811076022,-0.14013198755
1589274949204396906,4812,1589274949204320853,,0.567497424718,-4.21023784338,2.7116411602,0.427558939956,-0.0228317735227,-0.143620052982
1589274949216533165,4813,1589274949216420489,,0.614946385323,-4.07780202782,2.68888220136,0.423260785134,-0.0240972765213,-0.148808813813
1589274949222575769,4814,1589274949222427823,,0.662952052531,-3.9452719998,2.61962181222,0.416660985191,-0.0253691670825,-0.159444782332
1589274949225533686,4815,1589274949225436541,,0.7093761201,-3.81313849658,2.64318850109,0.415810454716,-0.0260052782584,-0.167314578533
1589274949228663076,4816,1589274949228439270,,0.732832937768,-3.68095992244,2.64291599106,0.41407722481,-0.0266398771327,-0.170812819652
1589274949231536216,4817,1589274949231450035,,0.733034365241,-3.68102126685,2.64277468836,0.414099088179,-0.027280612813,-0.171722981605
1589274949237675529,4818,1589274949237522001,,0.756541749231,-3.94569578218,2.6210403149,0.414340158176,-0.0272684165917,-0.175197316185
1589274949240790594,4819,1589274949240526039,,0.732539884352,-3.81352747128,2.66638258129,0.416812035762,-0.027931895566,-0.176221955363
1589274949243806887,4820,1589274949243681598,,0.708922576512,-3.81355808445,2.68910202239,0.419380198806,-0.0279504846009,-0.175439607128
1589274949249651647,4821,1589274949249551946,,0.708912836691,-3.81361636296,2.68902194039,0.419380474278,-0.027947288042,-0.175439457861
1589274949255626008,4822,1589274949255555432,,0.68605191457,-3.8134143164,2.66547532503,0.420289023137,-0.027302180733,-0.169225877134
1589274949261687418,4823,1589274949261597543,,0.685936706627,-3.81340907039,2.66551248032,0.420289451516,-0.0273143690453,-0.169222846334
1589274949264673892,4824,1589274949264583765,,0.685403912422,-3.81356203221,2.68863334671,0.421754607433,-0.0259994380051,-0.161055024944
1589274949270651534,4825,1589274949270576895,,0.638862983498,-3.81347955812,2.68766765956,0.421674342522,-0.0259987375672,-0.157707406212
1589274949276927298,4826,1589274949276818528,,0.638235894884,-3.94590353733,2.71143302759,0.423286177955,-0.0260198592419,-0.154975982795
