%time,field.header.seq,field.header.stamp,field.header.frame_id,field.vector.x,field.vector.y,field.vector.z
1589274947527161583,4403,1589274947527037154,,0.499967987999,-0.199973649412,0.213154116079
1589274947530072811,4404,1589274947529971011,,0.499967870033,-0.199971694599,0.213140812607
1589274947536218838,4405,1589274947536015055,,0.499967637809,-0.199972700162,0.213128437242
1589274947539158911,4406,1589274947539043561,,0.49996818039,-0.199972235306,0.213114596188
1589274947545251617,4407,1589274947545091096,,0.499968040079,-0.199970907794,0.213101899605
1589274947548185430,4408,1589274947548082127,,0.499968463228,-0.199970384154,0.213088596753
1589274947551247828,4409,1589274947551091525,,0.499969032772,-0.19997155332,0.21307575226
1589274947554098107,4410,1589274947553985852,,0.499968904897,-0.199969177119,0.213063895588
1589274947560212825,4411,1589274947560016441,,0.499969005124,-0.199969407059,0.213051617096
1589274947563105061,4412,1589274947562963878,,0.499969009203,-0.199969394096,0.213037842707
1589274947569125661,4413,1589274947568996226,,0.499968677113,-0.199969117516,0.213025169925
1589274947572090082,4414,1589274947572002303,,0.499969995265,-0.199967927323,0.213014556962
1589274947575184052,4415,1589274947575043733,,0.499969657363,-0.199968897002,0.213001944568
1589274947581392341,4416,1589274947581261251,,0.499970458659,-0.19996703029,0.212989263516
1589274947584607263,4417,1589274947584411222,,0.499969977968,-0.199966680656,0.212977494775
1589274947587163200,4418,1589274947587022521,,0.499970558979,-0.199966497881,0.21296484902
1589274947593239644,4419,1589274947593100690,,0.499970575015,-0.199965115336,0.212952034089
1589274947596152955,4420,1589274947596068566,,0.499970628435,-0.199965092477,0.212939663215
1589274947599265346,4421,1589274947599096584,,0.499970198974,-0.199964601131,0.212927417285
1589274947605165812,4422,1589274947605010102,,0.49997103461,-0.199964277991,0.212915171077
1589274947608145281,4423,1589274947608032817,,0.499971241857,-0.199963828126,0.212904331005
1589274947611126512,4424,1589274947611004936,,0.499970971963,-0.199963913517,0.212890384651
1589274947617075626,4425,1589274947616974552,,0.499971635298,-0.199962825882,0.212878529511
1589274947620093369,4426,1589274947620004274,,0.499971250014,-0.199962689829,0.212865860257
1589274947623126700,4427,1589274947623035321,,0.499971832624,-0.199962400458,0.212854506165
1589274947629222295,4428,1589274947629036602,,0.499972198576,-0.199961775401,0.212841973071
1589274947632178904,4429,1589274947632024090,,0.499971947234,-0.199960966936,0.212829580772
1589274947635131038,4430,1589274947635049686,,0.499972635838,-0.199960301305,0.212818993922
1589274947641182688,4431,1589274947641069478,,0.499972401059,-0.19995928522,0.21280544826
1589274947644192137,4432,1589274947644075602,,0.499972679924,-0.199958657885,0.212794673148
1589274947647074867,4433,1589274947646992846,,0.499973427086,-0.199956168634,0.21278279884
1589274947653195024,4434,1589274947653063422,,0.499972645277,-0.199955885021,0.212769203866
1589274947656137730,4435,1589274947656031323,,0.49997381672,-0.199953751799,0.212756713888
1589274947659214909,4436,1589274947659067383,,0.499973613534,-0.199953441053,0.212744771354
1589274947665204946,4437,1589274947665063995,,0.499973822354,-0.199951249816,0.212734027526
1589274947668196625,4438,1589274947668071338,,0.499973232478,-0.199949119707,0.212724465839
1589274947671130038,4439,1589274947671020940,,0.499973831049,-0.199947038364,0.21271144993
1589274947677217587,4440,1589274947677097897,,0.49997342591,-0.199945979353,0.212698326091
1589274947680617779,4441,1589274947680445080,,0.499974100881,-0.199943792254,0.212686788417
1589274947683517786,4442,1589274947683405449,,0.499973917586,-0.199941292509,0.212676353698
1589274947689151913,4443,1589274947689036155,,0.499974064924,-0.199938601742,0.21266526006
1589274947692224016,4444,1589274947692045570,,0.499973777268,-0.199935182317,0.212654180997
1589274947695187002,4445,1589274947695018348,,0.499974072675,-0.199931486321,0.212644098695
1589274947701196219,4446,1589274947701088486,,0.499973463395,-0.19992982334,0.212632244234
1589274947704234891,4447,1589274947704087296,,0.499972907326,-0.199927655263,0.21262102395
1589274947707198238,4448,1589274947707109484,,0.499973682284,-0.199923824527,0.212608545839
1589274947713296599,4449,1589274947713086590,,0.499973142972,-0.199920696651,0.212597078243
1589274947716295452,4450,1589274947716081006,,0.499973200132,-0.199916744319,0.21258411512
1589274947722281460,4451,1589274947722121118,,0.499973400833,-0.199912953209,0.212572936301
1589274947725276865,4452,1589274947725128275,,0.499973708253,-0.199908150515,0.212561618267
1589274947728159003,4453,1589274947728038560,,0.499974300625,-0.199904653535,0.212551418204
1589274947734236616,4454,1589274947734051139,,0.499973413644,-0.199899546525,0.21253774994
1589274947737256291,4455,1589274947737106112,,0.499973641567,-0.199894499607,0.212526373878
1589274947740173735,4456,1589274947740069722,,0.499974183783,-0.199887151407,0.212513480563
1589274947746165857,4457,1589274947746092557,,0.499974434281,-0.199880191905,0.212501944299
1589274947749195372,4458,1589274947749082618,,0.499974635645,-0.199874158747,0.212490192245
1589274947752276283,4459,1589274947752107642,,0.499975482487,-0.199866717645,0.21247879901
1589274947755190939,4460,1589274947755100382,,0.499975609982,-0.199859831353,0.212467230691
1589274947761281176,4461,1589274947761116737,,0.499975848373,-0.199852236499,0.212455636356
1589274947764276100,4462,1589274947764183615,,0.499976024273,-0.199844262532,0.212444748772
1589274947770246622,4463,1589274947770136763,,0.499975392923,-0.199839062449,0.212431929584
1589274947773189176,4464,1589274947773088196,,0.499976051314,-0.199830372602,0.212419316589
1589274947776182044,4465,1589274947776064186,,0.499976029247,-0.199823930049,0.212406197205
1589274947782420821,4466,1589274947782278161,,0.499976322812,-0.199817687626,0.212395970059
1589274947785149487,4467,1589274947785049096,,0.499975827541,-0.199810168931,0.212385029705
1589274947788228896,4468,1589274947788085267,,0.499975461506,-0.199803039412,0.212373096625
1589274947794183879,4469,1589274947794093332,,0.499975436572,-0.199793656443,0.212360171593
1589274947797273177,4470,1589274947797117973,,0.499975582033,-0.199785035589,0.212348367674
1589274947800262878,4471,1589274947800109688,,0.499976329251,-0.199775625377,0.212336669885
1589274947806282372,4472,1589274947806110920,,0.499976132924,-0.199766846129,0.212325028975
1589274947809189863,4473,1589274947809069994,,0.499976803041,-0.199756530005,0.212312938496
1589274947812351474,4474,1589274947812140419,,0.499976999543,-0.199747091065,0.212300952374
1589274947818288380,4475,1589274947818120969,,0.499976863492,-0.199737792069,0.212290091997
1589274947821195102,4476,1589274947821037597,,0.499976914458,-0.199729725183,0.212278654488
1589274947824178521,4477,1589274947824044280,,0.499977438324,-0.19971895672,0.212267984524
1589274947830138583,4478,1589274947830012136,,0.499977502761,-0.199709504838,0.212257436694
1589274947833223127,4479,1589274947833080090,,0.499977572992,-0.199697648364,0.212243866088
1589274947836246537,4480,1589274947836104035,,0.499978525054,-0.19968654282,0.212233024665
1589274947842203242,4481,1589274947842085586,,0.499978451135,-0.199674335613,0.212218657136
1589274947845334574,4482,1589274947845173154,,0.499977938293,-0.199662893872,0.212206117339
1589274947851237294,4483,1589274947851071132,,0.499978980758,-0.199651373904,0.212194662085
1589274947854184356,4484,1589274947854051239,,0.499978779766,-0.199639076333,0.212182302758
1589274947857238479,4485,1589274947857091735,,0.499979153118,-0.199625596638,0.212168536372
1589274947863253925,4486,1589274947863083974,,0.499979238593,-0.199614215417,0.212156390333
1589274947866158748,4487,1589274947866075517,,0.499979930612,-0.199598314732,0.21214424781
1589274947869275531,4488,1589274947869109963,,0.49997994872,-0.19958397476,0.21213085875
1589274947875340769,4489,1589274947875170094,,0.499979952931,-0.199570962301,0.212118437146
1589274947878414503,4490,1589274947878216298,,0.499980126446,-0.199557896485,0.212106228324
1589274947881413904,4491,1589274947881305677,,0.49998087759,-0.199543966141,0.212094857074
1589274947887228228,4492,1589274947887100579,,0.499980766001,-0.199529322898,0.212081663407
1589274947890256949,4493,1589274947890086383,,0.499981321831,-0.199514198133,0.212069474516
1589274947893195729,4494,1589274947893090847,,0.499982545896,-0.199500506282,0.212058371197
1589274947899160234,4495,1589274947899074483,,0.499982628284,-0.199484427981,0.212046012455
1589274947902392538,4496,1589274947902190783,,0.499982826149,-0.199469705289,0.212033906764
1589274947905291278,4497,1589274947905152992,,0.49998244887,-0.199453109648,0.212020349398
1589274947911313820,4498,1589274947911183494,,0.499982472469,-0.199436163856,0.212008197545
1589274947914223876,4499,1589274947914140703,,0.499983292293,-0.199420437117,0.211998787889
1589274947917273358,4500,1589274947917133844,,0.499983094776,-0.199400841785,0.211985360599
1589274947923288827,4501,1589274947923159041,,0.499983631646,-0.19938485266,0.211975342868
1589274947926285611,4502,1589274947926178991,,0.499983492162,-0.199367143006,0.211962621087
1589274947932261883,4503,1589274947932107629,,0.499984043398,-0.199346975242,0.21195091748
1589274947935325764,4504,1589274947935122777,,0.499983418813,-0.199329519891,0.211937798476
1589274947938203249,4505,1589274947938098105,,0.499982928674,-0.199313591461,0.211926004623
1589274947944240776,4506,1589274947944115812,,0.499983028271,-0.199291203594,0.211912822335
1589274947947318097,4507,1589274947947162388,,0.499983174778,-0.199271630101,0.211901125155
1589274947950324682,4508,1589274947950142411,,0.499983412591,-0.199249780168,0.211888777257
1589274947956282789,4509,1589274947956144793,,0.499984493838,-0.199230384373,0.211878192064
1589274947959289860,4510,1589274947959135598,,0.499984255372,-0.199210092662,0.211864961211
1589274947962214215,4511,1589274947962103857,,0.499984779183,-0.199189185503,0.211853093872
1589274947968304914,4512,1589274947968138841,,0.499984848988,-0.199166896902,0.211838583452
1589274947971257794,4513,1589274947971128960,,0.4999845585,-0.199147071104,0.211825671018
1589274947980529550,4514,1589274947980441604,,0.499985170861,-0.199100972118,0.211798929184
1589274947983619061,4515,1589274947983472124,,0.499985718883,-0.199078052211,0.211786560613
1589274947986215051,4516,1589274947986125886,,0.499985077489,-0.199054638854,0.211772499774
1589274947992274530,4517,1589274947992139679,,0.499985565206,-0.19903327508,0.211759615151
1589274947995338161,4518,1589274947995167334,,0.499986559467,-0.199010495755,0.211746931984
1589274947998211217,4519,1589274947998104152,,0.49998508469,-0.198990733117,0.211732757877
1589274948004215881,4520,1589274948004118894,,0.499985094985,-0.198971714678,0.211720794231
1589274948007221561,4521,1589274948007110483,,0.49998482165,-0.198953647199,0.211708962082
1589274948010276488,4522,1589274948010144756,,0.499984143417,-0.198927985632,0.211694211598
1589274948016245013,4523,1589274948016156671,,0.499984901687,-0.198907009057,0.21168298851
1589274948019151131,4524,1589274948019063167,,0.499986118882,-0.198886017979,0.211672732116
1589274948022249440,4525,1589274948022108471,,0.499986229807,-0.198862125689,0.211659476857
1589274948028214360,4526,1589274948028111015,,0.499986354351,-0.198836587149,0.211645815448
1589274948031217246,4527,1589274948031117948,,0.499986367022,-0.198814048746,0.211633266569
1589274948040273372,4528,1589274948040167543,,0.499986152128,-0.198772023913,0.211608732157
1589274948043203635,4529,1589274948043092726,,0.499985830295,-0.198749410066,0.21159668696
1589274948046257195,4530,1589274948046098461,,0.499986068869,-0.198723700842,0.211583782842
1589274948052173144,4531,1589274948052079258,,0.49998641821,-0.198699075826,0.21157158673
1589274948055203156,4532,1589274948055089058,,0.499986440549,-0.198676105539,0.211557508774
1589274948058229610,4533,1589274948058115107,,0.499987030135,-0.198648266341,0.211543981756
1589274948064339557,4534,1589274948064166567,,0.499987731714,-0.198626083322,0.211533049216
1589274948067258720,4535,1589274948067113459,,0.499988598861,-0.198606217696,0.211522911961
1589274948070286045,4536,1589274948070125459,,0.499988218802,-0.198575970489,0.211508776842
1589274948076227601,4537,1589274948076080298,,0.499988528512,-0.198547925755,0.211496932366
1589274948079216641,4538,1589274948079064471,,0.49998842868,-0.19852427668,0.211487580096
1589274948082322484,4539,1589274948082248671,,0.499987787295,-0.19849259161,0.211475346195
1589274948088287348,4540,1589274948088157147,,0.499987235158,-0.198458856518,0.211464295122
1589274948091313643,4541,1589274948091164935,,0.499986017773,-0.198430000646,0.211456140022
1589274948094210384,4542,1589274948094097991,,0.49998551891,-0.198399311997,0.211446193921
1589274948100311642,4543,1589274948100148943,,0.499986083081,-0.19837050798,0.211438505969
1589274948103216523,4544,1589274948103129540,,0.499986738147,-0.198342491293,0.211427952856
1589274948106180719,4545,1589274948106103143,,0.499986932185,-0.19831388464,0.2114163991
1589274948112242165,4546,1589274948112135086,,0.499987106281,-0.198279517874,0.211402711178
1589274948115239991,4547,1589274948115147683,,0.499987239161,-0.198248166552,0.211391902467
1589274948118198481,4548,1589274948118112541,,0.499986511408,-0.198214493923,0.211380486263
1589274948124226344,4549,1589274948124125003,,0.499986600279,-0.198182228663,0.211369734285
1589274948127156966,4550,1589274948127078481,,0.499985430298,-0.198146129171,0.211356825311
1589274948133210844,4551,1589274948133120418,,0.499984934581,-0.198108332729,0.211341299971
1589274948136231086,4552,1589274948136093361,,0.499984460135,-0.198075123675,0.21132836608
1589274948139212626,4553,1589274948139055727,,0.499983714196,-0.198041212333,0.211313533434
1589274948142194346,4554,1589274948142087324,,0.499983474107,-0.198001488011,0.211300197582
1589274948148215317,4555,1589274948148090557,,0.4999838575,-0.19796021319,0.211286378682
1589274948151214919,4556,1589274948151112693,,0.49998345918,-0.19792510738,0.211272751372
1589274948154173474,4557,1589274948154086610,,0.499982557746,-0.197886230919,0.211256169769
1589274948160318543,4558,1589274948160170531,,0.499983118944,-0.197844261532,0.211241569168
1589274948163253524,4559,1589274948163121167,,0.499982183777,-0.197808215437,0.211229285163
1589274948169262749,4560,1589274948169116206,,0.499982552328,-0.197764227639,0.211215523911
1589274948172192888,4561,1589274948172094760,,0.499982203752,-0.197721794625,0.211200960749
1589274948176206483,4562,1589274948176085732,,0.499981803319,-0.197685440168,0.211187298003
1589274948181394646,4563,1589274948181319670,,0.499982757578,-0.197641339544,0.211174370223
1589274948184564966,4564,1589274948184420458,,0.499983272434,-0.197594542848,0.211159433083
1589274948187131867,4565,1589274948187061319,,0.499982984297,-0.197556209656,0.211144165152
1589274948193248635,4566,1589274948193130239,,0.499984480736,-0.197514855082,0.211132934716
1589274948196208823,4567,1589274948196125309,,0.499984415034,-0.197467598879,0.211117671418
1589274948199227175,4568,1589274948199116086,,0.49998310871,-0.197425652842,0.211100877893
1589274948205270177,4569,1589274948205119862,,0.499983486835,-0.197382193233,0.21108633906
1589274948208226253,4570,1589274948208117617,,0.499982934249,-0.197336995413,0.211068719709
1589274948211311264,4571,1589274948211116760,,0.49998269486,-0.197292416215,0.211054307428
1589274948217224292,4572,1589274948217089787,,0.499983319807,-0.197245202035,0.211040275927
1589274948220301268,4573,1589274948220148086,,0.499982249403,-0.197199277208,0.211022687502
1589274948223342999,4574,1589274948223171704,,0.499981195409,-0.197155409233,0.211005358951
1589274948229243664,4575,1589274948229091864,,0.49998131496,-0.197108524042,0.210989482999
1589274948232181070,4576,1589274948232076906,,0.499981619017,-0.197057743587,0.210972130319
1589274948235187159,4577,1589274948235091338,,0.49998190032,-0.197014478117,0.210957571597
1589274948241191468,4578,1589274948241099893,,0.499981212057,-0.196964802764,0.210939788738
1589274948244270076,4579,1589274948244107035,,0.499982283369,-0.196911305546,0.210928513881
1589274948247168365,4580,1589274948247102111,,0.499981372809,-0.196867468441,0.210914689353
1589274948253274970,4581,1589274948253132885,,0.499981289116,-0.196817287086,0.210896499923
1589274948256228351,4582,1589274948256131150,,0.499979293644,-0.196768034273,0.210879596666
1589274948262404835,4583,1589274948262199408,,0.499981228435,-0.196714749219,0.210867033206
1589274948265271091,4584,1589274948265141618,,0.499980546979,-0.196665120153,0.210850657072
1589274948268245983,4585,1589274948268100949,,0.499978510522,-0.19661238659,0.210831717233
1589274948271223729,4586,1589274948271101025,,0.49997957505,-0.196561564075,0.210818658199
1589274948277296216,4587,1589274948277182235,,0.499978233053,-0.196513697851,0.210802483383
1589274948280534211,4588,1589274948280438054,,0.499977589141,-0.196461626837,0.210785386688
1589274948286237779,4589,1589274948286134240,,0.499977447821,-0.19640463255,0.210768250298
1589274948289338624,4590,1589274948289162688,,0.499977564187,-0.196355376136,0.210752383907
1589274948292398830,4591,1589274948292190455,,0.49997487201,-0.19630408887,0.210734706687
1589274948298257544,4592,1589274948298149030,,0.499974953177,-0.196249536014,0.210717173172
1589274948301209672,4593,1589274948301120761,,0.499975260592,-0.196192164484,0.21069986461
1589274948304290482,4594,1589274948304163201,,0.499974443636,-0.196141655267,0.210683582861
1589274948310202841,4595,1589274948310083515,,0.499973427343,-0.196090231993,0.21066782223
1589274948313263646,4596,1589274948313083561,,0.49997357045,-0.19603529685,0.210650563621
1589274948316240788,4597,1589274948316140315,,0.499973528411,-0.195979242898,0.210635118087
1589274948322449316,4598,1589274948322254608,,0.499971710691,-0.195924991648,0.210617815238
1589274948325408275,4599,1589274948325214407,,0.499972378988,-0.19586860069,0.210601046674
1589274948328279529,4600,1589274948328170009,,0.499971745707,-0.195814510498,0.21058412781
1589274948334341328,4601,1589274948334214999,,0.499970603553,-0.195755464605,0.210568265324
1589274948337304067,4602,1589274948337149400,,0.499972196241,-0.195697229346,0.210550606708
1589274948343262254,4603,1589274948343128304,,0.4999721892,-0.195637796963,0.210532956329
1589274948346263688,4604,1589274948346152041,,0.499972930265,-0.195580051406,0.210518181273
1589274948349324200,4605,1589274948349169326,,0.499973479423,-0.195522620346,0.21050065131
1589274948352242771,4606,1589274948352129288,,0.49997374985,-0.195460510869,0.210483541707
1589274948358303113,4607,1589274948358160807,,0.499974328885,-0.19540172182,0.210464952068
1589274948361267426,4608,1589274948361130132,,0.499975321733,-0.195341289672,0.210449403201
1589274948367425981,4609,1589274948367187500,,0.499976880411,-0.195279279386,0.210434456856
1589274948370434475,4610,1589274948370228750,,0.499976155308,-0.19522163991,0.210413803959
1589274948373320556,4611,1589274948373189920,,0.499977424541,-0.195156225932,0.210395919955
1589274948379369879,4612,1589274948379206982,,0.499978160801,-0.195099965294,0.210382919614
1589274948382412023,4613,1589274948382293325,,0.499978472545,-0.195035054803,0.210363851136
1589274948385296020,4614,1589274948385163498,,0.499979259991,-0.194973631411,0.210347848259
1589274948391301531,4615,1589274948391188935,,0.49997901816,-0.194911100719,0.210331691643
1589274948394226675,4616,1589274948394146898,,0.499978783036,-0.194851061518,0.210310698157
1589274948397263742,4617,1589274948397176288,,0.499978386325,-0.194792196441,0.21029392629
1589274948403312110,4618,1589274948403231706,,0.499980536139,-0.194726521226,0.210278995784
1589274948406298560,4619,1589274948406202453,,0.499980262911,-0.194665900974,0.21025867427
1589274948409288377,4620,1589274948409173726,,0.499979579065,-0.194604100761,0.210239269909
1589274948415167285,4621,1589274948415094566,,0.499979702699,-0.19454103428,0.210221128287
1589274948418269979,4622,1589274948418148430,,0.499980014977,-0.194476117822,0.210201954737
1589274948421401676,4623,1589274948421159670,,0.499979011125,-0.194414837368,0.210183124638
1589274948427278133,4624,1589274948427144314,,0.499978499213,-0.194351337813,0.2101630784
1589274948430295060,4625,1589274948430161584,,0.499977363865,-0.194287524331,0.210142082858
1589274948433295758,4626,1589274948433164725,,0.499977505137,-0.194224551365,0.210124268993
1589274948439277245,4627,1589274948439124419,,0.499980409461,-0.19415594659,0.210108761239
1589274948442349744,4628,1589274948442208203,,0.499978741631,-0.194091145214,0.210084625944
1589274948445282454,4629,1589274948445163397,,0.499980059003,-0.194024852008,0.210067981093
1589274948457258061,4630,1589274948457099137,,0.499981109806,-0.193889300678,0.210030111253
1589274948460300436,4631,1589274948460159052,,0.499981220863,-0.193824051734,0.210013620267
1589274948463295814,4632,1589274948463134775,,0.499984124314,-0.193754332138,0.209999431073
1589274948466271133,4633,1589274948466163348,,0.499983017297,-0.193685820605,0.209978405946
1589274948469336268,4634,1589274948469185158,,0.499984282997,-0.19361696936,0.20996117551
1589274948475213143,4635,1589274948475130080,,0.49998370966,-0.193551833926,0.209942682209
1589274948478246041,4636,1589274948478163216,,0.499985071257,-0.19348429086,0.209925536845
1589274948481493185,4637,1589274948481386625,,0.49998597453,-0.193432777227,0.209912488531
1589274948487216856,4638,1589274948487138993,,0.499986792942,-0.193361615261,0.209894758466
1589274948490284718,4639,1589274948490170738,,0.499988099179,-0.19328928471,0.209874130153
1589274948493287507,4640,1589274948493206795,,0.499988315465,-0.193235244416,0.209859447468
1589274948499271196,4641,1589274948499148149,,0.499988605713,-0.193167601823,0.209842150174
1589274948502225017,4642,1589274948502115161,,0.499988878313,-0.19309284236,0.209822220262
1589274948505273183,4643,1589274948505110930,,0.499988992092,-0.193029939809,0.209805210041
1589274948511285026,4644,1589274948511131082,,0.499988911923,-0.192964583299,0.209788723168
1589274948514247778,4645,1589274948514160150,,0.499989145955,-0.192897179146,0.209770222819
1589274948517306045,4646,1589274948517156218,,0.499990121421,-0.192830629144,0.209753453135
1589274948523258548,4647,1589274948523145335,,0.499991050541,-0.192763878615,0.209735035511
1589274948526281605,4648,1589274948526171708,,0.499993480652,-0.192696816468,0.209716727123
1589274948529252617,4649,1589274948529128087,,0.49999461414,-0.192627283766,0.20969767804
1589274948535310745,4650,1589274948535183797,,0.499994818793,-0.192557895377,0.209676362943
1589274948538283907,4651,1589274948538155648,,0.499995970553,-0.192486076397,0.209659395822
1589274948544354965,4652,1589274948544235001,,0.499996590449,-0.192409465734,0.209639097753
1589274948547280559,4653,1589274948547160255,,0.499996270154,-0.192337183246,0.209621145585
1589274948550218801,4654,1589274948550147287,,0.499997933352,-0.192262150182,0.209603218738
1589274948553262980,4655,1589274948553130274,,0.499999523534,-0.192185931344,0.209587371337
1589274948559221364,4656,1589274948559107640,,0.499999276522,-0.192109634358,0.209563159639
1589274948562282379,4657,1589274948562168835,,0.500001691791,-0.192034428469,0.209543546283
1589274948568219478,4658,1589274948568153690,,0.500003018353,-0.191959505102,0.209526015477
1589274948571464241,4659,1589274948571389144,,0.500004022808,-0.191884764691,0.209504383062
1589274948574340518,4660,1589274948574217837,,0.500005549576,-0.191809146426,0.209484519962
1589274948580834556,4661,1589274948580576785,,0.50000712079,-0.191730424805,0.20946513304
1589274948583631263,4662,1589274948583510416,,0.500006405162,-0.191654369546,0.209444330576
1589274948586324690,4663,1589274948586151848,,0.500006459614,-0.191579933602,0.209421587767
1589274948592291198,4664,1589274948592141971,,0.500006388787,-0.191502420516,0.209402550511
1589274948595263941,4665,1589274948595157595,,0.50000536315,-0.191425904832,0.209376568752
1589274948598267834,4666,1589274948598159419,,0.500005805484,-0.191349849042,0.20935570177
1589274948604238754,4667,1589274948604117780,,0.500006412125,-0.191272693826,0.209333313763
1589274948607304458,4668,1589274948607138921,,0.500006384457,-0.191194631025,0.209307073235
1589274948610251179,4669,1589274948610119798,,0.500007976163,-0.19111607349,0.209285653958
1589274948616240035,4670,1589274948616128537,,0.500007209495,-0.19103933947,0.209261728266
1589274948619230591,4671,1589274948619136990,,0.500009119261,-0.190961330632,0.209241104676
1589274948622289342,4672,1589274948622136978,,0.50000969608,-0.190878956722,0.209218048084
1589274948628212661,4673,1589274948628113673,,0.500011354547,-0.190799945889,0.209198654244
1589274948631246224,4674,1589274948631164251,,0.500011670641,-0.190719118511,0.209178480674
1589274948634398655,4675,1589274948634269590,,0.500014173641,-0.190635002689,0.209160123562
1589274948640326517,4676,1589274948640184695,,0.500015614182,-0.190552651281,0.209136521471
1589274948643240631,4677,1589274948643108320,,0.500017119405,-0.190470265949,0.209118365831
1589274948646307201,4678,1589274948646186249,,0.500019005625,-0.190388061324,0.20909922395
1589274948652295054,4679,1589274948652192182,,0.500023709712,-0.190302498343,0.209083118308
1589274948658305790,4680,1589274948658193469,,0.500024992176,-0.190221676173,0.209060225341
1589274948661227893,4681,1589274948661134007,,0.500026627604,-0.190134384496,0.209038002006
1589274948664227840,4682,1589274948664135091,,0.500030051185,-0.190049576105,0.209020359123
1589274948667257973,4683,1589274948667169570,,0.500031049887,-0.189967181851,0.208997417966
1589274948673245748,4684,1589274948673145146,,0.500032518368,-0.189884061795,0.208976301551
1589274948676193752,4685,1589274948676106867,,0.500034468445,-0.189799610764,0.208954306792
1589274948679208012,4686,1589274948679120435,,0.500035258963,-0.189720188415,0.208933776943
1589274948685306851,4687,1589274948685188571,,0.500035997981,-0.189640942674,0.208913387711
1589274948688319137,4688,1589274948688189062,,0.500036767082,-0.189556454702,0.208889422547
1589274948697343689,4689,1589274948697191984,,0.500038450068,-0.189397749701,0.208846689127
1589274948700462444,4690,1589274948700279372,,0.500039453533,-0.189315065104,0.208824987909
1589274948703346072,4691,1589274948703183250,,0.500040695041,-0.189233900809,0.208804634153
1589274948709416977,4692,1589274948709227492,,0.500041511011,-0.189151345131,0.208783340924
1589274948712253232,4693,1589274948712131060,,0.50004221616,-0.189070362483,0.208762056576
1589274948715294394,4694,1589274948715192515,,0.500042910504,-0.188989242275,0.208741844975
1589274948721297724,4695,1589274948721188708,,0.500042958779,-0.188908105645,0.208720316347
1589274948724262566,4696,1589274948724163962,,0.500045778589,-0.188838696249,0.208706817229
1589274948727260599,4697,1589274948727191965,,0.500046324767,-0.18875477696,0.208686005112
1589274948733337447,4698,1589274948733254725,,0.500047266573,-0.188657829372,0.208660977454
1589274948736409149,4699,1589274948736259027,,0.500050772458,-0.18858797063,0.208650522156
1589274948739257010,4700,1589274948739129397,,0.50005087463,-0.188501956553,0.208630247765
1589274948745270606,4701,1589274948745151414,,0.50005342496,-0.18840192562,0.208607290394
1589274948748254401,4702,1589274948748148159,,0.500055644058,-0.188316321046,0.208588879851
1589274948757293259,4703,1589274948757149391,,0.500057653283,-0.188232651245,0.208569745809
1589274948760303905,4704,1589274948760126231,,0.500059586898,-0.188144883929,0.208546735226
1589274948763262173,4705,1589274948763144391,,0.500062016561,-0.188068359846,0.208528085332
1589274948766213129,4706,1589274948766129894,,0.500063444605,-0.18798004153,0.2085045277
1589274948769327546,4707,1589274948769209664,,0.500065914209,-0.187898332676,0.208481106779
1589274948772431032,4708,1589274948772216797,,0.500068982108,-0.187815425218,0.20846058003
1589274948778324686,4709,1589274948778221799,,0.500069161353,-0.187731343721,0.20843643788
1589274948781543033,4710,1589274948781441848,,0.500070710174,-0.187651203262,0.20841762099
1589274948784696991,4711,1589274948784568158,,0.500071376568,-0.187566507879,0.208398509566
1589274948790330000,4712,1589274948790214451,,0.500071607809,-0.187486079461,0.208378553177
1589274948793283597,4713,1589274948793181778,,0.50007301551,-0.1874039263,0.208357516745
1589274948796343889,4714,1589274948796244270,,0.500074082851,-0.187321880503,0.208338976691
1589274948802366624,4715,1589274948802239640,,0.500073923493,-0.187239183957,0.208317939206
1589274948805279052,4716,1589274948805201154,,0.500074484301,-0.187157057814,0.208297890226
1589274948808206444,4717,1589274948808136289,,0.500075279157,-0.187069296767,0.208275826158
1589274948814435997,4718,1589274948814328851,,0.500077161595,-0.18697801727,0.208256029758
1589274948817272287,4719,1589274948817184035,,0.500078241947,-0.186885769094,0.208230160059
1589274948820291123,4720,1589274948820194992,,0.500079217305,-0.186788740738,0.208205552086
1589274948826361188,4721,1589274948826222721,,0.500080715701,-0.186692927128,0.208181670969
1589274948829276996,4722,1589274948829195860,,0.500081497678,-0.186596878312,0.208158970124
1589274948832278513,4723,1589274948832203501,,0.500084074569,-0.186494388286,0.208137485474
1589274948838334020,4724,1589274948838231086,,0.500084373121,-0.186396579239,0.208111503474
1589274948841302633,4725,1589274948841199739,,0.500086224909,-0.186297711541,0.208087121769
1589274948844266217,4726,1589274948844155583,,0.500090126644,-0.186193190878,0.208065979516
1589274948850435086,4727,1589274948850233978,,0.500092091883,-0.18609839901,0.20804089111
1589274948856378893,4728,1589274948856241580,,0.500094570415,-0.186001347854,0.208019953832
1589274948859260909,4729,1589274948859179427,,0.500095756175,-0.185907896536,0.207999863034
1589274948862304957,4730,1589274948862215697,,0.500097722311,-0.185816265088,0.207977018288
1589274948865356569,4731,1589274948865250493,,0.500099829397,-0.185729744423,0.207952308915
1589274948868325708,4732,1589274948868192715,,0.500100740475,-0.185644334011,0.207936418952
1589274948877395258,4733,1589274948877257450,,0.500100131344,-0.185473117348,0.207891846368
1589274948880287924,4734,1589274948880194713,,0.50009996466,-0.185391942869,0.2078700216
1589274948886299082,4735,1589274948886210215,,0.500099170036,-0.185307320198,0.207850927399
1589274948889365845,4736,1589274948889185955,,0.500097834233,-0.1852248133,0.20782558868
1589274948892300211,4737,1589274948892218987,,0.500098332054,-0.185138744687,0.207804339099
1589274948898370918,4738,1589274948898229427,,0.500098660603,-0.185049812081,0.207781110677
1589274948901291745,4739,1589274948901186068,,0.500097643571,-0.184963739432,0.207755909453
1589274948904360441,4740,1589274948904216607,,0.500099268923,-0.184892033402,0.207741694367
1589274948910382649,4741,1589274948910221984,,0.500099798765,-0.184799540371,0.207717931039
1589274948913348374,4742,1589274948913196442,,0.500099445609,-0.184689527166,0.207687661339
1589274948916346672,4743,1589274948916206946,,0.500103964946,-0.184612448344,0.207676032792
1589274948922381084,4744,1589274948922174745,,0.500106016888,-0.184514549624,0.207653015594
1589274948925401391,4745,1589274948925239473,,0.500107972669,-0.184403671601,0.207625707915
1589274948931341848,4746,1589274948931241899,,0.500109540893,-0.184310544286,0.207604922372
1589274948937382764,4747,1589274948937266317,,0.500113924552,-0.184212334595,0.20758366822
1589274948940351253,4748,1589274948940252329,,0.500116440961,-0.184113422981,0.207561206099
1589274948943381720,4749,1589274948943259327,,0.500117787005,-0.184019721315,0.207537686039
1589274948946357973,4750,1589274948946241389,,0.500120822519,-0.183928637021,0.207515923878
1589274948949361937,4751,1589274948949260154,,0.500122133108,-0.183832475914,0.20749325387
1589274948955428751,4752,1589274948955300324,,0.500123488389,-0.183739658564,0.207474741573
1589274948958390112,4753,1589274948958264250,,0.500123089667,-0.183653547145,0.207449387027
1589274948961333776,4754,1589274948961240824,,0.500124279289,-0.183558467674,0.207429756085
1589274948970463974,4755,1589274948970272988,,0.500124873227,-0.183382780696,0.207384528458
1589274948973362539,4756,1589274948973212119,,0.500125930051,-0.183293483013,0.20736619667
1589274948979312967,4757,1589274948979202940,,0.500126068845,-0.183204425297,0.20734381899
1589274948982551245,4758,1589274948982458851,,0.500125300733,-0.183117104829,0.207322265716
1589274948985779549,4759,1589274948985632146,,0.500126792304,-0.183025044045,0.207301183328
1589274948991438723,4760,1589274948991261608,,0.50012874095,-0.182933315303,0.207279461502
1589274948994309699,4761,1589274948994211388,,0.500129840909,-0.182841842051,0.20725923729
1589274948997360460,4762,1589274948997223287,,0.500132206486,-0.182770681889,0.207242699375
1589274949003361927,4763,1589274949003227406,,0.500134572581,-0.182668863523,0.207215932999
1589274949006372579,4764,1589274949006237440,,0.500136523179,-0.182562571393,0.207192494289
1589274949009406374,4765,1589274949009226733,,0.500140849356,-0.182483272063,0.20717276051
1589274949015281400,4766,1589274949015217411,,0.500143444664,-0.182383807928,0.207153479017
1589274949018326771,4767,1589274949018195862,,0.500145323474,-0.182273645139,0.207124812806
1589274949021320530,4768,1589274949021177867,,0.50014763524,-0.18217883074,0.207102156841
1589274949030428805,4769,1589274949030255153,,0.500150851136,-0.18198303325,0.207055824099
1589274949036401930,4770,1589274949036253618,,0.500151125354,-0.181892175168,0.207032186337
1589274949039332202,4771,1589274949039215042,,0.500153372157,-0.18179788516,0.207003174568
1589274949042291864,4772,1589274949042169533,,0.500153425463,-0.181705714461,0.206977987185
1589274949045303656,4773,1589274949045177160,,0.500153695171,-0.181619365024,0.206954326495
1589274949051346617,4774,1589274949051193827,,0.500153243785,-0.18152947266,0.206932173242
1589274949057398043,4775,1589274949057274873,,0.500154087176,-0.181446795188,0.206915817928
1589274949063449111,4776,1589274949063286935,,0.500152712978,-0.181386422857,0.206899463636
1589274949066404979,4777,1589274949066265709,,0.500152017001,-0.181301419726,0.206880776502
1589274949069383153,4778,1589274949069251362,,0.500154686237,-0.181212911316,0.206862430883
1589274949072373108,4779,1589274949072274105,,0.500154034118,-0.181151592311,0.206846452216
1589274949075419148,4780,1589274949075252829,,0.500154984686,-0.181071201904,0.206828156425
1589274949078390306,4781,1589274949078256433,,0.500155077505,-0.180980693471,0.206806752685
1589274949084755159,4782,1589274949084621780,,0.50015602926,-0.180900103207,0.206789169654
1589274949087563151,4783,1589274949087350636,,0.500155566741,-0.180815731977,0.206769238335
1589274949093455050,4784,1589274949093330754,,0.500156802817,-0.180731998847,0.206744421088
1589274949099327083,4785,1589274949099260878,,0.500159212778,-0.180643017285,0.206723322015
1589274949102287997,4786,1589274949102210843,,0.500162096533,-0.180548603838,0.20669643091
1589274949108354146,4787,1589274949108244409,,0.500163273534,-0.180447359299,0.206666105277
1589274949111369037,4788,1589274949111258967,,0.500168279508,-0.180343857411,0.206638601872
1589274949114474404,4789,1589274949114394120,,0.500171661562,-0.180233055821,0.206609455315
1589274949120409398,4790,1589274949120291386,,0.500175107411,-0.180120491445,0.20658438811
1589274949126486884,4791,1589274949126311622,,0.500179098078,-0.180005828118,0.206556368284
1589274949129340974,4792,1589274949129242521,,0.500182274432,-0.179893121236,0.206530201673
1589274949135329302,4793,1589274949135219998,,0.500186628403,-0.179779036159,0.206506003001
1589274949141303400,4794,1589274949141222895,,0.500187724197,-0.179672475526,0.20648250738
1589274949147662628,4795,1589274949147245454,,0.50019027483,-0.179567998549,0.206459211424
1589274949150334038,4796,1589274949150228073,,0.500191917687,-0.179467265032,0.206439582488
1589274949156504239,4797,1589274949156292514,,0.500193759681,-0.179376817879,0.206421243602
1589274949159322900,4798,1589274949159248142,,0.500193274672,-0.179290282433,0.20640000888
1589274949162396943,4799,1589274949162280100,,0.5001920028,-0.1792078903,0.206384773975
1589274949165414798,4800,1589274949165256494,,0.500190633549,-0.179132948475,0.206364680106
1589274949168339513,4801,1589274949168237776,,0.500191115923,-0.179057053062,0.20634296169
1589274949171407461,4802,1589274949171240783,,0.500188648204,-0.178986742493,0.206324957357
1589274949174405956,4803,1589274949174303575,,0.500186140771,-0.178915495376,0.206303595258
1589274949177354450,4804,1589274949177236109,,0.50018525637,-0.178843137286,0.206280546438
1589274949180373798,4805,1589274949180260750,,0.500182732693,-0.178768236943,0.206257485699
1589274949183569510,4806,1589274949183426088,,0.500184251588,-0.178688040416,0.206235205945
1589274949186346969,4807,1589274949186218339,,0.500184072833,-0.178601788923,0.206209140384
1589274949189383299,4808,1589274949189269670,,0.500185169573,-0.178507672022,0.206185184652
1589274949192418147,4809,1589274949192276128,,0.500187135036,-0.178413430225,0.206160938633
1589274949195446566,4810,1589274949195281198,,0.500190025698,-0.178309876612,0.206137471589
1589274949201372943,4811,1589274949201252483,,0.500193914098,-0.178203184223,0.206111145667
1589274949204336039,4812,1589274949204222634,,0.500199101002,-0.178090620599,0.206088530821
1589274949216459733,4813,1589274949216271011,,0.50020847283,-0.177850732607,0.206035972963
1589274949222453536,4814,1589274949222284922,,0.500213521737,-0.177729691883,0.206011849747
1589274949225454807,4815,1589274949225268722,,0.500218427303,-0.177608994951,0.20598608467
1589274949228353995,4816,1589274949228267718,,0.500221683444,-0.177490236485,0.20596131797
1589274949231396751,4817,1589274949231276205,,0.500222844995,-0.177382703733,0.205932768092
1589274949237430745,4818,1589274949237288634,,0.500225381368,-0.17728147431,0.205912760806
1589274949240413091,4819,1589274949240268857,,0.500226811208,-0.177206098187,0.205898262862
1589274949243428552,4820,1589274949243327052,,0.500227355785,-0.177135871184,0.205878522232
1589274949249431999,4821,1589274949249312235,,0.50022697086,-0.177069012374,0.205860686532
1589274949255456407,4822,1589274949255298703,,0.500229544765,-0.177001427876,0.205847676252
1589274949261449529,4823,1589274949261343336,,0.500228572193,-0.176945816948,0.205835113344
1589274949264423420,4824,1589274949264343165,,0.500225668701,-0.176899019225,0.205822721113
1589274949270460044,4825,1589274949270347485,,0.500221625019,-0.176773071747,0.205798202759
1589274949276588542,4826,1589274949276414710,,0.500217896628,-0.176721981312,0.205781051866
1589274949282700743,4827,1589274949282577447,,0.500216778618,-0.176672218457,0.205766343625
1589274949285832796,4828,1589274949285683047,,0.5002170291,-0.17662015577,0.205747961722
1589274949291529443,4829,1589274949291347165,,0.500217653704,-0.176557808586,0.205726190717
1589274949297472338,4830,1589274949297347010,,0.500218580231,-0.176488600774,0.205703982821
1589274949303539405,4831,1589274949303365746,,0.500219764305,-0.176410791466,0.205679916722
1589274949309348997,4832,1589274949309276979,,0.500222711185,-0.17633367166,0.205663524931
1589274949315469314,4833,1589274949315336967,,0.50022512637,-0.176260832094,0.20564815627
1589274949321386007,4834,1589274949321323057,,0.50022609866,-0.176168924852,0.20562927817
1589274949333522949,4835,1589274949333297125,,0.500234253895,-0.175976690632,0.205593765025
1589274949336365080,4836,1589274949336291310,,0.50024052726,-0.175871714957,0.205577135018
1589274949339425273,4837,1589274949339303156,,0.500243758917,-0.175755901196,0.205549703991
1589274949345381939,4838,1589274949345299737,,0.500247869889,-0.17565931482,0.205528911458
1589274949351599797,4839,1589274949351387771,,0.5002519316,-0.175555799494,0.20550962794
1589274949357444494,4840,1589274949357317615,,0.500254589649,-0.175454684455,0.205482812128
1589274949363531045,4841,1589274949363323982,,0.500255996149,-0.175362225731,0.205456889849
1589274949369470488,4842,1589274949369324971,,0.500256337202,-0.175265844981,0.205432629835
1589274949375469784,4843,1589274949375342350,,0.500256618513,-0.1751774652,0.205406571844
1589274949381767365,4844,1589274949381646541,,0.500254787218,-0.175092348953,0.205381142872
1589274949384841951,4845,1589274949384653706,,0.500254377984,-0.175012612761,0.205359570526
1589274949390389173,4846,1589274949390305484,,0.50025303318,-0.174941320991,0.205339886301
1589274949396472220,4847,1589274949396353697,,0.500253180954,-0.174894321674,0.205324842251
1589274949402378104,4848,1589274949402286420,,0.500252216005,-0.174847550781,0.205313729568
1589274949408430993,4849,1589274949408319072,,0.500249703016,-0.174778911302,0.205293754238
1589274949414645804,4850,1589274949414411432,,0.500251072474,-0.17472795467,0.205283421026
1589274949420487067,4851,1589274949420330707,,0.500249546424,-0.174686353996,0.205277045189
1589274949426355932,4852,1589274949426254153,,0.500247694041,-0.174615283309,0.205260118565
1589274949432496471,4853,1589274949432335246,,0.500246747813,-0.174543958735,0.205241902555
1589274949438531034,4854,1589274949438378398,,0.500247150233,-0.174479694415,0.205230571107
1589274949444498784,4855,1589274949444305750,,0.500247267336,-0.174413369779,0.205211279478
1589274949450427546,4856,1589274949450287383,,0.500247763404,-0.17434460559,0.205191840096
1589274949456439718,4857,1589274949456283515,,0.500248347525,-0.174268003176,0.205171361139
1589274949462486358,4858,1589274949462344244,,0.500250198413,-0.174187469289,0.205148206474
1589274949468416245,4859,1589274949468257213,,0.500252362292,-0.17410048021,0.205126301954
1589274949474675610,4860,1589274949474596410,,0.500254486562,-0.174002439468,0.205103007025
1589274949480454970,4861,1589274949480326117,,0.500257858554,-0.173905427188,0.205084085869
1589274949483545734,4862,1589274949483415190,,0.500262551654,-0.173803615972,0.205066750038
1589274949489430394,4863,1589274949489278428,,0.500265648511,-0.173699282025,0.205045666347
1589274949495455107,4864,1589274949495337151,,0.500271386297,-0.173593951858,0.205029487212
1589274949501483845,4865,1589274949501292818,,0.50027478208,-0.173490768195,0.205007422008
1589274949513543781,4866,1589274949513391231,,0.500281422898,-0.173296243055,0.204971238921
1589274949519573019,4867,1589274949519388033,,0.500284323321,-0.173204880396,0.204954673741
1589274949525467381,4868,1589274949525370363,,0.500283764695,-0.173120930865,0.204933823017
1589274949531500939,4869,1589274949531421141,,0.500285671406,-0.173036605821,0.204918560108
1589274949537449019,4870,1589274949537350552,,0.500284699887,-0.172967914604,0.20490168728
1589274949543479137,4871,1589274949543387807,,0.500284372056,-0.172904698506,0.204883164811
1589274949549477491,4872,1589274949549356494,,0.50028264242,-0.17283869267,0.204864631798
1589274949555488524,4873,1589274949555382543,,0.500281892387,-0.172776445443,0.204847387144
1589274949561436560,4874,1589274949561306354,,0.500279347838,-0.172719160444,0.204829639503
1589274949568037372,4875,1589274949567929978,,0.500279245882,-0.172657275429,0.20481784755
1589274949573545839,4876,1589274949573355312,,0.500276602175,-0.172597560812,0.204801446303
1589274949579569865,4877,1589274949579378597,,0.50027739238,-0.172533508154,0.204786008724
1589274949582890517,4878,1589274949582553588,,0.500277687397,-0.172463002942,0.2047698598
1589274949585761360,4879,1589274949585607524,,0.500279415801,-0.172392601216,0.204758562403
1589274949591554443,4880,1589274949591440546,,0.500281585444,-0.172311568983,0.204742123289
1589274949597551811,4881,1589274949597358190,,0.500283513108,-0.172231115643,0.20472410479
1589274949603624869,4882,1589274949603449193,,0.500284959086,-0.172150913429,0.204710196144
1589274949609527784,4883,1589274949609411757,,0.500288839051,-0.172053433096,0.204694506396
1589274949615429983,4884,1589274949615291477,,0.500291216035,-0.17195923217,0.204675096852
1589274949621375345,4885,1589274949621273693,,0.500292898904,-0.171860635284,0.204653508498
1589274949633663613,4886,1589274949633429798,,0.500299844647,-0.171656630732,0.204613623483
1589274949639457297,4887,1589274949639329581,,0.500303501615,-0.171553562998,0.204591165199
1589274949645578062,4888,1589274949645368831,,0.500305026134,-0.17145445556,0.204569847916
1589274949651576773,4889,1589274949651422344,,0.500307349606,-0.171361211335,0.204550881877
1589274949657509139,4890,1589274949657322297,,0.500309738627,-0.17128574805,0.204532785733
1589274949663418922,4891,1589274949663326188,,0.500309394755,-0.171201594221,0.20451168042
1589274949669502905,4892,1589274949669393826,,0.50031079184,-0.171113919123,0.204496144909
1589274949675444788,4893,1589274949675347924,,0.500311024788,-0.171059795783,0.204483524634
1589274949681855933,4894,1589274949681742575,,0.500312737819,-0.17099390514,0.204475006857
1589274949684754052,4895,1589274949684651786,,0.500310664493,-0.170933951379,0.204460856422
1589274949690503851,4896,1589274949690373514,,0.500308907699,-0.170880168056,0.204445450729
1589274949696404159,4897,1589274949696310809,,0.500309135026,-0.170834315576,0.204440991383
1589274949702460017,4898,1589274949702324905,,0.500307706005,-0.17078900874,0.204429827287
1589274949708500281,4899,1589274949708384705,,0.500305318389,-0.170748057814,0.204418585386
1589274949714754447,4900,1589274949714626249,,0.500303237027,-0.17070008314,0.204404495661
1589274949720489727,4901,1589274949720396586,,0.500303305941,-0.170651318915,0.204391229042
1589274949726520329,4902,1589274949726369750,,0.500302548413,-0.170595675362,0.204376242212
1589274949732641372,4903,1589274949732472157,,0.500302591561,-0.170537272673,0.204360062203
1589274949738539014,4904,1589274949738392869,,0.500302307253,-0.170473194401,0.204345597464
1589274949744579899,4905,1589274949744401561,,0.500303994412,-0.170402507119,0.204330662869
1589274949750620083,4906,1589274949750420629,,0.500303910985,-0.170331421975,0.204314861667
1589274949756546380,4907,1589274949756426852,,0.500305542652,-0.170254033396,0.204300284847
1589274949762595901,4908,1589274949762450739,,0.500309045754,-0.170174988856,0.204288336992
1589274949768492421,4909,1589274949768385098,,0.50031202535,-0.170094677733,0.20427234612
1589274949774847526,4910,1589274949774695990,,0.500314234426,-0.170006191871,0.204253815596
1589274949780565164,4911,1589274949780455139,,0.500318990715,-0.169919231673,0.204239470943
1589274949786531805,4912,1589274949786377839,,0.500323347726,-0.169830064105,0.204224146347
1589274949792497808,4913,1589274949792392983,,0.500326587852,-0.169738374259,0.20420621504
1589274949798492901,4914,1589274949798344252,,0.500329368102,-0.169651237108,0.204185463092
1589274949804491748,4915,1589274949804361606,,0.500331337433,-0.169560573723,0.204164271499
1589274949810509132,4916,1589274949810378438,,0.500334337017,-0.169475059474,0.204148473679
1589274949816567718,4917,1589274949816392987,,0.500335028835,-0.16939628383,0.204127979269
1589274949822520218,4918,1589274949822359194,,0.500335792238,-0.169323890717,0.204111535214
1589274949828523093,4919,1589274949828403686,,0.500336154267,-0.169273223808,0.204098824181
1589274949834703447,4920,1589274949834585617,,0.500336814661,-0.169228317002,0.204088993457
1589274949840478973,4921,1589274949840349759,,0.500336149635,-0.169164566235,0.204074854715
1589274949846620952,4922,1589274949846475240,,0.500337119598,-0.169124220551,0.204066358502
1589274949852608102,4923,1589274949852435250,,0.500335677532,-0.169090725651,0.204062759828
1589274949858684709,4924,1589274949858458825,,0.500333480808,-0.169043835832,0.204057657856
1589274949864561876,4925,1589274949864399130,,0.500333432211,-0.168996780418,0.204050298765
1589274949870524319,4926,1589274949870402329,,0.500331065356,-0.168964087149,0.204042233307
1589274949876536667,4927,1589274949876395549,,0.500329901975,-0.168929496059,0.204032985157
1589274949882832842,4928,1589274949882661744,,0.500331736956,-0.168887405067,0.204026497719
1589274949885887579,4929,1589274949885673812,,0.500331752452,-0.168842138787,0.204013467192
1589274949891523020,4930,1589274949891406287,,0.500333173504,-0.168795787314,0.204001295862
1589274949897524572,4931,1589274949897407040,,0.500333021544,-0.168743544703,0.203988378166
1589274949903687180,4932,1589274949903438647,,0.500334256948,-0.168687326042,0.203977321841
1589274949909563358,4933,1589274949909428580,,0.500334386403,-0.168629071529,0.203963750759
1589274949915545210,4934,1589274949915458087,,0.500336567728,-0.168570176435,0.203954522504
1589274949921507267,4935,1589274949921413919,,0.500340682486,-0.16850034056,0.203944376705
1589274949933710219,4936,1589274949933458144,,0.500347164816,-0.168368423962,0.203920892842
1589274949939566163,4937,1589274949939428411,,0.500351175192,-0.168296926797,0.203907284362
1589274949945552084,4938,1589274949945433735,,0.500353224065,-0.168229436231,0.203894243777
1589274949951604009,4939,1589274949951440716,,0.500356750629,-0.168157101287,0.203883256205
1589274949957618040,4940,1589274949957472176,,0.500359011706,-0.168086967314,0.203870055596
1589274949963537333,4941,1589274949963413152,,0.500361235117,-0.16801925388,0.203855893684
1589274949969551498,4942,1589274949969431825,,0.500363035743,-0.167948881013,0.20384138603
1589274949975711192,4943,1589274949975471270,,0.5003628885,-0.167888768446,0.20382599058
1589274949981921077,4944,1589274949981764615,,0.500367331861,-0.167822732096,0.203817802255
1589274949984801215,4945,1589274949984709595,,0.500366949011,-0.167768683744,0.203803719308
1589274949990525607,4946,1589274949990427744,,0.500367902338,-0.167709814268,0.20378958506
1589274949996530508,4947,1589274949996400131,,0.500368769538,-0.167656901315,0.203782089719
1589274950002568257,4948,1589274950002439793,,0.500369376327,-0.167609514796,0.203774475473
1589274950008615613,4949,1589274950008382561,,0.500370248679,-0.167560757111,0.203766905335
1589274950014928946,4950,1589274950014821293,,0.500368939269,-0.167515176789,0.203756355125
1589274950020698488,4951,1589274950020423062,,0.500369752993,-0.167471327386,0.203749963063
1589274950026637270,4952,1589274950026471567,,0.500370900446,-0.167424431598,0.203745229499
1589274950032641068,4953,1589274950032448211,,0.500371218325,-0.16737782609,0.203734169134
1589274950038592624,4954,1589274950038429108,,0.500371408137,-0.167330402585,0.203722096622
1589274950044603795,4955,1589274950044473692,,0.500371439842,-0.167282699985,0.203712103363
1589274950050552952,4956,1589274950050404620,,0.500371942906,-0.167235952884,0.203701589107
1589274950056582395,4957,1589274950056436115,,0.50037251707,-0.167182053999,0.203692478544
1589274950062591553,4958,1589274950062456547,,0.500373653296,-0.167128692746,0.203681193406
1589274950068564118,4959,1589274950068438278,,0.500373148506,-0.167077337161,0.203668142734
1589274950074833483,4960,1589274950074669141,,0.500375860281,-0.167017896419,0.203657971947
1589274950080643738,4961,1589274950080514138,,0.500377699324,-0.166961080236,0.203645071887
1589274950086565373,4962,1589274950086400857,,0.500378987432,-0.166902388379,0.20363383881
1589274950092621554,4963,1589274950092473898,,0.500380859819,-0.166842246345,0.203620949063
1589274950098586477,4964,1589274950098446404,,0.500382609012,-0.166782522492,0.203608154026
1589274950104683631,4965,1589274950104493749,,0.500385000163,-0.166728762936,0.203598473629
1589274950110642015,4966,1589274950110491382,,0.500387439973,-0.166672536096,0.203590592224
1589274950116588896,4967,1589274950116472612,,0.500389176908,-0.16661493207,0.203581210747
1589274950122580834,4968,1589274950122479835,,0.500389421208,-0.166568874837,0.203568279449
1589274950128485991,4969,1589274950128386123,,0.500390796179,-0.166516771047,0.203557766207
1589274950134996230,4970,1589274950134852167,,0.500391718022,-0.166467477459,0.20354797562
1589274950140614890,4971,1589274950140442254,,0.500392502852,-0.166426942768,0.203538256478
1589274950146688001,4972,1589274950146519619,,0.500393026015,-0.166380104241,0.203530026744
1589274950152599725,4973,1589274950152464613,,0.5003926882,-0.166340442745,0.20352210512
1589274950158545980,4974,1589274950158423246,,0.500392984218,-0.16630404979,0.203513487264
1589274950164573495,4975,1589274950164426010,,0.500392939258,-0.166266725501,0.203505540775
1589274950170658470,4976,1589274950170481317,,0.500392763327,-0.166230817079,0.203498986687
1589274950176563901,4977,1589274950176446924,,0.500392543558,-0.166196723277,0.203491705464
1589274950182812684,4978,1589274950182678184,,0.500393548539,-0.166159494848,0.203485237354
1589274950185864007,4979,1589274950185756057,,0.500394042683,-0.166123485907,0.203478410038
1589274950191589587,4980,1589274950191461728,,0.500393809437,-0.166086082587,0.203469204207
1589274950197621538,4981,1589274950197461850,,0.500395333487,-0.166050583956,0.203464592603
1589274950203610708,4982,1589274950203450177,,0.500397086417,-0.166011246648,0.203461532843
1589274950209618624,4983,1589274950209439444,,0.500397065196,-0.165971261115,0.203452570415
1589274950215574921,4984,1589274950215435065,,0.500399112957,-0.165930376401,0.203446055232
1589274950221528953,4985,1589274950221433400,,0.500399792101,-0.16588873614,0.203437480021
1589274950233623623,4986,1589274950233461517,,0.500401931307,-0.165801734886,0.203419026477
1589274950239555561,4987,1589274950239412995,,0.500403115244,-0.165757283861,0.203410690985
1589274950245647721,4988,1589274950245428707,,0.500405576816,-0.165710594359,0.20340313016
1589274950251603984,4989,1589274950251470802,,0.500405456523,-0.165669863105,0.203390410684
1589274950257530127,4990,1589274950257388351,,0.500406920607,-0.165624098835,0.203381847926
1589274950263563472,4991,1589274950263411837,,0.500408000351,-0.165580696507,0.203373370635
1589274950269601887,4992,1589274950269454488,,0.500409735793,-0.165549104052,0.203366572239
1589274950275574512,4993,1589274950275478868,,0.50041128415,-0.165514628442,0.203359736252
1589274950282070142,4994,1589274950281858732,,0.500413205574,-0.165471606807,0.203351615711
1589274950293649957,4995,1589274950293485374,,0.50041486658,-0.165416286776,0.203341379853
1589274950299569569,4996,1589274950299457178,,0.500416288828,-0.165383819949,0.203337638679
1589274950305697812,4997,1589274950305472514,,0.500416867121,-0.165350322429,0.203333633963
1589274950311658106,4998,1589274950311481746,,0.500417113219,-0.165325101602,0.203330032905
1589274950317671409,4999,1589274950317482099,,0.500417361063,-0.165304509678,0.203327380729
1589274950323547517,5000,1589274950323439397,,0.500418297805,-0.165285583855,0.203323995448
1589274950329712430,5001,1589274950329534977,,0.500417271656,-0.165266100921,0.203318120937
1589274950335660164,5002,1589274950335535083,,0.500417856688,-0.165244470817,0.203312732042
1589274950341777033,5003,1589274950341492880,,0.500418321704,-0.165221877342,0.203307131819
1589274950348367693,5004,1589274950348241373,,0.500418895724,-0.165198307393,0.203301149062
1589274950353532788,5005,1589274950353403549,,0.50041960171,-0.165173395931,0.203296931767
1589274950359519644,5006,1589274950359386564,,0.500418977244,-0.165148357775,0.203290315961
1589274950365501915,5007,1589274950365386006,,0.500419682385,-0.165125872046,0.203286695987
1589274950371685171,5008,1589274950371576245,,0.500420394755,-0.165099444555,0.20328186041
1589274950377676602,5009,1589274950377491708,,0.500421487877,-0.165070294186,0.203278014508
1589274950383799068,5010,1589274950383656750,,0.500422354304,-0.165041255817,0.203272374382
1589274950389633367,5011,1589274950389461096,,0.500422840664,-0.165014018045,0.203266519627
1589274950395618344,5012,1589274950395482416,,0.500423578532,-0.164987999946,0.203261152937
1589274950401668497,5013,1589274950401482806,,0.500424752111,-0.164959456292,0.203255544887
1589274950413680420,5014,1589274950413532547,,0.500426583783,-0.164905259262,0.203246622884
1589274950419651899,5015,1589274950419454687,,0.500428211833,-0.164874553985,0.203243579493
1589274950425586790,5016,1589274950425413279,,0.500429094831,-0.164845154861,0.203239308403
1589274950431617442,5017,1589274950431479072,,0.500429436392,-0.164819010363,0.20323332151
1589274950437534329,5018,1589274950437455141,,0.500429377033,-0.164794832193,0.203227976224
1589274950443664297,5019,1589274950443482866,,0.500431041479,-0.164766054729,0.203224262104
1589274950449642820,5020,1589274950449497734,,0.500432250485,-0.164739607887,0.203220548145
1589274950455596355,5021,1589274950455464148,,0.500431964394,-0.164715509899,0.203215090788
1589274950461594070,5022,1589274950461450513,,0.500432094684,-0.164693130765,0.203210797156
1589274950470629807,5023,1589274950470446495,,0.500434687725,-0.164644648601,0.203203102193
1589274950476738736,5024,1589274950476537092,,0.500435965086,-0.164622119943,0.203198508904
1589274950482855085,5025,1589274950482723106,,0.500437093393,-0.164599771411,0.20319295653
1589274950488689260,5026,1589274950488501246,,0.500438355247,-0.16457897782,0.203189230649
1589274950494641494,5027,1589274950494520622,,0.500439514405,-0.164557306402,0.203185540886
1589274950500803510,5028,1589274950500542389,,0.500439708911,-0.164536544243,0.203181641898
1589274950506607849,5029,1589274950506510126,,0.500439807071,-0.164518905915,0.203176904483
1589274950512583397,5030,1589274950512432187,,0.500441182661,-0.164497440222,0.203174365292
1589274950518688961,5031,1589274950518516949,,0.500442154735,-0.164479164014,0.203172784948
1589274950524649750,5032,1589274950524502213,,0.500442058267,-0.164460410821,0.203171051177
1589274950530612428,5033,1589274950530486212,,0.500442608502,-0.164443860392,0.203167435661
1589274950536651337,5034,1589274950536502933,,0.500443002978,-0.164426906391,0.203165279978
1589274950542665843,5035,1589274950542542616,,0.50044310919,-0.164409367958,0.203161502428
1589274950548600626,5036,1589274950548504567,,0.500444186029,-0.164391727933,0.203159084678
1589274950555010269,5037,1589274950554898398,,0.500445065448,-0.164376726834,0.203155784547
1589274950560578026,5038,1589274950560444604,,0.50044563046,-0.164360123438,0.203152723996
1589274950566496946,5039,1589274950566423158,,0.500446452438,-0.164345516879,0.203150597775
1589274950572754547,5040,1589274950572549243,,0.500447608221,-0.164329027857,0.203148000026
1589274950578624323,5041,1589274950578477025,,0.500447631976,-0.164314038731,0.203143866251
1589274950584946442,5042,1589274950584826140,,0.50044805011,-0.16430031889,0.203140429599
1589274950590700087,5043,1589274950590560478,,0.500449234003,-0.164284475579,0.203139351409
1589274950596621449,5044,1589274950596519961,,0.500449871359,-0.164271591992,0.203136488746
1589274950602637118,5045,1589274950602520285,,0.500450831384,-0.164256025648,0.2031338883
1589274950608644256,5046,1589274950608488657,,0.500451697078,-0.16424418537,0.203132396253
1589274950620583003,5047,1589274950620455295,,0.500453774613,-0.164218978372,0.203128072196
1589274950626581138,5048,1589274950626412775,,0.500454425711,-0.16420750723,0.203126223581
1589274950632666849,5049,1589274950632498736,,0.500455498103,-0.164194738795,0.203124360475
1589274950638715636,5050,1589274950638544060,,0.500456360266,-0.164182339594,0.203123524852
1589274950644697624,5051,1589274950644534230,,0.500457107518,-0.164169628935,0.203122130068
1589274950650590006,5052,1589274950650424536,,0.500457801161,-0.16415799828,0.203120793527
1589274950653607767,5053,1589274950653487412,,0.500458471124,-0.164146518038,0.203118521711
1589274950659753819,5054,1589274950659636548,,0.500461150828,-0.164124066037,0.203117833354
1589274950665709277,5055,1589274950665509109,,0.50046174282,-0.164113509542,0.203115580736
