%time,field.header.seq,field.header.stamp,field.header.frame_id,field.vector.x,field.vector.y,field.vector.z
1589275159838769375,10524,1589275159838682132,,-0.49251231587,-2.76123039399,4.3708458813
1589275159841862719,10525,1589275159841702861,,-0.491609813878,-2.76354712979,4.36024765681
1589275159844961942,10526,1589275159844873277,,-0.490468336669,-2.89383634183,4.38200620747
1589275159847910933,10527,1589275159847822911,,-0.489816620348,-2.89701763923,4.37331010517
1589275159850772772,10528,1589275159850691493,,-0.489235177262,-3.02972298952,4.39555210599
1589275159853813777,10529,1589275159853685449,,-0.488211805324,-3.03296112109,4.38571238017
1589275159856960646,10530,1589275159856877499,,-0.487701284501,-3.1697434279,4.40933441575
1589275159863285583,10531,1589275159863113166,,-0.486421888781,-3.29146270263,4.42966405079
1589275159868942503,10532,1589275159868809050,,-0.486076920322,-3.3125578218,4.42279695721
1589275159871951705,10533,1589275159871872384,,-0.484307159683,-3.45411114364,4.44913251081
1589275159878077563,10534,1589275159877967937,,-0.483123198012,-3.59948151154,4.47335067648
1589275159883941777,10535,1589275159883863058,,-0.48229532671,-3.74804819379,4.49924353297
1589275159889986950,10536,1589275159889907036,,-0.481903826524,-3.87706707986,4.52137745754
1589275159896340909,10537,1589275159896276492,,-0.480427655821,-4.02900505341,4.55084792712
1589275159902045040,10538,1589275159901945597,,-0.479216749377,-4.05341643555,4.54470788804
1589275159908020055,10539,1589275159907943791,,-0.478669498849,-4.21002829589,4.57161755975
1589275159914054653,10540,1589275159913959941,,-0.477244665608,-4.36797604415,4.6016299808
1589275159920050423,10541,1589275159919926944,,-0.475994912678,-4.52795305825,4.63131015057
1589275159926065734,10542,1589275159925991594,,-0.47538022257,-4.69171225076,4.6608558551
1589275159932071478,10543,1589275159931970238,,-0.474529248103,-4.85745039381,4.69286914236
1589275159938042600,10544,1589275159937954896,,-0.473322716451,-5.02608174943,4.72574004709
1589275159944145588,10545,1589275159944022309,,-0.472818424025,-5.19654982976,4.75740746005
1589275159950215447,10546,1589275159950119967,,-0.471962124074,-5.36911369175,4.79214646013
1589275159955973484,10547,1589275159955845741,,-0.470291704202,-5.3704827466,4.78166028457
1589275159958899771,10548,1589275159958829312,,-0.46953719867,-5.54576090026,4.81437506893
1589275159961855101,10549,1589275159961769123,,-0.468734634032,-5.54850996227,4.80471757495
1589275159964885818,10550,1589275159964796197,,-0.468098319979,-5.72497485702,4.83792225774
1589275159968085165,10551,1589275159967986770,,-0.46691517822,-5.72731555752,4.82858396776
1589275159973929778,10552,1589275159973843857,,-0.465535193308,-5.90724577159,4.86562284521
1589275159979903819,10553,1589275159979843773,,-0.463927871606,-6.08949609803,4.89402008578
1589275159983137827,10554,1589275159983066694,,-0.463952880591,-6.24044206331,4.92282242585
1589275159989142372,10555,1589275159989040305,,-0.462177095219,-6.27545048572,4.92298866802
1589275159995314662,10556,1589275159995173495,,-0.46053183597,-6.46088925332,4.96281179121
1589275160001111179,10557,1589275160000965117,,-0.459880183227,-6.64996489443,4.9995611807
1589275160006842195,10558,1589275160006710424,,-0.459204697487,-6.84125005255,5.03812817861
1589275160010116573,10559,1589275160010034195,,-0.458112222214,-7.03348480858,5.07721329253
1589275160016158492,10560,1589275160016082256,,-0.457136455683,-7.03576951879,5.06845416021
1589275160022061590,10561,1589275160021978158,,-0.456021649813,-7.22951687752,5.1075590947
1589275160028172746,10562,1589275160028063897,,-0.455961163582,-7.42787351682,5.14663280378
1589275160034153082,10563,1589275160034071485,,-0.45504063761,-7.62517290712,5.18875989803
1589275160036699556,10564,1589275160036616511,,-0.453240892007,-7.8263131821,5.23098700118
1589275160039816316,10565,1589275160039723839,,-0.452196914843,-7.82675018943,5.22148188815
1589275160042900903,10566,1589275160042761549,,-0.450925846516,-7.8270856941,5.21171364053
1589275160045872693,10567,1589275160045808700,,-0.450031255233,-8.02916795351,5.25370463004
1589275160048837184,10568,1589275160048757505,,-0.44929998065,-8.03068542972,5.24726366969
1589275160051926751,10569,1589275160051845300,,-0.447846325255,-8.234254412,5.29125218617
1589275160054937497,10570,1589275160054841647,,-0.446729358197,-8.23336002992,5.28369206361
1589275160057956530,10571,1589275160057875988,,-0.445543415683,-8.43859432875,5.32805060883
1589275160060993215,10572,1589275160060885390,,-0.444708536395,-8.43847514425,5.31939931584
1589275160063913790,10573,1589275160063844065,,-0.443603233531,-8.64683964645,5.36416981501
1589275160066957531,10574,1589275160066876152,,-0.442105505069,-8.64550883587,5.35721187547
1589275160070025161,10575,1589275160069914344,,-0.440236977507,-8.85371803537,5.40433613615
1589275160073016402,10576,1589275160072948651,,-0.440010478,-8.85243542283,5.39550982974
1589275160076054646,10577,1589275160075955092,,-0.438485215936,-8.85171583377,5.38982564635
1589275160082107333,10578,1589275160082033883,,-0.437043801497,-9.06217983764,5.43589079285
1589275160087964916,10579,1589275160087874298,,-0.436397597296,-9.27430042576,5.48143297291
1589275160090989288,10580,1589275160090854847,,-0.435368729962,-9.488767781,5.52813541784
1589275160094278951,10581,1589275160094131635,,-0.433585754613,-9.48656180495,5.52188575538
1589275160100065764,10582,1589275160099979407,,-0.432780410433,-9.70246985136,5.56811784992
1589275160106004710,10583,1589275160105906561,,-0.430690718399,-9.91934626277,5.61704172594
1589275160108968466,10584,1589275160108857990,,-0.429259928363,-9.91688522802,5.60943694538
1589275160111932757,10585,1589275160111843740,,-0.428664110145,-10.1358444863,5.6571860483
1589275160114884631,10586,1589275160114802683,,-0.426945181462,-10.1324852004,5.64985841694
1589275160117959974,10587,1589275160117865197,,-0.425419619539,-10.3520381974,5.69910656985
1589275160120937305,10588,1589275160120849392,,-0.423390727013,-10.3480884068,5.69266392159
1589275160123862657,10589,1589275160123801071,,-0.422298284535,-10.56954108,5.74146126264
1589275160126992413,10590,1589275160126900836,,-0.420916220088,-10.566293576,5.73417200166
1589275160129977780,10591,1589275160129896613,,-0.41938946563,-10.7872719864,5.7815268855
1589275160133044545,10592,1589275160132940012,,-0.417917624828,-10.7843782031,5.77383292084
1589275160135940057,10593,1589275160135866335,,-0.416264288945,-10.7800862874,5.76680531814
1589275160138990946,10594,1589275160138902615,,-0.414930097778,-11.0038354996,5.81556748732
1589275160144935022,10595,1589275160144850144,,-0.413484698119,-11.2277106381,5.86550874376
1589275160148020991,10596,1589275160147930827,,-0.412528095468,-11.2239387046,5.85839022829
1589275160150904268,10597,1589275160150829223,,-0.410585058019,-11.4490676575,5.90896926001
1589275160153893038,10598,1589275160153823101,,-0.409929120857,-11.4438268265,5.90065340464
1589275160157068875,10599,1589275160156995520,,-0.40885699803,-11.6690158048,5.95174723774
1589275160162870305,10600,1589275160162752897,,-0.407838594898,-11.6630874005,5.9441436108
1589275160165862465,10601,1589275160165779059,,-0.406604788926,-11.8880269369,5.9965209226
1589275160168839281,10602,1589275160168730016,,-0.404801076522,-11.8763807075,5.98801640946
1589275160172126661,10603,1589275160172044813,,-0.403366279326,-12.0961724154,6.03657364047
1589275160178048578,10604,1589275160177894295,,-0.401822514062,-12.3106725113,6.08286346004
1589275160180958072,10605,1589275160180767853,,-0.401722220522,-12.3005165437,6.07271462372
1589275160183980296,10606,1589275160183878619,,-0.401809556911,-12.5260723058,6.11971651
1589275160190474743,10607,1589275160190369605,,-0.40262181126,-12.7554071362,6.16662108577
1589275160196471054,10608,1589275160196302490,,-0.405131821321,-12.7462737522,6.15278693997
1589275160202178098,10609,1589275160202009841,,-0.405591197409,-12.9728230787,6.2004819146
1589275160208156336,10610,1589275160208064230,,-0.406713060305,-13.2025917738,6.24691631395
1589275160214058146,10611,1589275160213971804,,-0.406837028729,-13.4321520833,6.29449538623
1589275160220113343,10612,1589275160220027420,,-0.406931370241,-13.663894366,6.34198424939
1589275160226045569,10613,1589275160225946129,,-0.407158784082,-13.8958455018,6.39001320623
1589275160228895536,10614,1589275160228818684,,-0.407026074626,-13.8843573801,6.37818182555
1589275160231969994,10615,1589275160231889052,,-0.40673526513,-14.1176453558,6.42763023666
1589275160234878539,10616,1589275160234761918,,-0.407141106098,-14.1060022132,6.4162352831
1589275160237866625,10617,1589275160237780073,,-0.406520090588,-14.3416471328,6.46766875197
1589275160240880666,10618,1589275160240799839,,-0.405936052901,-14.3276427968,6.45682215642
1589275160243925732,10619,1589275160243855611,,-0.405461826395,-14.5635860439,6.50924756242
1589275160246874847,10620,1589275160246807835,,-0.404996809796,-14.5502720011,6.49888425638
1589275160249940457,10621,1589275160249870551,,-0.404342204214,-14.7095698312,6.53228453714
1589275160252863088,10622,1589275160252779284,,-0.404253944752,-14.7747413734,6.54083029211
1589275160256002600,10623,1589275160255918246,,-0.40318344071,-14.7615137324,6.53171852388
1589275160258972499,10624,1589275160258870607,,-0.403456472871,-14.9977672798,6.58351228321
1589275160261948347,10625,1589275160261852242,,-0.40265000424,-14.9820477535,6.57268337485
1589275160264873707,10626,1589275160264752256,,-0.40181232152,-15.2185969764,6.62576911355
1589275160267850502,10627,1589275160267780386,,-0.401725382695,-15.202687346,6.61458195534
1589275160270998633,10628,1589275160270891367,,-0.400485756715,-15.4379438982,6.66741482108
1589275160273940912,10629,1589275160273861095,,-0.400374787305,-15.4198566035,6.65529202256
1589275160280031009,10630,1589275160279920690,,-0.400337881249,-15.6445349432,6.69690822534
1589275160283011376,10631,1589275160282886047,,-0.398825132552,-15.6251648261,6.68554444888
1589275160285920411,10632,1589275160285818097,,-0.398956504912,-15.8617721198,6.73664920833
1589275160289030157,10633,1589275160288954505,,-0.398653788609,-15.8439283718,6.72613536843
1589275160291972753,10634,1589275160291869450,,-0.398239878164,-16.0821905927,6.78013208773
1589275160295044616,10635,1589275160294885241,,-0.397907517378,-16.0630693874,6.76913657587
1589275160298029007,10636,1589275160297938626,,-0.396849991194,-16.3003201146,6.82352555289
1589275160301072182,10637,1589275160300970757,,-0.395526296557,-16.2817724681,6.81431434608
1589275160303982962,10638,1589275160303884849,,-0.393728375897,-16.5190887902,6.86902515689
1589275160306855087,10639,1589275160306724230,,-0.39204188244,-16.5008320835,6.85962688046
1589275160309883434,10640,1589275160309806239,,-0.389986517129,-16.4818963238,6.85024473913
1589275160312950693,10641,1589275160312875236,,-0.388445642897,-16.721762463,6.90537452472
1589275160315959921,10642,1589275160315817142,,-0.387617404522,-16.7015715926,6.8943545124
1589275160318851855,10643,1589275160318733916,,-0.386483073213,-16.9409844452,6.94848508023
1589275160321943171,10644,1589275160321849505,,-0.386054413264,-16.9217937642,6.93613331308
1589275160324986891,10645,1589275160324914138,,-0.386515856739,-17.1617658998,6.98950163547
1589275160327853237,10646,1589275160327731997,,-0.385573612052,-17.1411506278,6.97823503121
1589275160330830402,10647,1589275160330745248,,-0.386225474738,-17.3813471123,7.03071911089
1589275160333833735,10648,1589275160333745488,,-0.386013679906,-17.3618155483,7.01797872978
1589275160339773666,10649,1589275160339716099,,-0.384843433268,-17.5794289974,7.0572238185
1589275160342813170,10650,1589275160342709509,,-0.383875496304,-17.5551260024,7.04422739771
1589275160345830961,10651,1589275160345749705,,-0.38223378911,-17.7914244487,7.09883414726
1589275160348854672,10652,1589275160348725436,,-0.381854699248,-17.7663206001,7.08499583798
1589275160351826035,10653,1589275160351729950,,-0.381475717389,-18.0068389374,7.1380945336
1589275160354799680,10654,1589275160354698188,,-0.380272062105,-17.9818954498,7.12469230067
1589275160357859340,10655,1589275160357699930,,-0.379569999548,-18.2181022435,7.17796384809
1589275160360965018,10656,1589275160360897833,,-0.378694813144,-18.190096669,7.16371786119
1589275160363803447,10657,1589275160363732001,,-0.378848952536,-18.4271202925,7.21567502138
1589275160366801087,10658,1589275160366714663,,-0.377264766182,-18.399810779,7.20350908167
1589275160369888331,10659,1589275160369732975,,-0.375792925757,-18.3711573793,7.19005014618
1589275160372829095,10660,1589275160372757056,,-0.375178312695,-18.6083611318,7.24133614649
1589275160375858919,10661,1589275160375776976,,-0.373537359048,-18.5805782969,7.22771422722
1589275160378625058,10662,1589275160378564295,,-0.372892479335,-18.8167655832,7.27980633187
1589275160381662536,10663,1589275160381598338,,-0.371578572853,-18.7884099851,7.26556920089
1589275160384720139,10664,1589275160384653094,,-0.372552912503,-19.0242091989,7.31535427854
1589275160387875303,10665,1589275160387804734,,-0.372383970522,-18.9964152224,7.30059295063
1589275160390658128,10666,1589275160390592714,,-0.372316464149,-19.2312716207,7.3529199007
1589275160393944104,10667,1589275160393862782,,-0.37178708105,-19.2048119242,7.33921581249
1589275160397060562,10668,1589275160396932330,,-0.371889554311,-19.4440208381,7.392340587
1589275160399767512,10669,1589275160399648751,,-0.371057421343,-19.412576608,7.3790596328
1589275160402712482,10670,1589275160402627157,,-0.370137316029,-19.3831647079,7.36711462895
1589275160405702675,10671,1589275160405619531,,-0.368684607953,-19.6152640897,7.42203360478
1589275160408749618,10672,1589275160408665896,,-0.368638717958,-19.5843764085,7.40960562453
1589275160411744321,10673,1589275160411614917,,-0.368567956348,-19.8190520304,7.46454381089
1589275160414702110,10674,1589275160414619362,,-0.366425294938,-19.7858195178,7.45775179829
1589275160417769870,10675,1589275160417668537,,-0.366040015706,-20.0178384754,7.5126174261
1589275160420735434,10676,1589275160420656622,,-0.365660816166,-19.985114476,7.49881210739
1589275160423775246,10677,1589275160423696271,,-0.36419341692,-20.2150197065,7.55300813974
1589275160426759028,10678,1589275160426677759,,-0.362981585124,-20.181225971,7.54347892007
1589275160429731839,10679,1589275160429591638,,-0.362347700105,-20.1473898233,7.53121078982
1589275160432740046,10680,1589275160432658387,,-0.360686076119,-20.3738245783,7.58472843977
1589275160435764489,10681,1589275160435689135,,-0.360328573484,-20.3365068162,7.57212138721
1589275160438739020,10682,1589275160438654332,,-0.359275220447,-20.5674561163,7.6275745587
1589275160441693515,10683,1589275160441620960,,-0.357731334528,-20.5305966618,7.61780294529
1589275160444775396,10684,1589275160444615273,,-0.357538732012,-20.7569786193,7.67026507412
1589275160447725440,10685,1589275160447656578,,-0.356135907168,-20.7187759525,7.65562491236
1589275160450700077,10686,1589275160450634614,,-0.355018951035,-20.9469533957,7.70865030568
1589275160453903296,10687,1589275160453793222,,-0.352620896268,-20.9088240907,7.69766333973
1589275160459827738,10688,1589275160459742791,,-0.351787409114,-21.0978479614,7.73696837902
1589275160462739011,10689,1589275160462641464,,-0.349958609155,-21.057175249,7.72444256436
1589275160465725895,10690,1589275160465648113,,-0.35017502273,-21.286130216,7.77722203842
1589275160470447092,10691,1589275160470281726,,-0.350532922795,-21.5144563437,7.83310976018
1589275160474697420,10692,1589275160474576975,,-0.349689703327,-21.4719736323,7.82025037873
1589275160477771497,10693,1589275160477658723,,-0.348226200565,-21.6985748828,7.87475099629
1589275160480735019,10694,1589275160480673392,,-0.3459731811,-21.6584532568,7.8633937605
1589275160483878480,10695,1589275160483805658,,-0.345792774532,-21.8850579349,7.91517720537
1589275160486898053,10696,1589275160486800688,,-0.345203903578,-21.845696134,7.90110550655
1589275160489845464,10697,1589275160489700569,,-0.344743517038,-21.8052731928,7.88808914167
1589275160493200953,10698,1589275160493127444,,-0.344135471438,-22.0316350586,7.94129170893
1589275160496106460,10699,1589275160496012016,,-0.343416330708,-21.9961259357,7.9312772436
1589275160498807415,10700,1589275160498728833,,-0.344448548502,-22.219330292,7.98083975656
1589275160501916387,10701,1589275160501829477,,-0.343909720075,-22.1717953859,7.96447544155
1589275160504711348,10702,1589275160504622424,,-0.342232841187,-22.4030062319,8.01953670545
1589275160507947053,10703,1589275160507819575,,-0.34214862116,-22.3599660067,8.00423346631
1589275160510818365,10704,1589275160510704966,,-0.342683298103,-22.5794538871,8.05190631257
1589275160513906800,10705,1589275160513759288,,-0.342295366295,-22.5366339221,8.0371908796
1589275160519841183,10706,1589275160519761023,,-0.342287291442,-22.7195535042,8.07748094052
1589275160522787594,10707,1589275160522700724,,-0.341964488552,-22.6801732652,8.06525614533
1589275160525711043,10708,1589275160525640429,,-0.342172848629,-22.9105282904,8.11867215895
1589275160528843018,10709,1589275160528771422,,-0.342812820743,-22.8710497646,8.10397825033
1589275160531736792,10710,1589275160531651850,,-0.34277983536,-23.0948838685,8.15698588495
1589275160534808530,10711,1589275160534733718,,-0.341536554347,-23.0518031948,8.14494427871
1589275160537725687,10712,1589275160537651414,,-0.340023595591,-23.2764933026,8.20090427729
1589275160540857501,10713,1589275160540752483,,-0.340794051581,-23.2464802012,8.19047564065
1589275160543920371,10714,1589275160543849666,,-0.340492479688,-23.4678847442,8.24051292951
1589275160546747320,10715,1589275160546670363,,-0.340016432111,-23.4145190397,8.22615198744
1589275160549821387,10716,1589275160549687621,,-0.340471669301,-23.3798996624,8.2125502182
1589275160552798930,10717,1589275160552721256,,-0.340477910802,-23.5940435013,8.26198377889
1589275160556119921,10718,1589275160556012877,,-0.340968620279,-23.5421015515,8.24578902005
1589275160562148665,10719,1589275160562040235,,-0.340208061496,-23.7560518724,8.29664323025
1589275160565051373,10720,1589275160564959755,,-0.339549551562,-23.9677000307,8.34785084207
1589275160568149044,10721,1589275160568049929,,-0.339738641991,-23.9247177918,8.33181983114
1589275160571202332,10722,1589275160571099818,,-0.33814893027,-24.138561788,8.38251007177
1589275160580135837,10723,1589275160580039329,,-0.33521040407,-24.2945145795,8.41566281808
1589275160583118193,10724,1589275160582968506,,-0.33353136027,-24.2379028077,8.39999560413
1589275160589137039,10725,1589275160589062031,,-0.332161038347,-24.4503745447,8.44824733427
1589275160592033548,10726,1589275160591951303,,-0.330078539355,-24.6599066988,8.50071331657
1589275160595204652,10727,1589275160595125759,,-0.33162273552,-24.6087082721,8.48714331675
1589275160601104540,10728,1589275160600992915,,-0.331413146869,-24.8178930038,8.54028423028
1589275160604109890,10729,1589275160604027006,,-0.331163660084,-25.0263100679,8.59242392873
1589275160607033710,10730,1589275160606954886,,-0.332252050713,-24.9792623886,8.57812295111
1589275160610127599,10731,1589275160609998092,,-0.33209902791,-24.9271356124,8.56421869877
1589275160612839175,10732,1589275160612760578,,-0.330692371145,-25.1387903134,8.61544412372
1589275160616225537,10733,1589275160616144357,,-0.330192969495,-25.0904303769,8.60302909661
1589275160622156813,10734,1589275160622027440,,-0.332090271533,-25.3043959855,8.65357492275
1589275160625195714,10735,1589275160625086978,,-0.331034119088,-25.517901697,8.70632881344
1589275160631161974,10736,1589275160631007105,,-0.331811703728,-25.7257368236,8.75586303157
1589275160634195273,10737,1589275160634072596,,-0.332610380667,-25.6705121002,8.73892745763
1589275160640184306,10738,1589275160640085440,,-0.333777254127,-25.8229335866,8.76944378466
1589275160643177156,10739,1589275160643047740,,-0.333932311872,-25.7635469833,8.75298453766
1589275160649187567,10740,1589275160649095068,,-0.332997024973,-25.963633614,8.79983386092
1589275160655068318,10741,1589275160654978263,,-0.332756448487,-26.1657357753,8.8456587715
1589275160658162381,10742,1589275160658044174,,-0.331661315464,-26.3541417247,8.88789637206
1589275160661258501,10743,1589275160661092124,,-0.33038412585,-26.28997241,8.86700532665
1589275160664062332,10744,1589275160663977388,,-0.328440872856,-26.4786967249,8.91395787026
1589275160667112724,10745,1589275160667022040,,-0.326149839972,-26.4122427515,8.89563572617
1589275160670437859,10746,1589275160670306101,,-0.32648767913,-26.5963968028,8.93741331892
1589275160676148961,10747,1589275160676052518,,-0.324967519136,-26.5218303741,8.91818498184
1589275160682224707,10748,1589275160682078171,,-0.321577829722,-26.7042779158,8.95781757448
1589275160684984136,10749,1589275160684893822,,-0.319487476508,-26.8822852184,8.99851850945
1589275160688230933,10750,1589275160688112451,,-0.317430118957,-26.8096084102,8.97457917555
1589275160691078287,10751,1589275160690976810,,-0.315391018627,-26.9903743562,9.013327895
1589275160694355696,10752,1589275160694253374,,-0.314287552789,-26.9191559769,8.99062117523
1589275160700203753,10753,1589275160700049583,,-0.31324676399,-27.103819839,9.0357066796
1589275160703292166,10754,1589275160703201407,,-0.315009262859,-27.0400336758,9.01337343727
1589275160709143881,10755,1589275160709041367,,-0.316051114072,-27.2466309877,9.06204314536
1589275160712156371,10756,1589275160712005046,,-0.316085780893,-27.4418001569,9.11412029342
1589275160715179546,10757,1589275160715093282,,-0.317542346953,-27.3801922356,9.0966643658
1589275160721142199,10758,1589275160721026816,,-0.318036411227,-27.5954241825,9.15232555811
1589275160724179438,10759,1589275160724015355,,-0.317115283565,-27.797790626,9.21000777275
1589275160727170114,10760,1589275160727035365,,-0.317311888442,-27.7479351887,9.20050875544
1589275160730142288,10761,1589275160729862604,,-0.319627444009,-27.703977032,9.18927083282
1589275160733113442,10762,1589275160732958562,,-0.321889510834,-27.9103844654,9.24312904405
1589275160736089862,10763,1589275160735960237,,-0.321153522987,-27.8632240713,9.23162827366
1589275160738995740,10764,1589275160738916367,,-0.321811040807,-28.0634485466,9.28435224586
1589275160741981100,10765,1589275160741886970,,-0.322464977817,-28.0098588553,9.26859618727
1589275160745025777,10766,1589275160744939634,,-0.322075076682,-28.1981056299,9.31096830484
1589275160748044157,10767,1589275160747962217,,-0.323153046776,-28.1387353933,9.28783064141
1589275160751008753,10768,1589275160750922438,,-0.322888619702,-28.3211790867,9.32578502146
1589275160754056252,10769,1589275160753965386,,-0.322443209015,-28.2514286396,9.3036208024
1589275160757212774,10770,1589275160757116699,,-0.321432200355,-28.4401840254,9.34892138292
1589275160760083047,10771,1589275160759963769,,-0.320983270227,-28.3642895719,9.32457805946
1589275160763258719,10772,1589275160762973380,,-0.318878743359,-28.2778077801,9.30218368392
1589275160769076007,10773,1589275160768952993,,-0.314846856828,-28.4515428895,9.34574210877
1589275160771977298,10774,1589275160771891090,,-0.311109790912,-28.6090571421,9.3894536614
1589275160775193147,10775,1589275160775082700,,-0.307862500817,-28.5185379369,9.36417112785
1589275160778085438,10776,1589275160778003038,,-0.303264871339,-28.6777019454,9.40922504589
1589275160781052547,10777,1589275160780965372,,-0.29925412448,-28.5962451906,9.39236624483
1589275160784038493,10778,1589275160783956823,,-0.297572289768,-28.7595625555,9.4340406939
1589275160786981138,10779,1589275160786897323,,-0.297075457689,-28.6903127747,9.41531845539
1589275160790157249,10780,1589275160790060726,,-0.294698692539,-28.6162353556,9.39749129594
1589275160793474080,10781,1589275160793393760,,-0.294998748545,-28.7900967073,9.43985050544
1589275160799003476,10782,1589275160798905865,,-0.296515944158,-28.9647076328,9.4783168346
1589275160802062083,10783,1589275160801975983,,-0.296062893705,-28.9021579341,9.46227226165
1589275160805108243,10784,1589275160805003406,,-0.299414116056,-29.08428058,9.50276290728
1589275160808112511,10785,1589275160808017245,,-0.299654203437,-29.0413984639,9.48977792343
1589275160811187096,10786,1589275160811102977,,-0.302319752036,-29.2239379945,9.53260977439
1589275160814145024,10787,1589275160814051614,,-0.304083107358,-29.1590216659,9.51359266005
1589275160820045958,10788,1589275160819970067,,-0.30581530795,-29.287477977,9.54460476367
1589275160823041175,10789,1589275160822944868,,-0.307688758587,-29.2184229917,9.52368409607
1589275160829042228,10790,1589275160828945200,,-0.307895921839,-29.3830882784,9.5667318576
1589275160832097662,10791,1589275160832020153,,-0.306565524563,-29.5439085073,9.60670922851
1589275160835013885,10792,1589275160834928909,,-0.306759091918,-29.474264906,9.58627869081
1589275160838062183,10793,1589275160838000907,,-0.305832593071,-29.6294521511,9.62154405656
1589275160841005370,10794,1589275160840923585,,-0.303056700098,-29.5472752532,9.59881980468
1589275160844046465,10795,1589275160843953248,,-0.300031480087,-29.6902057504,9.63609248892
1589275160846971007,10796,1589275160846895463,,-0.298366148308,-29.6038755578,9.60812712626
1589275160850213160,10797,1589275160850099741,,-0.295841095223,-29.5799434398,9.60307010979
1589275160853109764,10798,1589275160852973416,,-0.292366942037,-29.642823721,9.61912218747
1589275160856117629,10799,1589275160856040261,,-0.289359764603,-29.5491950621,9.5930881049
1589275160862148107,10800,1589275160862041040,,-0.285740812642,-29.6792948404,9.6259817742
1589275160864964120,10801,1589275160864878219,,-0.284216736296,-29.8117933129,9.65387555262
1589275160867903393,10802,1589275160867836968,,-0.282131738619,-29.7223081146,9.63117695094
1589275160870776631,10803,1589275160870706288,,-0.280213807767,-29.8579470018,9.66617306398
1589275160873832722,10804,1589275160873746162,,-0.279691562981,-29.7791222441,9.64489845931
1589275160879928248,10805,1589275160879818227,,-0.280765068419,-29.8500453913,9.66347776794
1589275160883317053,10806,1589275160883133488,,-0.281048111687,-29.7830289603,9.64580250944
1589275160889136004,10807,1589275160889055469,,-0.282430830536,-29.9375197569,9.68543043811
1589275160892122884,10808,1589275160892042353,,-0.284114842808,-30.0913283547,9.7234493787
1589275160895376674,10809,1589275160895227613,,-0.284012090662,-30.028755546,9.70988929693
1589275160898058584,10810,1589275160897986503,,-0.284496336107,-30.179484792,9.75049218679
1589275160900932451,10811,1589275160900821930,,-0.285957887544,-30.1118088249,9.73473903023
1589275160903902769,10812,1589275160903812952,,-0.285248979024,-30.2536539091,9.77374142612
1589275160906961659,10813,1589275160906881010,,-0.285298468343,-30.1826110781,9.75331373084
1589275160910316643,10814,1589275160910231157,,-0.284039314782,-30.3198681226,9.79010728435
1589275160913057304,10815,1589275160912964001,,-0.284882964402,-30.2321487185,9.76235534488
1589275160916076574,10816,1589275160915983541,,-0.281792272062,-30.1456813167,9.7440629609
1589275160919142139,10817,1589275160919030813,,-0.279808591797,-30.2634964447,9.77171297188
1589275160922088380,10818,1589275160921989077,,-0.277787422908,-30.1624408724,9.7454463026
1589275160925046974,10819,1589275160924970703,,-0.274083970173,-30.2716734581,9.77219301706
1589275160928079913,10820,1589275160927992603,,-0.271865572593,-30.1638262234,9.74440337021
1589275160931205109,10821,1589275160931107050,,-0.266697963682,-30.2611166679,9.77204497518
1589275160934332559,10822,1589275160934227362,,-0.264774810938,-30.1555469736,9.7400059387
1589275160940164433,10823,1589275160940083578,,-0.258806611709,-30.1465067098,9.73600260119
1589275160943366023,10824,1589275160943174923,,-0.257087979259,-30.0451938146,9.70997253212
1589275160949174405,10825,1589275160949061260,,-0.255592211529,-30.1509401839,9.7348873821
1589275160952220230,10826,1589275160952099250,,-0.253825183192,-30.2675292224,9.76473202627
1589275160955154724,10827,1589275160955053871,,-0.253725793372,-30.2021188874,9.74652505883
1589275160958169708,10828,1589275160958069332,,-0.254566867615,-30.3289965834,9.77690289558
1589275160961148438,10829,1589275160961067543,,-0.256097635856,-30.2434309098,9.75392936216
1589275160964290314,10830,1589275160964107520,,-0.256199948564,-30.3995672688,9.79590204842
1589275160967169273,10831,1589275160967027269,,-0.25950369943,-30.3394384325,9.78222856483
1589275160970284172,10832,1589275160970160271,,-0.261656259493,-30.3078101617,9.77385491619
1589275160973223234,10833,1589275160973133710,,-0.263149643914,-30.4139847855,9.80561528535
1589275160976072350,10834,1589275160975984540,,-0.265280414168,-30.354866415,9.79029844022
1589275160978886323,10835,1589275160978816143,,-0.266517758024,-30.4941508763,9.8241186672
1589275160981857129,10836,1589275160981780437,,-0.267273800527,-30.4289867743,9.81055238596
1589275160984917891,10837,1589275160984810981,,-0.267884355421,-30.5512935738,9.83582347136
1589275160987885165,10838,1589275160987810322,,-0.267485245022,-30.4766784506,9.81455812332
1589275160991119827,10839,1589275160991045921,,-0.266914190286,-30.5878666457,9.84084052952
1589275160994150554,10840,1589275160994051459,,-0.266190210515,-30.4974716164,9.8172811452
1589275160997200338,10841,1589275160997098939,,-0.265239714486,-30.6001219004,9.84141177783
1589275160999873370,10842,1589275160999814852,,-0.26228559512,-30.5184421671,9.81775192146
1589275161002898689,10843,1589275161002795504,,-0.260053947662,-30.4106305435,9.7940759758
1589275161005845329,10844,1589275161005712399,,-0.257022037382,-30.4838913375,9.81355641415
1589275161008863130,10845,1589275161008790314,,-0.252957741289,-30.3935311674,9.79233284229
1589275161011821708,10846,1589275161011759980,,-0.249173470163,-30.4687099986,9.81709224408
1589275161014896440,10847,1589275161014770383,,-0.24547114265,-30.3454316189,9.78724716883
1589275161017859039,10848,1589275161017779203,,-0.242938061355,-30.4327293855,9.80691266537
1589275161020816890,10849,1589275161020744400,,-0.240731427325,-30.3315363668,9.78498711768
1589275161023878467,10850,1589275161023766413,,-0.239694587597,-30.4256435065,9.8098425936
1589275161027069589,10851,1589275161026977227,,-0.239217917814,-30.3382308147,9.78693735473
1589275161029991992,10852,1589275161029861381,,-0.23965008427,-30.2562422288,9.76341155321
1589275161032834942,10853,1589275161032756300,,-0.240355451915,-30.366254347,9.78807141607
1589275161035814245,10854,1589275161035721394,,-0.241017318303,-30.2945984238,9.77069430691
1589275161038989250,10855,1589275161038918395,,-0.243099555404,-30.4088166506,9.79779900548
1589275161041815950,10856,1589275161041755234,,-0.245900913415,-30.3534377161,9.78221337072
1589275161044790538,10857,1589275161044702765,,-0.250075185346,-30.4927031643,9.81625753945
1589275161048029069,10858,1589275161047970467,,-0.252492707658,-30.4274778319,9.79536303272
1589275161050963509,10859,1589275161050896462,,-0.253521948987,-30.532087625,9.82313323107
1589275161054092148,10860,1589275161054028163,,-0.257387091699,-30.4848810568,9.80517589791
1589275161060140687,10861,1589275161060077938,,-0.261037170012,-30.5007992132,9.8086769687
1589275161062881443,10862,1589275161062785434,,-0.261007803594,-30.416731718,9.78323082161
1589275161065866423,10863,1589275161065754045,,-0.261709337284,-30.5081400277,9.80203484142
1589275161069170462,10864,1589275161069066892,,-0.25962498519,-30.4140526373,9.78208496747
1589275161071904086,10865,1589275161071836608,,-0.258595163162,-30.4919288217,9.79598426129
1589275161074904605,10866,1589275161074805925,,-0.256070195774,-30.3906169784,9.76746396727
1589275161077823659,10867,1589275161077739752,,-0.251894042656,-30.4507307021,9.78395032315
1589275161080805867,10868,1589275161080739934,,-0.249253324716,-30.3362425032,9.75479851341
1589275161083924253,10869,1589275161083802806,,-0.242660186224,-30.3880460298,9.76942891581
1589275161086899367,10870,1589275161086744146,,-0.238418101163,-30.2687694316,9.74190778015
1589275161089843899,10871,1589275161089748765,,-0.234758011652,-30.1500416363,9.71330940952
1589275161093383134,10872,1589275161093290544,,-0.23136080756,-30.2009354204,9.72711917882
1589275161096222577,10873,1589275161096109195,,-0.229016739371,-30.0930018183,9.69801931767
1589275161098892450,10874,1589275161098811776,,-0.227405451755,-30.1517553609,9.71740852678
1589275161101886078,10875,1589275161101814594,,-0.228022690084,-30.0540140654,9.69643133909
1589275161104824430,10876,1589275161104753281,,-0.229451044867,-30.1296926065,9.70975641349
1589275161108185494,10877,1589275161108090046,,-0.230244105102,-30.0493778857,9.69841304758
1589275161111248196,10878,1589275161111119771,,-0.232401298067,-30.1358682994,9.71870607577
1589275161114227421,10879,1589275161114132420,,-0.236139100804,-30.0691961572,9.69951139582
1589275161120216934,10880,1589275161120130363,,-0.240801577951,-30.0975815039,9.70736944919
1589275161123612718,10881,1589275161123527797,,-0.241337530914,-30.0294839678,9.68939260672
1589275161129046903,10882,1589275161128960716,,-0.244071773663,-30.1208121075,9.71325282334
1589275161132187686,10883,1589275161132098450,,-0.246492552228,-30.2057751369,9.73155284972
1589275161135254790,10884,1589275161135165169,,-0.245002704209,-30.1498209417,9.71921618405
1589275161138160723,10885,1589275161138064823,,-0.246346288976,-30.2182526187,9.73359066614
1589275161141255290,10886,1589275161141145606,,-0.24428170643,-30.1195349575,9.70686341044
1589275161144279450,10887,1589275161144193989,,-0.241695932957,-30.1981365416,9.72587197661
1589275161147112877,10888,1589275161147018800,,-0.240203163205,-30.0975812462,9.70461298195
1589275161150142014,10889,1589275161150008853,,-0.237189769894,-29.9637432251,9.67425547992
1589275161153113572,10890,1589275161153024178,,-0.235726269124,-30.0264060431,9.6908238149
1589275161156118410,10891,1589275161155987605,,-0.232862078514,-29.9135013954,9.67110100429
1589275161159044529,10892,1589275161158931640,,-0.229545745044,-29.9474600795,9.67770417949
1589275161162139129,10893,1589275161162033723,,-0.224368065658,-29.8327933643,9.65628075215
1589275161165143647,10894,1589275161165062486,,-0.220285620974,-29.8579089371,9.66362512291
1589275161168086313,10895,1589275161167987848,,-0.216589573755,-29.7443476299,9.63333989904
1589275161170992194,10896,1589275161170895585,,-0.211551989086,-29.7674928217,9.64166595756
1589275161174001576,10897,1589275161173903743,,-0.210369204649,-29.657514482,9.61694168616
1589275161180208262,10898,1589275161180113420,,-0.209350279137,-29.619047374,9.60908384946
1589275161183607329,10899,1589275161183503110,,-0.211160921379,-29.528018014,9.58774583158
1589275161189322763,10900,1589275161189233149,,-0.210135591569,-29.5729438053,9.60180180515
1589275161192104364,10901,1589275161192015129,,-0.213345491869,-29.6568454137,9.62214148608
1589275161195324073,10902,1589275161195226704,,-0.215596021894,-29.589391293,9.60760448377
1589275161198139763,10903,1589275161198052015,,-0.218690564685,-29.6555093674,9.62062120711
1589275161201119304,10904,1589275161201015337,,-0.221464956653,-29.5966291568,9.60957574695
1589275161204210680,10905,1589275161204119890,,-0.2226728315,-29.6716153928,9.62960632016
1589275161207151756,10906,1589275161207063504,,-0.2265077496,-29.6147838819,9.61179942153
1589275161210307866,10907,1589275161210213124,,-0.227033573245,-29.6800899481,9.62715697096
1589275161213205457,10908,1589275161213068258,,-0.2279883579,-29.6097568717,9.60752188125
1589275161216259684,10909,1589275161216170013,,-0.229847339007,-29.5362172748,9.58840374848
1589275161219139025,10910,1589275161219055294,,-0.22803940432,-29.5803664191,9.60031450835
1589275161222145961,10911,1589275161222054335,,-0.228160413299,-29.4926538321,9.57631534768
1589275161225128721,10912,1589275161225025966,,-0.227047510211,-29.5287392464,9.58814409996
1589275161228128763,10913,1589275161228043944,,-0.22489599747,-29.451981439,9.56994729093
1589275161231147027,10914,1589275161231066389,,-0.223477362049,-29.4699006986,9.57119471771
1589275161234281339,10915,1589275161234159728,,-0.220096259895,-29.3535903855,9.54715400217
1589275161240295107,10916,1589275161240189857,,-0.214344388683,-29.2742073163,9.53126759824
1589275161243300006,10917,1589275161243155329,,-0.210850780772,-29.1493696125,9.50372025834
1589275161246218166,10918,1589275161246076367,,-0.206866037844,-29.1546365238,9.50961301556
1589275161249225624,10919,1589275161249123086,,-0.20386997461,-29.0481107616,9.48623303577
1589275161252217261,10920,1589275161252132395,,-0.20164161635,-29.0562649921,9.48375574538
1589275161255182831,10921,1589275161255094428,,-0.199472101377,-28.9530440162,9.46134070833
1589275161258276677,10922,1589275161258185664,,-0.197329782112,-28.9670174385,9.46456711702
1589275161261254205,10923,1589275161261101043,,-0.196344868534,-28.8694020483,9.43794269541
1589275161264307588,10924,1589275161264221976,,-0.196100518669,-28.8937809352,9.44317017186
1589275161267215406,10925,1589275161267115089,,-0.19848412792,-28.8103545758,9.42095505817
1589275161270436173,10926,1589275161270329080,,-0.199057211135,-28.683615861,9.39015239178
1589275161273181319,10927,1589275161273079892,,-0.202535116782,-28.7991158962,9.42122608214
1589275161276350212,10928,1589275161276250170,,-0.204325059818,-28.7313202048,9.40247746241
1589275161282199623,10929,1589275161282123118,,-0.205903363303,-28.7702380258,9.41206683718
1589275161285250284,10930,1589275161285149102,,-0.209393005981,-28.8368166534,9.42606300394
1589275161288266424,10931,1589275161288137975,,-0.210492369303,-28.7760612005,9.41728962795
1589275161291161100,10932,1589275161291088556,,-0.212190641405,-28.8090975143,9.42307631485
1589275161294442875,10933,1589275161294318832,,-0.214323337627,-28.7427759368,9.40905478841
1589275161297593519,10934,1589275161297466952,,-0.215561917845,-28.7743561162,9.41864488229
1589275161303200980,10935,1589275161303078255,,-0.214701593031,-28.6987513244,9.40050980487
1589275161306131103,10936,1589275161306030040,,-0.215511110329,-28.722386723,9.40241197677
1589275161309151451,10937,1589275161309072387,,-0.212752718336,-28.6350200653,9.37900927852
1589275161312097834,10938,1589275161312037164,,-0.209778007808,-28.6350373392,9.38110150594
1589275161318232216,10939,1589275161318118006,,-0.208296051349,-28.6344672572,9.37845458281
1589275161321185630,10940,1589275161321095290,,-0.206903497002,-28.5274722388,9.35110247319
1589275161324361855,10941,1589275161324240514,,-0.204492152361,-28.5022872818,9.34741329078
1589275161330529139,10942,1589275161330452554,,-0.2009670939,-28.3224062571,9.30621465778
1589275161335882254,10943,1589275161335779418,,-0.196968577894,-28.3587371086,9.31775566414
1589275161339336257,10944,1589275161339248538,,-0.193455110836,-28.3280219756,9.3087664605
1589275161342167495,10945,1589275161342099580,,-0.187132856165,-28.2015010681,9.28088604465
1589275161345321753,10946,1589275161345208432,,-0.182478507818,-28.1726087754,9.27330664941
1589275161348301368,10947,1589275161348164549,,-0.179403885582,-28.054928492,9.24729088228
1589275161354152649,10948,1589275161354027937,,-0.176964260745,-28.0327162593,9.24348762096
1589275161357373115,10949,1589275161357321022,,-0.177982185408,-28.0126606883,9.23808813931
1589275161359920675,10950,1589275161359863468,,-0.179643791482,-27.9190065374,9.22115679682
1589275161365945011,10951,1589275161365882412,,-0.17832754506,-27.9178480816,9.22290573841
1589275161368996562,10952,1589275161368894362,,-0.181322570656,-27.8414250361,9.2053705804
1589275161372000879,10953,1589275161371882280,,-0.18364644889,-27.8558887732,9.20871048687
1589275161378255043,10954,1589275161378154224,,-0.183536744043,-27.8731952807,9.2174565741
1589275161381156223,10955,1589275161381036722,,-0.185241626911,-27.8121180697,9.20596761979
1589275161384098996,10956,1589275161384013428,,-0.189006130133,-27.8276693944,9.20811016697
1589275161390197039,10957,1589275161390098465,,-0.190322025864,-27.8374697883,9.21303099011
1589275161393552354,10958,1589275161393428659,,-0.190944579347,-27.7734108087,9.20068501337
1589275161396282483,10959,1589275161396181692,,-0.195490652556,-27.7032533913,9.18168370294
1589275161402100952,10960,1589275161402018089,,-0.1952520032,-27.6941972703,9.17911515568
1589275161405209492,10961,1589275161405114978,,-0.195287885969,-27.678922804,9.17571924388
1589275161408140826,10962,1589275161408053177,,-0.194835973814,-27.5964806782,9.15352553072
1589275161414256152,10963,1589275161414120939,,-0.19363733469,-27.567896292,9.14634077551
1589275161420086459,10964,1589275161419995934,,-0.19019972812,-27.4341221023,9.11290608183
1589275161426125161,10965,1589275161426029083,,-0.187382155547,-27.383741646,9.10391291837
1589275161429093444,10966,1589275161429017429,,-0.185024770383,-27.2757469129,9.07833894182
1589275161432293847,10967,1589275161432207742,,-0.182554625509,-27.2186554009,9.06474916638
1589275161438245059,10968,1589275161438176238,,-0.177597466229,-27.1592688665,9.05566444301
1589275161441139467,10969,1589275161441074119,,-0.175680260179,-27.0428977902,9.02715445961
1589275161447116362,10970,1589275161446996802,,-0.169476942003,-26.9770569291,9.01468311148
1589275161450242929,10971,1589275161450122088,,-0.166260212732,-26.8785638152,8.9901540671
1589275161453129280,10972,1589275161453045113,,-0.16277181949,-26.8085269009,8.9721182107
1589275161459304171,10973,1589275161459232439,,-0.157796649778,-26.7378884368,8.95699142513
1589275161462147307,10974,1589275161462078907,,-0.156764824651,-26.653764325,8.93778403786
1589275161465151858,10975,1589275161465047119,,-0.155515381123,-26.6037388978,8.93042433249
1589275161472401247,10976,1589275161472279199,,-0.157770745381,-26.5569896268,8.9195251643
1589275161480286950,10977,1589275161480172982,,-0.159154463283,-26.4721123453,8.89948478435
1589275161483368457,10978,1589275161483196815,,-0.161391809262,-26.4209394073,8.88674438173
1589275161486267398,10979,1589275161486166815,,-0.163752581099,-26.4142469254,8.88571990903
1589275161489336818,10980,1589275161489203772,,-0.162674445999,-26.3679586254,8.87575282029
1589275161495264107,10981,1589275161495183668,,-0.16511108927,-26.3601503922,8.86990795896
1589275161498145588,10982,1589275161498053616,,-0.167052377283,-26.3432007087,8.86316968324
1589275161501258495,10983,1589275161501153273,,-0.167625511095,-26.2847096776,8.8497066948
1589275161507258391,10984,1589275161507164957,,-0.169266476688,-26.252951375,8.83958452707
1589275161510396193,10985,1589275161510265950,,-0.166075729338,-26.0830108648,8.80224720377
1589275161513179232,10986,1589275161513097349,,-0.165783740535,-26.1560479258,8.82160882886
1589275161519265276,10987,1589275161519149344,,-0.164071301228,-26.090349195,8.80549673708
1589275161522233043,10988,1589275161522141693,,-0.161369445324,-26.0233672227,8.78963645245
1589275161525227716,10989,1589275161525131580,,-0.158345677428,-25.9622774711,8.77906031917
1589275161530895499,10990,1589275161530808545,,-0.154260105168,-25.880867517,8.76570157388
1589275161533922676,10991,1589275161533857684,,-0.152050577161,-25.7945009163,8.7450340386
1589275161537391565,10992,1589275161537319710,,-0.149554667524,-25.7251687957,8.73333383952
1589275161543113645,10993,1589275161543049344,,-0.145267653845,-25.629558342,8.71478916438
1589275161546103220,10994,1589275161546006390,,-0.141670525972,-25.5539450943,8.69601886724
1589275161549093992,10995,1589275161549030183,,-0.138455419828,-25.4591209069,8.67183301692
1589275161555160313,10996,1589275161555058843,,-0.133030638538,-25.3734913304,8.65447249784
1589275161558123812,10997,1589275161558047426,,-0.130258722059,-25.2870381572,8.63123973338
1589275161564463567,10998,1589275161564367264,,-0.126987922609,-25.2008077738,8.61338818785
1589275161567447610,10999,1589275161567336689,,-0.125174324559,-25.1055123421,8.59015781728
1589275161570228591,11000,1589275161570139891,,-0.124662480401,-24.8848442016,8.5349907517
1589275161576187745,11001,1589275161576107590,,-0.122280043806,-24.931393931,8.55661940717
1589275161579215405,11002,1589275161579127341,,-0.122699337839,-24.8562987034,8.53834844091
1589275161582244381,11003,1589275161582127729,,-0.123801322642,-24.7817615878,8.51849928891
1589275161588261714,11004,1589275161588163552,,-0.124480272295,-24.7163587664,8.50367640406
1589275161591194904,11005,1589275161591129813,,-0.126058909513,-24.658967209,8.48912574231
1589275161594566560,11006,1589275161594449269,,-0.12518073588,-24.5978104343,8.47862819455
1589275161600255804,11007,1589275161600160496,,-0.12632698456,-24.5425876837,8.46817805538
1589275161603300355,11008,1589275161603194526,,-0.128756554348,-24.4915264554,8.45386233609
1589275161606285459,11009,1589275161606156687,,-0.127711863797,-24.428088853,8.44199608108
1589275161612270550,11010,1589275161612180875,,-0.128130042497,-24.3642171382,8.42942519249
1589275161615378038,11011,1589275161615252896,,-0.129574984156,-24.3078518722,8.41678176549
1589275161618226145,11012,1589275161618158700,,-0.129314199329,-24.2337688662,8.40020069726
1589275161624297637,11013,1589275161624189934,,-0.12846643017,-24.1561662937,8.38217777811
1589275161626997831,11014,1589275161626882472,,-0.128650192623,-24.0860148354,8.3639549906
1589275161630433284,11015,1589275161630271714,,-0.124436330171,-24.0093838416,8.34992845434
1589275161636266518,11016,1589275161636145723,,-0.123752058437,-23.9140235149,8.32924116953
1589275161642260011,11017,1589275161642178006,,-0.122433742284,-23.8131117722,8.30015865443
1589275161645270137,11018,1589275161645185903,,-0.119437619399,-23.7085535434,8.27619026378
1589275161648310475,11019,1589275161648201804,,-0.11661278758,-23.6162451574,8.25762381173
1589275161651309289,11020,1589275161651209832,,-0.11363917286,-23.5016245253,8.23122002826
1589275161657525014,11021,1589275161657382577,,-0.110099427315,-23.3855665306,8.20521611677
1589275161660317765,11022,1589275161660176234,,-0.106795399806,-23.2863243609,8.1836819052
1589275161663769121,11023,1589275161663647582,,-0.102609956318,-23.0439303936,8.12320671454
1589275161669160232,11024,1589275161669068242,,-0.0996885120398,-23.0683902229,8.13049613897
1589275161672259160,11025,1589275161672180029,,-0.0963990332185,-22.9507247025,8.10568655222
1589275161675184205,11026,1589275161675109114,,-0.0945714182573,-22.8659546816,8.08493681865
1589275161681003816,11027,1589275161680926089,,-0.094348233288,-22.754377034,8.05694265979
1589275161684413745,11028,1589275161684331610,,-0.0935936280983,-22.6509325053,8.03229483676
1589275161687107959,11029,1589275161687008404,,-0.0925720590211,-22.5804823246,8.0181740464
1589275161693625119,11030,1589275161693536071,,-0.0944640451854,-22.4896434087,7.99357390425
1589275161696563622,11031,1589275161696431682,,-0.0944012486023,-22.434128181,7.982544535
1589275161699147543,11032,1589275161699061075,,-0.0946489540452,-22.351191252,7.96219185721
1589275161705212646,11033,1589275161705127574,,-0.0958968825155,-22.271922209,7.94395504352
1589275161708171352,11034,1589275161708086754,,-0.096461111874,-22.2227344993,7.93179929304
1589275161711129155,11035,1589275161711051670,,-0.0966287599366,-22.1399646518,7.91354254385
1589275161720152703,11036,1589275161720064927,,-0.0979244212563,-22.0046706318,7.88072126783
1589275161723115293,11037,1589275161723051648,,-0.097426621148,-21.9463899144,7.8681729174
1589275161729371207,11038,1589275161729265137,,-0.0971655431323,-21.8495291439,7.84472494494
1589275161735131611,11039,1589275161735029196,,-0.0948490879817,-21.7431389798,7.82089903211
1589275161738149526,11040,1589275161738047519,,-0.0935863230671,-21.6349492221,7.79526190489
1589275161741111986,11041,1589275161741026293,,-0.09096879601,-21.5671458591,7.78251363692
1589275161744185478,11042,1589275161744116350,,-0.0889363641052,-21.4502711899,7.75562491049
1589275161747076760,11043,1589275161746979775,,-0.0865526241222,-21.388594375,7.7450407186
1589275161753187281,11044,1589275161753083520,,-0.0858399813035,-21.2661765899,7.7148362032
1589275161756133412,11045,1589275161755972337,,-0.0819045824642,-21.1853335139,7.7005368489
1589275161759110845,11046,1589275161759012759,,-0.0787237715772,-21.0710462937,7.67556525767
1589275161765233763,11047,1589275161765157467,,-0.0771113356526,-20.9410872039,7.64566159038
1589275161768237160,11048,1589275161768147389,,-0.0737497275725,-20.8592448617,7.62816043474
1589275161771230659,11049,1589275161771114520,,-0.0720915968229,-20.7292168572,7.59571094061
1589275161779957679,11050,1589275161779889549,,-0.0669766619502,-20.5300817649,7.55322549472
1589275161782854213,11051,1589275161782774417,,-0.0646886969555,-20.4614029333,7.54086525942
1589275161788895938,11052,1589275161788827530,,-0.0627275914844,-20.3383069182,7.51085814584
1589275161791994351,11053,1589275161791934634,,-0.0611775883989,-20.2177643677,7.48178692073
1589275161798014034,11054,1589275161797921064,,-0.0608758976238,-20.0985407893,7.45227806223
1589275161800965436,11055,1589275161800914570,,-0.0597760536573,-20.0454970322,7.44184719414
1589275161804000572,11056,1589275161803937442,,-0.0595955742164,-19.9371731254,7.41827984939
1589275161806978181,11057,1589275161806927490,,-0.0594262965756,-19.9010494347,7.40914745946
1589275161813136790,11058,1589275161813086794,,-0.0591896128788,-19.7911089945,7.38456422815
1589275161815926858,11059,1589275161815872484,,-0.0595314999358,-19.7460416392,7.37633193301
1589275161819016669,11060,1589275161818936787,,-0.0583872197623,-19.6493470332,7.35520678819
1589275161825017014,11061,1589275161824936177,,-0.059348456222,-19.5399375972,7.32991263734
1589275161828019893,11062,1589275161827951520,,-0.0589057765523,-19.4932525109,7.31953844267
1589275161831033637,11063,1589275161830974965,,-0.0577384139732,-19.3795028089,7.29622562063
1589275161840066803,11064,1589275161839948345,,-0.0588351994568,-19.2198547142,7.25551477906
1589275161846101057,11065,1589275161846027568,,-0.0570060304352,-19.0964143536,7.2279745043
1589275161849211303,11066,1589275161849117193,,-0.0566900393693,-19.047813983,7.21677817873
1589275161852051760,11067,1589275161851989291,,-0.0562476395332,-18.9191129447,7.18603993203
1589275161858013447,11068,1589275161857922660,,-0.0546346555089,-18.7868420911,7.1552807277
1589275161861208841,11069,1589275161861105073,,-0.0526116112527,-18.7315412081,7.14385709518
1589275161864210231,11070,1589275161864144324,,-0.0512248967933,-18.5949244337,7.11094601678
1589275161870052556,11071,1589275161869930367,,-0.0503386734545,-18.5479419213,7.09837158861
1589275161873040876,11072,1589275161872965137,,-0.0481891915814,-18.4029734706,7.06708995757
1589275161875927128,11073,1589275161875872826,,-0.0463426526364,-18.3412248542,7.05507362365
1589275161882036219,11074,1589275161881938046,,-0.0451224058031,-18.210408521,7.02659128976
1589275161884944548,11075,1589275161884870533,,-0.0436590362184,-18.0684883485,6.99084849316
1589275161888003990,11076,1589275161887931605,,-0.0426953449682,-18.0057262802,6.97897439785
1589275161894420305,11077,1589275161894362710,,-0.0413135714119,-17.868497766,6.94791384207
1589275161897454595,11078,1589275161897369377,,-0.0413132691293,-17.7297358564,6.91551757582
1589275161900001563,11079,1589275161899927671,,-0.0403769314121,-17.6823562427,6.90484582764
1589275161906044271,11080,1589275161905950741,,-0.0394599678687,-17.5496975204,6.87508649062
1589275161909143541,11081,1589275161909011219,,-0.0398742908844,-17.5075748333,6.86483618209
1589275161912144499,11082,1589275161912074447,,-0.0401508133716,-17.3819134072,6.83406956372
1589275161918010524,11083,1589275161917930467,,-0.0399420767626,-17.2566818363,6.80479363215
1589275161920999572,11084,1589275161920898789,,-0.0400043049257,-17.2166204063,6.79673976363
1589275161924130997,11085,1589275161924017600,,-0.0407720477466,-17.092889935,6.76840482575
1589275161933361284,11086,1589275161933238608,,-0.0409441662793,-16.9311538938,6.73326522687
1589275161936247592,11087,1589275161936159385,,-0.041175198883,-16.8955884125,6.72578457298
1589275161942234335,11088,1589275161942138131,,-0.0406303982592,-16.765096305,6.69464531178
1589275161945256562,11089,1589275161945170176,,-0.039987352234,-16.6333265393,6.66507884164
1589275161948307844,11090,1589275161948233368,,-0.038869501869,-16.5943562757,6.65928156863
1589275161954642933,11091,1589275161954560782,,-0.0383192783528,-16.459194624,6.6289211049
1589275161960265296,11092,1589275161960179201,,-0.0388820211127,-16.3235080519,6.59412187094
1589275161963486271,11093,1589275161963166810,,-0.0372539667799,-16.2931030768,6.58797739896
1589275161969281493,11094,1589275161969171276,,-0.0357649895151,-16.1493464735,6.55357647846
1589275161972260762,11095,1589275161972177141,,-0.0346904533504,-16.0017954643,6.51845682865
1589275161975372831,11096,1589275161975231040,,-0.0339633320863,-15.9660415322,6.51047676211
1589275161978474247,11097,1589275161978340186,,-0.0325437290511,-15.8189937019,6.47870941104
1589275161981429561,11098,1589275161981269182,,-0.0310312129907,-15.7705151907,6.4709190803
1589275161987374866,11099,1589275161987272892,,-0.0305999668943,-15.6303347718,6.43830883859
1589275161990567481,11100,1589275161990462709,,-0.0286318943322,-15.5882160108,6.43069238195
1589275161993782749,11101,1589275161993703121,,-0.0270297200496,-15.4438281442,6.39661809075
1589275161999405074,11102,1589275161999268628,,-0.0266630390491,-15.3023021163,6.36255952277
1589275162002428571,11103,1589275162002338840,,-0.026504206025,-15.2672080774,6.35261455169
1589275162005080216,11104,1589275162005017158,,-0.0261346259681,-15.1289226849,6.31797023696
1589275162011282045,11105,1589275162011202266,,-0.0256940093509,-14.990176868,6.2864497685
1589275162014382564,11106,1589275162014241198,,-0.025416075815,-14.9543460441,6.28069963194
1589275162017510836,11107,1589275162017437343,,-0.0248209695548,-14.8181398603,6.24970315915
1589275162022980073,11108,1589275162022851161,,-0.025223548367,-14.7888546299,6.24266713065
1589275162026407924,11109,1589275162026305662,,-0.0253357466019,-14.6508852275,6.21105378944
1589275162029330800,11110,1589275162029254065,,-0.0262565739545,-14.6243457933,6.20469059842
1589275162035564366,11111,1589275162035456802,,-0.0270016745889,-14.4895115551,6.171754422
1589275162038383253,11112,1589275162038319235,,-0.0263190568762,-14.3493311171,6.13914147104
1589275162040920783,11113,1589275162040836249,,-0.0263111824216,-14.3239086293,6.13591917345
1589275162047108503,11114,1589275162047035374,,-0.0261356000945,-14.1876642938,6.10389450569
1589275162049932387,11115,1589275162049837012,,-0.0263470994099,-14.1581130545,6.09855882219
1589275162053201485,11116,1589275162053118319,,-0.0269159488088,-14.0207330053,6.06463291853
1589275162059395975,11117,1589275162059278287,,-0.0270558291994,-13.8792659836,6.0325989891
1589275162062315895,11118,1589275162062233249,,-0.026100865438,-13.8509032505,6.03014554444
1589275162068478763,11119,1589275162068374372,,-0.0261189424283,-13.7102056471,5.99809350964
1589275162071326615,11120,1589275162071242210,,-0.0254141131001,-13.5697168728,5.9666269977
1589275162073962522,11121,1589275162073818353,,-0.0254524245009,-13.5373889854,5.95978464279
1589275162079931945,11122,1589275162079847330,,-0.0248567697058,-13.3965172537,5.9260479831
1589275162083394381,11123,1589275162083182878,,-0.0245189000728,-13.3650122896,5.9213375433
1589275162086401196,11124,1589275162086273221,,-0.0245201138752,-13.2253529389,5.88703848252
1589275162092375735,11125,1589275162092291019,,-0.0246159582057,-13.082326869,5.85353961213
1589275162095526611,11126,1589275162095419057,,-0.0257249892213,-13.0557958917,5.84743224299
1589275162098134265,11127,1589275162098055789,,-0.0257116697375,-12.911958416,5.81231193933
1589275162104480558,11128,1589275162104358048,,-0.0256248811237,-12.7688779372,5.77981829341
1589275162107365679,11129,1589275162107252053,,-0.0254609653719,-12.7425770931,5.77512482061
1589275162110496334,11130,1589275162110355521,,-0.0250107834042,-12.71514568,5.77124462789
1589275162116354062,11131,1589275162116219304,,-0.0246738426151,-12.5724930827,5.73821864887
1589275162119432737,11132,1589275162119326079,,-0.0245690613775,-12.4312161583,5.70563145002
1589275162122460276,11133,1589275162122364755,,-0.0235283675588,-12.4064819233,5.7026702294
1589275162128392018,11134,1589275162128280589,,-0.0240053705435,-12.2668349785,5.66905791895
1589275162131264068,11135,1589275162131151226,,-0.0247945159838,-12.1259492891,5.63579031406
1589275162134363718,11136,1589275162134251783,,-0.02536078139,-12.1043437769,5.63362681
1589275162140527555,11137,1589275162140396976,,-0.0248473914305,-11.9656685351,5.60065119135
1589275162143662356,11138,1589275162143564883,,-0.024396891703,-11.8276150111,5.57069896027
1589275162146454983,11139,1589275162146312393,,-0.0243663715797,-11.8073043923,5.56860748402
1589275162152416590,11140,1589275162152287400,,-0.0243158830403,-11.6697474034,5.53625825754
1589275162155487777,11141,1589275162155371401,,-0.0249489992548,-11.6505127574,5.53317275657
1589275162158145257,11142,1589275162158057824,,-0.0259659180372,-11.5167513741,5.50065739363
1589275162164474301,11143,1589275162164391200,,-0.025692814805,-11.3810825742,5.47044726783
1589275162167539039,11144,1589275162167391618,,-0.0254320100502,-11.3623092825,5.46910945009
1589275162170583561,11145,1589275162170434040,,-0.0260212168939,-11.3452746067,5.46691923475
1589275162176380923,11146,1589275162176238684,,-0.0253054519601,-11.2120448993,5.43761386193
1589275162179288913,11147,1589275162179200299,,-0.0250508283517,-11.0767706034,5.40436171821
1589275162182436144,11148,1589275162182344850,,-0.0251539428162,-11.0597215044,5.40327612938
1589275162188385005,11149,1589275162188266823,,-0.0253839591272,-10.9300861747,5.37183762685
1589275162191328969,11150,1589275162191236184,,-0.0262014917273,-10.797801129,5.33928680335
1589275162194520482,11151,1589275162194383329,,-0.0266178473686,-10.7818720078,5.33665650522
1589275162200277482,11152,1589275162200172173,,-0.0269134247264,-10.6510388353,5.3051898272
1589275162203411912,11153,1589275162203170187,,-0.0276807152367,-10.6333347692,5.30226898361
1589275162206219534,11154,1589275162206135733,,-0.0278444431939,-10.5041874971,5.27245077953
1589275162212318424,11155,1589275162212225314,,-0.0286217771208,-10.3739650703,5.24090039937
1589275162215325812,11156,1589275162215236802,,-0.0277754484112,-10.3582998205,5.23888930687
1589275162218171964,11157,1589275162218089467,,-0.0282143990671,-10.2299853737,5.20832244861
1589275162224435860,11158,1589275162224338355,,-0.0284304518871,-10.1006467818,5.17816347975
1589275162227030539,11159,1589275162226935867,,-0.0273939773625,-10.0876363717,5.17727217353
1589275162233488878,11160,1589275162233352999,,-0.0278102466255,-9.9596129828,5.14645502905
1589275162236556782,11161,1589275162236456060,,-0.0269914320343,-9.94499413298,5.14603425604
1589275162239425252,11162,1589275162239334873,,-0.0273328289901,-9.81816694698,5.11628351536
1589275162245505915,11163,1589275162245364359,,-0.0270589071381,-9.69308707507,5.08764666219
1589275162248323928,11164,1589275162248248382,,-0.0268476172105,-9.68050691878,5.08783913472
1589275162251408946,11165,1589275162251306012,,-0.0265288708646,-9.55740090432,5.06001697074
1589275162257641377,11166,1589275162257567687,,-0.0266848788108,-9.43440309504,5.03190181189
1589275162260515924,11167,1589275162260384634,,-0.026973884056,-9.42381442822,5.02995312285
1589275162263264345,11168,1589275162263125729,,-0.0270336746691,-9.41437432668,5.02876856238
1589275162269343639,11169,1589275162269267011,,-0.0263479834237,-9.29336379842,5.00085700706
1589275162272393093,11170,1589275162272307363,,-0.0263022903843,-9.17388440587,4.97232445602
1589275162275394198,11171,1589275162275301888,,-0.0268848968284,-9.16521672597,4.97022789232
1589275162281443357,11172,1589275162281357082,,-0.0267339793483,-9.0476111992,4.94365229935
1589275162284719348,11173,1589275162284598267,,-0.02639809912,-8.93048074004,4.91653201187
1589275162287499724,11174,1589275162287380033,,-0.0270872252897,-8.92162978931,4.91524054305
1589275162293759503,11175,1589275162293633218,,-0.0268132998732,-8.80457500191,4.88872190203
