%time,field.header.seq,field.header.stamp,field.header.frame_id,field.vector.x,field.vector.y,field.vector.z
1589275159838467659,10524,1589275159838282509,,0.499507487684,-0.200287616951,0.213752442521
1589275159841428507,10525,1589275159841283211,,0.499508390186,-0.200289933687,0.213741844296
1589275159844506773,10526,1589275159844312286,,0.499509531663,-0.20029149471,0.213731420799
1589275159847436606,10527,1589275159847278427,,0.49951018338,-0.200294676007,0.213722724697
1589275159850337880,10528,1589275159850230134,,0.499510764823,-0.200295773619,0.213712064763
1589275159853353698,10529,1589275159853220028,,0.499511788195,-0.200299011751,0.213702225038
1589275159856401064,10530,1589275159856292945,,0.499512298715,-0.200301336457,0.213692232673
1589275159862478506,10531,1589275159862297849,,0.499513578111,-0.200303665532,0.213682714758
1589275159868375251,10532,1589275159868267134,,0.49951392308,-0.200306873133,0.213671375785
1589275159871428463,10533,1589275159871282005,,0.49951569284,-0.200308358416,0.213662694329
1589275159877560640,10534,1589275159877362079,,0.499516876802,-0.200310900276,0.213651205368
1589275159883470648,10535,1589275159883297462,,0.499517704673,-0.200313907883,0.213640708455
1589275159889439903,10536,1589275159889339126,,0.499518096173,-0.200315842444,0.213631071299
1589275159895741324,10537,1589275159895639926,,0.499519572344,-0.200317703425,0.21362302252
1589275159901453681,10538,1589275159901308448,,0.499520783251,-0.200320086133,0.213611375312
1589275159907410881,10539,1589275159907287866,,0.499521330501,-0.200323127125,0.213599892267
1589275159913406461,10540,1589275159913323351,,0.499522755334,-0.200324893532,0.213590859353
1589275159919416573,10541,1589275159919291908,,0.499524005087,-0.200326108869,0.213580849103
1589275159925439825,10542,1589275159925343835,,0.499524619777,-0.200328556228,0.213570066849
1589275159931390865,10543,1589275159931279356,,0.499525470752,-0.200330462599,0.213561122194
1589275159937453392,10544,1589275159937333898,,0.499526677284,-0.200332772503,0.213552412736
1589275159943461845,10545,1589275159943309103,,0.499527181576,-0.200334459748,0.21354188494
1589275159949460157,10546,1589275159949347530,,0.499528037876,-0.200335813724,0.213533821468
1589275159955474232,10547,1589275159955322313,,0.499529708296,-0.200337182779,0.213523335293
1589275159958425703,10548,1589275159958324505,,0.499530462801,-0.20033885236,0.213512647934
1589275159961423930,10549,1589275159961277963,,0.499531265366,-0.200341601422,0.21350299044
1589275159964365705,10550,1589275159964272172,,0.49953190168,-0.200342089458,0.213492200908
1589275159967510552,10551,1589275159967339702,,0.499533084822,-0.200344430158,0.213482862618
1589275159973483390,10552,1589275159973315245,,0.499534464807,-0.200346045656,0.213475322816
1589275159979368070,10553,1589275159979266256,,0.499536072128,-0.20034767387,0.213458564529
1589275159982477595,10554,1589275159982397110,,0.499536047119,-0.200349832126,0.213450169942
1589275159988486300,10555,1589275159988392616,,0.499537822905,-0.200350729236,0.213441808356
1589275159994599720,10556,1589275159994491734,,0.499539468164,-0.200351022587,0.213435345125
1589275160000509788,10557,1589275160000378564,,0.499540119817,-0.200352736956,0.213425254196
1589275160006464007,10558,1589275160006292314,,0.499540795303,-0.200354475549,0.213416434553
1589275160009448838,10559,1589275160009317161,,0.499541887778,-0.200355009033,0.213407594349
1589275160015531257,10560,1589275160015436344,,0.499542863544,-0.200357293743,0.213398835216
1589275160021487697,10561,1589275160021374985,,0.49954397835,-0.200357215726,0.213389483807
1589275160027521419,10562,1589275160027411140,,0.499544038836,-0.20035965351,0.213379577802
1589275160033564112,10563,1589275160033403630,,0.499544959362,-0.200358971206,0.213372209473
1589275160036402325,10564,1589275160036280074,,0.499546759108,-0.200360097605,0.213364433107
1589275160039386003,10565,1589275160039265005,,0.499547803085,-0.200360534612,0.213354927994
1589275160042410403,10566,1589275160042271707,,0.499549074153,-0.200360870117,0.213345159746
1589275160045353810,10567,1589275160045274132,,0.499549968745,-0.200360936988,0.213336646889
1589275160048390037,10568,1589275160048276478,,0.499550700019,-0.200362454464,0.213330205928
1589275160051419204,10569,1589275160051321755,,0.499552153675,-0.200362037229,0.21332319789
1589275160054395743,10570,1589275160054309982,,0.499553270642,-0.200361142847,0.213315637768
1589275160057446040,10571,1589275160057339440,,0.499554456584,-0.200360450794,0.213308514725
1589275160060426914,10572,1589275160060347410,,0.499555291464,-0.200360331609,0.213299863432
1589275160063390658,10573,1589275160063293049,,0.499556396766,-0.200360860327,0.213292674985
1589275160066403377,10574,1589275160066299855,,0.499557894495,-0.200359529517,0.213285717046
1589275160069514525,10575,1589275160069359842,,0.499559763022,-0.200358024211,0.21328041268
1589275160072484759,10576,1589275160072363096,,0.499559989522,-0.200356741599,0.213271586374
1589275160075470272,10577,1589275160075343274,,0.499561514784,-0.20035602201,0.21326590219
1589275160081490250,10578,1589275160081395390,,0.499562956199,-0.200354923505,0.21325907671
1589275160087417896,10579,1589275160087307851,,0.499563602403,-0.200353664303,0.213251273942
1589275160090439868,10580,1589275160090327412,,0.49956463127,-0.200352965312,0.213244184801
1589275160093757476,10581,1589275160093599744,,0.499566414245,-0.200350759336,0.213237935138
1589275160099518021,10582,1589275160099423327,,0.49956721959,-0.200349745206,0.213229936689
1589275160105484144,10583,1589275160105350641,,0.499569309282,-0.200347974337,0.213224198745
1589275160108456330,10584,1589275160108298111,,0.499570740072,-0.200345513303,0.213216593964
1589275160111468964,10585,1589275160111322893,,0.49957133589,-0.200344130903,0.213209257652
1589275160114415198,10586,1589275160114299291,,0.499573054819,-0.200340771617,0.213201930021
1589275160117440964,10587,1589275160117322944,,0.49957458038,-0.2003383193,0.213195676845
1589275160120453002,10588,1589275160120319681,,0.499576609273,-0.200334369509,0.213189234197
1589275160123389208,10589,1589275160123275091,,0.499577701715,-0.200332183929,0.213182121975
1589275160126509958,10590,1589275160126339958,,0.49957908378,-0.200328936425,0.213174832714
1589275160129444180,10591,1589275160129365594,,0.499580610534,-0.200324674354,0.213165877477
1589275160132515489,10592,1589275160132335184,,0.499582082375,-0.200321780571,0.213158183513
1589275160135457288,10593,1589275160135339221,,0.499583735711,-0.200317488655,0.21315115591
1589275160138408918,10594,1589275160138312887,,0.499585069902,-0.200314425862,0.213143215078
1589275160144443543,10595,1589275160144339395,,0.499586515302,-0.200309948163,0.213136068125
1589275160147543992,10596,1589275160147382245,,0.499587471905,-0.20030617623,0.21312894961
1589275160150424887,10597,1589275160150327128,,0.499589414942,-0.200301442198,0.213122062895
1589275160153422413,10598,1589275160153287814,,0.499590070879,-0.200296201367,0.21311374704
1589275160156484240,10599,1589275160156357237,,0.499591143002,-0.200290047883,0.213107005257
1589275160162441477,10600,1589275160162304524,,0.499592161405,-0.200284119479,0.21309940163
1589275160165479557,10601,1589275160165312204,,0.499593395211,-0.200276267732,0.213093581121
1589275160168526113,10602,1589275160168296080,,0.499595198923,-0.200264621503,0.213085076608
1589275160171527819,10603,1589275160171401537,,0.499596633721,-0.200250203747,0.213075081473
1589275160177568021,10604,1589275160177412878,,0.499598177486,-0.200229106823,0.213062472038
1589275160180469174,10605,1589275160180326627,,0.499598277779,-0.200218950855,0.213052323202
1589275160183500915,10606,1589275160183343808,,0.499598190443,-0.200207552645,0.213040086595
1589275160189519702,10607,1589275160189409255,,0.499597378189,-0.200198607136,0.213027421086
1589275160195869263,10608,1589275160195686918,,0.499594868179,-0.200189473752,0.21301358694
1589275160201490264,10609,1589275160201385504,,0.499594408803,-0.200176446935,0.213001387879
1589275160207611899,10610,1589275160207442379,,0.49959328694,-0.200165374221,0.212987611926
1589275160213478754,10611,1589275160213361426,,0.499593162971,-0.200152858372,0.212974671958
1589275160219634507,10612,1589275160219467747,,0.49959306863,-0.200141320232,0.212961340716
1589275160225467307,10613,1589275160225309786,,0.499592841216,-0.200128817142,0.212948256116
1589275160228496652,10614,1589275160228349885,,0.499592973925,-0.200117329021,0.212936424736
1589275160231573562,10615,1589275160231377162,,0.499593264735,-0.200105019398,0.212924473747
1589275160234448159,10616,1589275160234347247,,0.499592858894,-0.200093376255,0.212913078794
1589275160237400573,10617,1589275160237311190,,0.499593479909,-0.200082310602,0.212902834619
1589275160240487959,10618,1589275160240366236,,0.499594063947,-0.200068306266,0.212891988024
1589275160243516985,10619,1589275160243349464,,0.499594538174,-0.200056456333,0.212882465135
1589275160246459266,10620,1589275160246342699,,0.49959500319,-0.20004314229,0.212872101829
1589275160249479327,10621,1589275160249376861,,0.499595657796,-0.200031549244,0.21286277939
1589275160252529315,10622,1589275160252343649,,0.499595746055,-0.200018766205,0.2128518365
1589275160255558818,10623,1589275160255395679,,0.499596816559,-0.200005538564,0.212842724732
1589275160258500827,10624,1589275160258366026,,0.499596543527,-0.199991924675,0.212832051632
1589275160261522548,10625,1589275160261327550,,0.499597349996,-0.199976205148,0.212821222724
1589275160264447502,10626,1589275160264328322,,0.499598187678,-0.199961895212,0.212811593672
1589275160267425478,10627,1589275160267319116,,0.499598274617,-0.199945985581,0.212800406514
1589275160270420815,10628,1589275160270317164,,0.499599514243,-0.199929421472,0.212790284214
1589275160273472322,10629,1589275160273338277,,0.499599625213,-0.199911334177,0.212778161416
1589275160279545278,10630,1589275160279363133,,0.499599662119,-0.199883260531,0.212756589622
1589275160282520746,10631,1589275160282350262,,0.499601174867,-0.199863890414,0.212745225846
1589275160285447421,10632,1589275160285344622,,0.499601043495,-0.199846844535,0.212732917312
1589275160288493792,10633,1589275160288365211,,0.499601346211,-0.199829000787,0.212722403472
1589275160291523610,10634,1589275160291421190,,0.499601760122,-0.199812738741,0.212712769125
1589275160294544233,10635,1589275160294455773,,0.499602092483,-0.199793617536,0.212701773613
1589275160297438898,10636,1589275160297338784,,0.499603150009,-0.199775502949,0.212692321262
1589275160300479982,10637,1589275160300367435,,0.499604473703,-0.199756955303,0.212683110055
1589275160303539653,10638,1589275160303377004,,0.499606271624,-0.199738095266,0.212673776776
1589275160306466357,10639,1589275160306303543,,0.499607958118,-0.199719838559,0.212664378499
1589275160309444703,10640,1589275160309325941,,0.499610013483,-0.1997009028,0.212654996358
1589275160312442733,10641,1589275160312354410,,0.499611554357,-0.199683811487,0.212645886781
1589275160315446256,10642,1589275160315337459,,0.499612382595,-0.199663620617,0.212634866768
1589275160318430231,10643,1589275160318323063,,0.499613516927,-0.199645324827,0.212624570176
1589275160321471295,10644,1589275160321361320,,0.499613945587,-0.199626134146,0.212612218408
1589275160324602723,10645,1589275160324446906,,0.499613484143,-0.1996076763,0.212600979235
1589275160327444913,10646,1589275160327293626,,0.499614426388,-0.199587061028,0.212589712631
1589275160330425942,10647,1589275160330320382,,0.499613774525,-0.199568135989,0.21257741633
1589275160333426745,10648,1589275160333330103,,0.49961398632,-0.199548604425,0.212564675949
1589275160339447090,10649,1589275160339325148,,0.499615156567,-0.199506434553,0.212538975207
1589275160342419108,10650,1589275160342327120,,0.499616124504,-0.199482131558,0.212525978787
1589275160345395408,10651,1589275160345302109,,0.499617766211,-0.199458014572,0.212515481678
1589275160348435681,10652,1589275160348317807,,0.499618145301,-0.199432910723,0.212501643369
1589275160351378030,10653,1589275160351278067,,0.499618524283,-0.199412411147,0.212489487586
1589275160354426452,10654,1589275160354316451,,0.499619727938,-0.19938746766,0.212476085353
1589275160357523233,10655,1589275160357342913,,0.49962043,-0.199362083628,0.212463959194
1589275160360531305,10656,1589275160360382234,,0.499621305187,-0.199334078054,0.212449713207
1589275160363416966,10657,1589275160363311408,,0.499621151047,-0.199308967451,0.212436136811
1589275160366434679,10658,1589275160366297286,,0.499622735234,-0.199281657937,0.212423970871
1589275160369456520,10659,1589275160369322358,,0.499624207074,-0.199253004537,0.212410511936
1589275160372398875,10660,1589275160372309290,,0.499624821687,-0.199227560108,0.21239613589
1589275160375452136,10661,1589275160375325305,,0.499626462641,-0.199199777273,0.212382513971
1589275160378377809,10662,1589275160378276007,,0.499627107521,-0.199172831805,0.212368822887
1589275160381394307,10663,1589275160381291681,,0.499628421427,-0.199144476207,0.212354585756
1589275160384422957,10664,1589275160384265245,,0.499627447087,-0.199116687411,0.212338473832
1589275160387558089,10665,1589275160387391380,,0.499627616029,-0.199088893434,0.212323712504
1589275160390417061,10666,1589275160390319939,,0.499627683536,-0.199059735818,0.21231003595
1589275160393661436,10667,1589275160393537844,,0.499628212919,-0.199033276122,0.212296331862
1589275160396764457,10668,1589275160396628394,,0.499628110446,-0.199008074198,0.212283353927
1589275160399482571,10669,1589275160399322461,,0.499628942579,-0.198976629968,0.212270072973
1589275160402376381,10670,1589275160402268510,,0.499629862684,-0.198947218068,0.212258127969
1589275160405402883,10671,1589275160405290117,,0.499631315392,-0.198914538899,0.212246852307
1589275160408469792,10672,1589275160408309352,,0.499631361282,-0.198883651218,0.212234424327
1589275160411448572,10673,1589275160411300608,,0.499631432044,-0.198853209617,0.212223083208
1589275160414419075,10674,1589275160414294783,,0.499633574705,-0.198819977105,0.212216291195
1589275160417451155,10675,1589275160417342792,,0.499633959984,-0.198786569133,0.212204800091
1589275160420458385,10676,1589275160420346032,,0.499634339184,-0.198753845134,0.212190994772
1589275160423467285,10677,1589275160423314206,,0.499635806583,-0.19871804262,0.212178763868
1589275160426432234,10678,1589275160426333337,,0.499637018415,-0.198684248884,0.212169234648
1589275160429375601,10679,1589275160429284151,,0.4996376523,-0.198650412737,0.212156966518
1589275160432393401,10680,1589275160432287457,,0.499639313924,-0.198610887746,0.212143994232
1589275160435402701,10681,1589275160435315746,,0.499639671427,-0.198573569984,0.212131387179
1589275160438410276,10682,1589275160438296884,,0.49964072478,-0.198538336275,0.212120294598
1589275160441386361,10683,1589275160441302851,,0.499642268665,-0.198501476821,0.212110522985
1589275160444467499,10684,1589275160444311634,,0.499642461268,-0.198461481162,0.21209639071
1589275160447456901,10685,1589275160447328548,,0.499643864093,-0.198423278496,0.212081750548
1589275160450422800,10686,1589275160450336007,,0.499644981049,-0.198384912292,0.21206814003
1589275160453576658,10687,1589275160453402447,,0.499647379104,-0.198346782987,0.212057153064
1589275160459499345,10688,1589275160459412304,,0.499648212591,-0.198269125673,0.212029787807
1589275160462492048,10689,1589275160462338539,,0.499650041391,-0.198228452961,0.212017261992
1589275160465414996,10690,1589275160465320344,,0.499649824977,-0.198190617615,0.212003343888
1589275160470013626,10691,1589275160469902450,,0.499649467077,-0.198152072623,0.21199251383
1589275160474409999,10692,1589275160474280339,,0.499650310297,-0.198109589912,0.211979654449
1589275160477420384,10693,1589275160477328970,,0.499651773799,-0.198069267474,0.211967424144
1589275160480420925,10694,1589275160480344266,,0.499654026819,-0.198029145848,0.211956066908
1589275160483546635,10695,1589275160483446699,,0.499654207225,-0.197988802414,0.211941113325
1589275160486509538,10696,1589275160486381277,,0.499654796096,-0.197949440613,0.211927041626
1589275160489527456,10697,1589275160489344751,,0.499655256483,-0.197909017672,0.211914025261
1589275160492941230,10698,1589275160492770592,,0.499655864529,-0.197868435059,0.211900491709
1589275160495849537,10699,1589275160495681232,,0.499656583669,-0.197832925936,0.211890477244
1589275160498465387,10700,1589275160498350077,,0.499655551451,-0.19778921741,0.211873311536
1589275160501526271,10701,1589275160501368800,,0.49965609028,-0.197741682504,0.211856947221
1589275160504428859,10702,1589275160504317456,,0.499657767159,-0.197706039936,0.211845295131
1589275160507516297,10703,1589275160507404152,,0.499657851379,-0.197662999711,0.211829991892
1589275160510488612,10704,1589275160510364774,,0.499657316702,-0.19761572142,0.211810973196
1589275160513486522,10705,1589275160513380255,,0.499657704634,-0.197572901455,0.211796257763
1589275160519514633,10706,1589275160519385172,,0.499657712709,-0.197489169787,0.211769885011
1589275160522544993,10707,1589275160522357902,,0.499658035511,-0.197449789548,0.211757660216
1589275160525426658,10708,1589275160525320906,,0.499657827151,-0.197413635825,0.211744449043
1589275160528470396,10709,1589275160528333354,,0.499657187179,-0.197374157299,0.211729755134
1589275160531418129,10710,1589275160531295900,,0.499657220165,-0.197331652637,0.211716178077
1589275160534466785,10711,1589275160534372028,,0.499658463446,-0.197288571963,0.211704136471
1589275160537413918,10712,1589275160537310247,,0.499659976404,-0.197247120665,0.211693561118
1589275160540514627,10713,1589275160540378217,,0.499659205948,-0.197217107564,0.211683132481
1589275160543553085,10714,1589275160543437197,,0.49965950752,-0.197172595337,0.211666690578
1589275160546439909,10715,1589275160546333845,,0.499659983568,-0.197119229633,0.211652329636
1589275160549518977,10716,1589275160549351561,,0.499659528331,-0.197084610256,0.211638727867
1589275160552533822,10717,1589275160552345000,,0.499659522089,-0.197033089133,0.211621745187
1589275160555559353,10718,1589275160555330349,,0.49965903138,-0.196981147184,0.211605550428
1589275160561548273,10719,1589275160561423816,,0.499659791939,-0.196929711416,0.211590058116
1589275160564498798,10720,1589275160564401788,,0.499660450448,-0.196876279317,0.211574995664
1589275160567614100,10721,1589275160567409775,,0.499660261358,-0.196833297078,0.211558964653
1589275160570528036,10722,1589275160570393677,,0.49966185107,-0.196782393495,0.211543467998
1589275160579588046,10723,1589275160579470722,,0.499664789596,-0.196673958123,0.211510523704
1589275160582564595,10724,1589275160582398784,,0.49966646864,-0.196617346351,0.21149485649
1589275160588579650,10725,1589275160588427905,,0.499667838962,-0.196565815966,0.21147710769
1589275160591515214,10726,1589275160591382650,,0.499669921461,-0.196511758551,0.21146367628
1589275160594629344,10727,1589275160594539525,,0.499668377264,-0.196460560124,0.21145010628
1589275160600595872,10728,1589275160600410147,,0.499668586853,-0.196406594233,0.211437459538
1589275160603534966,10729,1589275160603454959,,0.49966883634,-0.196352325902,0.211423927887
1589275160606598392,10730,1589275160606429023,,0.499667747949,-0.196305278222,0.21140962691
1589275160609498216,10731,1589275160609386099,,0.499667900972,-0.196253151446,0.211395722657
1589275160612611918,10732,1589275160612477395,,0.499669307629,-0.196202612137,0.21138139958
1589275160615569117,10733,1589275160615463803,,0.499669807031,-0.196154252201,0.211368984553
1589275160621541777,10734,1589275160621415457,,0.499667909728,-0.196106541226,0.211354111233
1589275160624603520,10735,1589275160624430159,,0.499668965881,-0.196058913697,0.211341581813
1589275160630487272,10736,1589275160630369014,,0.499668188296,-0.196006184722,0.211325975006
1589275160633642098,10737,1589275160633437899,,0.499667389619,-0.195950959999,0.211309039432
1589275160639600413,10738,1589275160639436168,,0.499666222746,-0.195843412193,0.211274563436
1589275160642488873,10739,1589275160642427041,,0.499666067688,-0.195784025589,0.211258104189
1589275160648669879,10740,1589275160648468482,,0.499667002975,-0.195724763279,0.211240116277
1589275160654519877,10741,1589275160654403019,,0.499667243552,-0.195668162267,0.211221265394
1589275160657606726,10742,1589275160657443368,,0.499668338685,-0.195598536095,0.211198994965
1589275160660626172,10743,1589275160660475754,,0.499669615874,-0.195534366781,0.211178103919
1589275160663538999,10744,1589275160663432170,,0.499671559127,-0.195465755183,0.211160722485
1589275160666593806,10745,1589275160666465795,,0.49967385016,-0.19539930121,0.211142400341
1589275160669527669,10746,1589275160669413899,,0.499673512321,-0.195326840579,0.211120024263
1589275160675555181,10747,1589275160675439975,,0.499675032481,-0.19525227415,0.211100795926
1589275160681681041,10748,1589275160681468470,,0.49967842217,-0.195178853128,0.211076461377
1589275160684510264,10749,1589275160684381599,,0.499680512523,-0.195101762736,0.211053387889
1589275160687574118,10750,1589275160687425540,,0.499682569881,-0.195029085928,0.211029448555
1589275160690505441,10751,1589275160690396026,,0.499684608981,-0.194955549665,0.211004621722
1589275160693760311,10752,1589275160693624546,,0.499685712447,-0.194884331286,0.210981915002
1589275160699528115,10753,1589275160699393542,,0.499686753236,-0.194815512899,0.210963629945
1589275160702635245,10754,1589275160702473026,,0.499684990737,-0.194751726736,0.210941296702
1589275160708582390,10755,1589275160708439066,,0.499683948886,-0.194705686096,0.210926806922
1589275160711575880,10756,1589275160711421185,,0.499683914219,-0.194649085803,0.210915941705
1589275160714646214,10757,1589275160714445922,,0.499682457653,-0.194587477882,0.210898485777
1589275160720582053,10758,1589275160720430487,,0.499681963589,-0.194551832906,0.210891427739
1589275160723485332,10759,1589275160723395858,,0.499682884716,-0.194504238871,0.210886619834
1589275160726560711,10760,1589275160726424135,,0.499682688112,-0.194454383433,0.210877120817
1589275160729489805,10761,1589275160729364248,,0.499680372556,-0.194410425277,0.210865882894
1589275160732526966,10762,1589275160732409324,,0.499678110489,-0.194367812433,0.210857486036
1589275160735499027,10763,1589275160735399503,,0.499678846477,-0.194320652039,0.210845985266
1589275160738582260,10764,1589275160738442514,,0.499678188959,-0.19427282005,0.210836695122
1589275160741516289,10765,1589275160741370627,,0.499677535022,-0.194219230358,0.210820939063
1589275160744519148,10766,1589275160744432693,,0.499677924923,-0.194160407939,0.210801543882
1589275160747559233,10767,1589275160747422031,,0.499676846953,-0.194101037703,0.210778406219
1589275160750539083,10768,1589275160750424165,,0.49967711138,-0.194037422783,0.210754845946
1589275160753583851,10769,1589275160753445081,,0.499677556791,-0.193967672336,0.210732681726
1589275160756675055,10770,1589275160756415095,,0.4996785678,-0.193911402844,0.210716726087
1589275160759617588,10771,1589275160759458820,,0.49967901673,-0.19383550839,0.210692382764
1589275160762541773,10772,1589275160762425189,,0.499681121257,-0.193749026598,0.210669988388
1589275160768592711,10773,1589275160768401088,,0.499685153143,-0.193678793566,0.210652554778
1589275160771496801,10774,1589275160771377975,,0.499688890209,-0.193593419259,0.210635544191
1589275160774551190,10775,1589275160774436543,,0.499692137499,-0.193502900054,0.210610261657
1589275160777504398,10776,1589275160777412579,,0.499696735129,-0.193420277771,0.210594869002
1589275160780560838,10777,1589275160780397107,,0.499700745876,-0.193338821016,0.210578010201
1589275160783554774,10778,1589275160783427518,,0.49970242771,-0.193261476886,0.210559519277
1589275160786558642,10779,1589275160786405282,,0.499702924542,-0.193192227105,0.210540797038
1589275160789582695,10780,1589275160789431311,,0.499705301307,-0.193118149686,0.210522969879
1589275160792928778,10781,1589275160792818419,,0.499705001251,-0.193052496707,0.210505450505
1589275160798535823,10782,1589275160798369965,,0.499703484056,-0.192988762671,0.210484330594
1589275160801538997,10783,1589275160801430616,,0.499703937106,-0.192926212972,0.210468286021
1589275160804586380,10784,1589275160804438531,,0.499700585884,-0.192871182067,0.210449488279
1589275160807573270,10785,1589275160807466041,,0.499700345797,-0.192828299951,0.210436503295
1589275160810625985,10786,1589275160810487929,,0.499697680248,-0.192774899216,0.21042035008
1589275160813611600,10787,1589275160813463541,,0.499695916893,-0.192709982887,0.210401332965
1589275160819659665,10788,1589275160819461504,,0.499694184692,-0.192603733928,0.210373668751
1589275160822538001,10789,1589275160822426632,,0.499692311241,-0.192534678942,0.210352748084
1589275160828548235,10790,1589275160828411584,,0.499692104078,-0.192465895493,0.210337433661
1589275160831563583,10791,1589275160831418753,,0.499693434475,-0.19239454489,0.210319368324
1589275160834545894,10792,1589275160834440422,,0.499693240908,-0.192324901289,0.210298937787
1589275160837573212,10793,1589275160837436839,,0.499694167407,-0.192249216805,0.21027648522
1589275160840558926,10794,1589275160840434780,,0.4996969433,-0.192167039907,0.210253760968
1589275160843571078,10795,1589275160843436764,,0.49969996852,-0.192080418804,0.210233645752
1589275160846516084,10796,1589275160846394325,,0.499701633852,-0.191994088612,0.21020568039
1589275160849543897,10797,1589275160849429037,,0.499704158905,-0.191899955439,0.21018307311
1589275160852556247,10798,1589275160852413497,,0.499707633058,-0.191804826153,0.210159622795
1589275160855586456,10799,1589275160855451123,,0.499710640235,-0.191711197494,0.210133588713
1589275160861578027,10800,1589275160861413619,,0.499714259187,-0.191614448303,0.21010977014
1589275160864609514,10801,1589275160864440130,,0.499715783264,-0.191521479954,0.210081297213
1589275160867574296,10802,1589275160867465016,,0.499717868261,-0.191431994756,0.210058598611
1589275160870508722,10803,1589275160870358338,,0.499719786192,-0.191343569286,0.210037578635
1589275160873507843,10804,1589275160873365632,,0.499720308437,-0.191264744529,0.21001630403
1589275160879596180,10805,1589275160879461207,,0.499719234932,-0.19111302592,0.2099792229
1589275160882569986,10806,1589275160882459253,,0.499718951888,-0.191046009489,0.209961547642
1589275160888640198,10807,1589275160888477238,,0.499717569169,-0.190979301082,0.209945875769
1589275160891608854,10808,1589275160891484486,,0.499715885157,-0.190913372799,0.20992896049
1589275160894761966,10809,1589275160894641126,,0.499715987909,-0.19085079999,0.209915400408
1589275160897576068,10810,1589275160897472822,,0.499715503664,-0.19078327426,0.209901439554
1589275160900526639,10811,1589275160900438816,,0.499714042112,-0.190715598293,0.209885686397
1589275160903475548,10812,1589275160903367834,,0.499714751021,-0.190640689702,0.209870500374
1589275160906562531,10813,1589275160906432774,,0.499714701532,-0.190569646871,0.209850072679
1589275160909546936,10814,1589275160909410501,,0.499715960685,-0.190491670747,0.20983305794
1589275160912531889,10815,1589275160912420708,,0.499715117036,-0.190403951342,0.209805306001
1589275160915551787,10816,1589275160915424876,,0.499718207728,-0.190317483941,0.209787013617
1589275160918551073,10817,1589275160918450176,,0.499720191408,-0.190221605424,0.209761240217
1589275160921547537,10818,1589275160921430928,,0.499722212577,-0.190120549852,0.209734973547
1589275160924539377,10819,1589275160924428758,,0.49972591603,-0.190017647141,0.209708686438
1589275160927546461,10820,1589275160927431196,,0.499728134427,-0.189909799906,0.209680896791
1589275160930602183,10821,1589275160930424017,,0.499733302036,-0.189796532033,0.209655898817
1589275160933571803,10822,1589275160933455823,,0.499735225189,-0.189690962339,0.20962385978
1589275160939632838,10823,1589275160939503781,,0.499741193388,-0.189472959173,0.209567615717
1589275160942624222,10824,1589275160942477017,,0.499742912021,-0.189371646278,0.209541585648
1589275160948543967,10825,1589275160948405446,,0.499744407788,-0.189270043399,0.209514663186
1589275160951563793,10826,1589275160951478402,,0.499746174817,-0.189180914884,0.209493078442
1589275160954533836,10827,1589275160954419870,,0.499746274207,-0.189115504549,0.209474871474
1589275160957551615,10828,1589275160957449101,,0.499745433132,-0.189038314228,0.209454232307
1589275160960581841,10829,1589275160960467545,,0.499743902364,-0.188952748554,0.209431258773
1589275160963618844,10830,1589275160963473983,,0.499743800051,-0.188906484073,0.209422631249
1589275160966558568,10831,1589275160966433733,,0.499740496301,-0.188846355236,0.209408957766
1589275160969577108,10832,1589275160969451211,,0.499738343741,-0.188778430986,0.209391510122
1589275160972556627,10833,1589275160972438335,,0.499736850356,-0.188720185361,0.209382165429
1589275160975562149,10834,1589275160975456935,,0.499734719586,-0.188661066991,0.209366848584
1589275160978559219,10835,1589275160978420455,,0.499733482242,-0.18860133707,0.209350915216
1589275160981525506,10836,1589275160981386972,,0.499732726199,-0.188536172968,0.209337348934
1589275160984498250,10837,1589275160984392775,,0.499732115645,-0.188461184257,0.209313296142
1589275160987548312,10838,1589275160987419204,,0.499732514755,-0.188386569134,0.209292030794
1589275160990643877,10839,1589275160990502684,,0.49973308581,-0.18830219751,0.209269423246
1589275160993806845,10840,1589275160993656663,,0.499733809789,-0.188211802481,0.209245863861
1589275160996846465,10841,1589275160996714277,,0.499734760286,-0.188120645246,0.209221542614
1589275160999541869,10842,1589275160999433427,,0.499737714405,-0.188038965513,0.209197882758
1589275161002486001,10843,1589275161002381685,,0.499739946052,-0.187931153889,0.209174206812
1589275161005482252,10844,1589275161005362502,,0.499742977963,-0.187812375864,0.209145677546
1589275161008562570,10845,1589275161008406920,,0.499747042259,-0.187722015694,0.209124453974
1589275161011509224,10846,1589275161011397520,,0.49975082653,-0.187606940593,0.209101649893
1589275161014533174,10847,1589275161014382743,,0.499754528857,-0.187483662213,0.209071804817
1589275161017526081,10848,1589275161017413046,,0.499757061939,-0.187382506907,0.209044357046
1589275161020531674,10849,1589275161020417947,,0.499759268573,-0.187281313888,0.209022431498
1589275161023563861,10850,1589275161023437826,,0.499760305412,-0.187188784572,0.20900062786
1589275161026654347,10851,1589275161026489175,,0.499760782082,-0.187101371881,0.208977722621
1589275161029511681,10852,1589275161029412651,,0.499760349916,-0.187019383295,0.20895419682
1589275161032486314,10853,1589275161032396135,,0.499759644548,-0.186944591115,0.208932655608
1589275161035489603,10854,1589275161035350676,,0.499758982682,-0.186872935192,0.208915278499
1589275161038546664,10855,1589275161038437715,,0.499756900445,-0.186804196601,0.208896643993
1589275161041505705,10856,1589275161041420974,,0.499754099087,-0.186748817666,0.208881058358
1589275161044446650,10857,1589275161044369788,,0.499749924815,-0.186706988878,0.208869828968
1589275161047558496,10858,1589275161047454049,,0.499747507292,-0.186641763546,0.208848934461
1589275161050571841,10859,1589275161050472223,,0.499746478051,-0.186567156566,0.208831900466
1589275161053583663,10860,1589275161053474087,,0.499742612908,-0.186519949997,0.208813943133
1589275161059716890,10861,1589275161059532229,,0.49973896283,-0.1863585435,0.20877311304
1589275161062553633,10862,1589275161062430715,,0.499738992196,-0.186274476005,0.208747666893
1589275161065512909,10863,1589275161065401133,,0.499738290663,-0.186190466213,0.208722616388
1589275161068664776,10864,1589275161068525708,,0.499740375015,-0.186096378823,0.208702666514
1589275161071551824,10865,1589275161071459596,,0.499741404837,-0.186000757664,0.208673191472
1589275161074605588,10866,1589275161074462877,,0.499743929804,-0.185899445821,0.208644671178
1589275161077470270,10867,1589275161077391855,,0.499748105957,-0.185787996939,0.208618266882
1589275161080549087,10868,1589275161080408774,,0.499750746675,-0.18567350874,0.208589115073
1589275161083537312,10869,1589275161083442546,,0.499757339814,-0.185555698146,0.208561341945
1589275161086503098,10870,1589275161086390878,,0.499761581899,-0.185436421548,0.208533820809
1589275161089536839,10871,1589275161089414461,,0.499765241988,-0.185317693753,0.208505222439
1589275161092983103,10872,1589275161092891184,,0.499768639192,-0.18520093542,0.208477119179
1589275161095856690,10873,1589275161095750783,,0.499770983261,-0.185093001818,0.208448019318
1589275161098566334,10874,1589275161098441265,,0.499772594548,-0.184986078534,0.20842598932
1589275161101543448,10875,1589275161101425826,,0.49977197731,-0.184888337238,0.208405012132
1589275161104566455,10876,1589275161104407335,,0.499770548955,-0.184800327292,0.208377415085
1589275161107575263,10877,1589275161107458753,,0.499769755895,-0.184720012571,0.208366071719
1589275161110654504,10878,1589275161110501366,,0.499767598702,-0.184644815654,0.208345942914
1589275161113572492,10879,1589275161113452099,,0.499763860899,-0.184578143512,0.208326748235
1589275161119671426,10880,1589275161119493397,,0.499759198422,-0.184446855262,0.208294687889
1589275161122696167,10881,1589275161122545901,,0.499758662469,-0.184378757726,0.208276711046
1589275161128648359,10882,1589275161128485199,,0.499755928226,-0.184312438343,0.208261159382
1589275161131654189,10883,1589275161131512543,,0.499753507448,-0.184241792023,0.208240557071
1589275161134694281,10884,1589275161134514504,,0.499754997296,-0.184185837828,0.208228220406
1589275161137594072,10885,1589275161137482786,,0.499753653711,-0.184100710186,0.208204205058
1589275161140645079,10886,1589275161140524143,,0.499755718294,-0.184001992525,0.208177477802
1589275161143738289,10887,1589275161143633310,,0.499758304067,-0.183929096435,0.20815861195
1589275161146530619,10888,1589275161146453292,,0.499759796837,-0.183828541139,0.208137352955
1589275161149641525,10889,1589275161149477115,,0.49976281023,-0.183711469197,0.208111186973
1589275161152570486,10890,1589275161152446742,,0.499764273731,-0.183607941275,0.208086207623
1589275161155564432,10891,1589275161155460894,,0.499767137921,-0.183495036627,0.208066484812
1589275161158589671,10892,1589275161158460976,,0.499770454255,-0.183381654786,0.208036252856
1589275161161620497,10893,1589275161161485087,,0.499775631934,-0.18326698807,0.208014829429
1589275161164671750,10894,1589275161164477692,,0.499779714379,-0.183146858127,0.20798586242
1589275161167715273,10895,1589275161167506479,,0.499783410426,-0.18303329682,0.207955577196
1589275161170590791,10896,1589275161170467297,,0.499788448011,-0.182913302129,0.207928118284
1589275161173610896,10897,1589275161173470108,,0.499789630795,-0.182803323789,0.207903394013
1589275161179604321,10898,1589275161179462596,,0.499790649721,-0.182623832805,0.207860280207
1589275161182707884,10899,1589275161182581010,,0.499788839079,-0.182532803445,0.207838942189
1589275161188688683,10900,1589275161188531459,,0.499789864408,-0.182438831487,0.207818273726
1589275161191566659,10901,1589275161191457748,,0.499786654508,-0.18238597134,0.207804422968
1589275161194747045,10902,1589275161194644574,,0.499784403978,-0.182318517219,0.207789885965
1589275161197644076,10903,1589275161197500304,,0.499781309435,-0.18225001914,0.20776924865
1589275161200615335,10904,1589275161200470460,,0.499778535043,-0.182191138929,0.20775820319
1589275161203707304,10905,1589275161203561466,,0.499777327169,-0.182133663967,0.207745118464
1589275161206648944,10906,1589275161206501384,,0.49977349225,-0.182076832456,0.207727311565
1589275161209630691,10907,1589275161209517118,,0.499772966427,-0.182011841372,0.207710094827
1589275161212698274,10908,1589275161212515620,,0.499772011642,-0.181941508296,0.207690459737
1589275161215705736,10909,1589275161215559143,,0.499770152661,-0.181867968699,0.207671341604
1589275161218614930,10910,1589275161218509209,,0.499771960596,-0.181783993574,0.207651221297
1589275161221613627,10911,1589275161221474658,,0.499771839587,-0.181696280987,0.207627222136
1589275161224609779,10912,1589275161224473969,,0.49977295249,-0.181606423583,0.207607565184
1589275161227652519,10913,1589275161227511233,,0.499775104003,-0.181529665776,0.207589368375
1589275161230624305,10914,1589275161230487289,,0.499776522638,-0.181423831975,0.207559677537
1589275161233617896,10915,1589275161233489730,,0.49977990374,-0.181307521662,0.207535636821
1589275161239624139,10916,1589275161239506269,,0.499785655611,-0.181106583332,0.207489361602
1589275161242628348,10917,1589275161242516173,,0.499789149219,-0.180981745628,0.207461814262
1589275161245592648,10918,1589275161245499206,,0.499793133962,-0.180867662852,0.207437869598
1589275161248707291,10919,1589275161248506526,,0.499796130025,-0.18076113709,0.207414489618
1589275161251654644,10920,1589275161251557971,,0.499798358384,-0.180652154713,0.207382728176
1589275161254625749,10921,1589275161254504916,,0.499800527899,-0.180548933737,0.207360313139
1589275161257645361,10922,1589275161257528973,,0.499802670218,-0.180447990867,0.207334810474
1589275161260621008,10923,1589275161260526302,,0.499803655131,-0.180350375477,0.207308186053
1589275161263717921,10924,1589275161263615390,,0.499803899481,-0.180262065352,0.207285241276
1589275161266618206,10925,1589275161266481653,,0.499801515872,-0.180178638993,0.207263026162
1589275161269664121,10926,1589275161269530642,,0.499800942789,-0.18010351958,0.207245128321
1589275161272632689,10927,1589275161272509848,,0.499797464883,-0.180056945272,0.207235683426
1589275161275640987,10928,1589275161275546824,,0.49979567494,-0.179989149581,0.207216934806
1589275161281680413,10929,1589275161281529864,,0.499794096637,-0.179919852749,0.207199470518
1589275161284657839,10930,1589275161284544372,,0.499790606994,-0.179880463252,0.207186974654
1589275161287610407,10931,1589275161287509598,,0.499789507631,-0.179819707799,0.207178201278
1589275161290614167,10932,1589275161290517692,,0.499787809359,-0.179749028379,0.207158059031
1589275161293886633,10933,1589275161293715392,,0.499785676662,-0.179682706801,0.207144037504
1589275161296958912,10934,1589275161296817018,,0.499784438082,-0.17961282922,0.207128263158
1589275161302632567,10935,1589275161302486765,,0.499785298407,-0.179537224428,0.207110128081
1589275161305554244,10936,1589275161305459981,,0.49978448889,-0.179461665343,0.207087231632
1589275161308655408,10937,1589275161308485864,,0.499787247282,-0.179374298685,0.207063828933
1589275161311568166,10938,1589275161311499944,,0.499790221992,-0.179277389771,0.207041689614
1589275161317580730,10939,1589275161317473676,,0.499791703949,-0.179182166532,0.207015379401
1589275161320588596,10940,1589275161320486313,,0.499793096503,-0.179075171513,0.206988027292
1589275161323798506,10941,1589275161323649180,,0.499795507848,-0.178957610881,0.206961244191
1589275161329630307,10942,1589275161329539417,,0.499799032906,-0.178846107325,0.206937139925
1589275161335602104,10943,1589275161335470078,,0.499803031422,-0.178723966677,0.206909063056
1589275161338712618,10944,1589275161338550017,,0.499806544889,-0.178605443031,0.206878121724
1589275161341579037,10945,1589275161341504416,,0.499812867144,-0.178478922124,0.206850241309
1589275161344678244,10946,1589275161344539413,,0.499817521492,-0.178364510421,0.206821282061
1589275161347711906,10947,1589275161347557465,,0.499820596114,-0.178246830137,0.206795266294
1589275161353609956,10948,1589275161353498972,,0.499823035739,-0.178141390889,0.206770656278
1589275161356964567,10949,1589275161356911023,,0.499822017815,-0.178040403695,0.206745023891
1589275161359491223,10950,1589275161359439421,,0.499820356209,-0.177946749544,0.206728092548
1589275161365548399,10951,1589275161365457193,,0.499821672455,-0.177866957562,0.206710183108
1589275161368602528,10952,1589275161368464131,,0.499818677429,-0.177790534516,0.20669264795
1589275161371561028,10953,1589275161371464127,,0.499816353551,-0.177728665231,0.206676904601
1589275161377693501,10954,1589275161377597406,,0.499816463256,-0.177671941328,0.206667143086
1589275161380733541,10955,1589275161380566895,,0.499814758373,-0.177610864117,0.206655654132
1589275161383670226,10956,1589275161383573406,,0.49981099387,-0.177554689453,0.206639865182
1589275161389862999,10957,1589275161389632881,,0.499809677974,-0.177495069788,0.20662743099
1589275161393042017,10958,1589275161392933140,,0.499809055421,-0.177431010809,0.206615085013
1589275161396040106,10959,1589275161395874791,,0.499804509347,-0.177360853391,0.206596083703
1589275161401606594,10960,1589275161401518050,,0.499804747997,-0.177284684347,0.206576736925
1589275161404669041,10961,1589275161404543735,,0.499804712114,-0.177204604993,0.206557139791
1589275161407645719,10962,1589275161407532508,,0.499805164026,-0.177122162867,0.206534946078
1589275161413700833,10963,1589275161413593376,,0.499806362665,-0.177031082225,0.206512137259
1589275161419628818,10964,1589275161419501360,,0.499809800272,-0.176837120697,0.206463655731
1589275161425638178,10965,1589275161425490702,,0.499812617844,-0.1767288618,0.206440192957
1589275161428679245,10966,1589275161428546442,,0.49981497523,-0.176620867067,0.20641461898
1589275161431658556,10967,1589275161431558139,,0.499817445374,-0.17650820568,0.206387136736
1589275161437667261,10968,1589275161437535324,,0.499822402534,-0.176395557191,0.206364736524
1589275161440620675,10969,1589275161440522132,,0.49982431974,-0.176279186115,0.206336226541
1589275161446696163,10970,1589275161446528677,,0.499830523058,-0.176162390263,0.206311016445
1589275161449622842,10971,1589275161449505182,,0.499833739787,-0.176063897149,0.2062864874
1589275161452643180,10972,1589275161452516843,,0.499837228181,-0.175945210933,0.206256289219
1589275161458687578,10973,1589275161458574371,,0.49984220335,-0.175828227267,0.206229576133
1589275161461609034,10974,1589275161461513707,,0.499843235175,-0.175744103155,0.206210368745
1589275161464621075,10975,1589275161464509139,,0.499844484619,-0.175650034718,0.206191998288
1589275161471783011,10976,1589275161471677808,,0.499842229255,-0.1755615424,0.206170663358
1589275161479712091,10977,1589275161479542762,,0.499840845537,-0.175437219485,0.206140761569
1589275161482635482,10978,1589275161482516098,,0.499838608191,-0.175386046547,0.206128021167
1589275161485716743,10979,1589275161485533485,,0.499836247419,-0.175342202972,0.206117708921
1589275161488658270,10980,1589275161488556163,,0.499837325554,-0.175295914672,0.206107741832
1589275161494771600,10981,1589275161494655044,,0.499834888911,-0.175253246688,0.206093182033
1589275161497630882,10982,1589275161497504384,,0.499832947623,-0.175203725074,0.206078300774
1589275161500714226,10983,1589275161500557321,,0.499832374489,-0.175145234043,0.206064837786
1589275161506712009,10984,1589275161506554837,,0.499830733523,-0.175083187776,0.206047143627
1589275161509687553,10985,1589275161509592783,,0.499833924271,-0.175027177459,0.206038288852
1589275161512618202,10986,1589275161512545124,,0.499834216259,-0.17495827615,0.206022165885
1589275161518691740,10987,1589275161518557253,,0.499835928699,-0.174866844517,0.205999620568
1589275161521634862,10988,1589275161521535964,,0.499838630555,-0.174799862545,0.205983760283
1589275161524667906,10989,1589275161524570244,,0.499841654323,-0.174715310322,0.205967318532
1589275161530603539,10990,1589275161530471723,,0.499845739895,-0.174612703149,0.205948660482
1589275161533647599,10991,1589275161533477818,,0.499847949423,-0.174526336548,0.205927992947
1589275161537069305,10992,1589275161536967361,,0.499850445332,-0.174438066948,0.205911558378
1589275161542652820,10993,1589275161542519194,,0.499854732346,-0.174342456495,0.205893013703
1589275161545599197,10994,1589275161545515205,,0.499858329474,-0.174250159656,0.205870072508
1589275161548626314,10995,1589275161548501616,,0.49986154458,-0.174155335468,0.205845886657
1589275161554664227,10996,1589275161554528253,,0.499866969361,-0.174055269999,0.205824917165
1589275161557642025,10997,1589275161557537296,,0.499869741278,-0.173956622103,0.20579863572
1589275161563887641,10998,1589275161563775538,,0.499873012077,-0.173860431293,0.205778294068
1589275161566805317,10999,1589275161566656288,,0.499874825675,-0.173765135862,0.205755063697
1589275161569620553,11000,1589275161569519014,,0.49987533752,-0.173671439341,0.205731639537
1589275161575754119,11001,1589275161575547236,,0.499877719956,-0.173583284107,0.205719591951
1589275161578730389,11002,1589275161578557852,,0.499877300662,-0.173502675059,0.20569994253
1589275161581682658,11003,1589275161581548322,,0.499876198677,-0.173428137943,0.205680093378
1589275161587705814,11004,1589275161587593179,,0.499875519728,-0.173359432917,0.205664444942
1589275161590659228,11005,1589275161590541840,,0.49987394109,-0.173300942518,0.205649619569
1589275161593893694,11006,1589275161593807204,,0.499874819264,-0.173239785743,0.205639122022
1589275161599715666,11007,1589275161599567796,,0.499873673015,-0.173185658908,0.205628945862
1589275161602695787,11008,1589275161602564008,,0.499871243446,-0.17313459768,0.205614630142
1589275161605734219,11009,1589275161605576195,,0.499872288136,-0.173074441796,0.205603584317
1589275161611765269,11010,1589275161611586371,,0.499871869958,-0.173016028295,0.205592377982
1589275161614695445,11011,1589275161614600912,,0.499870425016,-0.17295966303,0.205579734555
1589275161617739483,11012,1589275161617595710,,0.499870685801,-0.172893205071,0.205565059748
1589275161624053286,11013,1589275161623831548,,0.49987153357,-0.17282538436,0.205549482295
1589275161626733928,11014,1589275161626518355,,0.499871349807,-0.172755232902,0.205531259507
1589275161629666861,11015,1589275161629580785,,0.49987556367,-0.172678601908,0.205517232971
1589275161635747519,11016,1589275161635551465,,0.499876247942,-0.172595169883,0.205499527762
1589275161641666392,11017,1589275161641539821,,0.499877566258,-0.172508322147,0.205473961248
1589275161644667923,11018,1589275161644547721,,0.499880562381,-0.172419952536,0.205454040012
1589275161647673672,11019,1589275161647578778,,0.499883387212,-0.17232764415,0.20543547356
1589275161650689843,11020,1589275161650552604,,0.499886360827,-0.172231325288,0.205413645219
1589275161656838422,11021,1589275161656749134,,0.499889900573,-0.172135670397,0.205392742083
1589275161659648252,11022,1589275161659559681,,0.4998932046,-0.172036428227,0.205371207872
1589275161662727706,11023,1589275161662621817,,0.499897390044,-0.171938534759,0.205346857806
1589275161668670785,11024,1589275161668556966,,0.499900311488,-0.171840986339,0.205323645168
1589275161671739871,11025,1589275161671590295,,0.499903600967,-0.171747889664,0.205304977793
1589275161674637012,11026,1589275161674532359,,0.499905428582,-0.171663119643,0.205284228059
1589275161680744492,11027,1589275161680569223,,0.499905651767,-0.171578174513,0.20526289203
1589275161683914526,11028,1589275161683778247,,0.499906406372,-0.171503412885,0.205245414932
1589275161686630947,11029,1589275161686512800,,0.499907427941,-0.171432962704,0.205231294141
1589275161693134934,11030,1589275161693044622,,0.499905535955,-0.171372843409,0.205214373904
1589275161696059167,11031,1589275161695901831,,0.499905598751,-0.171317328181,0.205203344535
1589275161698745951,11032,1589275161698588043,,0.499905351046,-0.171267133557,0.205191177434
1589275161704706498,11033,1589275161704576027,,0.499904103117,-0.171222615095,0.205181628265
1589275161707700617,11034,1589275161707554411,,0.499903538888,-0.171173427385,0.205169472514
1589275161710704874,11035,1589275161710541519,,0.49990337124,-0.171127401607,0.205160401783
1589275161719703158,11036,1589275161719578280,,0.499902075579,-0.171030829981,0.205137261105
1589275161722656924,11037,1589275161722559121,,0.499902573379,-0.170972549264,0.205124712755
1589275161728667467,11038,1589275161728580861,,0.499902834457,-0.17091637367,0.205111436076
1589275161734664329,11039,1589275161734554268,,0.499905150912,-0.17085261554,0.205098268172
1589275161737733197,11040,1589275161737596433,,0.499906413677,-0.17078898837,0.205083771692
1589275161740691701,11041,1589275161740550248,,0.499909031204,-0.170721185007,0.205071023424
1589275161743711245,11042,1589275161743616784,,0.499911063636,-0.170650786786,0.20505575381
1589275161746655690,11043,1589275161746557103,,0.499913447376,-0.170589109972,0.205045169618
1589275161752664004,11044,1589275161752555814,,0.499914160019,-0.170515065422,0.205027058411
1589275161755649100,11045,1589275161755534281,,0.499918095418,-0.170434222346,0.205012759057
1589275161758642497,11046,1589275161758540499,,0.499921276228,-0.170370187685,0.205000350605
1589275161764733615,11047,1589275161764582582,,0.499922888664,-0.170292342626,0.204983475446
1589275161767741209,11048,1589275161767584979,,0.499926250272,-0.170210500284,0.20496597429
1589275161770729675,11049,1589275161770614835,,0.499927908403,-0.170134429542,0.204947014112
1589275161779673514,11050,1589275161779575658,,0.499933023338,-0.169991076309,0.204918474131
1589275161782624414,11051,1589275161782495519,,0.499935311303,-0.169922397478,0.204906113896
1589275161788657813,11052,1589275161788532260,,0.499937272409,-0.169856888893,0.20489050364
1589275161791674491,11053,1589275161791573957,,0.499938822412,-0.169795719923,0.20487627581
1589275161797649482,11054,1589275161797571708,,0.499939124102,-0.169737636257,0.204862051929
1589275161800715265,11055,1589275161800564778,,0.499940223946,-0.1696845925,0.204851621061
1589275161803664243,11056,1589275161803574255,,0.499940404426,-0.169639154621,0.204843775223
1589275161806646412,11057,1589275161806565352,,0.499940573703,-0.16960303093,0.204834642833
1589275161812688894,11058,1589275161812585680,,0.499940810387,-0.169557702019,0.204826212484
1589275161815585912,11059,1589275161815518266,,0.4999404685,-0.169512634663,0.204817980189
1589275161818630519,11060,1589275161818518273,,0.49994161278,-0.16948225607,0.204813434047
1589275161824584880,11061,1589275161824518823,,0.499940651544,-0.169440845711,0.204805139666
1589275161827616844,11062,1589275161827536005,,0.499941094223,-0.169394160625,0.204794765471
1589275161830629738,11063,1589275161830567908,,0.499942261586,-0.169350071241,0.204788867729
1589275161839626962,11064,1589275161839537079,,0.499941164801,-0.169261722477,0.20476598172
1589275161845746448,11065,1589275161845624032,,0.49994299397,-0.169211197823,0.204756670372
1589275161848725033,11066,1589275161848571427,,0.499943309961,-0.169162597452,0.204745474046
1589275161851742646,11067,1589275161851648658,,0.49994375236,-0.169108405451,0.204733363059
1589275161857654348,11068,1589275161857544416,,0.499945365344,-0.169052213508,0.204721623582
1589275161860813323,11069,1589275161860587346,,0.499947388389,-0.168996912625,0.204710199949
1589275161863866457,11070,1589275161863765115,,0.499948775103,-0.168937920768,0.2046966951
1589275161869670958,11071,1589275161869574944,,0.499949661327,-0.168890938255,0.204684120672
1589275161872709328,11072,1589275161872562377,,0.499951810808,-0.168825116447,0.204672625702
1589275161875653668,11073,1589275161875536484,,0.499953657347,-0.16876336783,0.204660609368
1589275161881712936,11074,1589275161881554652,,0.499954877594,-0.168713195167,0.204652287951
1589275161884759927,11075,1589275161884538770,,0.499956340964,-0.168653390579,0.204637074051
1589275161887756007,11076,1589275161887582573,,0.499957304655,-0.16859062851,0.204625199955
1589275161893935681,11077,1589275161893849787,,0.499958686429,-0.168536961964,0.204615029891
1589275161897070786,11078,1589275161896993794,,0.499958686731,-0.168483182452,0.204603879225
1589275161899628581,11079,1589275161899544971,,0.499959623069,-0.168435802839,0.204593207477
1589275161905667521,11080,1589275161905553676,,0.499960540032,-0.168389520573,0.204585042254
1589275161908706860,11081,1589275161908584242,,0.499960125709,-0.168347397886,0.204574791945
1589275161911736507,11082,1589275161911634151,,0.499959849187,-0.168309480179,0.204565961257
1589275161917630471,11083,1589275161917524214,,0.499960057923,-0.16827333237,0.204558956265
1589275161920666108,11084,1589275161920534006,,0.499959995695,-0.16823327094,0.204550902397
1589275161923732628,11085,1589275161923641167,,0.499959227952,-0.168199936625,0.204545166498
1589275161932780480,11086,1589275161932612197,,0.499959055834,-0.168129881062,0.204532947019
1589275161935721644,11087,1589275161935597490,,0.499958824801,-0.168094315581,0.204525466365
1589275161941716487,11088,1589275161941590837,,0.499959369602,-0.168056759769,0.204517561178
1589275161944769367,11089,1589275161944635080,,0.499960012648,-0.168019153183,0.204511535503
1589275161947767694,11090,1589275161947632551,,0.499961130498,-0.167980182919,0.20450573823
1589275161953877399,11091,1589275161953744904,,0.499961680722,-0.167940381965,0.20449921794
1589275161959712886,11092,1589275161959602227,,0.499961117979,-0.167901223807,0.20448855081
1589275161962756396,11093,1589275161962608035,,0.499962746033,-0.167870818831,0.204482406338
1589275161968790936,11094,1589275161968626325,,0.49996423501,-0.167824728124,0.204472421891
1589275161971720106,11095,1589275161971545671,,0.499965309547,-0.167775949818,0.204461995417
1589275161974726548,11096,1589275161974595831,,0.499966036668,-0.167740195886,0.204454015351
1589275161977799898,11097,1589275161977631792,,0.499967456271,-0.167692996456,0.2044472101
1589275161980772783,11098,1589275161980616190,,0.499968968787,-0.167644517945,0.204439419769
1589275161986735331,11099,1589275161986631449,,0.499969400033,-0.167605230073,0.204432032664
1589275161989844949,11100,1589275161989660990,,0.499971368106,-0.167563111312,0.204424416207
1589275161993166391,11101,1589275161993056948,,0.49997297028,-0.167520628144,0.204415818091
1589275161998762354,11102,1589275161998666297,,0.499973336961,-0.167481986531,0.204407480626
1589275162001839481,11103,1589275162001652439,,0.499973495794,-0.167446892492,0.204397535655
1589275162004741668,11104,1589275162004616481,,0.499973865374,-0.16741243835,0.204388849153
1589275162010700389,11105,1589275162010594905,,0.499974305991,-0.16737843729,0.204383514874
1589275162013793761,11106,1589275162013681206,,0.499974583924,-0.167342606466,0.204377764737
1589275162017292076,11107,1589275162017190534,,0.49997517903,-0.16731202477,0.204373174387
1589275162022725522,11108,1589275162022589423,,0.499974776452,-0.16728273954,0.204366138358
1589275162025743298,11109,1589275162025640284,,0.499974664253,-0.167251240133,0.204361142516
1589275162028746919,11110,1589275162028647751,,0.499973743426,-0.167224700699,0.204354779325
1589275162034864855,11111,1589275162034731849,,0.499972998325,-0.167197147286,0.204348663355
1589275162037806314,11112,1589275162037731748,,0.499973680943,-0.167165023376,0.204343064536
1589275162040758137,11113,1589275162040591531,,0.499973688818,-0.167139600888,0.204339842238
1589275162046858497,11114,1589275162046675549,,0.4999738644,-0.167112153199,0.204335016732
1589275162049780585,11115,1589275162049575322,,0.499973652901,-0.16708260196,0.204329681048
1589275162052798836,11116,1589275162052621237,,0.499973084051,-0.167054722637,0.204323130327
1589275162058874535,11117,1589275162058669528,,0.499972944171,-0.167023423927,0.204318638475
1589275162061767128,11118,1589275162061663540,,0.499973899135,-0.166995061194,0.20431618503
1589275162067847186,11119,1589275162067740431,,0.499973881058,-0.166965162532,0.204311832731
1589275162070768827,11120,1589275162070645384,,0.499974585887,-0.166936065913,0.204308214258
1589275162073677881,11121,1589275162073569740,,0.499974547575,-0.166903738026,0.204301371903
1589275162079684511,11122,1589275162079577834,,0.49997514323,-0.166874813787,0.204295622116
1589275162082668319,11123,1589275162082554404,,0.4999754811,-0.166843308823,0.204290911677
1589275162085828344,11124,1589275162085644084,,0.499975479886,-0.166816113962,0.204284728738
1589275162091835809,11125,1589275162091657747,,0.499975384042,-0.166786030573,0.204279465538
1589275162094924220,11126,1589275162094744360,,0.499974275011,-0.166759499595,0.204273358169
1589275162097744767,11127,1589275162097627984,,0.49997428833,-0.166729043719,0.204266583265
1589275162103869286,11128,1589275162103750522,,0.499974375119,-0.166699744017,0.204262534813
1589275162106787921,11129,1589275162106650077,,0.499974539035,-0.166673443173,0.204257841341
1589275162109886020,11130,1589275162109698661,,0.499974989217,-0.16664601176,0.204253961148
1589275162115747235,11131,1589275162115624009,,0.499975326157,-0.166617498907,0.204249470105
1589275162118755313,11132,1589275162118645887,,0.499975430939,-0.166590680012,0.204245497413
1589275162121818426,11133,1589275162121699360,,0.499976471632,-0.166565945777,0.204242536193
1589275162127830141,11134,1589275162127663551,,0.499975994629,-0.166541033993,0.204237607673
1589275162130733216,11135,1589275162130615708,,0.499975205484,-0.166515118966,0.204233082733
1589275162133754342,11136,1589275162133645650,,0.499974639219,-0.166493513453,0.204230919229
1589275162139866347,11137,1589275162139698015,,0.499975152609,-0.16647000227,0.204226734625
1589275162142795543,11138,1589275162142691516,,0.499975603108,-0.166447263619,0.204225611112
1589275162145820265,11139,1589275162145684936,,0.499975633628,-0.166426953,0.204223519636
1589275162151888273,11140,1589275162151677709,,0.499975684117,-0.166404818635,0.204220026066
1589275162154846602,11141,1589275162154696255,,0.499975051001,-0.166385583989,0.204216940565
1589275162157796733,11142,1589275162157632637,,0.499974034082,-0.166367309439,0.20421329691
1589275162163927823,11143,1589275162163811629,,0.499974307185,-0.166347147657,0.204211963539
1589275162166872049,11144,1589275162166719280,,0.49997456799,-0.166328374365,0.204210625721
1589275162169725658,11145,1589275162169625850,,0.499973978783,-0.16631133969,0.204208435505
1589275162175821196,11146,1589275162175676894,,0.499974694548,-0.166293592675,0.204208000806
1589275162178828536,11147,1589275162178665575,,0.499974949172,-0.166273731754,0.204203602006
1589275162181862360,11148,1589275162181707494,,0.499974846057,-0.166256682655,0.204202516417
1589275162187873949,11149,1589275162187723486,,0.499974616041,-0.1662423459,0.204199902558
1589275162190780422,11150,1589275162190692586,,0.499973798508,-0.16622519866,0.204196136186
1589275162194046552,11151,1589275162193914775,,0.499973382153,-0.166209269539,0.204193505888
1589275162199850651,11152,1589275162199667998,,0.499973086575,-0.166193366943,0.204190771854
1589275162202768388,11153,1589275162202658183,,0.499972319285,-0.166175662877,0.20418785101
1589275162205779073,11154,1589275162205650054,,0.499972155557,-0.166161192001,0.204186701906
1589275162211931478,11155,1589275162211707654,,0.499971378223,-0.166145344346,0.204183745218
1589275162214882617,11156,1589275162214724946,,0.499972224552,-0.166129679096,0.204181734126
1589275162217857660,11157,1589275162217641167,,0.499971785601,-0.166115389857,0.20417967357
1589275162224124336,11158,1589275162223949480,,0.499971569548,-0.166099678474,0.204177921403
1589275162226667502,11159,1589275162226588393,,0.499972606023,-0.166086668064,0.204177030097
1589275162232830778,11160,1589275162232654262,,0.499972189753,-0.166071824951,0.204174508021
1589275162235801943,11161,1589275162235685456,,0.499973008568,-0.166057206101,0.204174087248
1589275162238845426,11162,1589275162238713153,,0.499972667171,-0.166043062825,0.204172507485
1589275162244849385,11163,1589275162244736289,,0.499972941093,-0.166030120563,0.204171905034
1589275162247829979,11164,1589275162247657583,,0.499973152383,-0.166017540407,0.204172097507
1589275162250804199,11165,1589275162250694833,,0.499973471129,-0.166005975267,0.204172160561
1589275162257065537,11166,1589275162256977652,,0.499973315121,-0.165993870656,0.204171768702
1589275162259831935,11167,1589275162259661284,,0.499973026116,-0.165983281989,0.204169820013
1589275162262748276,11168,1589275162262629465,,0.499972966325,-0.165973841888,0.204168635453
1589275162268824035,11169,1589275162268670427,,0.499973652017,-0.165963025435,0.204168272416
