%time,field.header.seq,field.header.stamp,field.header.frame_id,field.vector.x,field.vector.y,field.vector.z
1589273890780659492,7675,1589273890780581748,,-0.0512499117411,-0.078372100697,1.99739157326
1589273890783679796,7676,1589273890783594171,,-0.0513347554957,-0.0786857119236,1.99748669258
1589273890786678844,7677,1589273890786575301,,-0.0513343839437,-0.0799804697216,1.99780876839
1589273890792861966,7678,1589273890792786003,,-0.051463265904,-0.0822683008067,1.99828836918
1589273890795683602,7679,1589273890795571141,,-0.0515033175595,-0.0820525840956,1.99831553863
1589273890801766803,7680,1589273890801631013,,-0.0515807929672,-0.0847203331994,1.99879799121
1589273890804810906,7681,1589273890804722394,,-0.0515161938372,-0.0869983508415,1.99952266749
1589273890807676790,7682,1589273890807584531,,-0.0515939133349,-0.087187999677,1.99953590347
1589273890813669997,7683,1589273890813575315,,-0.0516558867507,-0.0902385209668,2.00026704309
1589273890816625298,7684,1589273890816543415,,-0.0516917612912,-0.0903423269819,2.00034067018
1589273890819858182,7685,1589273890819768097,,-0.0518448178081,-0.0935730999331,2.00099628146
1589273890825726528,7686,1589273890825626647,,-0.0518150126522,-0.0971929764909,2.0018320464
1589273890828693581,7687,1589273890828590090,,-0.0519057380334,-0.0974028041742,2.00182459328
1589273890831723536,7688,1589273890831627597,,-0.0519327322935,-0.101134040606,2.0027581089
1589273890837766562,7689,1589273890837634536,,-0.0518785525076,-0.101459158101,2.00300244277
1589273890840789354,7690,1589273890840662204,,-0.0520771228715,-0.105470627819,2.0038579874
1589273890843727730,7691,1589273890843613980,,-0.051979908339,-0.105657588198,2.00409738314
1589273890849922081,7692,1589273890849830791,,-0.0519684206764,-0.110225405185,2.00497907326
1589273890852634199,7693,1589273890852541996,,-0.0520870741776,-0.114799383245,2.00596559797
1589273890855761284,7694,1589273890855692385,,-0.0519498879392,-0.115072120649,2.00630246463
1589273890861679082,7695,1589273890861590760,,-0.052004862767,-0.120468572022,2.00742710835
1589273890864707204,7696,1589273890864623390,,-0.0520876699187,-0.1255387021,2.008497484
1589273890867726274,7697,1589273890867629975,,-0.0520910211635,-0.125799970459,2.00867741701
1589273890873661652,7698,1589273890873597416,,-0.0521012788953,-0.131827050718,2.01005175881
1589273890877044841,7699,1589273890876970239,,-0.0520136608805,-0.131654704942,2.00992826882
1589273890879688645,7700,1589273890879603367,,-0.0521856434499,-0.137644291183,2.01135599829
1589273890885787789,7701,1589273890885646250,,-0.0521095193884,-0.144076522807,2.01297943239
1589273890888846991,7702,1589273890888766924,,-0.0521635996784,-0.144403694352,2.01300931639
1589273890897610910,7703,1589273890897527662,,-0.0521467353434,-0.151062324392,2.01441288003
1589273890900639601,7704,1589273890900543938,,-0.0519806763789,-0.15785196789,2.01623996023
1589273890903649672,7705,1589273890903551690,,-0.0520827069461,-0.157882787742,2.01588667847
1589273890909669420,7706,1589273890909587192,,-0.0521240300702,-0.165350646832,2.01767871456
1589273890912871995,7707,1589273890912784726,,-0.051956771119,-0.172756954004,2.01968383531
1589273890918586987,7708,1589273890918519760,,-0.0519675845482,-0.180558162763,2.02165656476
1589273890921663667,7709,1589273890921604724,,-0.0518766329729,-0.180567946382,2.02174949462
1589273890924609954,7710,1589273890924496028,,-0.0518666174367,-0.188050414753,2.02352834633
1589273890930573017,7711,1589273890930492718,,-0.051945125752,-0.188919612664,2.02349849346
1589273890933605351,7712,1589273890933502721,,-0.0518626269928,-0.197460843702,2.02574768546
1589273890939625254,7713,1589273890939548433,,-0.051861557056,-0.206397771327,2.02781434948
1589273890942551129,7714,1589273890942480410,,-0.0518419957539,-0.206433641993,2.0276861325
1589273890945838314,7715,1589273890945780061,,-0.0517387071904,-0.21547853093,2.03006173413
1589273890948626981,7716,1589273890948538875,,-0.0516406419099,-0.215327022388,2.02988591348
1589273890955210944,7717,1589273890955087496,,-0.0516453814609,-0.224631620823,2.0322343313
1589273890957633267,7718,1589273890957553267,,-0.0516994821842,-0.224469117082,2.03204576537
1589273890963673934,7719,1589273890963560540,,-0.0516179498155,-0.234296146055,2.03440118643
1589273890966612246,7720,1589273890966546402,,-0.0515665615275,-0.244040727605,2.03689433578
1589273890969608980,7721,1589273890969530951,,-0.0515577468865,-0.244071021403,2.03678626907
1589273890972728205,7722,1589273890972571300,,-0.0514738774473,-0.254185311554,2.03915157335
1589273890979195357,7723,1589273890979115140,,-0.0515895058096,-0.264644311391,2.04158378888
1589273890981687931,7724,1589273890981617955,,-0.0513665453645,-0.264711431897,2.04174037195
1589273890987648966,7725,1589273890987561980,,-0.0514935236697,-0.275336102852,2.04403167969
1589273890991064597,7726,1589273890990964640,,-0.051322597397,-0.275391479786,2.0441082344
1589273890994057378,7727,1589273890993911718,,-0.0511361577831,-0.286128675259,2.04693506554
1589273890996956477,7728,1589273890996867832,,-0.0511548393046,-0.286013969868,2.04673982212
1589273891003079074,7729,1589273891002952871,,-0.0511215255171,-0.29720588414,2.04937826591
1589273891006010321,7730,1589273891005870930,,-0.0510276122255,-0.308718156761,2.05245871075
1589273891015179818,7731,1589273891015027281,,-0.050831321857,-0.320193799935,2.05514578938
1589273891018043734,7732,1589273891017911496,,-0.0506987542741,-0.319768470861,2.05522328407
1589273891021109432,7733,1589273891020976456,,-0.0505312915673,-0.331601169692,2.05795559743
1589273891027237548,7734,1589273891027056524,,-0.0505337232711,-0.343836637218,2.06100475591
1589273891030080787,7735,1589273891029944090,,-0.0504236493639,-0.343461859438,2.06069616099
1589273891036017649,7736,1589273891035942344,,-0.0502017145354,-0.355750762779,2.06390287901
1589273891038964419,7737,1589273891038891654,,-0.0500958706125,-0.368535170428,2.06704279942
1589273891041911409,7738,1589273891041806530,,-0.0499446300622,-0.368265223922,2.06714903323
1589273891044909871,7739,1589273891044826439,,-0.0498207599614,-0.381192196276,2.07013435388
1589273891050927908,7740,1589273891050839009,,-0.0497018137984,-0.380824657675,2.07002563753
1589273891053940257,7741,1589273891053864646,,-0.0496782555132,-0.393992609757,2.07298263639
1589273891059987515,7742,1589273891059870422,,-0.0494147348088,-0.407369588433,2.07641843946
1589273891062970666,7743,1589273891062880760,,-0.0492253726748,-0.406812960424,2.07616978854
1589273891065910425,7744,1589273891065830929,,-0.049019002756,-0.420384170014,2.07942972173
1589273891068734416,7745,1589273891068668368,,-0.0488119389734,-0.419972890567,2.07926713251
1589273891075393899,7746,1589273891075312949,,-0.048658188912,-0.433768029287,2.08268034939
1589273891078295540,7747,1589273891078228455,,-0.0484756799604,-0.447793306722,2.08606718763
1589273891083679385,7748,1589273891083621575,,-0.048259693078,-0.447202628942,2.08582898746
1589273891086712111,7749,1589273891086598995,,-0.0481866941249,-0.461503452237,2.08918170853
1589273891089742699,7750,1589273891089647616,,-0.047908114429,-0.460624278392,2.08914268819
1589273891095710556,7751,1589273891095624976,,-0.0479191754364,-0.47487185826,2.09248324611
1589273891098818151,7752,1589273891098755419,,-0.0477505264658,-0.489366885139,2.0961062723
1589273891101689093,7753,1589273891101615472,,-0.0476651548127,-0.488124422679,2.09557769778
1589273891107997638,7754,1589273891107896020,,-0.0476854588759,-0.50254386956,2.09902999949
1589273891110886723,7755,1589273891110791937,,-0.0476852475239,-0.501521984601,2.09840620903
1589273891114004982,7756,1589273891113892532,,-0.0477042184989,-0.515958884801,2.10166683803
1589273891119999345,7757,1589273891119870633,,-0.0478555788901,-0.531168270093,2.10508151633
1589273891122941485,7758,1589273891122856292,,-0.0479547132676,-0.530097405368,2.10424217454
1589273891126009228,7759,1589273891125921401,,-0.0482490231951,-0.545703650777,2.10751400282
1589273891131976819,7760,1589273891131874854,,-0.048548238285,-0.561320049082,2.11081910668
1589273891135073547,7761,1589273891134984853,,-0.0488491662341,-0.560365110548,2.11009741088
1589273891138013751,7762,1589273891137926526,,-0.0492477581935,-0.573450453014,2.11259648948
1589273891143935787,7763,1589273891143827834,,-0.0493216551115,-0.575016216371,2.1127466951
1589273891146747920,7764,1589273891146668922,,-0.0496063853693,-0.590265236174,2.11598656649
1589273891149937712,7765,1589273891149620131,,-0.0496342454813,-0.585008569018,2.11436426137
1589273891155821569,7766,1589273891155690370,,-0.0498878007723,-0.600692676865,2.11778252884
1589273891158774107,7767,1589273891158694789,,-0.050184449859,-0.61714220442,2.12139646085
1589273891161782906,7768,1589273891161700383,,-0.0504283884816,-0.616232098133,2.12105836253
1589273891167937264,7769,1589273891167870876,,-0.0507952186592,-0.633147349331,2.12544529856
1589273891170831427,7770,1589273891170758040,,-0.0511573319052,-0.63193707428,2.12620249409
1589273891173741797,7771,1589273891173657462,,-0.051748361972,-0.648347114669,2.1333898163
1589273891179766420,7772,1589273891179674121,,-0.0522491459605,-0.666063467969,2.13798995215
1589273891182789731,7773,1589273891182701729,,-0.052664721811,-0.66505027724,2.13791799533
1589273891188830311,7774,1589273891188674783,,-0.0528006523122,-0.682513472936,2.14294422631
1589273891194919504,7775,1589273891194796658,,-0.0533857426944,-0.699963828623,2.14767923509
1589273891197922829,7776,1589273891197769944,,-0.0533954233827,-0.699322834399,2.14772436703
1589273891203886205,7777,1589273891203766451,,-0.0534729186218,-0.717460549276,2.15250983514
1589273891206780887,7778,1589273891206707749,,-0.0537829734924,-0.736313355632,2.15721979402
1589273891212866983,7779,1589273891212772642,,-0.0539598438284,-0.755189991762,2.16209555275
1589273891215861761,7780,1589273891215765722,,-0.0541945465806,-0.754453926124,2.16189251646
1589273891218854605,7781,1589273891218718560,,-0.0544642140492,-0.773452779363,2.1665325295
1589273891224878636,7782,1589273891224802458,,-0.0545969412437,-0.793180757222,2.1714931509
1589273891227895994,7783,1589273891227775190,,-0.0547179008988,-0.791971341365,2.17128274212
1589273891230730304,7784,1589273891230649986,,-0.0548951291428,-0.791856933072,2.17140026462
1589273891236744450,7785,1589273891236673531,,-0.0550000608966,-0.811319471975,2.17652773285
1589273891239851178,7786,1589273891239770512,,-0.0551586400785,-0.831340187637,2.18170932026
1589273891242754654,7787,1589273891242664945,,-0.0552781464142,-0.830543058889,2.18171973406
1589273891245797411,7788,1589273891245701241,,-0.0554114045661,-0.851111688513,2.18724945859
1589273891255017722,7789,1589273891254918206,,-0.0555609230284,-0.871001978141,2.19240414088
1589273891260792983,7790,1589273891260659136,,-0.0557940772713,-0.891827721302,2.19783421077
1589273891263739704,7791,1589273891263666596,,-0.0559806658255,-0.891231377816,2.19765032112
1589273891266728847,7792,1589273891266662110,,-0.0561037358081,-0.912205067568,2.20291595987
1589273891273001894,7793,1589273891272925136,,-0.0563215120309,-0.933408568179,2.20793619115
1589273891276177207,7794,1589273891276103816,,-0.0565033494565,-0.933046304237,2.20762629281
1589273891279183352,7795,1589273891279115865,,-0.0567184436667,-0.954664670642,2.21300746442
1589273891284888349,7796,1589273891284807020,,-0.0567617148183,-0.976377125278,2.21816931083
1589273891287936080,7797,1589273891287822239,,-0.0569772896539,-0.976165480294,2.21801773509
1589273891291002417,7798,1589273891290915239,,-0.0570862178781,-0.975817287152,2.21785029251
1589273891296896417,7799,1589273891296827719,,-0.0572818655069,-0.997852828754,2.22317456318
1589273891299661027,7800,1589273891299597516,,-0.057449052401,-1.02032431858,2.22846053796
1589273891302746357,7801,1589273891302623288,,-0.057555614811,-1.01990802557,2.22851220346
1589273891308895931,7802,1589273891308826566,,-0.0576638450069,-1.0425423836,2.23396979568
1589273891314943783,7803,1589273891314851418,,-0.0578403843426,-1.06543871348,2.23937495266
1589273891320877078,7804,1589273891320791621,,-0.0580613596682,-1.08861452159,2.24497671671
1589273891323923626,7805,1589273891323828764,,-0.0581425318946,-1.08879550577,2.24505522748
1589273891326890474,7806,1589273891326762287,,-0.0582591996973,-1.11209748656,2.25068924244
1589273891333074733,7807,1589273891332943659,,-0.0583249335121,-1.13555928926,2.256425914
1589273891336042545,7808,1589273891335924372,,-0.0584366765133,-1.13557001351,2.25612433053
1589273891342010294,7809,1589273891341939327,,-0.0584322356264,-1.15942345698,2.26206681855
1589273891344794651,7810,1589273891344697901,,-0.0585940179118,-1.15952280535,2.262058293
1589273891347869085,7811,1589273891347758149,,-0.0587158817317,-1.18343510677,2.26764633526
1589273891350935988,7812,1589273891350743123,,-0.0587809445069,-1.18355462047,2.26775664797
1589273891356881709,7813,1589273891356816453,,-0.0588320626382,-1.20755289373,2.27347625846
1589273891359982290,7814,1589273891359882351,,-0.0589414266191,-1.23180121825,2.27934616461
1589273891365674127,7815,1589273891365590239,,-0.059048192886,-1.25670292889,2.28556956065
1589273891368722846,7816,1589273891368614994,,-0.0590243904184,-1.25662240342,2.28543418103
1589273891374872805,7817,1589273891374796668,,-0.0590815380782,-1.2814121652,2.29157316435
1589273891378103536,7818,1589273891377925717,,-0.0592115357573,-1.28112690913,2.29123210229
1589273891380868869,7819,1589273891380769074,,-0.059380153697,-1.30628388222,2.29726108766
1589273891383685300,7820,1589273891383577518,,-0.0594745033538,-1.30639272144,2.29717542313
1589273891389684326,7821,1589273891389606898,,-0.0595971713161,-1.33147612131,2.30305273186
1589273891392723665,7822,1589273891392621315,,-0.0598504993859,-1.35688420482,2.30904209695
1589273891399126551,7823,1589273891399011118,,-0.0599104321013,-1.38219252368,2.31523466945
1589273891402119434,7824,1589273891402022668,,-0.0603124050637,-1.38222237726,2.31471622233
1589273891405197453,7825,1589273891405107117,,-0.0603352456978,-1.40789187902,2.32094485684
1589273891408073917,7826,1589273891407959268,,-0.0604470950004,-1.40741401406,2.32049395071
1589273891414048771,7827,1589273891413915727,,-0.0607441022433,-1.43334083941,2.32642169862
1589273891416966843,7828,1589273891416858543,,-0.060995073689,-1.43287076687,2.32581285124
1589273891422883903,7829,1589273891422807357,,-0.0610957473419,-1.45878551427,2.33195891186
1589273891426177346,7830,1589273891426090776,,-0.0613751331155,-1.48473296927,2.33792191984
1589273891429217722,7831,1589273891429081895,,-0.0616735335803,-1.48456759714,2.33729686866
1589273891431860969,7832,1589273891431787262,,-0.0618957717194,-1.51060102748,2.34320105759
1589273891438229194,7833,1589273891438108868,,-0.0621882472589,-1.510253626,2.3424148215
1589273891441158452,7834,1589273891441035188,,-0.0623921039834,-1.53631608013,2.34834996358
1589273891447199531,7835,1589273891447050151,,-0.0626098110868,-1.56259052248,2.3542206461
1589273891450147910,7836,1589273891450021358,,-0.0627847828325,-1.56200137797,2.35363834588
1589273891453116982,7837,1589273891452987307,,-0.0629430022437,-1.58795790476,2.3596374288
1589273891456109916,7838,1589273891456003498,,-0.0632593835081,-1.58719988599,2.35849824216
1589273891462045228,7839,1589273891461961129,,-0.0631982858313,-1.61333297543,2.3648560793
1589273891465066890,7840,1589273891464997949,,-0.0632353000577,-1.63932610437,2.37081394674
1589273891471084573,7841,1589273891471004541,,-0.0632860353533,-1.63802487179,2.3701405326
1589273891474259043,7842,1589273891474133869,,-0.0631783158968,-1.6638260435,2.37636309318
1589273891477362989,7843,1589273891477228430,,-0.0630984990483,-1.66188232413,2.37556886421
1589273891483330543,7844,1589273891483208572,,-0.0629887698894,-1.68762715805,2.38198611859
1589273891486229627,7845,1589273891486139707,,-0.0628154163437,-1.713247426,2.38853321902
1589273891489263881,7846,1589273891489132135,,-0.062868810204,-1.71123826978,2.38795468829
1589273891495097295,7847,1589273891494995490,,-0.0629703724902,-1.73729294099,2.39451917349
1589273891498236052,7848,1589273891498151127,,-0.0630591930047,-1.75411782105,2.39886857598
1589273891500963903,7849,1589273891500874414,,-0.063098656556,-1.76151012472,2.40077703753
1589273891507306175,7850,1589273891507133020,,-0.063185327587,-1.7881609936,2.40750842428
1589273891509985791,7851,1589273891509883818,,-0.063461604845,-1.78618181889,2.40709603526
1589273891513266902,7852,1589273891513142684,,-0.0635853109285,-1.81316557327,2.41381678153
1589273891518922163,7853,1589273891518833216,,-0.0636824814923,-1.84000825777,2.42063871792
1589273891522052707,7854,1589273891521969130,,-0.0638427389026,-1.83864029692,2.42032677361
1589273891524919985,7855,1589273891524840304,,-0.0641410279491,-1.86618876894,2.4266315023
1589273891531039805,7856,1589273891530929934,,-0.0641420222,-1.8646710207,2.4262484401
1589273891534056510,7857,1589273891533976937,,-0.0643356494001,-1.89241221015,2.43287428983
1589273891537097753,7858,1589273891537018606,,-0.064551507846,-1.89138814907,2.43219006757
1589273891543037760,7859,1589273891542961347,,-0.0647521282895,-1.91907052052,2.43882561416
1589273891546112102,7860,1589273891545972235,,-0.0647575341492,-1.94699222501,2.44564157514
1589273891548931194,7861,1589273891548857360,,-0.0649054486234,-1.94577999437,2.44496545812
1589273891555106108,7862,1589273891555019204,,-0.0650526196493,-1.97386312257,2.45179399062
1589273891557975970,7863,1589273891557892300,,-0.0651552570402,-1.97299800178,2.45142489818
1589273891561031523,7864,1589273891560957337,,-0.065270453924,-2.0013649135,2.45841848572
1589273891567057423,7865,1589273891566948300,,-0.0653420208219,-2.02986647435,2.46505293098
1589273891569985720,7866,1589273891569902912,,-0.0655163919711,-2.02888895407,2.46456418827
1589273891573036027,7867,1589273891572931700,,-0.0656384558435,-2.0573764516,2.47175226149
1589273891579322313,7868,1589273891579201806,,-0.0657879209317,-2.08642931834,2.4786243159
1589273891581942016,7869,1589273891581862845,,-0.0659064488147,-2.08554441528,2.47828880888
1589273891585236323,7870,1589273891585066186,,-0.065993414117,-2.11446399524,2.4852473388
1589273891590851817,7871,1589273891590776315,,-0.066123535151,-2.11368174867,2.48484727348
1589273891593918538,7872,1589273891593847452,,-0.0664400113747,-2.1431266578,2.49177314363
1589273891599873383,7873,1589273891599802777,,-0.0664848607055,-2.17250405077,2.49880502514
1589273891602881032,7874,1589273891602800626,,-0.0667214886284,-2.1718148944,2.49839719118
1589273891606066212,7875,1589273891605966737,,-0.0668931799729,-2.20126871655,2.5053385644
1589273891615059653,7876,1589273891614973562,,-0.0672177515332,-2.23014525145,2.51209664194
1589273891617948716,7877,1589273891617871398,,-0.0673668583526,-2.22928803597,2.5116636158
1589273891623958082,7878,1589273891623881772,,-0.0676142668101,-2.25943816541,2.5189244191
1589273891626951587,7879,1589273891626838968,,-0.0677736970953,-2.2897686968,2.52611192261
1589273891629977593,7880,1589273891629888216,,-0.0680284509411,-2.28907475396,2.52559796444
1589273891635957819,7881,1589273891635879572,,-0.0682431069335,-2.3193881623,2.53275209854
1589273891638951133,7882,1589273891638883719,,-0.0685900349917,-2.34969328389,2.5397541686
1589273891641973426,7883,1589273891641914659,,-0.0687951162262,-2.34916633606,2.53935044822
1589273891647971094,7884,1589273891647881381,,-0.0689468077785,-2.38002991273,2.54678206901
1589273891650934084,7885,1589273891650821210,,-0.0691028449901,-2.37934266704,2.54628798437
1589273891653950224,7886,1589273891653858578,,-0.069411355085,-2.41008699799,2.55371321204
1589273891660203832,7887,1589273891660112528,,-0.0696496790533,-2.44113124163,2.5609661381
1589273891665923436,7888,1589273891665838191,,-0.0698282346848,-2.47187788565,2.56841721917
1589273891668926416,7889,1589273891668859193,,-0.0700349756095,-2.4713287417,2.56780708224
1589273891672035881,7890,1589273891671962920,,-0.0700432927198,-2.50236454658,2.57545466457
1589273891675103329,7891,1589273891675031879,,-0.07031893753,-2.50185127295,2.57498359771
1589273891678094618,7892,1589273891678000735,,-0.0704421267873,-2.50124419478,2.57448556595
1589273891684042326,7893,1589273891683963578,,-0.0707263631079,-2.53225456173,2.58199268544
1589273891687009093,7894,1589273891686917417,,-0.0707572497808,-2.56305216679,2.58943651983
1589273891690020083,7895,1589273891689916393,,-0.07105902415,-2.56279432257,2.58905692301
1589273891696163158,7896,1589273891696037814,,-0.0712976889511,-2.59397847577,2.59639288338
1589273891699094668,7897,1589273891698989838,,-0.0715256685673,-2.6253981409,2.60377935594
1589273891702137670,7898,1589273891702004504,,-0.0719611982512,-2.62514324879,2.60300951598
1589273891707972741,7899,1589273891707891179,,-0.0721133321037,-2.65645998155,2.61047037172
1589273891710952855,7900,1589273891710861066,,-0.072481136382,-2.65606479421,2.60986724876
1589273891714037588,7901,1589273891713867868,,-0.0728368780843,-2.68799036891,2.61726174789
1589273891719864449,7902,1589273891719786998,,-0.0731968185382,-2.71967510287,2.62453499104
1589273891722884910,7903,1589273891722808072,,-0.0734100670984,-2.71920888884,2.62410362024
1589273891725874923,7904,1589273891725790112,,-0.073879474538,-2.75120547718,2.63145734226
1589273891731919438,7905,1589273891731826386,,-0.074184463413,-2.78321355966,2.63887953282
1589273891734857527,7906,1589273891734764413,,-0.0745508635192,-2.78274895354,2.6383569755
1589273891740824135,7907,1589273891740682664,,-0.0748975141715,-2.81500657046,2.64588954695
1589273891743837482,7908,1589273891743753658,,-0.0751834138544,-2.81446437907,2.64535731241
1589273891746842772,7909,1589273891746768035,,-0.0755306371671,-2.84634671374,2.65293157431
1589273891749773018,7910,1589273891749699596,,-0.0758557991069,-2.8459205776,2.65266021052
1589273891755861654,7911,1589273891755783345,,-0.0760450128898,-2.87784172123,2.6602247833
1589273891761884278,7912,1589273891761734664,,-0.0764644664886,-2.90995773289,2.66792584891
1589273891765112122,7913,1589273891765039711,,-0.0768550339199,-2.94212644463,2.67593188867
1589273891767871328,7914,1589273891767778131,,-0.0771098210725,-2.94087716929,2.67528938203
1589273891770832690,7915,1589273891770726307,,-0.0773542201095,-2.94005864797,2.67530136234
1589273891777182576,7916,1589273891777016188,,-0.0776609321015,-2.9721205249,2.68309930341
1589273891780221239,7917,1589273891780126026,,-0.0779650042324,-3.00397412659,2.69084578143
1589273891785847578,7918,1589273891785757517,,-0.0783161749746,-3.03600714465,2.69868112343
1589273891788971431,7919,1589273891788894771,,-0.0785867732606,-3.03471420645,2.69816749346
1589273891794801837,7920,1589273891794741367,,-0.0790498391858,-3.06504850215,2.70523818935
1589273891800874003,7921,1589273891800789330,,-0.0793369653047,-3.09667272482,2.7128869371
1589273891803852613,7922,1589273891803782273,,-0.0795033351593,-3.0949249722,2.71174669637
1589273891809952689,7923,1589273891809877994,,-0.0798196044891,-3.12649819515,2.71928133973
1589273891813037495,7924,1589273891812960773,,-0.0799052485099,-3.15797690772,2.72713712964
1589273891815872451,7925,1589273891815804601,,-0.0800949301645,-3.15598259249,2.72635189066
1589273891818871783,7926,1589273891818798093,,-0.0803543215351,-3.18738704811,2.73382370011
1589273891824956376,7927,1589273891824801493,,-0.0803399670911,-3.18506362025,2.73309449682
1589273891827843843,7928,1589273891827715898,,-0.0805149658865,-3.2167402713,2.74079961324
1589273891833825349,7929,1589273891833745591,,-0.0805737566805,-3.247967716,2.74844624096
1589273891836818533,7930,1589273891836737632,,-0.0807397922591,-3.2456426172,2.74797483199
1589273891839796708,7931,1589273891839716797,,-0.0808099823078,-3.27723325289,2.75559375013
1589273891842839807,7932,1589273891842778319,,-0.0808377868866,-3.27457201366,2.75494585752
1589273891848859542,7933,1589273891848763933,,-0.0809204801019,-3.30594605729,2.76298020387
1589273891851909077,7934,1589273891851847986,,-0.0810925106341,-3.33778799213,2.77053151433
1589273891858028139,7935,1589273891857960590,,-0.0811519195245,-3.33577538004,2.7699184996
1589273891860761690,7936,1589273891860699062,,-0.0811754342201,-3.36725163706,2.77737738525
1589273891863882960,7937,1589273891863778940,,-0.0812981471989,-3.36554657649,2.77683550788
1589273891866945342,7938,1589273891866837138,,-0.0811887740241,-3.39673915525,2.78394438882
1589273891872884794,7939,1589273891872805851,,-0.081087321348,-3.42747340958,2.7905967398
1589273891876168645,7940,1589273891876091703,,-0.0809577687785,-3.42375251093,2.78896535843
1589273891881903212,7941,1589273891881828128,,-0.0814365254875,-3.45463933247,2.79606037998
1589273891885052429,7942,1589273891884985727,,-0.0819938552941,-3.48590601119,2.802555289
1589273891887809558,7943,1589273891887746120,,-0.0821992123104,-3.48376761884,2.80109505914
1589273891893799030,7944,1589273891893728031,,-0.082524742816,-3.51490461156,2.80873150266
1589273891896895832,7945,1589273891896801419,,-0.0828304660466,-3.51244383891,2.80759620095
1589273891899981536,7946,1589273891899907358,,-0.0829597240184,-3.5435655001,2.81548291426
1589273891905844576,7947,1589273891905763078,,-0.0832899759635,-3.57548695772,2.82423544939
1589273891908848804,7948,1589273891908783949,,-0.0835452617776,-3.57299767094,2.8238580384
1589273891917920166,7949,1589273891917796005,,-0.0833697404731,-3.60200502184,2.83231985828
1589273891920865312,7950,1589273891920789618,,-0.0835234952235,-3.63313994511,2.84039266349
1589273891923831430,7951,1589273891923716543,,-0.0837864627615,-3.62996858219,2.83959424894
1589273891930052086,7952,1589273891929945187,,-0.0837689146253,-3.66026027464,2.84799937098
1589273891932951764,7953,1589273891932856264,,-0.0839106800563,-3.6900803123,2.85549357666
1589273891935935804,7954,1589273891935880721,,-0.0840474369504,-3.68569028483,2.85377853332
1589273891941809020,7955,1589273891941752099,,-0.0841134428708,-3.7160826322,2.8613569996
1589273891944915558,7956,1589273891944723489,,-0.0841071713813,-3.71253019259,2.85964691763
1589273891947804602,7957,1589273891947739850,,-0.0840213691978,-3.74218490035,2.86659625874
1589273891953931281,7958,1589273891953774789,,-0.0842564823958,-3.77214536614,2.87319757486
1589273891956732401,7959,1589273891956669482,,-0.0843107202043,-3.76726801218,2.8715416897
1589273891959784417,7960,1589273891959725190,,-0.0843318626627,-3.7958234639,2.87853017253
1589273891965893899,7961,1589273891965829619,,-0.0843634550003,-3.82341830344,2.88481613965
1589273891968854185,7962,1589273891968766356,,-0.0842641358379,-3.81642799575,2.88273449484
1589273891971752029,7963,1589273891971701969,,-0.0840564580377,-3.84475338496,2.88942805532
1589273891977979524,7964,1589273891977923283,,-0.0840241489043,-3.83902715662,2.88752623546
1589273891980737444,7965,1589273891980675523,,-0.0837815423254,-3.86800269165,2.89418980586
1589273891986723066,7966,1589273891986645165,,-0.0840357102928,-3.89733519206,2.90054736418
1589273891989849439,7967,1589273891989768105,,-0.0838857709283,-3.89166590585,2.89869187843
1589273891992908145,7968,1589273891992769662,,-0.0840452028402,-3.92113431399,2.90559216093
1589273891995967382,7969,1589273891995844987,,-0.0841626844641,-3.91629953937,2.90383713385
1589273892001800771,7970,1589273892001723652,,-0.0844130128382,-3.9469346919,2.91090222378
1589273892005022671,7971,1589273892004825527,,-0.0845153127535,-3.94331407906,2.90975722853
1589273892010858549,7972,1589273892010804657,,-0.0846356505997,-3.97433729875,2.91734344421
1589273892013981016,7973,1589273892013872666,,-0.0850885639126,-4.00564999421,2.92475613034
1589273892016943019,7974,1589273892016833560,,-0.0852950888081,-4.00188706571,2.92377608475
1589273892020229174,7975,1589273892020152578,,-0.0853761384781,-4.03215864064,2.93191885219
1589273892025840933,7976,1589273892025769057,,-0.0856132049076,-4.06222971418,2.9390862667
1589273892029261187,7977,1589273892029159639,,-0.0856801305019,-4.05727072997,2.93726230079
1589273892034971620,7978,1589273892034871675,,-0.0857113013668,-4.08724890902,2.94401904919
1589273892037964979,7979,1589273892037909757,,-0.0852537443574,-4.08200351719,2.94183506919
1589273892041012838,7980,1589273892040952243,,-0.0850218711347,-4.11102770181,2.94800625392
1589273892046908617,7981,1589273892046807486,,-0.0849879448572,-4.1403143586,2.95400184691
1589273892049869243,7982,1589273892049799086,,-0.0847998156038,-4.13481678211,2.95177461887
1589273892053155914,7983,1589273892053073590,,-0.0848066020268,-4.16329848877,2.95757879578
1589273892059127672,7984,1589273892059023299,,-0.0846966152832,-4.19097549704,2.96350022619
1589273892062147126,7985,1589273892062067909,,-0.0844882093175,-4.18389492918,2.96041991015
1589273892065553903,7986,1589273892065457297,,-0.0841882047908,-4.21176576262,2.96632024753
1589273892071252514,7987,1589273892071183056,,-0.0838736854976,-4.21997619801,2.96708200091
1589273892074199625,7988,1589273892074103440,,-0.0836676700199,-4.23182445314,2.9686464648
1589273892077478372,7989,1589273892077341905,,-0.0832994969961,-4.22415395184,2.96566242322
1589273892083215836,7990,1589273892083120141,,-0.0828865070267,-4.25095831068,2.97144584493
1589273892086177417,7991,1589273892086102912,,-0.0822064545268,-4.27714564736,2.97759599257
1589273892089260043,7992,1589273892089106456,,-0.0820333793346,-4.2697680384,2.97435184701
1589273892095274290,7993,1589273892095193009,,-0.0817062667195,-4.29732301041,2.98041189336
1589273892098494991,7994,1589273892098405242,,-0.0815328156945,-4.29066663119,2.97777588965
1589273892101108564,7995,1589273892100971826,,-0.0813441300451,-4.3181284047,2.98335456798
1589273892107067051,7996,1589273892106967211,,-0.0812353511019,-4.34588284401,2.98944859138
1589273892110227982,7997,1589273892110130318,,-0.081439845938,-4.3407761487,2.9870284085
1589273892113066504,7998,1589273892112951693,,-0.0815513590932,-4.36989119528,2.99331148677
1589273892118809558,7999,1589273892118732821,,-0.0816611561514,-4.39895924549,2.99947901611
1589273892121984140,8000,1589273892121915637,,-0.0817053193815,-4.39381529706,2.9969831131
1589273892125032118,8001,1589273892124794787,,-0.0816831931883,-4.38871893163,2.9945668439
1589273892131038822,8002,1589273892130914457,,-0.0816793864267,-4.41756173024,3.0006400978
1589273892134273991,8003,1589273892134192425,,-0.0817532941893,-4.44656409935,3.00661873258
1589273892140285620,8004,1589273892140158616,,-0.0819163122079,-4.47508953855,3.01237796772
1589273892143314067,8005,1589273892143138431,,-0.0815231305739,-4.46859721713,3.00977549438
1589273892149294983,8006,1589273892149180270,,-0.0815783485041,-4.49691599167,3.01520250761
1589273892155013431,8007,1589273892154904132,,-0.081145232916,-4.51672575807,3.01815064679
1589273892158221640,8008,1589273892157918528,,-0.0814319258939,-4.50908051754,3.01466169031
1589273892164083033,8009,1589273892163993455,,-0.0812006054985,-4.53593332279,3.02041911543
1589273892167106224,8010,1589273892167027799,,-0.0807715408538,-4.56100029012,3.02558178925
1589273892173248559,8011,1589273892173126087,,-0.0805517040972,-4.58564846577,3.03028767089
1589273892176382158,8012,1589273892176308376,,-0.0804082345576,-4.57732524075,3.02662926963
1589273892179300858,8013,1589273892179228866,,-0.0798506318863,-4.60164678303,3.03131049554
1589273892181902281,8014,1589273892181818770,,-0.0792372940383,-4.59293134535,3.02797167799
1589273892188279802,8015,1589273892188147637,,-0.0790834773072,-4.61812464513,3.0325478529
1589273892191234907,8016,1589273892191119783,,-0.0786814513215,-4.60812221066,3.02868542233
1589273892197068611,8017,1589273892196972555,,-0.078168936937,-4.6338321044,3.03436825457
1589273892200118738,8018,1589273892199978608,,-0.0779939112866,-4.65943650494,3.04015485203
1589273892203154151,8019,1589273892203066584,,-0.0779951674077,-4.64985984523,3.03616322682
1589273892206073751,8020,1589273892205955428,,-0.0777192587357,-4.67666738693,3.04165742172
1589273892212074672,8021,1589273892211947147,,-0.0776612356563,-4.70403434821,3.04762157385
1589273892215107595,8022,1589273892215003338,,-0.0775840104572,-4.69746933271,3.04506030484
1589273892221014906,8023,1589273892220960288,,-0.0775307346173,-4.72503994564,3.05054812835
1589273892224043035,8024,1589273892223959104,,-0.0775049738708,-4.71945681365,3.04790632896
1589273892227182842,8025,1589273892227057987,,-0.0774604571523,-4.74780174744,3.05394580907
1589273892230122487,8026,1589273892230022822,,-0.0774699555607,-4.74197435619,3.05145320887
1589273892236116848,8027,1589273892236000177,,-0.0775484631497,-4.76907358571,3.05676525654
1589273892239046376,8028,1589273892238964271,,-0.0775316463302,-4.79644625503,3.06228382075
1589273892248087321,8029,1589273892248011557,,-0.0773786822781,-4.81538660295,3.0637940776
1589273892251016764,8030,1589273892250928891,,-0.0768465894081,-4.80806773281,3.06099050261
1589273892254047223,8031,1589273892253946216,,-0.0766273965784,-4.83364523609,3.06582110037
1589273892259981012,8032,1589273892259902841,,-0.0762264113641,-4.85879546372,3.07115756005
1589273892263314519,8033,1589273892263117844,,-0.0759205661634,-4.84922951148,3.06702619356
1589273892268864956,8034,1589273892268763276,,-0.075515368916,-4.87282848243,3.07153795389
1589273892271986974,8035,1589273892271846599,,-0.0751430481708,-4.89639583781,3.07600554349
1589273892275730643,8036,1589273892275634196,,-0.0747318786638,-4.88778783321,3.07263400434
1589273892281305881,8037,1589273892281208290,,-0.0743123815814,-4.91025061076,3.07643618972
1589273892283936946,8038,1589273892283863908,,-0.073824291508,-4.89886896433,3.07186831277
1589273892286986884,8039,1589273892286909495,,-0.0732339835829,-4.92314987551,3.07687391032
1589273892293104184,8040,1589273892293018263,,-0.0731650845964,-4.94577809918,3.08075036588
1589273892296017369,8041,1589273892295938951,,-0.072681556244,-4.93501504725,3.07677540353
1589273892299003251,8042,1589273892298871586,,-0.0726691075143,-4.95916057248,3.08120766368
1589273892305217393,8043,1589273892305137043,,-0.0726952005827,-4.98338514377,3.08579029986
1589273892308186261,8044,1589273892308104849,,-0.0725542824433,-4.97532407477,3.0827767244
1589273892310971811,8045,1589273892310867774,,-0.0725029518994,-4.96839118572,3.08015214228
1589273892317023768,8046,1589273892316926279,,-0.0727273840513,-4.99481789101,3.0853133527
1589273892320004529,8047,1589273892319913800,,-0.0729722314364,-5.02103743248,3.09023086701
1589273892323244560,8048,1589273892323106923,,-0.0728582071225,-5.01479604102,3.08773786508
1589273892329067792,8049,1589273892328965699,,-0.0731809017344,-5.04111010573,3.09256422196
1589273892332346915,8050,1589273892332272557,,-0.0728873627164,-5.06615319645,3.09795878144
1589273892335152317,8051,1589273892335053883,,-0.0729128183479,-5.0589250141,3.09482008289
1589273892341144606,8052,1589273892341037068,,-0.0730393660373,-5.0842854344,3.09966680429
1589273892344143597,8053,1589273892344044800,,-0.0727856812169,-5.07601679378,3.09625184965
1589273892347382685,8054,1589273892347273768,,-0.0729710167608,-5.10094944339,3.10091067731
1589273892353213119,8055,1589273892353111569,,-0.0728715332841,-5.12451233246,3.10492132842
1589273892356308569,8056,1589273892356175429,,-0.0726065951285,-5.11500519355,3.10062317395
1589273892359235927,8057,1589273892359147872,,-0.0721863794037,-5.1371110871,3.10429764499
1589273892367828425,8058,1589273892367741450,,-0.071249038686,-5.14759456061,3.10296457379
1589273892371136912,8059,1589273892371037827,,-0.0706775294704,-5.13538603287,3.09847554049
1589273892377497273,8060,1589273892377409852,,-0.0699933949828,-5.1561820507,3.10229863869
1589273892380507196,8061,1589273892380369197,,-0.0695681649138,-5.17687922319,3.10588744143
1589273892383214518,8062,1589273892383052106,,-0.0688558874889,-5.16538519302,3.10137582029
1589273892388840308,8063,1589273892388756684,,-0.0682505981154,-5.18601924927,3.10521463102
1589273892391865921,8064,1589273892391769862,,-0.0675241237357,-5.20717022835,3.10927667094
1589273892394957918,8065,1589273892394891546,,-0.0670574741235,-5.19890639483,3.10639364305
1589273892400897136,8066,1589273892400830762,,-0.0669639416789,-5.22080419845,3.11003260355
1589273892403960135,8067,1589273892403900976,,-0.0666211557874,-5.21049256538,3.10622682418
1589273892407039941,8068,1589273892406932406,,-0.0666137130939,-5.23664875576,3.11166279397
1589273892413017936,8069,1589273892412920405,,-0.0668646287409,-5.26203126115,3.11632997193
1589273892415990641,8070,1589273892415936797,,-0.066485632296,-5.25462541506,3.11363933212
1589273892422236529,8071,1589273892422173337,,-0.0666975834516,-5.28044685767,3.11888806856
1589273892425812060,8072,1589273892425728674,,-0.0670679061983,-5.30678935232,3.12370150485
1589273892428383571,8073,1589273892428295199,,-0.0674049236224,-5.30122378108,3.12088094253
1589273892434404192,8074,1589273892434306238,,-0.0674533414874,-5.32680540632,3.12636204527
1589273892437402501,8075,1589273892437284997,,-0.0676431642047,-5.32026160682,3.12329078169
1589273892440240203,8076,1589273892440163512,,-0.067318298004,-5.34461420647,3.12830781105
1589273892446388972,8077,1589273892446274251,,-0.0675130666908,-5.36895643112,3.13267742835
1589273892448985985,8078,1589273892448863319,,-0.0675280903721,-5.3613298178,3.12919078913
1589273892451987564,8079,1589273892451928234,,-0.0674116080805,-5.38444974904,3.13350186701
1589273892458416844,8080,1589273892458262815,,-0.0670691829046,-5.40634473033,3.13815274184
1589273892461155853,8081,1589273892461045386,,-0.0671266981264,-5.39679316879,3.13409038695
1589273892464050172,8082,1589273892463967256,,-0.0668029128516,-5.38660008687,3.13054165702
1589273892470098459,8083,1589273892470012325,,-0.0666416099945,-5.40646850696,3.13400188027
1589273892473202105,8084,1589273892473059336,,-0.0662067177832,-5.42580322457,3.13734896334
1589273892476176520,8085,1589273892476011049,,-0.065900003648,-5.41454624373,3.13308349823
1589273892481922436,8086,1589273892481844422,,-0.0653274230487,-5.43401394815,3.13669179387
1589273892488273717,8087,1589273892488161940,,-0.0646634905794,-5.44041937215,3.1356938699
1589273892494155831,8088,1589273892494074818,,-0.0644803543902,-5.45934453417,3.13922534153
1589273892497286376,8089,1589273892497206140,,-0.0642401306019,-5.44781777966,3.13469140955
1589273892500150557,8090,1589273892500057016,,-0.0642242725779,-5.46793210163,3.13862084237
1589273892506390775,8091,1589273892506284655,,-0.064096360983,-5.48814552171,3.14272606475
1589273892509660837,8092,1589273892509560886,,-0.064062197567,-5.47885467336,3.13891326967
1589273892512107775,8093,1589273892512044392,,-0.063931220437,-5.50152415955,3.14366312702
1589273892518478577,8094,1589273892518286074,,-0.0639104181762,-5.49538635926,3.14137720369
1589273892521122385,8095,1589273892521040481,,-0.0642787693454,-5.51878881708,3.14580963144
1589273892524115339,8096,1589273892524033684,,-0.064379212577,-5.5117405244,3.14298794887
1589273892530221322,8097,1589273892530062364,,-0.0647995362953,-5.53765538881,3.1483376126
1589273892533175069,8098,1589273892533089063,,-0.0652760802338,-5.56185889532,3.1533985006
1589273892539255474,8099,1589273892539088818,,-0.0654027437505,-5.58487938312,3.15851785524
1589273892542052629,8100,1589273892541966142,,-0.0653350726645,-5.57792182912,3.1562892661
1589273892548033156,8101,1589273892547973967,,-0.0652086333941,-5.59535911827,3.15863270728
1589273892554207879,8102,1589273892554148568,,-0.0653634865533,-5.61848720542,3.16261934142
1589273892560092030,8103,1589273892560005342,,-0.0653731944138,-5.64081253668,3.16669587604
1589273892563106065,8104,1589273892563047736,,-0.0653332630678,-5.63233651335,3.16303898267
1589273892565989802,8105,1589273892565926235,,-0.0651556577286,-5.65316247898,3.16686158307
1589273892569281570,8106,1589273892569125319,,-0.0650832574002,-5.64389683166,3.16320923417
1589273892575022861,8107,1589273892574929511,,-0.0649037194142,-5.6642515248,3.16710413591
1589273892584006534,8108,1589273892583947825,,-0.0645051391938,-5.67459926779,3.1669893132
1589273892587072082,8109,1589273892586984827,,-0.0640705424764,-5.69247944408,3.17057934253
1589273892590010029,8110,1589273892589911678,,-0.0637666798282,-5.68257973912,3.16709478069
1589273892593006278,8111,1589273892592921514,,-0.0636665492247,-5.70132287944,3.17082029242
1589273892599120910,8112,1589273892599042003,,-0.0631640043922,-5.71823152176,3.17436646708
1589273892601997546,8113,1589273892601941340,,-0.0632087620507,-5.7091887851,3.17089564035
1589273892608270195,8114,1589273892608173381,,-0.0632566889806,-5.72816034941,3.17464323199
1589273892611016410,8115,1589273892610956120,,-0.0628004921685,-5.72041677748,3.17268288185
1589273892614290314,8116,1589273892614213850,,-0.0629623806256,-5.74069727416,3.17653205456
1589273892617324325,8117,1589273892617227794,,-0.0631098528408,-5.73304996707,3.1734778665
1589273892623411952,8118,1589273892623289199,,-0.0634529830936,-5.75602482224,3.1784776039
1589273892626219582,8119,1589273892626137107,,-0.0637638182818,-5.77848542936,3.18305909283
1589273892635191397,8120,1589273892635112731,,-0.0644996303277,-5.79382862163,3.18556916606
1589273892638228152,8121,1589273892637930903,,-0.0651493200674,-5.78887267912,3.18288882396
1589273892641256742,8122,1589273892641146930,,-0.0655089160492,-5.81141635067,3.18783546024
1589273892647369197,8123,1589273892647276551,,-0.0659235560588,-5.83361306144,3.19239634269
1589273892650286424,8124,1589273892650183416,,-0.066403886157,-5.82761173452,3.18986375177
1589273892656243670,8125,1589273892656139084,,-0.0664864445751,-5.84898930199,3.19438478675
1589273892659406016,8126,1589273892659240954,,-0.066448423174,-5.86986085532,3.19900906194
1589273892662225902,8127,1589273892662134658,,-0.0666219716551,-5.86460044346,3.19679343838
1589273892671117842,8128,1589273892671057212,,-0.0671134461349,-5.87668566543,3.19714586247
1589273892673963072,8129,1589273892673895412,,-0.0674015143379,-5.89736942048,3.20156364583
1589273892680239851,8130,1589273892680179880,,-0.0676194116732,-5.91564028619,3.20520026863
1589273892682950287,8131,1589273892682850431,,-0.0674793848547,-5.90620287708,3.20214432414
1589273892686145396,8132,1589273892686063564,,-0.0673745397116,-5.92406738604,3.20581787267
1589273892695467217,8133,1589273892695300168,,-0.0671131257634,-5.93266180344,3.20622292273
1589273892698413735,8134,1589273892698345530,,-0.0670177198064,-5.95184428912,3.20987222708
1589273892704230988,8135,1589273892704108356,,-0.067016961252,-5.94250726603,3.20633702376
1589273892707286839,8136,1589273892707189302,,-0.0668549284608,-5.95807134547,3.2089483386
1589273892710325125,8137,1589273892710227712,,-0.0665476061855,-5.95013424967,3.20630866916
1589273892716330248,8138,1589273892716234134,,-0.0665869144225,-5.96637519779,3.20997217242
1589273892719188508,8139,1589273892719103613,,-0.066685135721,-5.98400447849,3.21378286078
1589273892722260789,8140,1589273892722146210,,-0.0669931392498,-5.97739732238,3.21120674792
1589273892728350828,8141,1589273892728238758,,-0.0673554612771,-5.99580803185,3.21488665124
1589273892731193495,8142,1589273892731094660,,-0.0676865595148,-5.98950692005,3.21241531856
1589273892734253117,8143,1589273892734158419,,-0.0676869034444,-6.01014635649,3.21718631718
1589273892740083236,8144,1589273892739948901,,-0.0683401605843,-6.03051242609,3.22110005878
1589273892743023195,8145,1589273892742907361,,-0.0686207996346,-6.02484522627,3.21883815604
1589273892746296639,8146,1589273892746217548,,-0.0690671713169,-6.04510068555,3.22318438723
1589273892755261731,8147,1589273892755174407,,-0.0697342782236,-6.06014827866,3.22571077331
1589273892758029792,8148,1589273892757919337,,-0.0699112586495,-6.05457675032,3.22384105348
1589273892763984026,8149,1589273892763865465,,-0.0700347100537,-6.0734303748,3.22762543861
1589273892767383540,8150,1589273892767281104,,-0.070121853402,-6.09201000863,3.23140760691
1589273892770259686,8151,1589273892770163130,,-0.070200735321,-6.08555435867,3.22882521401
1589273892776341726,8152,1589273892776201296,,-0.0703388773671,-6.10294342877,3.23231716068
1589273892779128358,8153,1589273892779052994,,-0.0703764728079,-6.11991043317,3.23590808186
1589273892782281961,8154,1589273892782191837,,-0.0704434977661,-6.11403716785,3.23357779815
1589273892788319258,8155,1589273892788195161,,-0.0702930597072,-6.13052001072,3.23687495803
1589273892791391541,8156,1589273892791200184,,-0.0702971347988,-6.12083251014,3.23324056494
1589273892794169029,8157,1589273892794080053,,-0.0701066216555,-6.13790590985,3.23649813198
1589273892800368767,8158,1589273892800260303,,-0.070151277192,-6.15348703914,3.23952638164
1589273892803278491,8159,1589273892803219009,,-0.0698640968548,-6.14351028627,3.23668652928
1589273892806151546,8160,1589273892806073156,,-0.0695530567058,-6.15762758949,3.23962037428
1589273892812195081,8161,1589273892812123540,,-0.069459748982,-6.1728751463,3.24269432302
1589273892815170848,8162,1589273892815106334,,-0.0692501861275,-6.16427488679,3.24000846777
1589273892821194162,8163,1589273892821073560,,-0.069158776295,-6.17987011599,3.24295476875
1589273892824271962,8164,1589273892824178771,,-0.0693046804585,-6.17206810181,3.24004140275
1589273892827185062,8165,1589273892827089011,,-0.0690994478347,-6.18801587993,3.24372031398
1589273892833466074,8166,1589273892833374015,,-0.0691963443211,-6.20365184158,3.2469838656
1589273892836223657,8167,1589273892836157019,,-0.0695742230307,-6.19771262328,3.24457736234
1589273892839154613,8168,1589273892839083691,,-0.0696928197208,-6.2148504907,3.24832136209
1589273892845414460,8169,1589273892845304291,,-0.0697339251392,-6.23196565541,3.25202111012
1589273892848279730,8170,1589273892848186921,,-0.0701077981887,-6.22612606503,3.24984212761
1589273892851292938,8171,1589273892851207136,,-0.0704648055935,-6.22109967328,3.24767782109
1589273892857365522,8172,1589273892857239179,,-0.0708495731319,-6.23877086002,3.25144395649
1589273892860268269,8173,1589273892860178033,,-0.0709973189455,-6.25557724881,3.25466115937
1589273892863444991,8174,1589273892863322003,,-0.0713191990869,-6.2497985846,3.2524157092
1589273892869282594,8175,1589273892869168818,,-0.0716502912762,-6.26679554603,3.25544699025
1589273892872208014,8176,1589273892872079946,,-0.0715035411182,-6.28233261292,3.25869075688
1589273892875184977,8177,1589273892875099869,,-0.071594823166,-6.27591925964,3.25625083704
1589273892881435784,8178,1589273892881348340,,-0.0719509287731,-6.29184236857,3.2589891891
1589273892884028626,8179,1589273892883961209,,-0.0719788519329,-6.28571924877,3.25652279141
1589273892887104777,8180,1589273892887034161,,-0.0719437754497,-6.30015917607,3.25930182686
1589273892893169173,8181,1589273892893096864,,-0.0716893894829,-6.31294681165,3.26194076517
1589273892896258002,8182,1589273892896105434,,-0.0719970738606,-6.30602741451,3.25842708804
1589273892899186973,8183,1589273892899091035,,-0.0717394761335,-6.31990493088,3.26120869508
1589273892905590627,8184,1589273892905457744,,-0.0713361520271,-6.30846431068,3.25736768072
1589273892908132406,8185,1589273892908059588,,-0.0712017260159,-6.32554766512,3.26029481179
1589273892911121416,8186,1589273892911029539,,-0.0710447165348,-6.31742167495,3.25732729981
1589273892917171932,8187,1589273892917074404,,-0.0707766160982,-6.33006016345,3.25984890519
1589273892920104544,8188,1589273892920041177,,-0.070369470214,-6.34267532951,3.26241840382
1589273892923087104,8189,1589273892922968009,,-0.0703220308405,-6.33457233838,3.25940174219
1589273892929279601,8190,1589273892929134997,,-0.0701724041355,-6.34800405417,3.26196624652
1589273892933124824,8191,1589273892933062024,,-0.0701017374963,-6.361741601,3.26470946927
1589273892938341644,8192,1589273892938274436,,-0.0700369001514,-6.35542761479,3.26243982146
1589273892941182194,8193,1589273892941035190,,-0.070055334808,-6.36958572455,3.26520546659
1589273892944123047,8194,1589273892943983994,,-0.069945121058,-6.36377992538,3.26335432424
1589273892950048819,8195,1589273892949988440,,-0.0701651209584,-6.37872187129,3.2662254969
1589273892953110075,8196,1589273892953040041,,-0.0703947339502,-6.39355123628,3.26889513253
1589273892956060715,8197,1589273892955997232,,-0.070494862184,-6.38817410634,3.26689333343
1589273892962050692,8198,1589273892961980875,,-0.0705439787161,-6.40313842866,3.27000583695
1589273892968203267,8199,1589273892968076506,,-0.0707313192817,-6.41319227,3.27129537178
1589273892974058235,8200,1589273892973990140,,-0.0707944293159,-6.42703783057,3.2739553229
1589273892977694676,8201,1589273892977492873,,-0.0709246994656,-6.42204694176,3.27200054575
1589273892980461213,8202,1589273892980380890,,-0.0710670669299,-6.43574697287,3.27498804134
1589273892986168449,8203,1589273892986072091,,-0.0711528311434,-6.44900726518,3.27746701729
1589273892989159346,8204,1589273892989076674,,-0.0708706636295,-6.4429851818,3.27578597411
1589273892995216581,8205,1589273892995145249,,-0.0709062694298,-6.45624396082,3.27847411196
1589273892998694879,8206,1589273892998584868,,-0.0708335433527,-6.44561255808,3.2752650068
1589273893001421382,8207,1589273893001332190,,-0.0706615908565,-6.46359266357,3.27976919822
1589273893004456598,8208,1589273893004374757,,-0.070661378713,-6.45707414884,3.2777663195
1589273893010391532,8209,1589273893010299933,,-0.0704202034945,-6.46967135181,3.28101137296
1589273893013366703,8210,1589273893013285451,,-0.070458555241,-6.481247661,3.28339914098
1589273893019392842,8211,1589273893019284547,,-0.0704626472095,-6.49187395822,3.28561486668
1589273893022255415,8212,1589273893022167097,,-0.0701933290645,-6.48526247515,3.28370429348
1589273893028419215,8213,1589273893028254951,,-0.0698616468328,-6.49074511997,3.28463859876
1589273893034338324,8214,1589273893034266846,,-0.0697957220204,-6.50213874127,3.28717452257
1589273893037366480,8215,1589273893037267354,,-0.0697093497696,-6.49652098776,3.2853241097
1589273893043385534,8216,1589273893043285900,,-0.0695443382947,-6.50771007888,3.28773013468
1589273893046405161,8217,1589273893046299365,,-0.0693538958847,-6.51878516705,3.29043423281
1589273893049326078,8218,1589273893049247248,,-0.0695070942599,-6.5136662938,3.28856728378
1589273893058884302,8219,1589273893058735969,,-0.0695596669448,-6.52152507572,3.29041032603
1589273893061337208,8220,1589273893061230268,,-0.0695433024958,-6.53373624622,3.29348952757
1589273893067448179,8221,1589273893067349938,,-0.0696434534621,-6.54545536847,3.29639994012
1589273893070440536,8222,1589273893070330392,,-0.0696587157528,-6.54186583273,3.29554948652
1589273893073468924,8223,1589273893073368817,,-0.0697244559435,-6.55390080877,3.29873860893
1589273893079643515,8224,1589273893079498087,,-0.069761777568,-6.56513043391,3.30160551946
1589273893082395935,8225,1589273893082300456,,-0.0698308733363,-6.56108577545,3.30065187254
1589273893085620473,8226,1589273893085544053,,-0.069864916285,-6.55018801007,3.29757014304
1589273893091447787,8227,1589273893091246211,,-0.0699786854012,-6.57055105228,3.30209945233
1589273893094255051,8228,1589273893094179119,,-0.0697867541597,-6.58160957823,3.30439856166
1589273893097267541,8229,1589273893097178148,,-0.0698006534838,-6.57820769823,3.30294722045
1589273893103376958,8230,1589273893103248210,,-0.0698659343975,-6.58922600368,3.30481361718
1589273893106325011,8231,1589273893106210074,,-0.0699696103353,-6.59963127562,3.30690176306
1589273893109375168,8232,1589273893109238289,,-0.0698522974445,-6.59532922951,3.30550912492
1589273893115279663,8233,1589273893115159483,,-0.0698954267915,-6.60574598947,3.30777434338
1589273893118704553,8234,1589273893118477407,,-0.069791568871,-6.60116497351,3.30670036353
1589273893121302880,8235,1589273893121181142,,-0.0696447011699,-6.61062261608,3.30924654822
1589273893127281348,8236,1589273893127188342,,-0.0695252943056,-6.62027777409,3.31153781124
1589273893130296820,8237,1589273893130186427,,-0.0693319328569,-6.61528523705,3.31053331774
1589273893133315876,8238,1589273893133201420,,-0.0692865151529,-6.62395215745,3.31280021656
1589273893139428554,8239,1589273893139326509,,-0.0690952165048,-6.6329468181,3.31557622628
1589273893142361089,8240,1589273893142264747,,-0.0689248995021,-6.62730284298,3.31438067118
1589273893151386309,8241,1589273893151267386,,-0.0686664562338,-6.62976328092,3.31523132017
1589273893154407456,8242,1589273893154304950,,-0.0687119123107,-6.63785501237,3.31718110945
1589273893157247026,8243,1589273893157132399,,-0.0686465331792,-6.63250394031,3.31546279261
1589273893163226370,8244,1589273893163146172,,-0.06857355395,-6.63972516779,3.31751947576
1589273893166263077,8245,1589273893166168208,,-0.0685777935777,-6.64730705635,3.31924506309
1589273893169278615,8246,1589273893169169241,,-0.0687733564871,-6.64211887333,3.31749613355
1589273893175322893,8247,1589273893175218688,,-0.0691115954972,-6.64986713138,3.31918841032
1589273893178533720,8248,1589273893178296227,,-0.0689947230362,-6.64585946724,3.31787917676
1589273893181631966,8249,1589273893181508082,,-0.0691073233121,-6.654182938,3.31970873357
1589273893187245182,8250,1589273893187148216,,-0.0692756298856,-6.66213196476,3.32143148311
1589273893190378027,8251,1589273893190274893,,-0.0693679770623,-6.65827919184,3.32036746682
1589273893193390917,8252,1589273893193297662,,-0.0695280704771,-6.667234166,3.32236863473
1589273893199478967,8253,1589273893199394107,,-0.0697056992116,-6.67518903797,3.32461507111
1589273893202198360,8254,1589273893202119745,,-0.0698427888058,-6.67163003939,3.32374063816
1589273893211242981,8255,1589273893211155831,,-0.0699890540903,-6.67625457959,3.32548564856
1589273893214193718,8256,1589273893214091943,,-0.070097417974,-6.68451682514,3.32750908703
1589273893220205623,8257,1589273893220128697,,-0.0702143864007,-6.6925459213,3.329456622
1589273893223240077,8258,1589273893223137219,,-0.0701619819451,-6.68908603052,3.32854151604
1589273893226208620,8259,1589273893226110465,,-0.0702461941893,-6.69671920323,3.33016747654
1589273893235323794,8260,1589273893235185014,,-0.0702894876427,-6.70005378312,3.330344899
1589273893238321848,8261,1589273893238097146,,-0.0703865742275,-6.69600890259,3.32884141818
1589273893244280132,8262,1589273893244148746,,-0.0703178191127,-6.70231530581,3.33061259216
1589273893250437238,8263,1589273893250333095,,-0.0701528053352,-6.70776390866,3.33211043448
1589273893253114804,8264,1589273893253024502,,-0.0699376952561,-6.7139215865,3.33352951779
1589273893256279070,8265,1589273893256209779,,-0.0696654958587,-6.70926582668,3.33237797524
1589273893259232928,8266,1589273893259154867,,-0.0694225141838,-6.71432659326,3.33392860995
1589273893262347458,8267,1589273893262269710,,-0.0692887602794,-6.7093557096,3.33258674223
1589273893268285448,8268,1589273893268191492,,-0.0690135072159,-6.71460147695,3.33392128092
1589273893271195135,8269,1589273893271018615,,-0.0687810531832,-6.70909107537,3.33265377482
1589273893274242904,8270,1589273893274140032,,-0.0685773866545,-6.71441639282,3.33410238714
1589273893280318006,8271,1589273893280214539,,-0.0682302844497,-6.71865521133,3.33544377543
1589273893283255810,8272,1589273893283132077,,-0.0682527864283,-6.71336960342,3.33406325055
1589273893286197306,8273,1589273893286107556,,-0.0681156452422,-6.7176010049,3.33508249442
1589273893292254154,8274,1589273893292162647,,-0.0681284559754,-6.72153819163,3.33590087858
1589273893295132002,8275,1589273893295050888,,-0.0680244186566,-6.71635791753,3.33435384861
1589273893298362028,8276,1589273893298083774,,-0.0679388528598,-6.71209731803,3.3330044656
1589273893304097676,8277,1589273893304015033,,-0.0677573298319,-6.7164964055,3.33399932116
1589273893307201054,8278,1589273893307104667,,-0.0677896923432,-6.72125664998,3.33477165587
1589273893313140169,8279,1589273893313050915,,-0.0676513392151,-6.72501430628,3.33584314648
1589273893316102937,8280,1589273893316028522,,-0.0677806069658,-6.72102169025,3.33489947451
1589273893319115979,8281,1589273893319053271,,-0.0678651256106,-6.72523263725,3.33595901159
1589273893322134279,8282,1589273893322011999,,-0.0679802775603,-6.72110392095,3.33499476792
1589273893328117705,8283,1589273893328049638,,-0.0680972397122,-6.72550372185,3.33601680506
1589273893331140078,8284,1589273893331083023,,-0.0681730812632,-6.72170913436,3.33506369621
1589273893334153195,8285,1589273893334073888,,-0.0682096766222,-6.72578256784,3.33593745493
1589273893340147825,8286,1589273893340084927,,-0.0681984502656,-6.7297466936,3.33671860628
1589273893343202652,8287,1589273893343100022,,-0.0680992860274,-6.72540707549,3.3356178879
1589273893346142944,8288,1589273893346065432,,-0.0682944083735,-6.72823881775,3.33630190783
1589273893355226513,8289,1589273893355156789,,-0.0683774132311,-6.73076722329,3.33705098482
1589273893358474182,8290,1589273893358299263,,-0.0685425917535,-6.72647831091,3.33583572208
1589273893361289363,8291,1589273893361218401,,-0.0684440531091,-6.72865754718,3.33652419811
1589273893364518994,8292,1589273893364429104,,-0.0683849371038,-6.72429020084,3.33533543202
1589273893367133718,8293,1589273893367059276,,-0.0682725099926,-6.72648435934,3.33593269451
1589273893373504129,8294,1589273893373380579,,-0.0681771302633,-6.72816384613,3.33635389103
1589273893376507942,8295,1589273893376383877,,-0.068057620172,-6.72277549675,3.33526521102
1589273893382873190,8296,1589273893382771543,,-0.0679691543159,-6.72403850891,3.33543517224
1589273893388480406,8297,1589273893388342334,,-0.0676267912051,-6.71911198285,3.3342387228
1589273893391435094,8298,1589273893391320327,,-0.067433781088,-6.7132887649,3.33303296947
1589273893397420176,8299,1589273893397314550,,-0.06729758657,-6.71410437177,3.33338764809
1589273893400343814,8300,1589273893400258853,,-0.0671431303523,-6.7152830287,3.33377270002
1589273893406892262,8301,1589273893406794058,,-0.067191757199,-6.71656406607,3.33422947132
1589273893409827053,8302,1589273893409737491,,-0.067154482843,-6.71225776561,3.33331646735
1589273893412979668,8303,1589273893412910318,,-0.0671763595544,-6.71323368353,3.33331106533
1589273893415422680,8304,1589273893415329535,,-0.0672600285852,-6.70919274917,3.33194687338
1589273893421805475,8305,1589273893421665333,,-0.0671959482016,-6.71018176629,3.3319378541
1589273893425141668,8306,1589273893424580906,,-0.0670890599863,-6.70551378474,3.33056031643
1589273893430833715,8307,1589273893430675514,,-0.0671762459927,-6.70691150861,3.33068825072
1589273893433750347,8308,1589273893433616304,,-0.0671951142901,-6.70797115291,3.33064083663
1589273893436755275,8309,1589273893436623905,,-0.0673040450327,-6.70491690051,3.32948368097
1589273893439866717,8310,1589273893439778309,,-0.0673144232911,-6.70629619935,3.3297326475
1589273893448356352,8311,1589273893448252162,,-0.0671992912618,-6.70473514064,3.32913611823
1589273893454560096,8312,1589273893454454384,,-0.0671095344787,-6.70578587431,3.32908804483
1589273893457606114,8313,1589273893457511591,,-0.066961853874,-6.7029913957,3.32810244891
1589273893460612021,8314,1589273893460515315,,-0.0668049609204,-6.70351236193,3.32814740788
1589273893463658275,8315,1589273893463525725,,-0.0667715812414,-6.70081209192,3.32714253464
1589273893469527721,8316,1589273893469440558,,-0.0667839611466,-6.70124732096,3.32692147363
1589273893472649136,8317,1589273893472529087,,-0.0666997750515,-6.70148674087,3.32696984224
1589273893481702305,8318,1589273893481577172,,-0.0667571389216,-6.69936219895,3.32594795715
1589273893484486259,8319,1589273893484411017,,-0.0667735248491,-6.69594420321,3.3245561815
1589273893487542450,8320,1589273893487436970,,-0.0666471367491,-6.6959577945,3.32445809909
1589273893493657977,8321,1589273893493482473,,-0.0665652263171,-6.69508666948,3.32429718467
1589273893496336331,8322,1589273893496266133,,-0.0663422199502,-6.69117107105,3.32305136819
1589273893502216319,8323,1589273893502122234,,-0.0661700793145,-6.69014862397,3.32291205842
1589273893508304728,8324,1589273893508225387,,-0.0660226622651,-6.68664222081,3.32131842411
1589273893514470264,8325,1589273893514342604,,-0.0658294582011,-6.68518428381,3.32074037516
1589273893517492563,8326,1589273893517373806,,-0.0656886664228,-6.68178060198,3.31960513684
