%time,field.header.seq,field.header.stamp,field.header.frame_id,field.wrench.force.x,field.wrench.force.y,field.wrench.force.z,field.wrench.torque.x,field.wrench.torque.y,field.wrench.torque.z
1589273890780399536,7675,1589273890780329576,,-0.0135827105261,-0.130444721032,2.00283497506,0.461704742673,0.0109049788295,-0.0032595660678
1589273890783545113,7676,1589273890783361845,,-0.0135807715029,-0.130451627273,2.0028345384,0.461704736541,0.0109051185796,-0.0032599671093
1589273890786466266,7677,1589273890786345252,,-0.0359917218128,-0.130353975029,1.97902569495,0.460900101986,0.0102418607704,-0.00161635247142
1589273890792733484,7678,1589273890792545938,,-0.0359967909077,-0.13034927745,1.97902591216,0.461819958248,0.0102395655533,-0.00159906690408
1589273890795522129,7679,1589273890795349082,,-0.0359905795736,-0.130361131808,1.9790252443,0.461819860247,0.0102438111673,-0.00160017768658
1589273890801513895,7680,1589273890801399479,,-0.035573481643,-0.130309129533,1.95573178158,0.461032541135,0.0095867934259,-0.00070327962532
1589273890804521418,7681,1589273890804415115,,-0.0355757030228,-0.130309687768,1.95573170398,0.461032489695,0.00958931774144,-0.000702586003469
1589273890807434142,7682,1589273890807343785,,-0.0583888507768,-0.130258702089,1.95532352775,0.461018515891,0.00959045943914,5.29074620489e-05
1589273890813478717,7683,1589273890813354791,,-0.0583966815409,-0.130258484718,1.95532330837,0.460115490884,0.00959175317635,-0.000871614794587
1589273890816423268,7684,1589273890816330790,,-0.0583946949793,-0.13026441616,1.95532297255,0.461035301372,0.0095914652132,-0.000855757960873
1589273890819603435,7685,1589273890819530328,,-0.058821585882,-0.130315676687,1.97861623551,0.460884209197,0.00959262837617,-0.000858397263742
1589273890825450398,7686,1589273890825363018,,-0.0588247464098,-0.130314167709,1.97861624094,0.460884198261,0.00959322241209,-0.000857629588345
1589273890828467342,7687,1589273890828372427,,-0.0585370800923,-0.00077769986929,1.9785690194,0.459974350651,0.0095951247947,-0.000874002179013
1589273890831465523,7688,1589273890831384140,,-0.0585370764014,-0.000776008645579,1.97856902017,0.459957505627,0.00959688154379,3.60558911613e-05
1589273890837459741,7689,1589273890837364442,,-0.0588222212875,-0.130308063899,1.978616718,0.46088238759,0.00892939297177,-0.000858436302199
1589273890840555353,7690,1589273890840425281,,-0.0592514643119,-0.130370417619,2.00200925842,0.460746330736,0.00959785101583,-0.000860219129891
1589273890843496409,7691,1589273890843401979,,-0.0592648917112,-0.130366606264,2.00200910917,0.460746336678,0.00959784051876,-0.000857147765506
1589273890849705102,7692,1589273890849622085,,-0.0360080089105,-0.130364315496,1.97902471754,0.459988268717,0.00959865129752,-0.00162809040266
1589273890852503733,7693,1589273890852339008,,-0.0360067148098,-0.130372904608,1.97902417528,0.459988250513,0.00959948893998,-0.00162829512969
1589273890855508117,7694,1589273890855427766,,-0.036014495152,-0.130364942885,1.97902455819,0.460898102038,0.00959763355908,-0.00161053583556
1589273890861500934,7695,1589273890861374218,,-0.0136102422253,-0.130458795289,2.00283387145,0.461684200536,0.00959544407422,-0.00235259116141
1589273890864498931,7696,1589273890864405276,,-0.0357290761005,-0.000836696465378,1.97897731747,0.460913041293,0.00893163102809,-0.00251149346853
1589273890867505347,7697,1589273890867396803,,-0.0364479490424,-0.130417880165,2.00241772002,0.460777056902,0.00959722415814,-0.00251078501283
1589273890873507977,7698,1589273890873375245,,-0.036443963871,-0.130418854855,2.00241772907,0.460777043836,0.00959761940303,-0.0025116718544
1589273890876779181,7699,1589273890876679127,,-0.0361617571463,-0.000844985311638,2.00237331767,0.460810559003,0.0095984095115,-0.00431188864258
1589273890879483478,7700,1589273890879364926,,-0.0361641878731,-0.000844313894247,2.00237327405,0.460810527882,0.00960015329974,-0.00431133239324
1589273890885457744,7701,1589273890885378210,,-0.0129263166946,-0.00088268612785,1.97939250537,0.460945623455,0.00959941391426,-0.00416328440399
1589273890888586540,7702,1589273890888481554,,-0.0129354276808,-0.000879432253485,1.97939244729,0.460945678087,0.00959770334457,-0.00416117901325
1589273890897432879,7703,1589273890897340024,,-0.0132100619654,-0.130419832692,1.97943944679,0.460945668093,0.00959734641361,-0.00416310882728
1589273890900428877,7704,1589273890900327047,,-0.0132202442693,-0.13042048761,1.97943933566,0.460943899125,0.00893275290106,-0.00416097482856
1589273890903479689,7705,1589273890903370708,,-0.0132196917842,-0.130424344568,1.97943908522,0.460943909843,0.0089321286331,-0.00416112766554
1589273890909513251,7706,1589273890909406000,,-0.0136355448671,-0.13046485222,2.00283330481,0.461716006625,0.00892884730664,-0.00414786369968
1589273890912693872,7707,1589273890912584578,,-0.0360468413669,-0.130372474714,1.97902347312,0.460931633326,0.0095961122205,-0.00340376426286
1589273890918407508,7708,1589273890918322797,,-0.0360472212965,-0.130375734623,1.97902325144,0.460931620465,0.00959678237068,-0.00340361643377
1589273890921465831,7709,1589273890921387401,,-0.0357689069856,-0.000831821226255,1.9789766,0.46003858782,0.00959855303517,-0.00431849941487
1589273890924408452,7710,1589273890924315157,,-0.0357658716159,-0.000836635103685,1.97897665284,0.460038592097,0.00959804105537,-0.00431918170091
1589273890930380069,7711,1589273890930310049,,-0.0357697570049,-0.000839079605125,1.97897658158,0.460020068785,0.00893039204286,-0.00341828392386
1589273890933382374,7712,1589273890933314693,,-0.0357735034957,-0.000833342414805,1.97897651628,0.460929928301,0.0089279980254,-0.00340148525937
1589273890939432543,7713,1589273890939362398,,-0.0360551472397,-0.130368471364,1.97902358554,0.460003354028,0.00892804499693,-0.00251806092375
1589273890942420704,7714,1589273890942298819,,-0.0357653899604,-0.000831322811824,1.97897666378,0.460929953762,0.00892595960493,-0.00340338426334
1589273890945652533,7715,1589273890945584849,,-0.0353502049007,-0.000826515427222,1.9556803624,0.460161183548,0.00892821995181,-0.00341546450015
1589273890948465076,7716,1589273890948348841,,-0.03576285343,-0.000835022748879,1.97897670806,0.460929942957,0.00892629861507,-0.00340395834283
1589273890954811097,7717,1589273890954643851,,-0.0357671956321,-0.000838678359023,1.97897662804,0.460948514324,0.00959244623819,-0.00430295106776
1589273890957541702,7718,1589273890957376313,,-0.036045320958,-0.13037557735,1.97902329642,0.460005129744,0.00959319082255,-0.00252003192026
1589273890963493643,7719,1589273890963330697,,-0.0360454080492,-0.130371498814,1.97902356352,0.460005150732,0.0095921670077,-0.00252009817033
1589273890966445516,7720,1589273890966362598,,-0.0588737836604,-0.130324791597,1.97861408271,0.459991120723,0.00959227990713,-0.00176268564092
1589273890969452058,7721,1589273890969349861,,-0.0592995591455,-0.130372520559,2.00200769748,0.460763184969,0.00959073555604,-0.0017499399049
1589273890972475719,7722,1589273890972375978,,-0.058581102646,-0.000788362615241,1.97856771226,0.460007869912,0.00959085722489,-0.00266428324461
1589273890978961738,7723,1589273890978838265,,-0.0361794910521,-0.000850856072339,2.00237299484,0.460760527867,0.00958922305336,-0.0016068231863
1589273890981511739,7724,1589273890981431168,,-0.0366032169548,-0.000848658761554,2.02566914482,0.459736713803,0.0109116697299,-0.00342487240071
1589273890987460122,7725,1589273890987346562,,-0.0361760278928,-0.000847458953614,2.00237305885,0.459861038707,0.0109107910819,-0.0025235029857
1589273890990682614,7726,1589273890990567062,,-0.0364682738022,-0.130420848333,2.00241715665,0.460762365742,0.0102423198133,-0.00160614069857
1589273890993693319,7727,1589273890993564401,,-0.059010091987,-0.000791884778589,2.00196370967,0.461673110091,0.0095848974629,-0.00173450094025
1589273890996616544,7728,1589273890996517113,,-0.0590050707983,-0.000801445236738,2.00196385387,0.461673111327,0.00958463661449,-0.00173561304717
1589273891002687830,7729,1589273891002575593,,-0.0364654533442,-0.130417778279,2.00241740797,0.460760591646,0.00958610562129,-0.00160713556269
1589273891005626889,7730,1589273891005518726,,-0.0593004530344,-0.130370046975,2.00200783208,0.461656461637,0.00958320394568,-0.000833732901183
1589273891014735385,7731,1589273891014609273,,-0.0595962317676,-0.259980164917,2.00225682965,0.462542917881,0.0095790186783,0.000993046025542
1589273891017697046,7732,1589273891017525829,,-0.0593016174735,-0.130368782142,2.00200787996,0.461639688955,0.00958054327048,7.65210073549e-05
1589273891020724362,7733,1589273891020579049,,-0.0592928950927,-0.130371957764,2.00200793151,0.461639720221,0.00957905310765,7.44288085776e-05
1589273891026825845,7734,1589273891026634856,,-0.0592982222921,-0.130367210314,2.00200808288,0.461639771919,0.00957655313783,7.54732154488e-05
1589273891029686845,7735,1589273891029563491,,-0.0818254509988,-0.000735385792997,2.00156145084,0.46162584849,0.00957586483506,0.000829062096566
1589273891035760445,7736,1589273891035605094,,-0.059170695118,-0.259891878415,1.97887097446,0.461770994333,0.00957354887504,0.00097929076321
1589273891038564713,7737,1589273891038491070,,-0.0591692778974,-0.25987870624,1.97887274673,0.461771032171,0.00957178758104,0.000978665278152
1589273891041601329,7738,1589273891041515763,,-0.0591733747787,-0.259870215966,1.97887373921,0.461771105992,0.0095681802849,0.000979108218032
1589273891044569110,7739,1589273891044490594,,-0.0592942614355,-0.130326063421,2.00201087918,0.461623355168,0.00956755352592,0.000974156441471
1589273891050592528,7740,1589273891050510698,,-0.0821271993188,-0.130255705,2.00160924866,0.463416023474,0.00955899566947,0.00357397938188
1589273891053611001,7741,1589273891053530745,,-0.082117052642,-0.130232671243,2.00161116376,0.463416100242,0.00955625937047,0.00357134190243
1589273891059601851,7742,1589273891059519937,,-0.0821244695287,-0.130210893721,2.00161227627,0.463416180204,0.00955188363199,0.00357267173937
1589273891062651829,7743,1589273891062563164,,-0.0821163280626,-0.130184473925,2.00161432881,0.464327891785,0.0102044162025,0.0035870447356
1589273891065584033,7744,1589273891065492773,,-0.0821165767035,-0.130169886154,2.00161526734,0.464328004587,0.0101994016672,0.0035867048831
1589273891068597452,7745,1589273891068458111,,-0.0825448727936,-0.130196786895,2.02490993919,0.465080439032,0.0101932201749,0.00449934705294
1589273891075093373,7746,1589273891074989723,,-0.0825448387526,-0.130190011966,2.02491037617,0.465078705067,0.0095327639911,0.0044987631008
1589273891078008929,7747,1589273891077891804,,-0.0825440264199,-0.130184424837,2.0249107685,0.465078811336,0.00952782676954,0.00449823626182
1589273891083481230,7748,1589273891083409642,,-0.105475369169,-0.130129629191,2.02451280114,0.465988695146,0.0108418302597,0.00527367378172
1589273891086450405,7749,1589273891086369249,,-0.105908444492,-0.130177890741,2.04780577109,0.466755672551,0.0101704929891,0.00528553957212
1589273891089569995,7750,1589273891089441497,,-0.106357807415,-0.13022639052,2.07109792443,0.467524483373,0.010165843906,0.00530152632673
1589273891095500986,7751,1589273891095413583,,-0.10635129664,-0.130233013612,2.07109784231,0.467524561131,0.0101631044965,0.00529992105549
1589273891098650855,7752,1589273891098552128,,-0.106231669888,-0.259881624415,2.0480483576,0.46673948872,0.010161502727,0.00618653132256
1589273891101502909,7753,1589273891101410839,,-0.106223582068,-0.259903162695,2.04804604394,0.466739507677,0.010161671081,0.00618482434884
1589273891107690698,7754,1589273891107558634,,-0.106664177062,-0.260002142269,2.07132979001,0.467508316758,0.0101580217145,0.00619896977277
1589273891110555163,7755,1589273891110449885,,-0.106654708635,-0.260019797491,2.07132806134,0.467459335211,0.0101558294243,0.0089083469205
1589273891113684524,7756,1589273891113589129,,-0.106205355818,-0.259970350911,2.04803846168,0.467600459305,0.0101554175217,0.00890849211703
1589273891119642660,7757,1589273891119551018,,-0.105876027167,-0.130304669249,2.04779938422,0.467598685949,0.00949666229901,0.00890604377616
1589273891122691016,7758,1589273891122586038,,-0.106185753255,-0.260005054203,2.04803507272,0.469444723506,0.00949023298637,0.00803548690108
1589273891125634740,7759,1589273891125536508,,-0.105843296676,-0.130338523615,2.04779892172,0.469428634165,0.00948715297095,0.00893136083791
1589273891131689902,7760,1589273891131600485,,-0.106153310394,-0.260034589546,2.04803300472,0.470348550647,0.00948435232792,0.00894498769484
1589273891134689265,7761,1589273891134606852,,-0.106143525965,-0.260042598855,2.0480324949,0.470348609714,0.00948359303596,0.0089426865852
1589273891137677613,7762,1589273891137536897,,-0.10688957035,-0.389919423335,2.07172681016,0.471103185391,0.0101378396659,0.00985232703743
1589273891143632264,7763,1589273891143553185,,-0.106870373687,-0.389926027972,2.07172655744,0.473852781017,0.0101330366557,0.00989768457956
1589273891146528224,7764,1589273891146431860,,-0.10684346055,-0.389939270045,2.07172545321,0.473852761248,0.0101388371121,0.00989268968996
1589273891149455664,7765,1589273891149374111,,-0.0839379158408,-0.260298972729,2.09510393009,0.474603951112,0.0095099555746,0.0109388712459
1589273891155564049,7766,1589273891155453875,,-0.0846575175526,-0.390222194409,2.11877968267,0.476298652408,0.00951257427298,0.0100632678683
1589273891158469250,7767,1589273891158396012,,-0.0845373299657,-0.520041160728,2.09605918569,0.47736152677,0.0101638476696,0.0100790013655
1589273891161501682,7768,1589273891161429283,,-0.107495876093,-0.519992733408,2.09566106706,0.479159823062,0.00950312019318,0.0117705105157
1589273891167740403,7769,1589273891167537585,,-0.107504566753,-0.519994066798,2.09566029041,0.477331837527,0.0101656531244,0.0117404897797
1589273891170641338,7770,1589273891170412437,,-0.0845754775449,-0.520041354996,2.09605759859,0.47915701626,0.00950430014068,0.0119226653291
1589273891173509174,7771,1589273891173428262,,-0.0846845819802,-0.520016518341,2.09605935535,0.480094104297,0.0101615712623,0.0110639353482
1589273891179592641,7772,1589273891179445331,,-0.0854493500502,-0.650189713364,2.12002064242,0.481782772818,0.0101548057462,0.0110949541242
1589273891182568309,7773,1589273891182464596,,-0.109314202566,-0.650439134132,2.16622538494,0.476901035675,0.0101644411791,0.0117700749347
1589273891188528612,7774,1589273891188447196,,-0.132216058404,-0.650386794742,2.16583095365,0.476903422868,0.0101696505489,0.0116290653787
1589273891194640314,7775,1589273891194543952,,-0.0854956483712,-0.650170071184,2.12002479979,0.476285250668,0.0108352024009,0.0110072886425
1589273891197584514,7776,1589273891197468154,,-0.0855078833621,-0.650162852326,2.12002652021,0.476285291056,0.0108317534254,0.0110089354372
1589273891203607651,7777,1589273891203508756,,-0.108487828272,-0.650111136307,2.11962565139,0.476269771259,0.0101669068103,0.0117687015095
1589273891206555901,7778,1589273891206442965,,-0.10892947849,-0.650259979125,2.14287836246,0.475176622271,0.0101687810667,0.013552949695
1589273891212580667,7779,1589273891212485293,,-0.108408210873,-0.780128590836,2.09720587531,0.474574963845,0.0101706106613,0.0126421243578
1589273891215625095,7780,1589273891215457327,,-0.131292745028,-0.78007927124,2.09681134603,0.475471287704,0.0101695595361,0.0134147723316
1589273891218599937,7781,1589273891218443023,,-0.108395510811,-0.780125037708,2.09720785346,0.477328759691,0.00951247630744,0.0117888266119
1589273891224748533,7782,1589273891224501713,,-0.10840807059,-0.780131782781,2.0972046952,0.478234309378,0.0101638014377,0.0127087169042
1589273891227709766,7783,1589273891227495221,,-0.10883385408,-0.78030914341,2.12043864946,0.47991285837,0.010163921863,0.0127385933391
1589273891230541878,7784,1589273891230419993,,-0.108847093237,-0.780305214793,2.1204394156,0.479912887401,0.0101604319949,0.012740283531
1589273891236535531,7785,1589273891236443293,,-0.108846203975,-0.780306464064,2.12043900153,0.4790047702,0.0108327660326,0.0127255086237
1589273891239633090,7786,1589273891239556278,,-0.109193564341,-0.910645633244,2.12135534234,0.479004677175,0.0108353818265,0.0127267831646
1589273891242551081,7787,1589273891242413704,,-0.109194418973,-0.910644453106,2.12135580495,0.479004585813,0.0108379264834,0.0127280549926
1589273891245627863,7788,1589273891245434986,,-0.1092080411,-0.910636479026,2.12135852678,0.47900450028,0.0108380858689,0.0127311378267
1589273891254759048,7789,1589273891254652504,,-0.0862061867238,-0.910680874913,2.12176399744,0.478096326216,0.0101771661823,0.0119552687957
1589273891260517984,7790,1589273891260392183,,-0.109204943114,-0.910638989194,2.12135760872,0.478098739608,0.010181088024,0.0118153851603
1589273891263536952,7791,1589273891263438706,,-0.109631179183,-0.910822133587,2.14457945471,0.477957628248,0.010183732608,0.0118122377798
1589273891266543458,7792,1589273891266442038,,-0.0866140217347,-0.910873990521,2.14498239702,0.477969480938,0.00952957216056,0.0110501854183
1589273891272721256,7793,1589273891272594673,,-0.0861759665164,-0.910693983326,2.12175959875,0.478110537909,0.00953152782572,0.0110516233043
1589273891275901664,7794,1589273891275808398,,-0.109597034417,-0.910834753765,2.14457583998,0.478867467647,0.0101879036886,0.011823709911
1589273891278900277,7795,1589273891278818457,,-0.0870137110938,-0.911073828083,2.16829922709,0.479653139569,0.010188819607,0.0110768433353
1589273891284825965,7796,1589273891284506590,,-0.0644129276052,-1.04164917839,2.16966662378,0.479682917598,0.0101920125563,0.00941801854974
1589273891287611287,7797,1589273891287536049,,-0.0644024302019,-1.04165250147,2.16966534,0.479682924565,0.0101932571077,0.00941631661598
1589273891290625993,7798,1589273891290557915,,-0.04147465012,-1.04170570607,2.17007556322,0.479696538724,0.0101952619392,0.00865914994206
1589273891296714736,7799,1589273891296636232,,-0.041459716628,-1.0417140483,2.17007184403,0.479696535441,0.0101973304488,0.00865689580988
1589273891299484051,7800,1589273891299416699,,-0.0636362897586,-0.910954355003,2.14537812249,0.478892886808,0.00954092990919,0.0102998121052
1589273891302540445,7801,1589273891302419796,,-0.0636294799496,-0.910961881037,2.14537512881,0.478892829385,0.00954399696276,0.0102996404736
1589273891308599604,7802,1589273891308520298,,-0.0636188328959,-0.910957438249,2.14537733104,0.478892838713,0.00954545689777,0.0102978536785
1589273891314601042,7803,1589273891314518956,,-0.0643533410693,-1.0416751077,2.16965594322,0.479682921761,0.0102001963935,0.00940894217323
1589273891320602505,7804,1589273891320482163,,-0.0643527819457,-1.04168237712,2.16965246966,0.47968289908,0.0102009835704,0.00940924505977
1589273891323670613,7805,1589273891323547621,,-0.0872810808175,-1.04162851033,2.16924793788,0.480589114376,0.0101986638956,0.0101837252809
1589273891326577043,7806,1589273891326486268,,-0.110286062104,-1.04158528247,2.16884243742,0.48057551547,0.0101993578691,0.0109407769166
1589273891332724619,7807,1589273891332586729,,-0.110279561371,-1.04158800452,2.16884146071,0.480575526593,0.0102000187446,0.0109396721527
1589273891335685169,7808,1589273891335574815,,-0.110264892478,-1.04159141577,2.16884056827,0.480575603606,0.0101999070816,0.0109363926269
1589273891341656545,7809,1589273891341563258,,-0.0868230734038,-1.04143660953,2.14594091543,0.479817143241,0.0102014212442,0.010163967235
1589273891344541000,7810,1589273891344438228,,-0.0868263859196,-1.0414415626,2.14593837765,0.480726941176,0.010200640962,0.0101815850598
1589273891347593392,7811,1589273891347451302,,-0.0868159403441,-1.04144648491,2.14593641142,0.480694722892,0.0101993426144,0.011981268068
1589273891350552536,7812,1589273891350468754,,-0.0868190733658,-1.04144632188,2.14593636378,0.480694706311,0.0101993161249,0.0119819558367
1589273891356615545,7813,1589273891356540747,,-0.086808353038,-1.04144977503,2.14593512162,0.480727024664,0.010200667256,0.0101776160036
1589273891359674302,7814,1589273891359604858,,-0.0872277507091,-1.04165033638,2.16923960244,0.480589258726,0.0102019372147,0.0101736295119
1589273891365512211,7815,1589273891365388065,,-0.08723275969,-1.04164968824,2.16923971225,0.480589260266,0.0102011421785,0.0101743539675
1589273891368500541,7816,1589273891368418610,,-0.0872284598167,-1.04165146303,2.16923903292,0.480557019852,0.0102000256461,0.0119754844112
1589273891374608064,7817,1589273891374483674,,-0.0867929978096,-1.04145020721,2.14593553298,0.479784935155,0.0102032409275,0.011960767994
1589273891377742794,7818,1589273891377621647,,-0.0872281927008,-1.04165710758,2.16923633319,0.482402759663,0.0101989317108,0.0111082999504
1589273891380567978,7819,1589273891380481182,,-0.0872246720686,-1.04165175171,2.16923904661,0.480556983451,0.0102017523603,0.0119754742747
1589273891383505444,7820,1589273891383401192,,-0.0413878078853,-1.04175454191,2.1700537778,0.480600236631,0.0102022585648,0.00956226511796
1589273891389564761,7821,1589273891389409465,,-0.0413966038623,-1.04176048221,2.17005075831,0.480600224403,0.0102013699802,0.00956382758271
1589273891392500557,7822,1589273891392434460,,-0.0414033254101,-1.04176551912,2.17004821204,0.481526240261,0.010200637567,0.00868084496925
1589273891398768712,7823,1589273891398676297,,-0.0872580803269,-1.04167482934,2.16922662116,0.481498933322,0.0102009670675,0.0101972683118
1589273891401798837,7824,1589273891401676587,,-0.0872623551191,-1.04167159817,2.16922800082,0.481498923233,0.0102006628446,0.010198049003
1589273891404889648,7825,1589273891404765004,,-0.0872796484164,-1.04167752976,2.1692244567,0.481480911912,0.00954381142672,0.0111027107241
1589273891407745656,7826,1589273891407655029,,-0.0868646270453,-1.04147710553,2.14591958039,0.482550166248,0.010199551501,0.011126111838
1589273891413630866,7827,1589273891413536567,,-0.0873039554252,-1.04167414725,2.16922510287,0.483322216644,0.0101969783165,0.0111417930512
1589273891416682040,7828,1589273891416554347,,-0.0873111536446,-1.04167372825,2.16922501436,0.484246385796,0.00954178447754,0.0102594931415
1589273891422599794,7829,1589273891422515518,,-0.0877502766155,-1.04186213831,2.19243552461,0.486828605551,0.00953577447366,0.0112099840254
1589273891425664058,7830,1589273891425562960,,-0.0877520674131,-1.04184696821,2.19244266182,0.486828579065,0.00953642018921,0.0112105849795
1589273891428787559,7831,1589273891428647063,,-0.0877497414428,-1.04184274409,2.19244476221,0.486828595171,0.00953630366381,0.0112099846605
1589273891431576847,7832,1589273891431491244,,-0.0873198104604,-1.04162862179,2.1692463257,0.487907432117,0.0101925741514,0.0103280790286
1589273891437804634,7833,1589273891437692403,,-0.0873154137058,-1.04162267738,2.16924935706,0.487907503816,0.0101909661871,0.0103262785265
1589273891440691645,7834,1589273891440603977,,-0.087735162863,-1.04180427224,2.19246362693,0.490499744735,0.010187279691,0.0112737978941
1589273891446728661,7835,1589273891446628406,,-0.0877309690525,-1.04179136704,2.19246992694,0.490499800803,0.0101862561762,0.0112722831975
1589273891449752091,7836,1589273891449643237,,-0.0655437141337,-1.17271503641,2.21708236759,0.491265971438,0.0101852635606,0.0114304505985
1589273891452662892,7837,1589273891452579941,,-0.0884775889885,-1.17265332777,2.21668158169,0.492178392124,0.0101851531486,0.0113015911139
1589273891455675994,7838,1589273891455593373,,-0.111496231126,-1.17258929483,2.21628571615,0.492164920318,0.0101834151336,0.0120564456136
1589273891461716186,7839,1589273891461608816,,-0.111931081142,-1.17277050354,2.23949068381,0.494729430247,0.00951962993088,0.0139067113921
1589273891464802615,7840,1589273891464585640,,-0.111492807125,-1.17256355963,2.21629950415,0.494880599101,0.00951818251989,0.013906860787
1589273891470748486,7841,1589273891470645208,,-0.112262671858,-1.30359846148,2.24052089491,0.498382724141,0.00950926119566,0.0148809868
1589273891473792776,7842,1589273891473669913,,-0.112268655001,-1.30360746329,2.24051535758,0.498382808295,0.0095057972862,0.0148803814777
1589273891476982366,7843,1589273891476869822,,-0.112262406096,-1.30360840384,2.24051512345,0.497464828337,0.0101624862886,0.0148614646235
1589273891482856389,7844,1589273891482732289,,-0.112269340185,-1.30362693972,2.24050399109,0.497464896811,0.0101593311563,0.0148613297661
1589273891485786409,7845,1589273891485686760,,-0.0665949328428,-1.43473219406,2.24235182764,0.500243251801,0.010819455761,0.0133953761027
1589273891488890280,7846,1589273891488759990,,-0.0666078025825,-1.43473590907,2.24234906839,0.501119134902,0.0101489319659,0.0152173290561
1589273891494780044,7847,1589273891494651373,,-0.0666091594866,-1.43473976099,2.24234656348,0.501119110391,0.0101492917883,0.01521789623
1589273891497829863,7848,1589273891497708910,,-0.113852083309,-1.56618639284,2.28900348827,0.501689264237,0.00948921284632,0.01856221795
1589273891500641618,7849,1589273891500532058,,-0.113868466179,-1.56618585752,2.28900303963,0.501689279635,0.00948585893037,0.0185635160064
1589273891506809962,7850,1589273891506708673,,-0.113887467823,-1.56618530275,2.28900247388,0.502583142731,0.00948150592015,0.0194847799272
1589273891509661927,7851,1589273891509564528,,-0.114246894821,-1.69746105275,2.29002454896,0.502567222624,0.00947958032367,0.0203883524728
1589273891512808159,7852,1589273891512656404,,-0.114265314755,-1.69745496558,2.29002814199,0.502567258596,0.00947553935627,0.0203893441836
1589273891518624875,7853,1589273891518506452,,-0.113846655642,-1.69725917509,2.26687047201,0.503645709085,0.0101316468883,0.0195095517693
1589273891521687432,7854,1589273891521574802,,-0.114291018077,-1.69745847667,2.29002425677,0.504414433355,0.0101276935574,0.019525829211
1589273891524625053,7855,1589273891524537688,,-0.0916220428881,-1.69770397551,2.31359182594,0.506116598588,0.0101217931472,0.0187940989869
1589273891530727102,7856,1589273891530609295,,-0.114378137943,-1.56639470181,2.31215918234,0.507915122498,0.00945924873838,0.0204915231289
1589273891533702805,7857,1589273891533588367,,-0.114378884636,-1.56638362834,2.31216664719,0.50791526456,0.00945610478036,0.0204894528406
1589273891536778850,7858,1589273891536671121,,-0.114736326729,-1.69763402533,2.31319682835,0.508835106675,0.00945283554133,0.0205067328481
1589273891542760528,7859,1589273891542603245,,-0.115159309776,-1.69782568469,2.33635983863,0.509587873716,0.0094504423064,0.0214317533054
1589273891545734176,7860,1589273891545624980,,-0.115505623796,-1.8292086075,2.33736701523,0.510481866455,0.0094488724584,0.0223503513988
1589273891548626678,7861,1589273891548538972,,-0.138520715622,-1.82916495671,2.33695782838,0.5104685843,0.00944765272045,0.023108202544
1589273891554777517,7862,1589273891554670871,,-0.115506098094,-1.8292296002,2.33735056289,0.511435371375,0.010104372676,0.0205532412346
1589273891557630977,7863,1589273891557541677,,-0.115508291081,-1.8292228649,2.3373557256,0.513217243217,0.0101006636127,0.0233047900225
1589273891560699843,7864,1589273891560616971,,-0.0919732596558,-1.82907706792,2.31461582106,0.512459978315,0.00944750153561,0.0225304322114
1589273891566694447,7865,1589273891566595262,,-0.115506277288,-1.82923734009,2.3373444967,0.513215363692,0.00944572147228,0.0233059799301
1589273891569688827,7866,1589273891569569717,,-0.115489553682,-1.82924169762,2.33734191283,0.514109408199,0.00944643987381,0.0242237796328
1589273891572682406,7867,1589273891572588982,,-0.116277292323,-1.96093811118,2.3615707582,0.513971355689,0.00944917041719,0.024226191911
1589273891578988686,7868,1589273891578889399,,-0.116270841176,-1.96093954464,2.36156988555,0.51397140328,0.00944947958106,0.0242250616315
1589273891581679327,7869,1589273891581585384,,-0.116687360011,-1.96113151757,2.38471584448,0.515667487758,0.0101060952964,0.0233541761011
1589273891584726910,7870,1589273891584548426,,-0.11668080565,-1.9611449754,2.38470509773,0.515667420046,0.0101082889844,0.0233547218106
1589273891590628675,7871,1589273891590513179,,-0.116260013431,-1.96095073209,2.36156112903,0.514896837952,0.00945323800907,0.0233416093114
1589273891593655979,7872,1589273891593570618,,-0.11660248562,-2.09254069641,2.36253392259,0.517646320159,0.00944822029979,0.0233921533815
1589273891599679236,7873,1589273891599525538,,-0.116592775543,-2.09255347151,2.36252308661,0.5176463403,0.00944940079455,0.0233912308045
1589273891602638835,7874,1589273891602562862,,-0.117015453107,-2.0927330084,2.38566983971,0.51841503313,0.00944928418517,0.0234062263857
1589273891605741291,7875,1589273891605574905,,-0.117002985134,-2.09274092946,2.38566350277,0.518413299729,0.00878386444767,0.0234047996094
1589273891614771804,7876,1589273891614637078,,-0.140027160533,-2.09268921778,2.38526036239,0.519321542221,0.0094516704459,0.024179895452
1589273891617658841,7877,1589273891617557100,,-0.116991919781,-2.09274062375,2.38566431361,0.519333019017,0.00878586102926,0.0234227285188
1589273891623734116,7878,1589273891623597580,,-0.139942281598,-2.22418150596,2.36307818272,0.519429138215,0.00878574932516,0.0259966108003
1589273891626621598,7879,1589273891626538864,,-0.139953275216,-2.22417346957,2.36308509565,0.519429151887,0.00878372878021,0.0259970204166
1589273891629658057,7880,1589273891629564577,,-0.139938439904,-2.22418213309,2.36307781995,0.520364994327,0.00878323049207,0.0250994678819
1589273891635747785,7881,1589273891635620496,,-0.140364812343,-2.22436354869,2.38621313513,0.522029301539,0.00944790064202,0.0260445714278
1589273891638689218,7882,1589273891638590459,,-0.140354013297,-2.22437990046,2.38619852756,0.522029440327,0.0094473972986,0.0260419720513
1589273891641708836,7883,1589273891641610240,,-0.140349321767,-2.22437016436,2.38620787933,0.522947488832,0.00877972385253,0.0260588336789
1589273891647744841,7884,1589273891647601837,,-0.140778911314,-2.22455294807,2.4093433022,0.524620374551,0.00877450017327,0.0269924241045
1589273891650633384,7885,1589273891650551264,,-0.14077775804,-2.22455460975,2.40934183535,0.524636056209,0.00877586507586,0.0260904044034
1589273891653635605,7886,1589273891653557104,,-0.140772436383,-2.22455533186,2.40934147956,0.524635939414,0.00877864954459,0.0260918161792
1589273891659807602,7887,1589273891659716050,,-0.140761080952,-2.22456020132,2.40933764701,0.525545899786,0.00877656487247,0.0261060226862
1589273891665593812,7888,1589273891665516219,,-0.163894036151,-2.22451569916,2.40892924558,0.526452486158,0.00877589507142,0.0268829551894
1589273891668814413,7889,1589273891668521257,,-0.141099805374,-2.35633164143,2.41024887311,0.526449937647,0.00877673482296,0.0270259986202
1589273891671780898,7890,1589273891671692610,,-0.141511080378,-2.3565114905,2.43338051448,0.528144162388,0.00877731396071,0.0261549013076
1589273891674741819,7891,1589273891674653176,,-0.141511330507,-2.35650708138,2.43338476977,0.528144103631,0.00877823208443,0.0261557796551
1589273891677811966,7892,1589273891677667882,,-0.141495528541,-2.35650458749,2.43338810376,0.527218542127,0.00878229481805,0.0270407918289
1589273891683732899,7893,1589273891683637122,,-0.164648116122,-2.35646503163,2.43297353037,0.527206847886,0.00945222101105,0.0278044016186
1589273891686682437,7894,1589273891686599439,,-0.164632375233,-2.35647197154,2.43296787387,0.527206754691,0.00945611281641,0.0278048454204
1589273891689732638,7895,1589273891689612244,,-0.141481523096,-2.35651058289,2.43338311212,0.528145497282,0.00945550386392,0.0261592272308
1589273891695819007,7896,1589273891695695411,,-0.141894679554,-2.35668610286,2.45662045532,0.52983563769,0.00878737412005,0.0261897977594
1589273891698748160,7897,1589273891698616348,,-0.141889639387,-2.35669599024,2.45661126123,0.529835541994,0.00878960994423,0.0261909834556
1589273891701777052,7898,1589273891701662881,,-0.141878356167,-2.35669854421,2.4566094628,0.531665403848,0.00878451942151,0.0262210377787
1589273891707655022,7899,1589273891707534196,,-0.142217818954,-2.4885365281,2.45749097621,0.531632192397,0.00811734905053,0.0280271621044
1589273891710683744,7900,1589273891710553622,,-0.141879094796,-2.35670171335,2.45660637989,0.532585092885,0.00878466216069,0.0262401375576
1589273891713687361,7901,1589273891713585496,,-0.142307033297,-2.35688067676,2.47974105518,0.535152040189,0.0087775330389,0.0280938752664
1589273891719654738,7902,1589273891719548114,,-0.142300820081,-2.35689130217,2.47973131273,0.53515208947,0.00877773203553,0.028092874343
1589273891722680980,7903,1589273891722553242,,-0.142305737772,-2.35688480797,2.479737203,0.536077670465,0.00877516465795,0.0272065794649
1589273891725619047,7904,1589273891725551120,,-0.119244707449,-2.35692627646,2.48015128178,0.537920660008,0.00877035728548,0.0264806832662
1589273891731673452,7905,1589273891731576548,,-0.119243176809,-2.35692190772,2.48015550705,0.537920707549,0.00876990820145,0.0264798662396
1589273891734688335,7906,1589273891734538134,,-0.142312034639,-2.35688139921,2.47974008151,0.537905814297,0.00809995191273,0.0272377008927
1589273891740555053,7907,1589273891740449825,,-0.165910474269,-2.35700947268,2.50247139602,0.538661318057,0.00809539067749,0.028013656826
1589273891743588918,7908,1589273891743471530,,-0.120030220013,-2.48892372737,2.50416999136,0.539625168343,0.00876036757543,0.0256081970443
1589273891746621058,7909,1589273891746521087,,-0.143103651076,-2.48887128683,2.50376537028,0.539610261969,0.00809118336804,0.0263653971105
1589273891749585737,7910,1589273891749467200,,-0.143127404319,-2.48886652156,2.50376874945,0.539610139552,0.00808921855994,0.0263685052958
1589273891755692218,7911,1589273891755510463,,-0.143129673508,-2.48885936289,2.50377573578,0.540545986885,0.00808663072904,0.0254718034093
1589273891761596099,7912,1589273891761507033,,-0.14315168054,-2.4888604299,2.50377341698,0.5405477081,0.00875040172698,0.0254730367073
1589273891764941366,7913,1589273891764564465,,-0.120106180612,-2.48889100743,2.5041988696,0.541452968199,0.00807937363459,0.0256480659278
1589273891767615027,7914,1589273891767527592,,-0.120525494389,-2.48905363626,2.5273439936,0.542221818129,0.00807689369559,0.0256605533845
1589273891770625487,7915,1589273891770493989,,-0.120564447456,-2.48904716045,2.52734851337,0.544067224657,0.00807148618724,0.0247875241102
1589273891776898060,7916,1589273891776767615,,-0.120161137687,-2.48886768475,2.50421941308,0.545113794983,0.00873394898065,0.0257219419155
1589273891779947377,7917,1589273891779865668,,-0.120178455206,-2.48886874919,2.50421752415,0.545113793367,0.0087311302181,0.0257229331143
1589273891785592475,7918,1589273891785529386,,-0.0973537427686,-2.62081945624,2.50548463778,0.544233383791,0.00873124784047,0.0240321211028
1589273891788719387,7919,1589273891788557623,,-0.0973519568181,-2.62081383378,2.50549058844,0.5442334061,0.00873121841012,0.0240316265764
1589273891794586403,7920,1589273891794517612,,-0.0973645319916,-2.62082501245,2.50547840653,0.545141498256,0.0080598480139,0.0240491293706
1589273891800684557,7921,1589273891800546332,,-0.0969262831354,-2.6206578076,2.48234832121,0.545262426259,0.00872876475277,0.0258672555312
1589273891803626913,7922,1589273891803554767,,-0.0973259639477,-2.62083534599,2.5054690957,0.547876839702,0.00872469868373,0.0250082324721
1589273891809704209,7923,1589273891809586276,,-0.0973107222966,-2.62083453758,2.50547053336,0.547876873176,0.00872657359208,0.0250068449195
1589273891812801379,7924,1589273891812714588,,-0.120553201574,-2.48906889607,2.52732764342,0.550461919557,0.00872409248473,0.0258154393456
1589273891815697106,7925,1589273891815588964,,-0.120537760875,-2.48907858898,2.52731883368,0.550461902981,0.00872680920458,0.0258148745587
1589273891818603017,7926,1589273891818518725,,-0.120514818414,-2.4890798681,2.52731866802,0.55227572841,0.00872658701134,0.0267509853654
1589273891824583118,7927,1589273891824512599,,-0.0973232915967,-2.48913874843,2.52772326586,0.552290721735,0.00939915841261,0.0259893548712
1589273891827568303,7928,1589273891827487787,,-0.120487192236,-2.48908861111,2.52731137447,0.554138805838,0.0093983580608,0.0249688123658
1589273891833634069,7929,1589273891833498614,,-0.120780324089,-2.62098985667,2.52815604855,0.555074548746,0.00940265894739,0.0240792407662
1589273891836572145,7930,1589273891836503633,,-0.143934224625,-2.48923272854,2.55012257254,0.556735364036,0.00873526203369,0.0257745275604
1589273891839589698,7931,1589273891839502813,,-0.143918532108,-2.48923080745,2.55012533342,0.556735447771,0.00873651438577,0.0257722943071
1589273891842624664,7932,1589273891842527675,,-0.120834804983,-2.48927947087,2.55053404191,0.556750238395,0.00941002666641,0.0250168493858
1589273891848596134,7933,1589273891848522423,,-0.143462272305,-2.48906072899,2.52688773357,0.555963026073,0.00874910480062,0.0257622048903
1589273891851682384,7934,1589273891851603793,,-0.143878882379,-2.489231342,2.550127049,0.555799242627,0.00875054265104,0.0266724008789
1589273891857876923,7935,1589273891857728702,,-0.121130767493,-2.62115541512,2.55139530815,0.554894309078,0.00942234537146,0.0258982381385
1589273891860563532,7936,1589273891860459865,,-0.0989845000305,-2.35819041548,2.64278562275,0.545242306554,0.00944332830662,0.0213310563791
1589273891863588485,7937,1589273891863519469,,-0.0739354093856,-2.22576895691,2.54965064605,0.540352108158,0.00878522146327,0.019571461997
1589273891866637138,7938,1589273891866570619,,-0.0945432682594,-2.09289074458,2.43260174025,0.537388823037,0.0074664605453,0.0211838921933
1589273891872612552,7939,1589273891872548894,,-0.0949202973172,-2.09281720338,2.45606801742,0.537246137501,0.0094677963116,0.0211756969998
1589273891875953492,7940,1589273891875888790,,-0.0947187221866,-2.22438129404,2.43372434256,0.53465907004,0.00881649815905,0.020204190761
1589273891881661118,7941,1589273891881582951,,-0.0708243018942,-2.22414001614,2.3877993553,0.534069096633,0.00815140383601,0.0185312564547
1589273891884860984,7942,1589273891884721708,,-0.0725045375241,-2.22496971103,2.48035115245,0.527131255057,0.00948859625912,0.0156773070531
1589273891887615190,7943,1589273891887539247,,-0.0721125503517,-2.22487866206,2.457129098,0.52908304038,0.00813573206757,0.0166091986733
1589273891893564728,7944,1589273891893464114,,-0.071979545877,-2.35651762639,2.43475741543,0.531063654495,0.00947474068009,0.016648175891
1589273891896573824,7945,1589273891896499168,,-0.0946814777853,-2.22475518082,2.43338401334,0.530112707264,0.00880989101585,0.0182962091549
1589273891899651922,7946,1589273891899553746,,-0.117280945261,-2.35616883774,2.38757471298,0.528544051642,0.00815165849861,0.019931804
1589273891905649690,7947,1589273891905532709,,-0.117426731646,-2.2245803479,2.40978482318,0.528405997147,0.00948443994864,0.0199393371693
1589273891908652498,7948,1589273891908570546,,-0.117818157289,-2.35639038068,2.41065744051,0.523839545551,0.0081457934047,0.0189537174587
1589273891917625277,7949,1589273891917539439,,-0.0948614824014,-2.35641899661,2.411079675,0.522920606157,0.0094528958615,0.0190933457717
1589273891920605362,7950,1589273891920530620,,-0.0948806248989,-2.3564304644,2.41106771392,0.521071503613,0.00811919516775,0.0199636649964
1589273891923577388,7951,1589273891923500802,,-0.141429359627,-2.48818160717,2.41113729791,0.520120513751,0.00878992446164,0.0223792806466
1589273891929716873,7952,1589273891929632987,,-0.118821134985,-2.48838546434,2.43469062335,0.520884790526,0.00811967346868,0.0225435605392
1589273891932647107,7953,1589273891932566894,,-0.118852578516,-2.48837593754,2.43469882547,0.520884860655,0.00811370917947,0.0225440875607
1589273891935662643,7954,1589273891935577334,,-0.119665883637,-2.62047453033,2.4587700621,0.523488646137,0.00876277293878,0.0225895438083
1589273891941612434,7955,1589273891941532633,,-0.119692091837,-2.6204735244,2.45876985852,0.525318381517,0.00875403580596,0.0226234429161
1589273891944559711,7956,1589273891944502705,,-0.142710733296,-2.75220578364,2.43600468086,0.527251187465,0.00874259598874,0.0252192501228
1589273891947638737,7957,1589273891947525724,,-0.120105858142,-2.62063279014,2.48190811018,0.526975734114,0.00874461141479,0.0244526857068
1589273891953626630,7958,1589273891953564184,,-0.0969058650031,-2.62068143262,2.48232417681,0.525183095257,0.00941633507406,0.0218470853796
1589273891956532848,7959,1589273891956467658,,-0.0957112244542,-2.48832120406,2.4352172701,0.520902759173,0.00942884270246,0.0217674130007
1589273891959584309,7960,1589273891959511897,,-0.118390802548,-2.48798763888,2.41179417073,0.518320930208,0.00878024058383,0.0206638626077
1589273891965631759,7961,1589273891965557954,,-0.117511951806,-2.35594349338,2.38778571469,0.513914537179,0.00880875374944,0.0187717205568
1589273891968612789,7962,1589273891968539758,,-0.0938689548979,-2.35581927318,2.36506736532,0.506784013833,0.00950364311821,0.0160644363198
1589273891971594882,7963,1589273891971526175,,-0.0934341824141,-2.35560830332,2.34187522413,0.503302821992,0.00884427087035,0.0141935645878
1589273891977767615,7964,1589273891977713358,,-0.093432939554,-2.35566897306,2.34181424663,0.503302891258,0.00884255778016,0.0141921757206
1589273891980556483,7965,1589273891980469063,,-0.0238747233192,-2.35567963557,2.31989156368,0.498031345712,0.0101772731572,0.0100129539425
1589273891986558050,7966,1589273891986465495,,-0.00062771616452,-2.4874263508,2.29810961642,0.495444709257,0.00953421761029,0.00920278143886
1589273891989634606,7967,1589273891989505497,,0.000135158517633,-2.35536096414,2.27408051816,0.490145236063,0.00955771791547,0.0064015789456
1589273891992586860,7968,1589273891992510064,,-0.0224467886101,-2.35516120638,2.25041222655,0.489357633716,0.00890104533612,0.00714340574996
1589273891995692421,7969,1589273891995567016,,-0.0224367505683,-2.3551405483,2.25043394609,0.487545838775,0.00957485398955,0.00621136932957
1589273892001588624,7970,1589273892001514427,,-0.0224414108961,-2.35514917181,2.25042487485,0.486640658851,0.0089086222062,0.00529248761734
1589273892004702659,7971,1589273892004548144,,-0.0225129437402,-2.35518990983,2.25038152582,0.483874937036,0.00890255344894,0.00614938690895
1589273892010676770,7972,1589273892010529481,,-0.0221683330396,-2.35501675896,2.22725704103,0.483091705678,0.00956035339506,0.00704243582819
1589273892013673836,7973,1589273892013619141,,-0.0226488465235,-2.35522495133,2.25034348803,0.482918305062,0.00954850665496,0.00884470908287
1589273892016635356,7974,1589273892016577447,,-0.0226988469928,-2.35522793071,2.250339866,0.482918315993,0.00954316517179,0.00884987561977
1589273892019850517,7975,1589273892019762788,,-0.0457877432661,-2.35517023978,2.24992904276,0.482904503981,0.00954291988068,0.0096162763117
1589273892025638384,7976,1589273892025557566,,-0.0458056775068,-2.35516750972,2.24993153547,0.48288999192,0.0101984573373,0.0105210562496
1589273892028863990,7977,1589273892028751547,,-0.0691892945081,-2.48700268692,2.25043964331,0.482860370537,0.0101931303458,0.0121784479561
1589273892034703135,7978,1589273892034610316,,-0.0692504980156,-2.4870012947,2.25043929935,0.483770444382,0.0101799208608,0.0121953167535
1589273892037677997,7979,1589273892037596389,,-0.0466570339781,-2.48722741229,2.27406766054,0.48545980438,0.0101677403087,0.0123791913657
1589273892040831487,7980,1589273892040658464,,-0.0470044036541,-2.61918601656,2.27495123218,0.485443793153,0.0101618893405,0.0132812141558
1589273892046640233,7981,1589273892046555897,,-0.0704886336746,-2.61929518011,2.29765857766,0.487103003672,0.0101552394719,0.0149667910762
1589273892049686165,7982,1589273892049549215,,-0.0708554248629,-2.75129815021,2.29852880412,0.485229319606,0.00949781247681,0.0167494877991
1589273892052762535,7983,1589273892052688734,,-0.0474609845079,-2.61934685129,2.2980732234,0.487976241456,0.00949296391275,0.0169447780742
1589273892058787875,7984,1589273892058649579,,-0.04742227308,-2.6193344296,2.29808818075,0.487976137313,0.00949965885647,0.0169440251584
1589273892061778408,7985,1589273892061697725,,-0.070461929348,-2.61929210482,2.29766290253,0.485245325909,0.00950876947836,0.0158364669048
1589273892065065313,7986,1589273892064968167,,-0.0704831733587,-2.61931635461,2.29763460634,0.485245312685,0.00950625476064,0.0158383816918
1589273892070886073,7987,1589273892070792105,,-0.0700615627757,-2.61909113301,2.27458583213,0.485430308652,0.0101624421687,0.0140367907995
1589273892073813553,7988,1589273892073724121,,-0.045780179682,-2.48678391021,2.22784614843,0.478430084859,0.0101828127796,0.0122444991461
1589273892076991630,7989,1589273892076912870,,-0.04572847277,-2.48680214145,2.22782685999,0.478429991841,0.0101902817973,0.01224191968
1589273892082854255,7990,1589273892082774311,,-0.0452750202209,-2.48660489263,2.20474297657,0.476789856352,0.0102016164545,0.00949873539094
1589273892085807264,7991,1589273892085730559,,-0.0221698008366,-2.48665527821,2.2051618499,0.471346665894,0.0102244996434,0.00684409604094
1589273892088904950,7992,1589273892088739335,,-0.0218462216091,-2.35478320634,2.20419851908,0.467726527553,0.0102345241776,0.00406406917956
1589273892094913262,7993,1589273892094801364,,-0.0218355506558,-2.35481123504,2.2041686809,0.467726416824,0.0102386564978,0.00406640359848
1589273892097897447,7994,1589273892097812498,,-0.0218354376217,-2.35484347145,2.20413424192,0.463186606905,0.00892477297665,0.0021828573464
1589273892100853764,7995,1589273892100784197,,-0.0218347838701,-2.35484309105,2.20413465481,0.463186586151,0.00892565394367,0.00218365901279
1589273892106647781,7996,1589273892106557651,,-0.0213788543163,-2.35466405059,2.18102096372,0.462417716956,0.008932810343,0.00216770639769
1589273892109832846,7997,1589273892109733718,,-0.0440160128206,-2.35443097987,2.1573955473,0.46164831783,0.0089326995109,0.00201171668551
1589273892112691203,7998,1589273892112616914,,-0.0435993257709,-2.35426239856,2.13427364724,0.460879589442,0.00893238130619,0.00199640631843
1589273892118594518,7999,1589273892118540798,,-0.0436234963351,-2.35429252957,2.13423991612,0.460879697861,0.00892692780608,0.00199576993142
1589273892121769871,8000,1589273892121681298,,-0.020773693686,-2.22272888052,2.15676283672,0.46163135412,0.00957900261737,0.00305654448207
1589273892124570720,8001,1589273892124497727,,-0.0208278710112,-2.22272243465,2.15676895722,0.46163153259,0.00956975072374,0.00305857011627
1589273892130835579,8002,1589273892130654971,,-0.0207482520701,-2.35435515301,2.13464206507,0.46177268764,0.00956492562658,0.00306339003658
1589273892133910921,8003,1589273892133815072,,-0.044957079685,-2.48657993397,2.18146235201,0.464203192974,0.00955672888744,0.00476536436553
1589273892139852202,8004,1589273892139736021,,-0.0449789490257,-2.48659375627,2.18144614549,0.464203299098,0.00955193064959,0.00476464679052
1589273892142831217,8005,1589273892142758275,,-0.0457671891723,-2.6187535499,2.20543281637,0.465832789971,0.00954109635067,0.00751005186841
1589273892148845641,8006,1589273892148750725,,-0.0462302170511,-2.61892865533,2.22853359925,0.466585480026,0.00953048051934,0.00842366095639
1589273892154740185,8007,1589273892154609605,,-0.0693280212907,-2.61891256832,2.22807469263,0.468385133622,0.00952686343419,0.0101218976586
1589273892157700767,8008,1589273892157629574,,-0.0231919009259,-2.61896744145,2.22896790631,0.468414246285,0.0101841685779,0.00860756071807
1589273892163841028,8009,1589273892163739355,,-0.0228034889721,-2.61876753876,2.20589549988,0.467645348356,0.0101862387451,0.00860013181653
1589273892166824406,8010,1589273892166730608,,-0.0688724318397,-2.6186701219,2.20505368605,0.464892847105,0.00954247796246,0.00915992255824
1589273892172935540,8011,1589273892172830655,,-0.0687830238125,-2.61867376813,2.20505214662,0.464892672284,0.0095549015931,0.0091558433594
1589273892176207963,8012,1589273892176041703,,-0.0449659967619,-2.48652851023,2.18152078312,0.460500785565,0.00956605508741,0.0065157917032
1589273892179101747,8013,1589273892178985959,,-0.0445135075906,-2.4863449279,2.15832449319,0.458818833004,0.009572947204,0.00648301315498
1589273892181669487,8014,1589273892181573219,,-0.0444874120241,-2.4863434744,2.15832670563,0.458818823337,0.00957532253065,0.00648018876928
1589273892187848928,8015,1589273892187752401,,-0.0213782818941,-2.48635682542,2.15878883784,0.455222419602,0.00959151544401,0.00294513390619
1589273892190842920,8016,1589273892190723213,,-0.0212891049804,-2.48640891666,2.15872972227,0.455222190785,0.00960372690374,0.00294070362387
1589273892196759472,8017,1589273892196664691,,0.00219424740923,-2.48628603257,2.13604373531,0.453547245108,0.00961379348789,0.00215829972223
1589273892199774236,8018,1589273892199682569,,-0.020143331577,-2.35412786364,2.11158858068,0.450047996219,0.0096254609631,0.00105759289648
1589273892202838654,8019,1589273892202735906,,0.0260932575098,-2.35428045023,2.11237755357,0.448264560551,0.0102948340937,-0.00140220898855
1589273892205759033,8020,1589273892205663186,,0.0262278136123,-2.48603164906,2.09011200851,0.446582727359,0.0102945574023,-0.00143243643999
1589273892211768638,8021,1589273892211659177,,0.00350573464031,-2.48576615549,2.06663454228,0.443048673017,0.00964435512855,-0.000737605215899
1589273892214737498,8022,1589273892214646169,,0.00352090943397,-2.48580493918,2.06658786622,0.443048628023,0.00964637110053,-0.000738269153543
1589273892220744637,8023,1589273892220662666,,0.00332929045125,-2.35407075506,2.08872211332,0.443800792201,0.00963665526199,0.000187397467505
1589273892223757139,8024,1589273892223653690,,0.0032538784975,-2.35407934566,2.08871255018,0.4438010503,0.00962471060163,0.000189998564278
1589273892226845229,8025,1589273892226744545,,0.0031889337838,-2.35409874719,2.08869078369,0.44378470648,0.00961393594901,0.00109181626704
1589273892229833639,8026,1589273892229725343,,0.0031365950872,-2.35410166292,2.08868757671,0.444671648504,0.00960507945353,0.00291124054867
1589273892235781538,8027,1589273892235666884,,0.00283613811858,-2.48603917206,2.08961731668,0.444656947274,0.0102557619322,0.00381871061974
1589273892238781200,8028,1589273892238689587,,-0.0210839777533,-2.48636014311,2.1354757306,0.447997389122,0.0102439232844,0.00553726606689
1589273892247792621,8029,1589273892247700549,,-0.0676083715145,-2.61824070383,2.13554473928,0.450628938734,0.0102177314159,0.0115972556681
1589273892250723794,8030,1589273892250635273,,-0.0450613138002,-2.61844795467,2.15907861374,0.451413329041,0.0108695767068,0.0108598862534
1589273892253716000,8031,1589273892253636637,,-0.0450853279865,-2.61843293494,2.15909632764,0.451413398584,0.0108660762225,0.0108604985683
1589273892259671391,8032,1589273892259601191,,-0.0681425430216,-2.61837679689,2.15868474489,0.453213183456,0.0108635258337,0.0125608311841
1589273892262819521,8033,1589273892262716964,,-0.068098850113,-2.61835800468,2.15870891748,0.453213179025,0.0108681302064,0.0125570074239
1589273892268671681,8034,1589273892268575799,,-0.0450234227231,-2.618393276,2.15914571468,0.451413203895,0.0108757826395,0.0108588749081
1589273892271783789,8035,1589273892271692474,,-0.044590468516,-2.61822678434,2.13604008105,0.44974872344,0.0102179582908,0.00993002614949
1589273892275564945,8036,1589273892275481204,,-0.0442930791963,-2.48617401758,2.13521086464,0.447920897277,0.0108857834087,0.00990037530133
1589273892281031814,8037,1589273892280968629,,-0.0207220778862,-2.48601987094,2.11256513215,0.446276210374,0.0102406746651,0.00731019346402
1589273892283701095,8038,1589273892283612788,,0.00281859028422,-2.48587444159,2.08981330627,0.442835739123,0.0109246970706,0.00288000864314
1589273892286713640,8039,1589273892286635703,,0.00285789830454,-2.48585921078,2.0898313701,0.440143859574,0.0102700971465,0.000129964455664
1589273892292847024,8040,1589273892292677658,,0.00293124818069,-2.48589642858,2.08978699705,0.44014364254,0.0102794458367,0.000125822412131
1589273892295791085,8041,1589273892295703126,,0.0034280309545,-2.48575062422,2.06665335363,0.439424713272,0.0102938831412,-0.00259875152241
1589273892298701520,8042,1589273892298617341,,0.0034574306593,-2.48577704788,2.06662152212,0.438521716233,0.0102976397532,-0.00352787437434
1589273892305045377,8043,1589273892304863695,,0.00362959012622,-2.61763223297,2.04441949921,0.436842978401,0.0103060981897,-0.00355820588977
1589273892307857720,8044,1589273892307765535,,0.0263657106566,-2.61789566721,2.06788439717,0.439455507456,0.0103041872122,-0.00426867107329
1589273892310716295,8045,1589273892310624799,,0.0489563254917,-2.61811771914,2.09140710457,0.440219751601,0.00964395997977,-0.00409569187848
1589273892316742261,8046,1589273892316637932,,0.0489308170914,-2.61813396714,2.09138736139,0.440219858907,0.00963839715076,-0.00409725273112
1589273892319750968,8047,1589273892319639920,,0.0258381253854,-2.61808194992,2.09096123924,0.441117570577,0.0102849072976,-0.00332605924177
1589273892322871982,8048,1589273892322808978,,0.0253305191949,-2.61824799017,2.1141653748,0.442793078979,0.0102677728658,-0.00239468969808
1589273892328783342,8049,1589273892328688420,,0.00255107878562,-2.61802101659,2.09054721795,0.441990480596,0.0102606397889,-0.000750907145476
1589273892332064253,8050,1589273892331936916,,0.00137898482578,-2.75043485874,2.1376895654,0.444391375887,0.0102500111516,0.00200479335802
1589273892334852720,8051,1589273892334708011,,-0.0217646140108,-2.75036057238,2.13729597401,0.446167957304,0.0102357830762,0.00550550904875
1589273892340787745,8052,1589273892340679867,,-0.0463777043108,-3.01492287776,2.18477574614,0.454061594743,0.010209327201,0.00820453329163
1589273892343845928,8053,1589273892343735665,,-0.046456627693,-3.01492764937,2.18476748465,0.454061785914,0.0101990210212,0.00820677108947
1589273892346956427,8054,1589273892346841241,,-0.0468828474392,-3.01507342141,2.20787809943,0.456603533417,0.00953496686309,0.0118627585128
1589273892352951066,8055,1589273892352787751,,-0.0469042177644,-3.01505902939,2.20789729913,0.456603568384,0.00953238492976,0.0118634875938
1589273892355919338,8056,1589273892355821708,,-0.0699879976656,-3.01501146327,2.20747351685,0.459329679411,0.0095254138834,0.0126662194516
1589273892358847967,8057,1589273892358768459,,-0.0473017461606,-3.01519613728,2.23102178917,0.461017522938,0.0101802468233,0.0128413231554
1589273892367697984,8058,1589273892367570056,,-0.0464098361479,-2.88281575866,2.20722095986,0.458451332169,0.0102028683952,0.0109736023543
1589273892370827552,8059,1589273892370726934,,-0.046327753711,-2.88279697,2.20724722356,0.458467064431,0.010218652108,0.0100762450272
1589273892377293992,8060,1589273892377104291,,-0.0462699089395,-2.88276813865,2.20728609183,0.45756324116,0.0102291823947,0.0091582964568
1589273892380128033,8061,1589273892380033902,,-0.0231025058994,-2.88281732959,2.20770821846,0.456699365211,0.0102427424932,0.00658192970775
1589273892382778971,8062,1589273892382638167,,-0.0226318959858,-2.88265246823,2.18461709031,0.455045100369,0.0109196457334,0.00475076359718
1589273892388639645,8063,1589273892388554691,,-0.0229878598211,-2.88279941616,2.20773280628,0.454910337195,0.0109307693438,0.00383957685334
1589273892391715517,8064,1589273892391618463,,-0.0217896469241,-2.75035009356,2.16062203725,0.448866197577,0.0109542048436,0.000122129055897
1589273892394703792,8065,1589273892394638639,,-0.0213849471622,-2.75016686181,2.13754905752,0.449023863073,0.0109549678379,-0.000772201891827
1589273892400671249,8066,1589273892400611897,,0.00176076848807,-2.75021712544,2.13796939978,0.448142640084,0.0103007505732,-0.00244896707139
1589273892403798655,8067,1589273892403713251,,0.00222536828026,-2.75011632574,2.11479192602,0.445544017847,0.0103131719229,-0.00249409581578
1589273892406780234,8068,1589273892406674367,,0.00217161809928,-2.75010316905,2.114809091,0.445544186856,0.0103064965808,-0.00249149655091
1589273892412748156,8069,1589273892412669366,,-0.020935863742,-2.75007615181,2.11435880494,0.445530362358,0.0102983229139,-0.00173728014082
1589273892415757098,8070,1589273892415688743,,0.00166013603527,-2.75034004003,2.13781135743,0.449002670253,0.0102865861564,0.000282896447435
1589273892421917226,8071,1589273892421812066,,0.00160197302282,-2.7503621367,2.13778297366,0.449002881731,0.0102773392854,0.00028332590842
1589273892425452843,8072,1589273892425361636,,-0.021936849455,-2.75047066481,2.16046705839,0.453367901743,0.0102575104735,0.00381503369946
1589273892427895136,8073,1589273892427813164,,-0.0219935061146,-2.75047694966,2.16045848115,0.453368115954,0.0102480692486,0.0038149505412
1589273892433902629,8074,1589273892433824127,,-0.0465861836817,-3.01501036015,2.20797049244,0.457563210473,0.010228961926,0.0091600756834
1589273892436916384,8075,1589273892436808610,,-0.0701715848987,-3.01512617203,2.23063531267,0.459207978001,0.0108802778118,0.011749859899
1589273892440002667,8076,1589273892439808058,,-0.0702770103349,-3.01515048086,2.23059913528,0.459208112603,0.0108682986568,0.011755684465
1589273892445929398,8077,1589273892445818212,,-0.0718416958119,-3.27990589093,2.27836497248,0.467975238415,0.0121712261094,0.0173415689477
1589273892448686786,8078,1589273892448620121,,-0.0719135706389,-3.27988703825,2.27838984486,0.467975576631,0.0121601987584,0.0173401779258
1589273892451747330,8079,1589273892451691154,,-0.0950787769779,-3.27983004856,2.27797894652,0.469774297497,0.0114821007286,0.0190302702488
1589273892457915308,8080,1589273892457803944,,-0.0955410005697,-3.28000807626,2.30103314016,0.47054299828,0.011476695288,0.0190480924774
1589273892460863921,8081,1589273892460722442,,-0.0963100496331,-3.41240058948,2.32486708421,0.473121492474,0.0121368250668,0.0209092753446
1589273892463864852,8082,1589273892463691582,,-0.119072494133,-3.4121874976,2.30137873339,0.472339127553,0.0121449138279,0.0216576625258
1589273892469813824,8083,1589273892469701764,,-0.119003804007,-3.41216896278,2.30140976711,0.47233890182,0.0121544177497,0.0216572540233
1589273892472877382,8084,1589273892472782904,,-0.072263760032,-3.27999164907,2.30155270804,0.47239530213,0.0114993552942,0.0183266866291
1589273892475885781,8085,1589273892475733212,,-0.0722325897311,-3.27996373408,2.30159346821,0.472395322958,0.011502436188,0.0183242161743
1589273892481721705,8086,1589273892481617713,,-0.0721776420568,-3.27996089228,2.30159924182,0.472428902554,0.0121764131233,0.0165220157639
1589273892487821762,8087,1589273892487715036,,-0.0256986103516,-3.28007820958,2.30242017392,0.472503284794,0.0122132011371,0.0122937087914
1589273892493853357,8088,1589273892493700611,,-0.0256108394336,-3.2801297767,2.30234768655,0.470693983994,0.0115623803337,0.0104474023764
1589273892496935804,8089,1589273892496818174,,0.0212144056636,-3.2800798215,2.28010029316,0.470017506753,0.0115770841216,0.00531165941484
1589273892499800525,8090,1589273892499687892,,-0.00162903852543,-3.14777779381,2.27896414525,0.469108263181,0.0109219439301,0.00514992334714
1589273892505920705,8091,1589273892505824085,,-0.00113713446976,-3.14766714918,2.25570744769,0.466539295552,0.0109371280227,0.00329145859983
1589273892509152981,8092,1589273892509038464,,-0.000977052315097,-3.27977703813,2.23331934394,0.46576877171,0.0102735522117,0.00327411706233
1589273892511904568,8093,1589273892511835481,,-0.00104716799578,-3.27978175092,2.23331239112,0.465768920749,0.0102657656875,0.00327733691284
1589273892517951274,8094,1589273892517857006,,-0.0242159627759,-3.27973855364,2.23288155434,0.465755227014,0.010259218853,0.00403744755103
1589273892520872758,8095,1589273892520740452,,-0.0247996155182,-3.14781350618,2.27842457958,0.470940730465,0.0109105496197,0.00504169754337
1589273892523783328,8096,1589273892523691638,,-0.0248276971028,-3.1478332893,2.27839694164,0.470940811341,0.0109067372946,0.0050423916247
1589273892529870665,8097,1589273892529780595,,-0.0249358378212,-3.14782313679,2.27840978731,0.471826413442,0.0102245180443,0.00686306937154
1589273892532834749,8098,1589273892532749518,,-0.0492224471316,-3.28029041897,2.32493899884,0.47602847153,0.011543539047,0.0113053129294
1589273892538911990,8099,1589273892538808148,,-0.0492805258307,-3.28029387457,2.32493289293,0.476028552291,0.0115372302729,0.0113083518903
1589273892541808613,8100,1589273892541720048,,-0.0731872236633,-3.4126677495,2.34829512698,0.47763902061,0.0115278289927,0.0157160046065
1589273892547753317,8101,1589273892547663695,,-0.0737120442505,-3.54496274609,2.34896820493,0.479405025734,0.0114971843226,0.0193773307913
1589273892553963068,8102,1589273892553847269,,-0.121315532643,-3.67747991164,2.39506234081,0.484517340803,0.0121413639891,0.0246051378756
