%time,field.header.seq,field.header.stamp,field.header.frame_id,field.vector.x,field.vector.y,field.vector.z
1589285442449991035,2374,1589285442449931933,,-0.00630273415571,-4.66194687455,1.05162947207
1589285442453010438,2375,1589285442452940778,,-0.00678135790242,-4.6074319138,1.04118946633
1589285442455853848,2376,1589285442455758784,,-0.00763615027515,-4.6203851877,1.04431486636
1589285442461873543,2377,1589285442461787097,,-0.00813135965487,-4.59523545932,1.03968045056
1589285442464889312,2378,1589285442464780902,,-0.00855420540484,-4.57791980446,1.03727185666
1589285442467978203,2379,1589285442467858605,,-0.00932771444759,-4.55240652283,1.03208951266
1589285442474355478,2380,1589285442474271436,,-0.0100745658292,-4.52563433841,1.02768053321
1589285442476886768,2381,1589285442476816250,,-0.0104988636693,-4.50805522568,1.02552825503
1589285442482836128,2382,1589285442482747743,,-0.0110071727342,-4.48057371064,1.02000567278
1589285442485938365,2383,1589285442485852472,,-0.0117808642366,-4.46249909364,1.0178201245
1589285442489171248,2384,1589285442489055570,,-0.0122546677526,-4.43446148213,1.01338846072
1589285442491763465,2385,1589285442491701405,,-0.012795392317,-4.4156596213,1.01050817958
1589285442498031450,2386,1589285442497936662,,-0.0136220906284,-4.38812586119,1.00591936308
1589285442500872938,2387,1589285442500791079,,-0.0138146763877,-4.35835969227,1.00194133166
1589285442509812584,2388,1589285442509738530,,-0.0151611354951,-4.31135246949,0.995324189667
1589285442512932476,2389,1589285442512847318,,-0.0154413927184,-4.29368715843,0.994150764113
1589285442515845485,2390,1589285442515764833,,-0.0162349130993,-4.26532892574,0.989761547331
1589285442521828199,2391,1589285442521739475,,-0.0169945494895,-4.23633512135,0.985615578773
1589285442524874425,2392,1589285442524786999,,-0.0179859103415,-4.22008758839,0.983337344763
1589285442530847163,2393,1589285442530760354,,-0.0186435017299,-4.19275888317,0.979381240424
1589285442533865651,2394,1589285442533772649,,-0.0198144518422,-4.164509851,0.974430345214
1589285442536800153,2395,1589285442536706453,,-0.0203717752179,-4.15322583287,0.973255272676
1589285442540000050,2396,1589285442539902659,,-0.0216639823952,-4.12563298829,0.967521396822
1589285442545870379,2397,1589285442545750992,,-0.0228130678293,-4.11055625272,0.964871063854
1589285442548924229,2398,1589285442548831983,,-0.0235630985204,-4.0859057238,0.960413708879
1589285442555026383,2399,1589285442554863663,,-0.0246693020243,-4.05833602255,0.955445936093
1589285442557920101,2400,1589285442557836307,,-0.026191492167,-4.04479973426,0.952755763143
1589285442560819001,2401,1589285442560726108,,-0.0274116576066,-4.01705342441,0.947232613674
1589285442563900677,2402,1589285442563771414,,-0.028142062486,-4.00426796736,0.946055734668
1589285442573442654,2403,1589285442573334965,,-0.0289257166958,-3.96002456057,0.9382701534
1589285442575815844,2404,1589285442575735691,,-0.0299627874219,-3.94773530027,0.93588332336
1589285442578875741,2405,1589285442578686412,,-0.0305224229379,-3.93473539964,0.934200077609
1589285442581876952,2406,1589285442581768663,,-0.0308890227779,-3.9043701626,0.92971003837
1589285442584880944,2407,1589285442584823879,,-0.0316138232243,-3.8909177128,0.927663578772
1589285442590881835,2408,1589285442590802694,,-0.0323095868066,-3.86044912047,0.923092002212
1589285442593808928,2409,1589285442593724812,,-0.0327887798996,-3.82873143397,0.91843146151
1589285442596877515,2410,1589285442596760666,,-0.0336705131922,-3.81426799517,0.91737618109
1589285442602935482,2411,1589285442602816948,,-0.0338831079477,-3.78255528781,0.912868987105
1589285442608910433,2412,1589285442608811469,,-0.0351443672038,-3.74932285496,0.908161839577
1589285442612163364,2413,1589285442612061932,,-0.035845164176,-3.73598550681,0.906627287063
1589285442615144013,2414,1589285442614987808,,-0.0365175669387,-3.70340370036,0.902537705184
1589285442618079073,2415,1589285442617964063,,-0.0375129984475,-3.69038651159,0.90120137198
1589285442621057939,2416,1589285442620939711,,-0.0383920166774,-3.65835166708,0.896695977907
1589285442630257271,2417,1589285442630156921,,-0.0405253794693,-3.61487724867,0.891752198898
1589285442632834444,2418,1589285442632711804,,-0.0413540249681,-3.60296588599,0.891540930671
1589285442638862129,2419,1589285442638788139,,-0.0428741746436,-3.57202628367,0.886916435769
1589285442641965577,2420,1589285442641892858,,-0.0438185278283,-3.54043295447,0.882592355367
1589285442644980712,2421,1589285442644861471,,-0.0447962504319,-3.52976991125,0.881518438656
1589285442650986622,2422,1589285442650913473,,-0.0458940494187,-3.4985966623,0.876929529085
1589285442653889314,2423,1589285442653820482,,-0.0465890446155,-3.46763947897,0.872904947135
1589285442657010982,2424,1589285442656917635,,-0.0473711191999,-3.45892594255,0.872402612972
1589285442663063718,2425,1589285442662965384,,-0.0481371016124,-3.42663911243,0.867221473208
1589285442665816173,2426,1589285442665746822,,-0.0492211404183,-3.41509913271,0.866089391964
1589285442672259769,2427,1589285442672151834,,-0.0496051820629,-3.38440406435,0.861628987697
1589285442675381360,2428,1589285442675286736,,-0.0499369622183,-3.35049731969,0.857390989153
1589285442677856006,2429,1589285442677744991,,-0.0508901793522,-3.33911993589,0.85619234493
1589285442680855702,2430,1589285442680687239,,-0.0515122284359,-3.30597733082,0.85172911947
1589285442687523061,2431,1589285442687399731,,-0.0518186367996,-3.27206821882,0.846994838979
1589285442689879964,2432,1589285442689782851,,-0.0522010244981,-3.2606379197,0.846719337115
1589285442692792953,2433,1589285442692682877,,-0.0526596200438,-3.25026498477,0.846496224301
1589285442698779208,2434,1589285442698702859,,-0.0530843907638,-3.21636189987,0.841024204816
1589285442701798722,2435,1589285442701696372,,-0.0533191967323,-3.18180850896,0.836629515852
1589285442707823427,2436,1589285442707751852,,-0.0535944852497,-3.14759739653,0.831850812332
1589285442710894795,2437,1589285442710735513,,-0.0539202309717,-3.13821126884,0.83150943022
1589285442713809962,2438,1589285442713726894,,-0.0544633499214,-3.10298133639,0.826395543491
1589285442719975926,2439,1589285442719694616,,-0.0547723897743,-3.09303799205,0.82667048179
1589285442722810065,2440,1589285442722632547,,-0.0553048382489,-3.05996605057,0.820806407137
1589285442725797916,2441,1589285442725705524,,-0.0558346988954,-3.0499680063,0.820509620969
1589285442731799753,2442,1589285442731684795,,-0.0563873048156,-3.01655356356,0.815367637746
1589285442734840965,2443,1589285442734709893,,-0.0570499171971,-2.98256718281,0.810039612428
1589285442737920525,2444,1589285442737816284,,-0.0574068317355,-2.97411265715,0.809985139755
1589285442743882818,2445,1589285442743808899,,-0.0580085342156,-2.94048625584,0.804311527214
1589285442750095008,2446,1589285442749995156,,-0.0588888486245,-2.89779935202,0.799697087785
1589285442756111824,2447,1589285442756016955,,-0.0593074512204,-2.86362320768,0.793931580624
1589285442759028081,2448,1589285442758916848,,-0.0594048634445,-2.85400360853,0.794524591111
1589285442765242866,2449,1589285442765134178,,-0.0601263988969,-2.81984258662,0.789112814561
1589285442768050823,2450,1589285442767954284,,-0.06038334945,-2.78511106325,0.784128809117
1589285442771472903,2451,1589285442771366063,,-0.0604020827794,-2.77567629123,0.785323410729
1589285442773963959,2452,1589285442773898748,,-0.0604928593117,-2.74171363157,0.780618345727
1589285442782911283,2453,1589285442782802334,,-0.0608287406733,-2.70613888905,0.774611409543
1589285442785932851,2454,1589285442785828203,,-0.0609199645719,-2.69666293233,0.774888976282
1589285442788790566,2455,1589285442788718906,,-0.0610034275759,-2.66252253227,0.770533538845
1589285442791887011,2456,1589285442791760520,,-0.0611269221741,-2.65352778082,0.770144912369
1589285442795058242,2457,1589285442794943744,,-0.0615057506255,-2.61782680446,0.764687848917
1589285442797792535,2458,1589285442797707040,,-0.0615947342012,-2.60993766985,0.76515317942
1589285442803774305,2459,1589285442803628297,,-0.0620749865809,-2.57546395631,0.759543358295
1589285442809720343,2460,1589285442809660850,,-0.0623543785645,-2.53342058885,0.754515312368
1589285442815737073,2461,1589285442815680924,,-0.0627546808618,-2.49925394156,0.748948926468
1589285442818667202,2462,1589285442818606687,,-0.0630309600151,-2.49297298055,0.748758470253
1589285442824702910,2463,1589285442824599400,,-0.063203087735,-2.45918299524,0.743590679394
1589285442827685493,2464,1589285442827612613,,-0.0633883719635,-2.42496636532,0.738334661706
1589285442830610303,2465,1589285442830544245,,-0.0637552430312,-2.41877236654,0.739051543266
1589285442836712895,2466,1589285442836658525,,-0.0639031048478,-2.38577886766,0.734019149686
1589285442839805055,2467,1589285442839618044,,-0.064250241871,-2.37974486112,0.734373982873
1589285442842620514,2468,1589285442842556084,,-0.0643967169249,-2.34487373062,0.729418013344
1589285442848668869,2469,1589285442848599482,,-0.0646189352459,-2.31194523669,0.723718339557
1589285442851639385,2470,1589285442851572496,,-0.064785919493,-2.30509533031,0.723783547454
1589285442854958771,2471,1589285442854898534,,-0.0648180788843,-2.27018252115,0.718471476513
1589285442860911537,2472,1589285442860836541,,-0.0650032866448,-2.23561062205,0.713354102804
1589285442866860226,2473,1589285442866801935,,-0.0649947941762,-2.20087698015,0.707878772175
1589285442873336088,2474,1589285442873270069,,-0.0651325064333,-2.15367806668,0.699482646241
1589285442876072493,2475,1589285442875952221,,-0.065247992073,-2.15963157744,0.70217205536
1589285442879102660,2476,1589285442879021169,,-0.0654553843432,-2.15378494475,0.702131975096
1589285442881932104,2477,1589285442881870682,,-0.0653775820737,-2.11839199418,0.696805907894
1589285442885092348,2478,1589285442884954037,,-0.0653665510256,-2.11183870692,0.697601466784
1589285442888028798,2479,1589285442887968866,,-0.0656193822497,-2.07698979229,0.69216621312
1589285442893909021,2480,1589285442893829157,,-0.0657796784528,-2.0422406576,0.686381674556
1589285442896928123,2481,1589285442896824179,,-0.0658342891139,-2.03661443599,0.687120009946
1589285442900206531,2482,1589285442900118719,,-0.0659519928638,-2.03048098001,0.687777337004
1589285442902810461,2483,1589285442902709585,,-0.0661681177617,-1.99585067827,0.682107953957
1589285442909198210,2484,1589285442909034656,,-0.0664370643463,-1.96164558252,0.67669251657
1589285442911694060,2485,1589285442911624513,,-0.0664398127918,-1.95685697737,0.677610222705
1589285442917695224,2486,1589285442917614397,,-0.0667465065113,-1.92331692723,0.672391526109
1589285442920675118,2487,1589285442920598009,,-0.0669456739747,-1.88947507338,0.66649509794
1589285442923677133,2488,1589285442923594074,,-0.0670572875715,-1.88469538005,0.666862574271
1589285442927041962,2489,1589285442926961676,,-0.0671404647515,-1.85130228058,0.661936291863
1589285442933005930,2490,1589285442932838001,,-0.0674159223842,-1.84696364557,0.662351201019
1589285442935791945,2491,1589285442935736898,,-0.0678310065385,-1.8138055231,0.657017752146
1589285442942070787,2492,1589285442941993389,,-0.0678640641884,-1.7806706115,0.651799549898
1589285442945108784,2493,1589285442944995445,,-0.0680762627537,-1.77634657618,0.652545701011
1589285442948131993,2494,1589285442948029917,,-0.0681944102631,-1.74271414646,0.647365592652
1589285442954463377,2495,1589285442954295762,,-0.068295842752,-1.70951194936,0.642094512576
1589285442957141836,2496,1589285442957044242,,-0.0684233869721,-1.70496132864,0.642682315192
1589285442960300345,2497,1589285442960179270,,-0.0685747406763,-1.70040147262,0.643267001182
1589285442966442460,2498,1589285442966353499,,-0.0686250653521,-1.66762061894,0.638304972842
1589285442972286759,2499,1589285442972186615,,-0.0686074111458,-1.63446906918,0.633252535433
1589285442975394722,2500,1589285442975271321,,-0.0686899301042,-1.60175673394,0.62818088591
1589285442978016350,2501,1589285442977871259,,-0.068617423743,-1.59710933548,0.628530610763
1589285442980973257,2502,1589285442980895802,,-0.0686438285104,-1.56473871812,0.623578817302
1589285442984060895,2503,1589285442983917441,,-0.0683943350978,-1.56052405513,0.624469204388
1589285442989982422,2504,1589285442989913028,,-0.0685145974421,-1.52881802135,0.619770681238
1589285442993138049,2505,1589285442992935250,,-0.0686432724649,-1.52555881062,0.620595518217
1589285442996283197,2506,1589285442996215320,,-0.0687014722618,-1.49419636217,0.615661171964
1589285443002002794,2507,1589285443001913453,,-0.0687712501046,-1.46241312731,0.610636827474
1589285443005006269,2508,1589285443004887224,,-0.0687018739777,-1.45959197503,0.611680591271
1589285443008050792,2509,1589285443007963077,,-0.0687421019658,-1.42884752385,0.606776295505
1589285443014139073,2510,1589285443013982412,,-0.0686792947778,-1.39896029031,0.602186364661
1589285443020522213,2511,1589285443020430100,,-0.0686152890426,-1.36903912388,0.597592912337
1589285443023076210,2512,1589285443022905629,,-0.0686940259328,-1.36739086811,0.598243592428
1589285443026073519,2513,1589285443025968295,,-0.0687200446769,-1.3654740172,0.59916049152
1589285443029021121,2514,1589285443028918678,,-0.0688654466506,-1.33637872962,0.594521527096
1589285443034970328,2515,1589285443034893618,,-0.0689753956261,-1.30719064765,0.589708552005
1589285443037908973,2516,1589285443037799704,,-0.0690007779153,-1.30570320531,0.590356753888
1589285443041007605,2517,1589285443040883199,,-0.0690222017269,-1.27690556824,0.585796751775
1589285443043910464,2518,1589285443043811140,,-0.0690626652807,-1.27539562146,0.586642139596
1589285443049954402,2519,1589285443049862552,,-0.0691152259149,-1.24691735525,0.58232201441
1589285443053136988,2520,1589285443052889417,,-0.0690679272081,-1.24511654671,0.583505433777
1589285443056089490,2521,1589285443056016761,,-0.0691238885937,-1.2172258393,0.578936378108
1589285443061992480,2522,1589285443061895929,,-0.069183668676,-1.18959192451,0.574468069618
1589285443064954367,2523,1589285443064840766,,-0.068981063564,-1.18827400114,0.575278497639
1589285443067952339,2524,1589285443067856569,,-0.0689228750728,-1.16089917602,0.570633442965
1589285443074287027,2525,1589285443074189403,,-0.0688505373532,-1.13385731831,0.565923898661
1589285443076863014,2526,1589285443076795189,,-0.0686585065931,-1.13281919873,0.566619865334
1589285443080402078,2527,1589285443080102832,,-0.0686203449544,-1.13213275437,0.567496472887
1589285443086132200,2528,1589285443085977766,,-0.0687252938108,-1.10565983195,0.562859164496
1589285443089097447,2529,1589285443088991451,,-0.0685412595982,-1.07946611615,0.558765697177
1589285443095085850,2530,1589285443094973462,,-0.068428215927,-1.05354681208,0.554588218712
1589285443098010876,2531,1589285443097893594,,-0.0683320843727,-1.05313019923,0.555390166919
1589285443101003286,2532,1589285443100863180,,-0.0682576914076,-1.02808700234,0.551076960524
1589285443109984968,2533,1589285443109893692,,-0.0681343106452,-1.00250731772,0.54738950952
1589285443116094929,2534,1589285443115983532,,-0.0679646701648,-0.978088188497,0.543330098085
1589285443122207868,2535,1589285443122100136,,-0.0679810394259,-0.95417925813,0.538939298112
1589285443125139572,2536,1589285443125038199,,-0.0678856317151,-0.953656228193,0.53959002393
1589285443128110586,2537,1589285443127967029,,-0.0678258150495,-0.930117476304,0.535345787368
1589285443131146153,2538,1589285443131038230,,-0.0678391240925,-0.930221036013,0.535688611857
1589285443134219114,2539,1589285443134085343,,-0.0678235377147,-0.907009799976,0.531538533306
1589285443137099911,2540,1589285443137008121,,-0.0678157680913,-0.907003447463,0.531873756494
1589285443143044869,2541,1589285443142961017,,-0.0677208938739,-0.88413673026,0.52762505718
1589285443146068443,2542,1589285443145950094,,-0.0677463683067,-0.883965021554,0.528054242751
1589285443149126855,2543,1589285443148975629,,-0.0676382178566,-0.861925366687,0.524053029781
1589285443155172193,2544,1589285443155062359,,-0.0676687611024,-0.840411621228,0.520071246056
1589285443158057250,2545,1589285443157967199,,-0.0676778197199,-0.840517412425,0.520267399694
1589285443160663171,2546,1589285443160602662,,-0.0675373202124,-0.819259833604,0.516590773455
1589285443173397638,2547,1589285443173115528,,-0.0674258579084,-0.798729221212,0.512914605817
1589285443176184240,2548,1589285443176045685,,-0.0672449843166,-0.778655333736,0.50931450247
1589285443179303920,2549,1589285443179211100,,-0.0673056018367,-0.778790042465,0.509449788003
1589285443182031283,2550,1589285443181912370,,-0.067105452671,-0.759292625901,0.5059879836
1589285443185294414,2551,1589285443185163564,,-0.0670503589811,-0.759501235808,0.506321457227
1589285443190720978,2552,1589285443190622305,,-0.066788434225,-0.740665226055,0.502947987055
1589285443194232567,2553,1589285443194112772,,-0.066777969963,-0.722332920676,0.499404615326
1589285443196638939,2554,1589285443196566014,,-0.0665766201955,-0.722472285161,0.499787630081
1589285443202945138,2555,1589285443202781061,,-0.0663967668324,-0.704455515552,0.496589753328
1589285443205876530,2556,1589285443205788746,,-0.0660145916783,-0.704911734985,0.49730845046
1589285443211775919,2557,1589285443211699352,,-0.0659711877543,-0.688030303998,0.494102988409
1589285443215311939,2558,1589285443215155465,,-0.0657236338423,-0.671264619416,0.49133866162
1589285443218165537,2559,1589285443218059393,,-0.065379495144,-0.671849036417,0.492023649334
1589285443226841788,2560,1589285443226760463,,-0.0649417390745,-0.640123197736,0.486497556888
1589285443229875237,2561,1589285443229783889,,-0.064611098686,-0.640683373636,0.487290764522
1589285443232803567,2562,1589285443232715203,,-0.0640938162884,-0.641220066813,0.488151889094
1589285443235872040,2563,1589285443235794110,,-0.0635967784952,-0.626895976806,0.486243297363
1589285443239180781,2564,1589285443239095377,,-0.0629567639089,-0.627498448957,0.487612697403
1589285443242230224,2565,1589285443242069160,,-0.0624119666626,-0.613705392987,0.486148394607
1589285443248105999,2566,1589285443248004973,,-0.0617980688969,-0.600897625515,0.484713988483
1589285443251164329,2567,1589285443251051602,,-0.0611965528223,-0.601735947977,0.486245733591
1589285443257030313,2568,1589285443256950653,,-0.060570872124,-0.589701084991,0.4848595742
1589285443260453893,2569,1589285443260190978,,-0.0600578316451,-0.590527103468,0.486116765567
1589285443262932575,2570,1589285443262858261,,-0.0594599444667,-0.579435916347,0.484886828656
1589285443266029990,2571,1589285443265950227,,-0.0589630787352,-0.580545543829,0.486044658874
1589285443275635378,2572,1589285443275513126,,-0.0585417354565,-0.559139087425,0.482547046507
1589285443278223713,2573,1589285443278109258,,-0.0581081259821,-0.560642788656,0.483523104613
1589285443281151471,2574,1589285443281059966,,-0.0578444121572,-0.551967077403,0.482407579043
1589285443284184370,2575,1589285443284067240,,-0.0575507566518,-0.55353990739,0.483341322292
1589285443289807538,2576,1589285443289718779,,-0.0569240007036,-0.547214592668,0.483210524637
1589285443296251888,2577,1589285443296134997,,-0.0566066092135,-0.540461641613,0.482612355741
1589285443299175413,2578,1589285443299080053,,-0.0563054147645,-0.541924819977,0.483194066861
1589285443308281384,2579,1589285443308180680,,-0.0559217381587,-0.529064121722,0.481292435245
1589285443311156504,2580,1589285443311028630,,-0.0556672944275,-0.53055176176,0.481910003199
1589285443314136289,2581,1589285443314033842,,-0.0553732811829,-0.526162981655,0.481378886803
1589285443317165394,2582,1589285443317064657,,-0.0553289034219,-0.527581897249,0.481835848465
1589285443319792398,2583,1589285443319608016,,-0.0550666691576,-0.529602777105,0.482465401854
1589285443322648001,2584,1589285443322579819,,-0.054772667778,-0.52607202036,0.481999550637
1589285443329004520,2585,1589285443328912993,,-0.0546794221178,-0.523371790175,0.481248760718
1589285443332228956,2586,1589285443332057306,,-0.0543114381248,-0.524834587156,0.481761246825
1589285443334882875,2587,1589285443334744970,,-0.0540136066643,-0.523504046494,0.481301249215
1589285443338120161,2588,1589285443338035864,,-0.0538671661718,-0.525457501425,0.481532357333
1589285443344068075,2589,1589285443343990869,,-0.0536756060597,-0.525011434812,0.480914432282
1589285443347649108,2590,1589285443347529603,,-0.0534457521303,-0.524908839362,0.480678660914
1589285443352875903,2591,1589285443352710797,,-0.0532610550388,-0.526752869903,0.480589873507
1589285443355650097,2592,1589285443355589502,,-0.053044102856,-0.527832917283,0.480347362623
1589285443358877581,2593,1589285443358742294,,-0.0530834165149,-0.529539120741,0.47988425469
1589285443367871949,2594,1589285443367782787,,-0.0527543185998,-0.529433691419,0.480280119569
1589285443371239897,2595,1589285443371169440,,-0.052522495534,-0.530774127023,0.480091713157
1589285443374112458,2596,1589285443374021343,,-0.0523594257438,-0.530224272067,0.480370780035
1589285443376708277,2597,1589285443376636990,,-0.052188889831,-0.531789959597,0.480081936178
1589285443383248474,2598,1589285443383109922,,-0.0519721935096,-0.531059792708,0.480268929971
1589285443389230079,2599,1589285443389140144,,-0.051748236191,-0.528090075287,0.480915517676
1589285443391851560,2600,1589285443391733840,,-0.0515566124732,-0.529379522683,0.480929827087
1589285443397840626,2601,1589285443397757764,,-0.0514051665479,-0.52523913076,0.481399051359
1589285443401179140,2602,1589285443401043028,,-0.0512357324794,-0.520085840211,0.482079416286
1589285443404206004,2603,1589285443404095187,,-0.0508883446249,-0.520801094763,0.481437383494
1589285443413143468,2604,1589285443413041864,,-0.0502420006364,-0.516023773604,0.482121847634
1589285443416143504,2605,1589285443416021608,,-0.0497051448712,-0.508588647578,0.483575515492
1589285443422193098,2606,1589285443422094695,,-0.0495627298653,-0.500259513129,0.48516527449
1589285443425131248,2607,1589285443425047886,,-0.0492777442458,-0.501244025472,0.485002908277
1589285443428203260,2608,1589285443428138186,,-0.0490049372108,-0.492241560534,0.486847783804
1589285443431105864,2609,1589285443431023405,,-0.0488446995831,-0.493192775917,0.486554847522
1589285443437119291,2610,1589285443437042352,,-0.0486732884245,-0.482645474376,0.488342087632
1589285443440821556,2611,1589285443440728903,,-0.0483724424558,-0.471718392978,0.490613646176
1589285443442851873,2612,1589285443442719620,,-0.0479965584183,-0.472198580715,0.490547758768
1589285443449169616,2613,1589285443449048769,,-0.0478989726396,-0.460496008731,0.493011138332
1589285443452239661,2614,1589285443452113355,,-0.0476288987787,-0.46070204606,0.492762810928
1589285443461100283,2615,1589285443460975055,,-0.0475021374821,-0.433564353435,0.49821314325
1589285443464089955,2616,1589285443463990358,,-0.0471550360686,-0.434180044996,0.498454654361
1589285443473794759,2617,1589285443473412344,,-0.0467785484743,-0.419706930308,0.501218569454
1589285443476022525,2618,1589285443475911350,,-0.0466532939254,-0.404077442136,0.504364081028
1589285443479056083,2619,1589285443478917340,,-0.0464020594255,-0.404479619855,0.504310609582
1589285443482042455,2620,1589285443481958934,,-0.046267576318,-0.387996702544,0.507506857731
1589285443485164526,2621,1589285443485028832,,-0.0461161333302,-0.388563379629,0.507504513357
1589285443488085032,2622,1589285443487999777,,-0.0460364890418,-0.37051460551,0.510778955831
1589285443494172800,2623,1589285443494082547,,-0.0458056033296,-0.352534193993,0.514361456019
1589285443497098794,2624,1589285443496992822,,-0.0456731173901,-0.353028465398,0.514220928954
1589285443508944069,2625,1589285443508846810,,-0.0453230637464,-0.313530063808,0.521700882707
1589285443515134671,2626,1589285443515036505,,-0.045230293009,-0.292942535812,0.525599159677
1589285443517996038,2627,1589285443517905506,,-0.0450159716225,-0.293476498591,0.525514157939
1589285443521138153,2628,1589285443521046196,,-0.0447346315506,-0.271759986004,0.529884526552
1589285443527265310,2629,1589285443527179529,,-0.0446639307877,-0.249607906554,0.534320994756
1589285443529857256,2630,1589285443529792410,,-0.0445200291404,-0.250169836661,0.534043879483
1589285443533089810,2631,1589285443532800308,,-0.0444848066166,-0.250793689158,0.533719375096
1589285443536136897,2632,1589285443536048042,,-0.0442866098561,-0.227486758571,0.538440865158
1589285443542136022,2633,1589285443542031670,,-0.0442056047625,-0.203421633088,0.543096991363
1589285443544877496,2634,1589285443544805876,,-0.0439773890879,-0.204242685785,0.542712844814
1589285443548110581,2635,1589285443548026739,,-0.0438311691845,-0.179650795268,0.547785323915
1589285443550935533,2636,1589285443550847941,,-0.0437918949709,-0.180258340512,0.547204664813
1589285443553834225,2637,1589285443553770830,,-0.0435846907354,-0.154964938738,0.552174913104
1589285443556931992,2638,1589285443556824681,,-0.0433859884587,-0.1559003117,0.551654330371
1589285443566251482,2639,1589285443566158889,,-0.0431102176671,-0.130711272573,0.556161858651
1589285443572088082,2640,1589285443571988795,,-0.0429355005133,-0.103856118937,0.561147552002
1589285443575702953,2641,1589285443575617694,,-0.0427759838952,-0.0761922861335,0.566654386286
1589285443577894684,2642,1589285443577810794,,-0.0427141299313,-0.0770208689699,0.566330101734
1589285443580879719,2643,1589285443580803508,,-0.0424419624987,-0.048927124359,0.571997474421
1589285443583901801,2644,1589285443583797974,,-0.0424091715764,-0.0499885315565,0.571557762685
1589285443589947027,2645,1589285443589847919,,-0.0422668514679,-0.0209293564945,0.577364049406
1589285443593701268,2646,1589285443593386265,,-0.0420045541472,-0.0215825021297,0.577434042823
1589285443599212018,2647,1589285443599143752,,-0.0419017812512,0.00802639045586,0.583122957161
1589285443601883312,2648,1589285443601816004,,-0.0416894454152,0.0384125020328,0.589179027241
1589285443605174492,2649,1589285443605118275,,-0.0416155560436,0.0375982939873,0.588803495023
1589285443614342450,2650,1589285443614238994,,-0.0413636877044,0.101444644819,0.601563473075
1589285443623246687,2651,1589285443623125456,,-0.0410014560056,0.13291671956,0.607368891189
1589285443626289829,2652,1589285443626155916,,-0.0408797306416,0.131682417191,0.606944763856
1589285443629283178,2653,1589285443629165707,,-0.0408387719509,0.164701214052,0.613270451097
1589285443632221746,2654,1589285443632121907,,-0.0407247758971,0.163596256134,0.612706611891
1589285443638342927,2655,1589285443638211515,,-0.0405659283181,0.197554046032,0.619456752792
1589285443641276260,2656,1589285443641136570,,-0.0404041882464,0.231897800959,0.626011760977
1589285443647587150,2657,1589285443647490964,,-0.0404740046012,0.267060634351,0.632655723868
1589285443650107214,2658,1589285443650039166,,-0.0403442935472,0.265767295794,0.632151074082
1589285443656249545,2659,1589285443656167381,,-0.0401844226071,0.301734547856,0.639201410552
1589285443659105589,2660,1589285443659042119,,-0.0401242994215,0.299838824332,0.63841104393
1589285443662129637,2661,1589285443662027733,,-0.0399783378019,0.335970367062,0.64555853535
1589285443665091011,2662,1589285443665009177,,-0.0398770445643,0.334327008679,0.645315115935
1589285443668171534,2663,1589285443668095364,,-0.0397817426772,0.370990988388,0.652455053141
1589285443671555961,2664,1589285443671486319,,-0.0396597010398,0.368868437765,0.651993951703
1589285443674405608,2665,1589285443674294381,,-0.0392675799782,0.406051521217,0.659398934801
1589285443683112203,2666,1589285443683036297,,-0.03910719132,0.44185300487,0.665906649854
1589285443689162620,2667,1589285443689068869,,-0.0389090998275,0.480289401885,0.67317497654
1589285443692195772,2668,1589285443692067405,,-0.0388236995601,0.478604846316,0.67280167591
1589285443698119325,2669,1589285443698017859,,-0.0385563115624,0.517914658099,0.680701734812
1589285443701141952,2670,1589285443701020999,,-0.0385159559797,0.557826051924,0.688259469407
1589285443704178629,2671,1589285443703993232,,-0.038458207055,0.556288228302,0.687789074179
1589285443707359634,2672,1589285443707248272,,-0.0383336709603,0.597136301047,0.695290766599
1589285443713180439,2673,1589285443713105623,,-0.0381416447186,0.630736550052,0.701756161969
1589285443716096428,2674,1589285443715987036,,-0.0378589493366,0.637008568865,0.702475806043
1589285443719052615,2675,1589285443718960295,,-0.0378018137567,0.63537000938,0.701271227242
1589285443722195008,2676,1589285443722098098,,-0.0374268176711,0.677263282822,0.709248549147
1589285443731172094,2677,1589285443731047827,,-0.0373465000244,0.719928813148,0.717435795085
1589285443734205172,2678,1589285443734097323,,-0.0371254992931,0.762970354912,0.725349276223
1589285443745968657,2679,1589285443745880281,,-0.0368115886228,0.80488389003,0.732353372621
1589285443749036656,2680,1589285443748951384,,-0.0366617655639,0.848827930368,0.740749663096
1589285443751977243,2681,1589285443751894445,,-0.0364172428701,0.847045586794,0.739964675624
1589285443758105864,2682,1589285443758013447,,-0.0361460667479,0.891252539104,0.748731802771
1589285443761051053,2683,1589285443760967871,,-0.0359509866193,0.935910473823,0.75718317165
1589285443773397878,2684,1589285443773217356,,-0.0355282157637,0.978806815767,0.764659399151
1589285443775809926,2685,1589285443775734586,,-0.0352456004749,1.02450398233,0.773212664953
1589285443778766743,2686,1589285443778687584,,-0.0349478609367,1.02257194118,0.772441324122
1589285443781909370,2687,1589285443781790538,,-0.0346793475576,1.0682500539,0.781514543452
1589285443784895615,2688,1589285443784832005,,-0.0346745795215,1.06557188594,0.78065439197
1589285443790954810,2689,1589285443790852974,,-0.03446971318,1.11180892251,0.789811967277
1589285443793920090,2690,1589285443793834556,,-0.0345056729904,1.15839232671,0.798636581206
1589285443798815394,2691,1589285443798721589,,-0.034371119392,1.15608672298,0.797564988459
1589285443802866222,2692,1589285443802775692,,-0.0342988086462,1.20124422995,0.805795949006
1589285443805926024,2693,1589285443805813992,,-0.0341199384304,1.19853804081,0.805103287251
1589285443808862580,2694,1589285443808791646,,-0.0341351543099,1.24695235535,0.814641257072
1589285443814924321,2695,1589285443814865596,,-0.0341125596673,1.2957732096,0.824213876754
1589285443817918421,2696,1589285443817846727,,-0.0339711644611,1.29319119693,0.823567488806
1589285443823871265,2697,1589285443823820193,,-0.0337446306127,1.3421296271,0.833244898307
1589285443827275569,2698,1589285443827141025,,-0.0336015547939,1.39167850837,0.842923305297
1589285443830067513,2699,1589285443829994704,,-0.0334265283667,1.38936543585,0.842311532449
1589285443836181356,2700,1589285443836091273,,-0.0333604889679,1.43952983537,0.851729582443
1589285443842207195,2701,1589285443842135815,,-0.0331515211353,1.49008306496,0.861557736764
1589285443845123862,2702,1589285443845052092,,-0.0330353726217,1.48753047261,0.860395945949
1589285443848068658,2703,1589285443848015397,,-0.0329666111032,1.53834426554,0.870117650387
1589285443851135364,2704,1589285443851025523,,-0.0328701604324,1.53551031751,0.869016529513
1589285443854129105,2705,1589285443854056611,,-0.0326750843471,1.58621528653,0.878720229105
1589285443857107192,2706,1589285443857018303,,-0.0325513728554,1.58283832398,0.877759333319
1589285443862948736,2707,1589285443862819759,,-0.032190261303,1.63031133428,0.886592775433
1589285443872441266,2708,1589285443872339748,,-0.0320479422884,1.68140115353,0.896715570915
1589285443875268534,2709,1589285443875192239,,-0.032008298955,1.73247449904,0.906462097866
1589285443878277476,2710,1589285443878171581,,-0.032014629343,1.72843673913,0.905168287792
1589285443880815458,2711,1589285443880711633,,-0.0320224091012,1.7798938558,0.9151313134
1589285443884073795,2712,1589285443883988337,,-0.0317651577355,1.7754900752,0.91431371771
1589285443893377669,2713,1589285443893279192,,-0.0316634028633,1.87852021069,0.93490086386
1589285443896294552,2714,1589285443896123436,,-0.0316670095401,1.87401159529,0.933272362668
1589285443899340085,2715,1589285443899253744,,-0.0317997157516,1.86970979743,0.931738622767
1589285443905310108,2716,1589285443905223460,,-0.0317948253814,1.92164489047,0.942097754247
1589285443908299735,2717,1589285443908188495,,-0.0316641323523,1.97434170788,0.952854911768
1589285443911246154,2718,1589285443911102088,,-0.0318214896619,1.96990692076,0.951127567817
1589285443917299088,2719,1589285443917162002,,-0.0318118121376,2.02393599889,0.961362545235
1589285443921613045,2720,1589285443921496182,,-0.0317159956097,2.07766433037,0.972020326116
1589285443923146877,2721,1589285443923047668,,-0.0316047650461,2.07257647424,0.970740767292
1589285443929243305,2722,1589285443929142028,,-0.0315480692304,2.12618057884,0.981676952451
1589285443935273016,2723,1589285443935176210,,-0.0314332360793,2.180757762,0.992361159559
1589285443938262421,2724,1589285443938184413,,-0.031494761611,2.17565461401,0.991179258226
1589285443941175235,2725,1589285443941102832,,-0.0314331222833,2.22994098963,1.00220625903
1589285443947258948,2726,1589285443947171831,,-0.0314078727167,2.28475797593,1.01352540304
1589285443950350494,2727,1589285443950286661,,-0.0312788292483,2.28052202398,1.01223498068
1589285443953322526,2728,1589285443953261408,,-0.0311485678128,2.31872958983,1.01960670377
1589285443959475785,2729,1589285443959370527,,-0.0310722058005,2.3308715708,1.02226164126
1589285443962203238,2730,1589285443962096949,,-0.0309936534453,2.38609896741,1.03369305789
1589285443965397121,2731,1589285443965296143,,-0.0309324366642,2.38084090799,1.03261564476
1589285443968092704,2732,1589285443968016913,,-0.0308847647226,2.43623708513,1.04355090608
1589285443971611409,2733,1589285443971520134,,-0.0308840530455,2.43112252951,1.04239902151
1589285443977392349,2734,1589285443977289405,,-0.0306563974476,2.48630468669,1.05330489066
1589285443986134086,2735,1589285443986065757,,-0.0305085142377,2.53522314343,1.0631760925
1589285443989051714,2736,1589285443988973699,,-0.0304022853999,2.59086072215,1.07360654176
1589285443995115251,2737,1589285443995016633,,-0.0304316207045,2.64593780891,1.08435959038
1589285444001084640,2738,1589285444000996956,,-0.0301585169862,2.7018507338,1.09613901074
1589285444004163272,2739,1589285444004055012,,-0.0301093742759,2.69602543005,1.0950148733
1589285444007116404,2740,1589285444007030745,,-0.0296906498761,2.75212363005,1.10609811425
1589285444013495638,2741,1589285444013378728,,-0.0296256560901,2.8092689045,1.11704334461
1589285444016288449,2742,1589285444016178516,,-0.0294080583712,2.80379892324,1.11634059951
1589285444019379243,2743,1589285444019289620,,-0.0293277561685,2.79706701303,1.11510826815
1589285444022342118,2744,1589285444022206810,,-0.029301876321,2.85391635132,1.12661154394
1589285444025317468,2745,1589285444025161409,,-0.0291993606897,2.84873336279,1.12545285637
1589285444028222632,2746,1589285444028133684,,-0.0290987246191,2.90508153268,1.1368847512
1589285444034309188,2747,1589285444034203145,,-0.0288509085073,2.96186617574,1.1483758576
1589285444046311193,2748,1589285444046103675,,-0.0283828983161,3.01415789018,1.15894702709
1589285444049193754,2749,1589285444049096703,,-0.0284539074383,3.07198880233,1.17043354695
1589285444052312272,2750,1589285444052145718,,-0.0284083669857,3.06665829617,1.16872215663
1589285444055126108,2751,1589285444055047859,,-0.0282494618195,3.12444036321,1.18086942618
1589285444058085515,2752,1589285444058026617,,-0.0282350171164,3.1186711654,1.17960503254
1589285444061083218,2753,1589285444061003125,,-0.028035046475,3.17685214898,1.19091117383
1589285444064116410,2754,1589285444064023689,,-0.0278776754595,3.1713053206,1.1897407515
1589285444073609289,2755,1589285444073521693,,-0.02749148669,3.23059623377,1.2013715018
1589285444076145797,2756,1589285444076027054,,-0.0274971629798,3.29013371498,1.21292757065
1589285444079323182,2757,1589285444079227301,,-0.0273947484006,3.28356971691,1.2116386856
1589285444082320357,2758,1589285444082189406,,-0.0272884334476,3.34199990266,1.22374320424
1589285444088098617,2759,1589285444088033989,,-0.0272540148006,3.40099623898,1.2360214039
1589285444094788675,2760,1589285444094628628,,-0.0271245867924,3.45912194828,1.24750084147
1589285444097069601,2761,1589285444096998929,,-0.0271181339733,3.45225699198,1.24649199897
1589285444106238657,2762,1589285444106161970,,-0.0268804366276,3.5041958978,1.25617794792
1589285444109242490,2763,1589285444109133636,,-0.0267289272309,3.56282427135,1.26876477489
1589285444112217039,2764,1589285444112123600,,-0.0266426679025,3.55656016307,1.26755086956
1589285444115158498,2765,1589285444115095088,,-0.0266451661149,3.61454512283,1.27976458804
1589285444118054650,2766,1589285444117984531,,-0.0266409211768,3.60735128937,1.27803258763
1589285444123987320,2767,1589285444123922931,,-0.026484008017,3.66487686264,1.28947531666
1589285444127121023,2768,1589285444127057044,,-0.0264149056899,3.72268555818,1.30089728265
1589285444130004370,2769,1589285444129939249,,-0.0260484121348,3.71710888369,1.29951272494
1589285444136099072,2770,1589285444135982893,,-0.0260770536849,3.77596949726,1.31077198649
1589285444138837332,2771,1589285444138732241,,-0.0260704330292,3.76697464605,1.30953511422
1589285444141870542,2772,1589285444141787836,,-0.0259005185414,3.82517427852,1.32130048862
1589285444147941667,2773,1589285444147786431,,-0.0259176849763,3.88441120029,1.33358238884
1589285444150917878,2774,1589285444150845719,,-0.0259849686543,3.87523158522,1.33143712225
1589285444153927446,2775,1589285444153844741,,-0.0256801390784,3.93290440237,1.34322867953
1589285444157035781,2776,1589285444156954078,,-0.0253055777163,3.92501371923,1.34241749828
1589285444166080135,2777,1589285444165997565,,-0.0251269744012,3.98312995727,1.3542890581
1589285444172294557,2778,1589285444172228597,,-0.0248834662552,4.0413200185,1.36690360686
1589285444175368669,2779,1589285444175286395,,-0.0248068306359,4.09889021216,1.37882440798
1589285444181184533,2780,1589285444181046355,,-0.0249200041789,4.15711128234,1.39071275282
1589285444193371017,2781,1589285444193000287,,-0.0245893914135,4.20563395248,1.40116008579
1589285444199021081,2782,1589285444198942558,,-0.0247528325228,4.26255296926,1.41242977478
1589285444204855241,2783,1589285444204797450,,-0.0245675524569,4.31970002486,1.42403062424
1589285444211291507,2784,1589285444211168999,,-0.0245656493965,4.37563986625,1.43538791073
1589285444217270314,2785,1589285444217173839,,-0.0246793909957,4.43185100257,1.44624223518
1589285444223299777,2786,1589285444223166431,,-0.0246855928799,4.4882010164,1.45764014705
1589285444229278649,2787,1589285444229182415,,-0.0246447485939,4.54416919835,1.46903335795
1589285444235246872,2788,1589285444235183511,,-0.0247805063653,4.5996034951,1.47970854182
1589285444241116349,2789,1589285444241018315,,-0.0249124970411,4.6550412202,1.49131467181
1589285444247201563,2790,1589285444247122934,,-0.0247178553114,4.71329648561,1.50303982621
1589285444253544151,2791,1589285444253426174,,-0.0246159451611,4.74018919766,1.50845445892
1589285444256210798,2792,1589285444256140212,,-0.0247895087238,4.75663091206,1.5129784271
1589285444262349079,2793,1589285444262199522,,-0.0248110230937,4.81422151097,1.52463544028
1589285444265249029,2794,1589285444265157299,,-0.0244615072848,4.80356254188,1.52299918399
1589285444268303680,2795,1589285444268223029,,-0.0242090714706,4.85809059997,1.53470754103
1589285444271586659,2796,1589285444271493456,,-0.0245793804294,4.8466861578,1.53224522911
1589285444274511003,2797,1589285444274404541,,-0.0243540681115,4.9034560156,1.54311202534
1589285444286433300,2798,1589285444286184900,,-0.0244659247945,4.94847923287,1.55176968183
1589285444293254949,2799,1589285444293139306,,-0.0246705863922,5.00446717298,1.56380542644
1589285444301338149,2800,1589285444301243706,,-0.0246186197626,5.126503476,1.58810373774
1589285444307737891,2801,1589285444307650205,,-0.0244443600996,5.18191562833,1.59923786459
1589285444310438724,2802,1589285444310358783,,-0.0248593122059,5.16986948386,1.59682739687
1589285444313597457,2803,1589285444313530788,,-0.0246457548448,5.22452653297,1.60785345763
1589285444316387351,2804,1589285444316320229,,-0.0247409736897,5.21224514719,1.60622086585
1589285444322328638,2805,1589285444322237701,,-0.0245858032567,5.2660224724,1.61715275126
1589285444328204113,2806,1589285444328099902,,-0.0246427685929,5.31981747587,1.62837799988
1589285444334185415,2807,1589285444334073353,,-0.0248043186705,5.37292188355,1.63918409926
1589285444343107758,2808,1589285444343019472,,-0.0248769274118,5.41235624,1.64814775674
1589285444349107629,2809,1589285444349000345,,-0.0248991134747,5.46456302286,1.65864261083
1589285444355369441,2810,1589285444355256792,,-0.0250423437395,5.51663375771,1.66925884006
1589285444361155607,2811,1589285444361095628,,-0.0252954079182,5.57080436984,1.67989034326
1589285444364048391,2812,1589285444363968308,,-0.0255577551529,5.56034490588,1.67677361129
1589285444367206774,2813,1589285444367133708,,-0.0259222090593,5.60971579691,1.68726345502
1589285444379160978,2814,1589285444379075580,,-0.0264797341273,5.65205543199,1.69531281009
1589285444385053162,2815,1589285444384969119,,-0.0264071215052,5.7020008079,1.70610134546
1589285444388027630,2816,1589285444387953442,,-0.0262567661167,5.75309988682,1.71652593971
1589285444394283505,2817,1589285444394199836,,-0.0268009166,5.80604745984,1.72677494391
1589285444397144828,2818,1589285444396962401,,-0.0261642753239,5.79430000723,1.72549376822
1589285444403069646,2819,1589285444402989558,,-0.0263945455655,5.83588260129,1.73497272983
1589285444409053333,2820,1589285444408967522,,-0.0261082688914,5.8892316107,1.74635290306
1589285444415023818,2821,1589285444414945012,,-0.0259367655807,5.94181907735,1.75766153959
1589285444421026800,2822,1589285444420951565,,-0.0258797261468,5.99322761358,1.76828952387
1589285444433472265,2823,1589285444433398996,,-0.0258058434192,6.0340904318,1.77603085834
1589285444435998408,2824,1589285444435921103,,-0.0259136337491,6.08393423826,1.78599129784
1589285444442015767,2825,1589285444441948652,,-0.0263733032293,6.13092365076,1.79586323407
1589285444448034075,2826,1589285444447964548,,-0.0268967691851,6.18234104582,1.80676123871
1589285444454592216,2827,1589285444454523614,,-0.027019012017,6.23003142918,1.81615821513
1589285444466181586,2828,1589285444466087342,,-0.0280821424368,6.26009322541,1.82296010294
1589285444472267935,2829,1589285444472193626,,-0.0282383250466,6.30685209854,1.83277541873
1589285444475166136,2830,1589285444475102351,,-0.0284543127122,6.35812354804,1.84340416109
1589285444477947127,2831,1589285444477821822,,-0.0288353247918,6.34095422407,1.84133434151
1589285444481000412,2832,1589285444480927913,,-0.0295299981753,6.38543843065,1.8517787407
1589285444484201476,2833,1589285444484006334,,-0.0297954523844,6.37349803907,1.85011791253
1589285444490131518,2834,1589285444490015016,,-0.0303170495718,6.41919422285,1.85996772035
1589285444496159471,2835,1589285444496078912,,-0.0304919928377,6.46404351213,1.87063412893
1589285444502568505,2836,1589285444502427879,,-0.0307071087974,6.51472121127,1.88025822346
1589285444508581688,2837,1589285444508421607,,-0.0309109703118,6.56203528781,1.89033678413
1589285444514675370,2838,1589285444514593159,,-0.0310617359913,6.60681712353,1.90070987151
1589285444526427076,2839,1589285444526160669,,-0.0311215613556,6.64439377838,1.90934436623
1589285444532097800,2840,1589285444532001036,,-0.0313311825408,6.68929123559,1.91940032245
1589285444538083663,2841,1589285444538007177,,-0.0312335780176,6.73744352562,1.92994974696
1589285444544141312,2842,1589285444543997070,,-0.0310124917863,6.78878914461,1.94001621749
1589285444550169307,2843,1589285444550073822,,-0.0312311377381,6.83872846229,1.95036938079
1589285444556165816,2844,1589285444556070129,,-0.0309478624438,6.88387151012,1.96104012409
1589285444559088850,2845,1589285444558995775,,-0.0312655514772,6.87178545719,1.96004496049
1589285444562085147,2846,1589285444562004366,,-0.0316579426552,6.9195189536,1.96995832882
1589285444565590476,2847,1589285444565507421,,-0.0317379625167,6.90206445016,1.96818429988
1589285444568050360,2848,1589285444567980485,,-0.0316366723112,6.944072217,1.97889162968
1589285444571483814,2849,1589285444571365670,,-0.0320519802532,6.92913948685,1.97611684712
1589285444574751812,2850,1589285444574654308,,-0.0323494170206,6.97619081059,1.98617032331
1589285444581477615,2851,1589285444581356121,,-0.0327457561044,7.02339085715,1.99662061944
1589285444587118639,2852,1589285444586705930,,-0.0335935749034,7.00463417719,1.99434739452
1589285444592162007,2853,1589285444592076878,,-0.0344400947436,7.04788518797,2.0051463594
1589285444598242920,2854,1589285444598170084,,-0.0351076361362,7.09154164339,2.0143368818
1589285444604543300,2855,1589285444604354746,,-0.0354295090958,7.13081242336,2.02354691868
1589285444610176374,2856,1589285444610075990,,-0.0358084422596,7.16831253442,2.03303132497
1589285444616137900,2857,1589285444616003633,,-0.0359642564217,7.20891820467,2.04196773412
1589285444622155042,2858,1589285444622076965,,-0.0361835070395,7.2497193465,2.0509346259
1589285444628269877,2859,1589285444628179802,,-0.0363112431196,7.29072285782,2.06051356237
1589285444634314425,2860,1589285444634238014,,-0.0368739185477,7.33149890891,2.06935072372
1589285444646517770,2861,1589285444646432829,,-0.0373388750554,7.35431635481,2.07628777805
1589285444652481065,2862,1589285444652350742,,-0.0373601731286,7.39284451798,2.08469050892
1589285444658367699,2863,1589285444658264921,,-0.0372293452728,7.4312732329,2.09245825403
1589285444664541368,2864,1589285444664437170,,-0.0374949329512,7.47322242958,2.09977390356
1589285444670522282,2865,1589285444670395684,,-0.0370558323081,7.51494057088,2.10748211995
1589285444676549625,2866,1589285444676445281,,-0.0377106519854,7.547812019,2.11468481771
1589285444682554216,2867,1589285444682409330,,-0.0385787223626,7.58539659056,2.12148981598
1589285444688421106,2868,1589285444688351023,,-0.0388575508948,7.62433178256,2.12894419007
1589285444694662057,2869,1589285444694599234,,-0.038983654162,7.6570669173,2.13627946325
1589285444706655242,2870,1589285444706454697,,-0.039942481444,7.67145606128,2.14066602956
1589285444712447195,2871,1589285444712350945,,-0.0400935310229,7.70497836733,2.14836538639
1589285444718407779,2872,1589285444718296168,,-0.0403609761713,7.7383410183,2.15692772832
1589285444724450413,2873,1589285444724373405,,-0.0406168234086,7.77132233113,2.16443368504
1589285444730362951,2874,1589285444730284769,,-0.0412828251404,7.80247779706,2.17293338659
1589285444736363720,2875,1589285444736270085,,-0.0416048820204,7.83282686122,2.18138422232
1589285444742300900,2876,1589285444742203620,,-0.04168247545,7.86202409163,2.18863148857
1589285444748657131,2877,1589285444748517157,,-0.0424885420829,7.89085912715,2.19603466752
1589285444754977564,2878,1589285444754872609,,-0.0428075540327,7.91782721577,2.20207237808
1589285444766823981,2879,1589285444766381297,,-0.0437485079348,7.92382497387,2.20463986275
1589285444772772499,2880,1589285444772669014,,-0.0439869218867,7.95133341289,2.21077837385
1589285444775699840,2881,1589285444775520058,,-0.0449002544289,7.9782241475,2.21672583727
1589285444781855374,2882,1589285444781746210,,-0.0458509996223,8.00384490354,2.22257201681
1589285444787466006,2883,1589285444787337859,,-0.0461380723352,8.03114558567,2.22858313386
1589285444793727256,2884,1589285444793611820,,-0.0467326005226,8.05560238916,2.23528403261
1589285444805562628,2885,1589285444805471907,,-0.0472308242947,8.05960641473,2.23732897479
1589285444811508420,2886,1589285444811418476,,-0.0474461368014,8.08258659833,2.24312441779
1589285444817430584,2887,1589285444817362083,,-0.0474339223992,8.10693904787,2.24911856164
1589285444823486246,2888,1589285444823370529,,-0.0479171802201,8.12852464433,2.25489060735
1589285444829475898,2889,1589285444829382455,,-0.0483058822839,8.1501670897,2.26048771694
1589285444835440311,2890,1589285444835369008,,-0.0488587667975,8.17153973516,2.26575059954
1589285444841783878,2891,1589285444841696246,,-0.0493224644055,8.19726025598,2.27111269263
1589285444853548042,2892,1589285444853441601,,-0.0505511690909,8.19611529829,2.27388987936
1589285444862353341,2893,1589285444862256336,,-0.0517357661089,8.25997500639,2.28719345321
1589285444868241649,2894,1589285444868160060,,-0.052307273312,8.2838895855,2.29229128393
1589285444871835242,2895,1589285444871737197,,-0.0529944981201,8.25996286415,2.28805896957
1589285444874610526,2896,1589285444874544014,,-0.0534456625681,8.27718672133,2.29289391508
1589285444886623160,2897,1589285444886513485,,-0.0534622810214,8.27938940744,2.29513180984
1589285444892471914,2898,1589285444892363951,,-0.0539182327214,8.3005733825,2.30033468697
1589285444898480484,2899,1589285444898377470,,-0.0539945032806,8.321067288,2.30615228586
1589285444904427050,2900,1589285444904305263,,-0.0543771930101,8.34055700948,2.31208187356
1589285444910398559,2901,1589285444910303158,,-0.054855482716,8.35900816186,2.31662421715
1589285444916456159,2902,1589285444916317362,,-0.0549217294625,8.37673159018,2.32132989946
1589285444922449392,2903,1589285444922356901,,-0.0550406398582,8.39286755066,2.32554026484
1589285444928381186,2904,1589285444928289803,,-0.0550648441232,8.41472277277,2.32925017615
1589285444934706598,2905,1589285444934596295,,-0.0551824902789,8.43332941,2.33274116777
1589285444946831451,2906,1589285444946537386,,-0.0565414755023,8.42419389601,2.33334521257
1589285444952917243,2907,1589285444952812119,,-0.0572145142887,8.44142687988,2.33702287094
1589285444958580173,2908,1589285444958472083,,-0.0575790111516,8.45000275127,2.34042344906
1589285444965085768,2909,1589285444964452082,,-0.0580316741556,8.45927623395,2.3446611543
1589285444970671484,2910,1589285444970508579,,-0.0579397015257,8.47144964906,2.34809127221
1589285444976458195,2911,1589285444976354971,,-0.0581140127141,8.48283932675,2.3519974856
1589285444982767557,2912,1589285444982678696,,-0.0580976542899,8.49328385499,2.35695001787
1589285444988495367,2913,1589285444988383250,,-0.0588359206128,8.50440738933,2.36052645038
1589285444994963256,2914,1589285444994868973,,-0.059149507673,8.51355855631,2.36545587239
1589285445006872771,2915,1589285445006697654,,-0.0603108739878,8.49949466429,2.36629592471
1589285445012535880,2916,1589285445012472117,,-0.060601030644,8.50667280586,2.36908762483
1589285445018490931,2917,1589285445018375912,,-0.0615498741735,8.51952150396,2.36939188217
1589285445024536142,2918,1589285445024417822,,-0.0618421824341,8.53110473366,2.3718726717
1589285445030541896,2919,1589285445030428510,,-0.0627933646698,8.53287513951,2.37317251381
1589285445036719893,2920,1589285445036596267,,-0.0635954201193,8.54137239381,2.37436002423
1589285445042501390,2921,1589285445042425543,,-0.0644843008689,8.55216142097,2.37574243737
1589285445048417335,2922,1589285445048315065,,-0.064468597961,8.55429598723,2.37709169706
1589285445054825281,2923,1589285445054736288,,-0.0648159430054,8.55788080106,2.37911844779
1589285445061634654,2924,1589285445061503646,,-0.0652495548066,8.56464104117,2.38017557782
1589285445066721851,2925,1589285445066319994,,-0.0649837459338,8.54547633454,2.37869866599
1589285445072896088,2926,1589285445072781615,,-0.0649984691387,8.55131416584,2.3820276313
1589285445075764041,2927,1589285445075676711,,-0.0654602743689,8.56267691041,2.38553822121
1589285445081400065,2928,1589285445081293693,,-0.0655334511698,8.56592676342,2.38888285051
1589285445093484481,2929,1589285445093293540,,-0.0666731485804,8.54844996262,2.39004753791
1589285445099463360,2930,1589285445099342266,,-0.0669654541035,8.54792169099,2.39001189124
1589285445105619606,2931,1589285445105506516,,-0.0680549815557,8.54328237042,2.39047383163
1589285445111386318,2932,1589285445111317768,,-0.0684146014175,8.54210922734,2.39241136356
1589285445117232991,2933,1589285445117131164,,-0.0693787479173,8.5397729021,2.39175323615
1589285445123331853,2934,1589285445123204582,,-0.0707568994926,8.5368774049,2.39250747599
1589285445129202493,2935,1589285445129137497,,-0.0717762125857,8.53407986082,2.39235947904
1589285445136089491,2936,1589285445136015458,,-0.0730788456786,8.53013363793,2.39227227584
1589285445141287359,2937,1589285445141204611,,-0.0740648175016,8.53220888958,2.39243149907
1589285445154295668,2938,1589285445153975541,,-0.0758307394002,8.50498975995,2.38971925042
1589285445159876494,2939,1589285445159544967,,-0.0766973269516,8.50197893124,2.39010164748
1589285445165595077,2940,1589285445165476244,,-0.0765646538631,8.50188491471,2.39053929999
1589285445171483636,2941,1589285445171380003,,-0.0769011403258,8.49193546472,2.39103996388
1589285445174401808,2942,1589285445174335402,,-0.0768555693393,8.4834938327,2.39241307555
1589285445181426122,2943,1589285445181344235,,-0.0770553606474,8.4789251186,2.39264867663
1589285445186283416,2944,1589285445186200263,,-0.0770410587417,8.46025767851,2.39011682216
1589285445192553836,2945,1589285445192476327,,-0.0774689012213,8.46227913367,2.39159961259
1589285445198325714,2946,1589285445198242096,,-0.0781498216541,8.45629865243,2.39147192828
1589285445204240264,2947,1589285445204151106,,-0.0786604597488,8.44692935251,2.39184440179
1589285445210463258,2948,1589285445210375351,,-0.0791459604154,8.44510426927,2.39291115677
1589285445216525186,2949,1589285445216455271,,-0.0789054789056,8.43728483751,2.3908215491
1589285445222456872,2950,1589285445222369648,,-0.0791895492992,8.42404508201,2.38988697387
1589285445228505628,2951,1589285445228430884,,-0.0792336439841,8.41495604758,2.38865129126
1589285445234956557,2952,1589285445234866956,,-0.0793672600847,8.40445074341,2.38596059815
1589285445240910265,2953,1589285445240795897,,-0.0802320254206,8.39196279812,2.38648767255
1589285445246863696,2954,1589285445246618967,,-0.0810692878436,8.36907628377,2.38295351807
1589285445252596533,2955,1589285445252521859,,-0.0819858376701,8.35549138073,2.38178712291
1589285445258691905,2956,1589285445258566075,,-0.0828706664082,8.34028481754,2.38107132992
1589285445264101973,2957,1589285445264000419,,-0.0837683505779,8.32295776114,2.37818489722
1589285445270493820,2958,1589285445270420415,,-0.0841719098718,8.30497396632,2.37615841185
1589285445276595786,2959,1589285445276443310,,-0.0846795407194,8.28635096574,2.37407269639
1589285445282640466,2960,1589285445282519295,,-0.0855930027745,8.27277817106,2.37131668509
1589285445288577690,2961,1589285445288459553,,-0.0862965401278,8.25147348649,2.36899169354
1589285445295128863,2962,1589285445295017815,,-0.0876668014736,8.22679867653,2.36667454003
1589285445306847947,2963,1589285445306768662,,-0.089239350829,8.15596084907,2.35302170969
1589285445312557964,2964,1589285445312443459,,-0.089967657778,8.16240984883,2.35608319897
1589285445318629410,2965,1589285445318538042,,-0.0903981067608,8.14319904002,2.35317784115
1589285445324611140,2966,1589285445324503419,,-0.0906077962563,8.12286101941,2.34883256186
1589285445330475282,2967,1589285445330409808,,-0.0905406488108,8.10303561538,2.34686001669
1589285445336618034,2968,1589285445336498286,,-0.0906647579202,8.08313819631,2.34284006809
1589285445342461040,2969,1589285445342377574,,-0.0903783311512,8.06314831664,2.33975656152
1589285445348165842,2970,1589285445348084652,,-0.0901647802377,8.04297568183,2.3376467505
1589285445355300223,2971,1589285445355215782,,-0.0901304764331,8.02054722808,2.33415562936
1589285445366734446,2972,1589285445366248655,,-0.0898385075969,7.98421203715,2.32713481649
1589285445372572223,2973,1589285445372470521,,-0.089651822126,7.9665094261,2.32380055428
1589285445375758244,2974,1589285445375677391,,-0.0902222035195,7.93862508087,2.32040829424
1589285445381894525,2975,1589285445381807059,,-0.0908609240721,7.91681334016,2.31702999006
1589285445393774834,2976,1589285445393536431,,-0.0913070851599,7.87036168149,2.30933131962
1589285445399371061,2977,1589285445399262954,,-0.0920052458935,7.84164470599,2.30638117282
1589285445405602453,2978,1589285445405505008,,-0.0920047725763,7.81750116578,2.30132729863
1589285445411606507,2979,1589285445411503060,,-0.0922064433528,7.79190436365,2.29802243991
1589285445417587772,2980,1589285445417478012,,-0.0927488412067,7.76647945254,2.29486805225
1589285445423578444,2981,1589285445423471819,,-0.0932816812719,7.74031415012,2.2910826178
1589285445429402024,2982,1589285445429282811,,-0.0941091923763,7.71255953849,2.28811465565
1589285445435227387,2983,1589285445435145030,,-0.0943902308474,7.68513127394,2.28529017728
1589285445441592165,2984,1589285445441487399,,-0.0949500142143,7.65601641806,2.28135481014
1589285445448051164,2985,1589285445447980788,,-0.0951164538763,7.62658375703,2.27756132554
1589285445453612929,2986,1589285445453358290,,-0.0952161127334,7.60466813742,2.2745779558
1589285445459646960,2987,1589285445459561387,,-0.0955090073578,7.57393485807,2.26950394047
1589285445465546556,2988,1589285445465453541,,-0.0955737263621,7.54362527042,2.2646073955
1589285445471952063,2989,1589285445471863597,,-0.0957477665707,7.51299120067,2.25915950134
1589285445474980534,2990,1589285445474882823,,-0.0956622538007,7.48194635677,2.25324042893
1589285445486939418,2991,1589285445486525784,,-0.0958337313702,7.42850464439,2.243453012
1589285445492522051,2992,1589285445492411950,,-0.0960757151077,7.40360257278,2.23779491578
1589285445498506834,2993,1589285445498437199,,-0.0962231195066,7.37643108997,2.23201566377
1589285445504554579,2994,1589285445504436688,,-0.0970677389992,7.33878389705,2.22635451824
1589285445510491528,2995,1589285445510407284,,-0.0972624981046,7.30823286314,2.22099423603
1589285445516535780,2996,1589285445516377570,,-0.0971725893725,7.27990825431,2.21556813351
1589285445522486902,2997,1589285445522386933,,-0.0974257564112,7.24128641272,2.20939901604
1589285445528525262,2998,1589285445528439286,,-0.0974551982705,7.20398949737,2.20470083435
1589285445534655913,2999,1589285445534543738,,-0.0972546003941,7.17039236308,2.19887785797
1589285445541492859,3000,1589285445541397310,,-0.0971856615659,7.13624753501,2.19353554591
1589285445546922245,3001,1589285445546661340,,-0.097527695264,7.11706897296,2.19104073858
1589285445552447429,3002,1589285445552344564,,-0.0979136455034,7.08197054474,2.1853444666
1589285445558400528,3003,1589285445558309522,,-0.0981294869623,7.04756514769,2.1801297949
1589285445564412831,3004,1589285445564333464,,-0.0989615245074,7.01100913218,2.17302996557
1589285445570748544,3005,1589285445570613011,,-0.0992125352515,6.9732716442,2.16600669344
1589285445576663699,3006,1589285445576519092,,-0.0992874722598,6.93620218432,2.15842415309
1589285445582706669,3007,1589285445582561356,,-0.0997328783662,6.90544405237,2.15014906937
1589285445588778792,3008,1589285445588654935,,-0.0998249894031,6.87167281374,2.14314547363
1589285445595406783,3009,1589285445595287583,,-0.100403966744,6.82879261228,2.13591249579
1589285445607079215,3010,1589285445606681383,,-0.101259492007,6.77833753794,2.12599361751
1589285445612688267,3011,1589285445612590827,,-0.101192532308,6.7370673141,2.11904983849
1589285445618657897,3012,1589285445618547161,,-0.10144197289,6.69621660924,2.11340429295
1589285445624570165,3013,1589285445624482076,,-0.100825486971,6.65956955464,2.10676754179
1589285445630673632,3014,1589285445630518766,,-0.10052583221,6.62322487079,2.10151055352
1589285445636735094,3015,1589285445636575283,,-0.100381844417,6.58550227481,2.09622893094
1589285445642627440,3016,1589285445642514223,,-0.100401051409,6.54722627887,2.0915765143
1589285445648608092,3017,1589285445648496334,,-0.100817669494,6.50866433805,2.08591852643
1589285445655281089,3018,1589285445655188421,,-0.101479838562,6.46794581323,2.07922766432
1589285445661827243,3019,1589285445661680199,,-0.101754391815,6.4266427396,2.07279402851
1589285445667321552,3020,1589285445666934414,,-0.102307956345,6.40561681021,2.06838296716
1589285445672881766,3021,1589285445672785195,,-0.102657699216,6.36156378389,2.06096916362
1589285445675869252,3022,1589285445675750363,,-0.104346583994,6.29492667799,2.04724014715
1589285445681661702,3023,1589285445681543813,,-0.105471975737,6.24941517587,2.03829365493
1589285445694079613,3024,1589285445693924212,,-0.108221325427,6.1576059533,2.02175545953
1589285445699630760,3025,1589285445699539259,,-0.108912439794,6.08867546988,2.01179411425
