%time,field.header.seq,field.header.stamp,field.header.frame_id,field.vector.x,field.vector.y,field.vector.z
1588857867368612674,10006,1588857867368510791,,-0.0652768944923,-1.58604284059,1.01151861729
1588857867374585167,10007,1588857867374488817,,-0.0651213501017,-1.61330512375,1.01860024648
1588857867380639032,10008,1588857867380529231,,-0.0649609002275,-1.64170008485,1.02591338744
1588857867386568659,10009,1588857867386470535,,-0.0647506331389,-1.66952423212,1.03308923106
1588857867392831541,10010,1588857867392706943,,-0.0647326463129,-1.69835470938,1.04055779831
1588857867398652727,10011,1588857867398530407,,-0.0646417362353,-1.69671408055,1.04102392193
1588857867404722828,10012,1588857867404579137,,-0.0645888848309,-1.72569584114,1.04887995501
1588857867410678155,10013,1588857867410551101,,-0.0646360944179,-1.75484393037,1.05649730572
1588857867416668473,10014,1588857867416505610,,-0.0647246161081,-1.78354176226,1.06430917317
1588857867422756722,10015,1588857867422632784,,-0.0647645992705,-1.81229607785,1.07197240716
1588857867428708412,10016,1588857867428549440,,-0.0648332746264,-1.84214028303,1.07932357543
1588857867434736194,10017,1588857867434597182,,-0.0648420109221,-1.87190429993,1.08704952437
1588857867440577777,10018,1588857867440482900,,-0.0649798534195,-1.9009349444,1.09471819123
1588857867446655151,10019,1588857867446545310,,-0.0650724277389,-1.93060620618,1.10251251677
1588857867453022960,10020,1588857867452907275,,-0.0650966244771,-1.96123267909,1.110270945
1588857867458692367,10021,1588857867458568265,,-0.065190835326,-1.96067393702,1.11016010715
1588857867464663949,10022,1588857867464536485,,-0.0652268248076,-1.99114158502,1.11798956401
1588857867470643694,10023,1588857867470520634,,-0.0652934688044,-2.02192700336,1.12573590333
1588857867476622336,10024,1588857867476515873,,-0.0654899949673,-2.05323188516,1.1333136331
1588857867482548351,10025,1588857867482431241,,-0.0656304030124,-2.08476760131,1.14098610278
1588857867488512707,10026,1588857867488396264,,-0.0657473470274,-2.11610611006,1.14878402863
1588857867494478987,10027,1588857867494384008,,-0.0659487131333,-2.14785094826,1.15647277333
1588857867500497041,10028,1588857867500332955,,-0.0661278311298,-2.17961683102,1.16411720732
1588857867506523773,10029,1588857867506385074,,-0.0662998042286,-2.21162962724,1.17194638472
1588857867512511439,10030,1588857867512427895,,-0.0666107470971,-2.243759265,1.1793923689
1588857867518527103,10031,1588857867518400497,,-0.0668729126459,-2.24369386429,1.1789724122
1588857867524384916,10032,1588857867524302607,,-0.0670502878756,-2.27594373744,1.18674148406
1588857867530469362,10033,1588857867530380972,,-0.067132697103,-2.30833216313,1.19475384111
1588857867536641991,10034,1588857867536502290,,-0.0674121699617,-2.34071498435,1.20234624133
1588857867542705571,10035,1588857867542549447,,-0.0675522511084,-2.37334093014,1.21018434653
1588857867548530558,10036,1588857867548457199,,-0.0677956436593,-2.40598483034,1.21784556732
1588857867554397410,10037,1588857867554315676,,-0.0678926780247,-2.4385344241,1.22583870109
1588857867560471438,10038,1588857867560405536,,-0.0680902265483,-2.47134309614,1.23359248171
1588857867566540452,10039,1588857867566450523,,-0.0681120593369,-2.50421783826,1.24169603896
1588857867572612516,10040,1588857867572513817,,-0.0682354980103,-2.53714254897,1.24957478045
1588857867578668653,10041,1588857867578559346,,-0.0682389403309,-2.53713932243,1.24957455492
1588857867584658253,10042,1588857867584541485,,-0.0683219736482,-2.57005827921,1.25764571846
1588857867590620947,10043,1588857867590514296,,-0.0683766322747,-2.60308569457,1.26566509532
1588857867596707068,10044,1588857867596574815,,-0.0684118399493,-2.63613392318,1.27359589742
1588857867602628548,10045,1588857867602531391,,-0.0684396708753,-2.66931603916,1.28174407318
1588857867608749561,10046,1588857867608585187,,-0.0686239998264,-2.70257590282,1.2897731912
1588857867614644639,10047,1588857867614555338,,-0.0686291867815,-2.73561992024,1.29793863529
1588857867620586533,10048,1588857867620479611,,-0.0687107732843,-2.76885247036,1.30587664714
1588857867626627980,10049,1588857867626515194,,-0.068831853771,-2.80213021813,1.31391202006
1588857867632953440,10050,1588857867632765603,,-0.0689119461339,-2.83546883128,1.32171297127
1588857867638819935,10051,1588857867638649646,,-0.0689436054971,-2.83560067333,1.32142934413
1588857867644620772,10052,1588857867644520404,,-0.0689914618606,-2.86895801584,1.32905266556
1588857867650782964,10053,1588857867650675497,,-0.0690737255489,-2.90255798355,1.33671375583
1588857867656637148,10054,1588857867656520462,,-0.0691023296113,-2.93631927658,1.34358006934
1588857867662519915,10055,1588857867662418049,,-0.0692134797538,-2.96979918456,1.35113648693
1588857867668529141,10056,1588857867668424750,,-0.0693119642798,-3.00305722178,1.35853774805
1588857867674559901,10057,1588857867674463308,,-0.0694581885771,-3.03627755421,1.36637772263
1588857867680492848,10058,1588857867680410566,,-0.0697167672406,-3.06904196808,1.37388847515
1588857867686465118,10059,1588857867686393539,,-0.0698157920674,-3.10190290388,1.38177558785
1588857867692664839,10060,1588857867692579662,,-0.0701931734437,-3.1340671956,1.388990627
1588857867698648721,10061,1588857867698537067,,-0.070392088967,-3.13312508683,1.38834215065
1588857867704731093,10062,1588857867704575248,,-0.0707352514411,-3.1646689682,1.39530650881
1588857867710657870,10063,1588857867710541080,,-0.0708859484635,-3.19703516434,1.40294330271
1588857867716839024,10064,1588857867716669606,,-0.0712457607056,-3.22824214409,1.40987427203
1588857867722633926,10065,1588857867722521738,,-0.071387566741,-3.26076760774,1.41754885791
1588857867728707842,10066,1588857867728564626,,-0.0716722222303,-3.29186017126,1.42439269405
1588857867734758094,10067,1588857867734573945,,-0.0716694124849,-3.32410017931,1.43218196498
1588857867740763334,10068,1588857867740641014,,-0.0716849325335,-3.35609803287,1.43979263889
1588857867746718907,10069,1588857867746607434,,-0.0716385679072,-3.38703086038,1.44706373791
1588857867753283731,10070,1588857867753151188,,-0.0715285331847,-3.41810959254,1.45432390734
1588857867758659474,10071,1588857867758511451,,-0.0714219264068,-3.41701635791,1.45388383664
1588857867764840887,10072,1588857867764646019,,-0.0712752007517,-3.44801896529,1.46124772091
1588857867771154737,10073,1588857867771006737,,-0.0711356966056,-3.47988873055,1.46915924362
1588857867777133886,10074,1588857867777020776,,-0.0709907875241,-3.51057773102,1.47656674072
1588857867783144055,10075,1588857867783013255,,-0.0708843283198,-3.54224345962,1.48433937516
1588857867789091695,10076,1588857867788927663,,-0.0708810197515,-3.57410185842,1.49202911404
1588857867795106500,10077,1588857867794973281,,-0.0708064788602,-3.60439092981,1.49921659396
1588857867800758918,10078,1588857867800602235,,-0.0708125228771,-3.6346715095,1.50655665895
1588857867807013143,10079,1588857867806863269,,-0.070678654887,-3.66597229177,1.51461262046
1588857867812986762,10080,1588857867812858610,,-0.0705883615688,-3.69680063843,1.52307947198
1588857867818818309,10081,1588857867818708189,,-0.0705705086005,-3.69312271609,1.52372370538
1588857867824883772,10082,1588857867824768180,,-0.0704769977664,-3.72428383773,1.5314943571
1588857867830614245,10083,1588857867830532437,,-0.0702706152575,-3.75368314906,1.53869391605
1588857867836866503,10084,1588857867836719050,,-0.0700687316027,-3.78478621803,1.54637310481
1588857867842801836,10085,1588857867842704081,,-0.0698866434559,-3.81372093075,1.55326566555
1588857867848975835,10086,1588857867848783710,,-0.069816764076,-3.84439898508,1.56069018625
1588857867854825081,10087,1588857867854669111,,-0.0697310889744,-3.87344670155,1.56736383166
1588857867860802573,10088,1588857867860648479,,-0.0697105966585,-3.90391014123,1.57455630731
1588857867866502157,10089,1588857867866417666,,-0.0694316703852,-3.93202192911,1.58088176018
1588857867873099602,10090,1588857867872922923,,-0.0694379018534,-3.96239388181,1.58802010567
1588857867878845971,10091,1588857867878707134,,-0.0691622657933,-3.95861307199,1.58646985981
1588857867884720122,10092,1588857867884624585,,-0.0690503481428,-3.98867425831,1.593581228
1588857867890641511,10093,1588857867890549598,,-0.0688123206983,-4.01672850944,1.60025487562
1588857867896431342,10094,1588857867896338449,,-0.068719315704,-4.04645514206,1.60750912224
1588857867902477989,10095,1588857867902369319,,-0.0685951278062,-4.07412196016,1.61366880044
1588857867908542021,10096,1588857867908375270,,-0.0684051775755,-4.10334221224,1.6207997153
1588857867914598287,10097,1588857867914437498,,-0.0684131198495,-4.13021522379,1.62663315146
1588857867920570795,10098,1588857867920447045,,-0.0683194434053,-4.15930432494,1.63357340531
1588857867926527292,10099,1588857867926442580,,-0.0682922437444,-4.18581800581,1.63932907037
1588857867932687505,10100,1588857867932595641,,-0.0682329818386,-4.21454513541,1.64605820743
1588857867938564401,10101,1588857867938465103,,-0.0680322033884,-4.20951958168,1.64327576435
1588857867944448341,10102,1588857867944352631,,-0.0680367355223,-4.2378922612,1.64998914022
1588857867950911297,10103,1588857867950784707,,-0.0682780182137,-4.2643230206,1.6554172358
1588857867956540236,10104,1588857867956440875,,-0.0681803764259,-4.29282631745,1.66218765658
1588857867962674862,10105,1588857867962559496,,-0.0677649779279,-4.31869321334,1.66794859313
1588857867968559749,10106,1588857867968457747,,-0.0673941200437,-4.34687952024,1.67489491455
1588857867975984385,10107,1588857867975883394,,-0.0665793672186,-4.372402385,1.68119644301
1588857867980408589,10108,1588857867980296095,,-0.0662036802117,-4.40029787177,1.68775140413
1588857867986473362,10109,1588857867986373510,,-0.0651903812641,-4.4240558409,1.69320511218
1588857867992706115,10110,1588857867992606992,,-0.064689816469,-4.45033471126,1.69964192343
1588857867998761220,10111,1588857867998599805,,-0.0644584096873,-4.44622435672,1.69815048545
1588857868004714703,10112,1588857868004631389,,-0.0638206573217,-4.46681033754,1.70199480898
1588857868010834806,10113,1588857868010685190,,-0.0632161784475,-4.48557499693,1.70549891758
1588857868016710567,10114,1588857868016623186,,-0.0628529257614,-4.5089818962,1.71115133237
1588857868022656734,10115,1588857868022549115,,-0.0620496221786,-4.52585724766,1.71517654923
1588857868028830968,10116,1588857868028587018,,-0.0618659577744,-4.54910397973,1.72059844594
1588857868034772782,10117,1588857868034680871,,-0.0616020949395,-4.57227826615,1.72612220884
1588857868040684250,10118,1588857868040604452,,-0.0607546261661,-4.58948093177,1.7300989512
1588857868046499200,10119,1588857868046388733,,-0.0605466752756,-4.61293503041,1.73546557496
1588857868053025451,10120,1588857868052939303,,-0.0601027339463,-4.63159708697,1.73931257105
1588857868058719501,10121,1588857868058607408,,-0.059851260142,-4.6273794275,1.7379487394
1588857868061417481,10122,1588857868061273989,,-0.0593881827438,-4.64703362882,1.74187069423
1588857868067389077,10123,1588857868067292834,,-0.0591261263683,-4.67110847455,1.74732523296
1588857868073322754,10124,1588857868073244744,,-0.0586213979529,-4.69092659492,1.75121627328
1588857868079753914,10125,1588857868079619679,,-0.058402984571,-4.71503406284,1.75681417856
1588857868086177498,10126,1588857868086063554,,-0.0575384449209,-4.73397170644,1.76106201905
1588857868091770827,10127,1588857868091643718,,-0.0572151020262,-4.72892027361,1.7596456668
1588857868097664927,10128,1588857868097604259,,-0.0565895193655,-4.74604337356,1.7635870727
1588857868103589250,10129,1588857868103522931,,-0.0564027487585,-4.76823394813,1.76891516948
1588857868109651390,10130,1588857868109568649,,-0.0558684576357,-4.78955846034,1.77446184115
1588857868115427904,10131,1588857868115366182,,-0.0553762909499,-4.80433587369,1.77791227352
1588857868121805903,10132,1588857868121714689,,-0.0549318906005,-4.8185898347,1.78135296378
1588857868127798692,10133,1588857868127696599,,-0.0546743122171,-4.83871118722,1.78640791002
1588857868133674652,10134,1588857868133561355,,-0.0543603753579,-4.85282538757,1.78994335952
1588857868142586213,10135,1588857868142511292,,-0.0534172073602,-4.86217854457,1.79275709992
1588857868148776860,10136,1588857868148696096,,-0.0529717023468,-4.88306693497,1.79811240503
1588857868154421931,10137,1588857868154345255,,-0.0524793447952,-4.8988093609,1.80204333558
1588857868160499187,10138,1588857868160332424,,-0.0522136512636,-4.9198063409,1.80730535631
1588857868166367648,10139,1588857868166291391,,-0.0516588075061,-4.93537757127,1.81078766842
1588857868172554953,10140,1588857868172407200,,-0.0514904438855,-4.93051921118,1.80924730518
1588857868178504914,10141,1588857868178422688,,-0.0511001809611,-4.94553737148,1.81238258696
1588857868184649647,10142,1588857868184566765,,-0.0507890192811,-4.9646164084,1.81716911503
1588857868190590805,10143,1588857868190487491,,-0.0502271290404,-4.97786355073,1.820241974
1588857868196453967,10144,1588857868196341124,,-0.0498962417797,-4.99597113554,1.82465924187
1588857868202771214,10145,1588857868202602379,,-0.0494977367532,-5.01388855529,1.8292050428
1588857868208511044,10146,1588857868208397182,,-0.0486873515286,-5.02483085275,1.83268667107
1588857868214685071,10147,1588857868214592775,,-0.0475876689407,-5.03559537021,1.83664052177
1588857868220660587,10148,1588857868220525040,,-0.0470399706532,-5.0528339919,1.84120803417
1588857868226643866,10149,1588857868226557598,,-0.0463680942607,-5.06950899488,1.84602645196
1588857868235831651,10150,1588857868235679155,,-0.0444155287989,-5.06942118098,1.84648962121
1588857868241586446,10151,1588857868241515545,,-0.0439117843789,-5.0868647641,1.8507212143
1588857868247577133,10152,1588857868247501065,,-0.0432814316245,-5.10469356566,1.85501541694
1588857868253723004,10153,1588857868253583259,,-0.0423711481242,-5.11580076365,1.85702633443
1588857868259569667,10154,1588857868259466079,,-0.0411677570824,-5.12798695314,1.85956977147
1588857868265583836,10155,1588857868265307734,,-0.0404367183593,-5.12187077325,1.85802227631
1588857868271380979,10156,1588857868271242233,,-0.0400047552463,-5.13834028486,1.86180782081
1588857868277642869,10157,1588857868277519062,,-0.0386097472094,-5.14802757562,1.86457682578
1588857868283570237,10158,1588857868283462927,,-0.0372168527679,-5.15627316956,1.86736808402
1588857868289594208,10159,1588857868289502584,,-0.036401989799,-5.17049874159,1.87157355474
1588857868295643992,10160,1588857868295563565,,-0.0355926013878,-5.18433658728,1.87590153239
1588857868301717620,10161,1588857868301615828,,-0.0339979357233,-5.19096727363,1.87881905965
1588857868307632813,10162,1588857868307542872,,-0.0323632523019,-5.1974266698,1.88151418687
1588857868313609285,10163,1588857868313499322,,-0.0313492177913,-5.21109331835,1.88528043369
1588857868319625197,10164,1588857868319550614,,-0.0304030829486,-5.22392092102,1.88913470208
1588857868325697695,10165,1588857868325618658,,-0.0286206472912,-5.21146340504,1.88646600766
1588857868331624161,10166,1588857868331498747,,-0.0278609970883,-5.22528987119,1.89002788923
1588857868337718123,10167,1588857868337640325,,-0.0262684563525,-5.23318325634,1.89197942584
1588857868343620750,10168,1588857868343528638,,-0.025289054277,-5.24667824137,1.89548241021
1588857868350024255,10169,1588857868349940170,,-0.0237102228607,-5.25416681322,1.89728818075
1588857868355612407,10170,1588857868355464128,,-0.0227660556625,-5.26725875145,1.90060004232
1588857868361670876,10171,1588857868361565175,,-0.0209366963117,-5.27378456621,1.90206158562
1588857868367619365,10172,1588857868367512864,,-0.0200921021794,-5.2853060657,1.90503379761
1588857868373527801,10173,1588857868373418676,,-0.0182734281171,-5.2892446153,1.90680254106
1588857868382628682,10174,1588857868382543255,,-0.0156803804627,-5.28473771608,1.90699150044
1588857868388704775,10175,1588857868388603577,,-0.0147585091329,-5.29459540792,1.91007167265
1588857868394737621,10176,1588857868394654945,,-0.0128942011416,-5.29608950618,1.91176876856
1588857868400784239,10177,1588857868400689587,,-0.0120051429337,-5.30524809495,1.91462828577
1588857868406639535,10178,1588857868406547685,,-0.0101390928807,-5.30638138245,1.91596686566
1588857868412820971,10179,1588857868412730410,,-0.00924361121279,-5.31507626671,1.91857909127
1588857868418803263,10180,1588857868418624753,,-0.00746009441235,-5.30056703427,1.91569833817
1588857868424625667,10181,1588857868424539109,,-0.00655518584726,-5.30966834658,1.91807019906
1588857868430901259,10182,1588857868430781301,,-0.00462827758998,-5.31154911526,1.91907820298
1588857868437219387,10183,1588857868437039872,,-0.00386282095645,-5.32006260319,1.92109263634
1588857868442884555,10184,1588857868442767157,,-0.00189004158366,-5.32107844163,1.92209301147
1588857868448707636,10185,1588857868448622723,,-0.00109331458097,-5.32902449827,1.924095562
1588857868454664960,10186,1588857868454588955,,0.000829446844264,-5.3289910147,1.92520090974
1588857868460372914,10187,1588857868460249828,,0.00169785663649,-5.33514073739,1.92714107285
1588857868466723206,10188,1588857868466632254,,0.00384504151393,-5.33302388259,1.92853619028
1588857868473023497,10189,1588857868472905774,,0.00481409775423,-5.33831771505,1.93059056493
1588857868478750314,10190,1588857868478651937,,0.00688405673002,-5.32073407058,1.92827345986
1588857868484740564,10191,1588857868484666020,,0.00801094449979,-5.32557383462,1.93047791839
1588857868490637987,10192,1588857868490546857,,0.0100352316083,-5.32092842033,1.93154361452
1588857868496719380,10193,1588857868496635600,,0.0110413348893,-5.32455466269,1.9333988896
1588857868502732419,10194,1588857868502619367,,0.0119746201269,-5.32857396337,1.93523767697
1588857868508862761,10195,1588857868508767577,,0.0130178153826,-5.33245085041,1.93697947774
1588857868514895399,10196,1588857868514735047,,0.014992280556,-5.32724306504,1.9372457852
1588857868520781940,10197,1588857868520703476,,0.0160486064998,-5.33109642339,1.9387140029
1588857868526752258,10198,1588857868526673002,,0.0184123785833,-5.32653234625,1.93897161401
1588857868533758442,10199,1588857868533600228,,0.0193288509454,-5.33037670983,1.94030060568
1588857868538776185,10200,1588857868538649160,,0.0203202787054,-5.32277478776,1.93879768928
1588857868544819904,10201,1588857868544723600,,0.0224419895203,-5.31793882004,1.93853543136
1588857868551242538,10202,1588857868551112195,,0.0244467069068,-5.31346838429,1.93858143481
1588857868556747520,10203,1588857868556600047,,0.0255160840546,-5.31579445904,1.93994028753
1588857868562837317,10204,1588857868562681959,,0.0265906391841,-5.31808309038,1.94120107601
1588857868568689012,10205,1588857868568594139,,0.0287810002532,-5.31155644541,1.9411321218
1588857868574789950,10206,1588857868574702064,,0.0297004730873,-5.31266356858,1.94202161574
1588857868580812870,10207,1588857868580677661,,0.030939979825,-5.31278819112,1.94327641495
1588857868586696476,10208,1588857868586623087,,0.0330278287655,-5.30384506,1.94327326805
1588857868593062563,10209,1588857868592996514,,0.0339594306268,-5.2843449864,1.93925018389
1588857868598754823,10210,1588857868598676373,,0.0359503973556,-5.28545236515,1.94159965049
1588857868604828729,10211,1588857868604695127,,0.0367470517734,-5.28720341797,1.94279621056
1588857868610754558,10212,1588857868610653684,,0.0387387760055,-5.27665835076,1.942088947
1588857868616811955,10213,1588857868616664836,,0.039637652578,-5.27818244711,1.94309934508
1588857868622752005,10214,1588857868622658868,,0.0417859479585,-5.26854652822,1.94260189633
1588857868628761991,10215,1588857868628665318,,0.0427735520177,-5.2685762298,1.94347607562
1588857868634745294,10216,1588857868634598282,,0.0447933123341,-5.26172436528,1.94298742664
1588857868640673707,10217,1588857868640578222,,0.0456985846511,-5.26182081586,1.94359163165
1588857868646628234,10218,1588857868646516424,,0.0478335037773,-5.25464101176,1.943389989
1588857868653284347,10219,1588857868653139025,,0.0489156984673,-5.25315282166,1.94381988365
1588857868658395736,10220,1588857868658244007,,0.051081656647,-5.23783774893,1.94146873545
1588857868665025452,10221,1588857868664883592,,0.0523102158902,-5.23530499994,1.94208906684
1588857868670818318,10222,1588857868670684159,,0.0545147016963,-5.22345952476,1.9410320205
1588857868676709537,10223,1588857868676616493,,0.0558363982108,-5.21958444416,1.94128659833
1588857868682678472,10224,1588857868682570337,,0.0568655055026,-5.21519784077,1.94121368281
1588857868688690940,10225,1588857868688601441,,0.0580317715412,-5.21013967682,1.94142307127
1588857868694932029,10226,1588857868694760349,,0.060088614203,-5.19553117933,1.9398776986
1588857868700766822,10227,1588857868700669597,,0.0609610714329,-5.19222433179,1.94029096445
1588857868706614658,10228,1588857868706532546,,0.0631359109779,-5.1757472717,1.9388129691
1588857868715728674,10229,1588857868715630671,,0.0664032007316,-5.15452133562,1.93719494958
1588857868721797953,10230,1588857868721700299,,0.0673245219052,-5.15053652911,1.93696084295
1588857868727861017,10231,1588857868727757733,,0.069541146803,-5.13968834996,1.93564986243
1588857868733700540,10232,1588857868733592531,,0.0705013648665,-5.13590056873,1.93527795572
1588857868739662629,10233,1588857868739553300,,0.0724516851196,-5.12473848844,1.93378898343
1588857868745924585,10234,1588857868745670552,,0.0736280215563,-5.11837655331,1.93302952549
1588857868751831649,10235,1588857868751739795,,0.0757473929975,-5.10574571263,1.9312570455
1588857868757682369,10236,1588857868757605191,,0.0769582976365,-5.09979765472,1.93047112203
1588857868763853477,10237,1588857868763678474,,0.0792347005122,-5.08524428103,1.92824593175
1588857868769685546,10238,1588857868769608251,,0.0805502202362,-5.07784151081,1.92769482312
1588857868775564262,10239,1588857868775449403,,0.083007070168,-5.05975252792,1.92619180069
1588857868781384368,10240,1588857868781278203,,0.0842753624887,-5.0506525218,1.92535853077
1588857868787428208,10241,1588857868787253096,,0.0865196503444,-5.03113805475,1.92325089639
1588857868790765299,10242,1588857868790690519,,0.0878743262978,-5.02083530167,1.92211981909
1588857868796825498,10243,1588857868796728938,,0.0899938611725,-5.00130042799,1.92009863048
1588857868802811728,10244,1588857868802705177,,0.0911851458404,-4.99126292412,1.91895861948
1588857868808348407,10245,1588857868808248943,,0.0933090905933,-4.97252070148,1.91695254822
1588857868811796972,10246,1588857868811662260,,0.0944664906613,-4.96372941818,1.915936096
1588857868817791220,10247,1588857868817660129,,0.0954614693444,-4.95485439228,1.91473443445
1588857868823825023,10248,1588857868823729377,,0.0967095138253,-4.94528556829,1.91346776254
1588857868829604839,10249,1588857868829514886,,0.0988903263097,-4.92814526685,1.91082983532
1588857868835643505,10250,1588857868835568118,,0.100085330457,-4.91881223955,1.90920686819
1588857868841685776,10251,1588857868841587122,,0.1018818102,-4.90443708735,1.90691782204
1588857868847748362,10252,1588857868847659886,,0.103031422246,-4.89308290113,1.90505078997
1588857868853974629,10253,1588857868853917154,,0.104885727163,-4.87626787449,1.90294369965
1588857868860127617,10254,1588857868859940868,,0.105960611817,-4.86447663089,1.9012145393
1588857868866024229,10255,1588857868865939043,,0.10797366403,-4.82965317066,1.89473717948
1588857868871891372,10256,1588857868871738819,,0.109090471764,-4.83646391304,1.89792266094
1588857868877761288,10257,1588857868877666208,,0.110853182691,-4.81631439082,1.89559536275
1588857868883791935,10258,1588857868883720735,,0.111860560283,-4.80409301965,1.89390456067
1588857868889810190,10259,1588857868889737645,,0.113926593859,-4.78230924635,1.89149808093
1588857868895859610,10260,1588857868895738845,,0.114828663884,-4.76944379431,1.8894172968
1588857868901778864,10261,1588857868901709110,,0.117113421909,-4.74776808462,1.88668798212
1588857868907983214,10262,1588857868907882292,,0.118305325329,-4.7348441439,1.8847503589
1588857868913598597,10263,1588857868913518134,,0.120623904207,-4.71323341622,1.88118504033
1588857868916694291,10264,1588857868916603784,,0.121673381507,-4.70506069439,1.88023081119
1588857868922668564,10265,1588857868922592213,,0.122761487997,-4.69187914907,1.87794386842
1588857868928728557,10266,1588857868928560017,,0.124958422968,-4.67020268398,1.87462422823
1588857868934800901,10267,1588857868934731017,,0.127220391941,-4.64844789281,1.87135408422
1588857868940406043,10268,1588857868940289173,,0.128116578819,-4.63480185263,1.8687973869
1588857868946693844,10269,1588857868946575850,,0.12896222035,-4.62007091034,1.86613413708
1588857868955831881,10270,1588857868955688053,,0.133261005696,-4.57949181698,1.86023003888
1588857868961662518,10271,1588857868961565206,,0.134253077148,-4.56433567863,1.85746518334
1588857868967688369,10272,1588857868967599552,,0.135140492021,-4.5490537136,1.85481402137
1588857868973667903,10273,1588857868973599614,,0.137170978204,-4.52455791831,1.85119803198
1588857868979597421,10274,1588857868979426286,,0.139263148048,-4.50049586885,1.84809405506
1588857868986003900,10275,1588857868985931112,,0.140251435264,-4.47232676268,1.84221759035
1588857868991990008,10276,1588857868991878169,,0.141198837044,-4.4768400642,1.8446898517
1588857868997717088,10277,1588857868997624183,,0.143204373734,-4.45367021373,1.84126465483
1588857869003697817,10278,1588857869003601108,,0.145293032629,-4.43082347498,1.8377154839
1588857869009652217,10279,1588857869009535505,,0.146252782294,-4.41578591442,1.83470429347
1588857869015832895,10280,1588857869015651559,,0.149256186268,-4.38612814609,1.82938441432
1588857869021819309,10281,1588857869021708963,,0.151181928574,-4.36319110355,1.82519896657
1588857869027878613,10282,1588857869027728310,,0.152004532603,-4.34733139891,1.82221087814
1588857869033887688,10283,1588857869033772342,,0.152991583939,-4.33111702059,1.81934461304
1588857869040069546,10284,1588857869039931533,,0.15480756178,-4.30693474885,1.81556272013
1588857869045734991,10285,1588857869045619282,,0.155566662408,-4.29913131476,1.8143519826
1588857869052384404,10286,1588857869052238036,,0.157572827639,-4.27467964706,1.81022746817
1588857869058059794,10287,1588857869057972721,,0.158358852686,-4.2571719168,1.80654200439
1588857869064062913,10288,1588857869063927612,,0.159922632046,-4.23198056015,1.80210893283
1588857869069948468,10289,1588857869069836803,,0.160859701048,-4.21406097465,1.79843997858
1588857869075625523,10290,1588857869075542315,,0.162299385023,-4.18939667146,1.79354726839
1588857869081819573,10291,1588857869081743815,,0.16318131989,-4.17192694808,1.78991763333
1588857869087722833,10292,1588857869087618466,,0.164907498118,-4.14716934839,1.78517769148
1588857869093638206,10293,1588857869093566213,,0.165825748458,-4.12933711454,1.78152709394
1588857869099761640,10294,1588857869099672474,,0.167578840995,-4.10519184031,1.77681809691
1588857869106098719,10295,1588857869106012910,,0.168472139086,-4.08758073859,1.77331168679
1588857869111702242,10296,1588857869111567769,,0.170258638143,-4.0742922845,1.77159181964
1588857869117794117,10297,1588857869117666983,,0.171260465564,-4.05601077364,1.76804279556
1588857869123670495,10298,1588857869123597540,,0.173061715472,-4.03145158356,1.76329375476
1588857869129675327,10299,1588857869129584915,,0.17393853125,-4.01314860587,1.75927749345
1588857869135676099,10300,1588857869135612548,,0.175968629447,-3.98813526808,1.75451672286
1588857869141847413,10301,1588857869141767826,,0.176763475301,-3.96963879892,1.75047174755
1588857869147785969,10302,1588857869147685962,,0.177755339469,-3.95100087416,1.74674597376
1588857869154100627,10303,1588857869154029735,,0.179505818826,-3.92476254188,1.74230876679
1588857869159866864,10304,1588857869159772686,,0.180523509274,-3.90598510033,1.73876219711
1588857869166192015,10305,1588857869166087840,,0.1811740425,-3.88902688557,1.73515605448
1588857869171710744,10306,1588857869171602824,,0.183193341636,-3.87454492094,1.73421002905
1588857869177898986,10307,1588857869177760526,,0.184832735954,-3.85061648806,1.73000766107
1588857869183739879,10308,1588857869183609577,,0.185929611307,-3.8307093135,1.72645481945
1588857869189593285,10309,1588857869189496197,,0.186877476736,-3.81169319451,1.72288579233
1588857869195728974,10310,1588857869195663569,,0.188572099824,-3.78705587396,1.71841934442
1588857869201520851,10311,1588857869201449482,,0.189322104686,-3.76890702,1.71452856782
1588857869207660324,10312,1588857869207510441,,0.190919966204,-3.74360104237,1.7097194571
1588857869213469993,10313,1588857869213398689,,0.191787569304,-3.72460428964,1.70604898276
1588857869216495384,10314,1588857869216412123,,0.192617568477,-3.7184792267,1.70550769112
1588857869222540953,10315,1588857869222455735,,0.194193825751,-3.69218933507,1.70117141269
1588857869228595872,10316,1588857869228470707,,0.195186157994,-3.6723685858,1.69723471935
1588857869234793413,10317,1588857869234714930,,0.195969649588,-3.65300745091,1.69319006134
1588857869241049201,10318,1588857869240874505,,0.196982640106,-3.63297459805,1.68939142242
1588857869246507662,10319,1588857869246438005,,0.19894635808,-3.60639084096,1.68495134084
1588857869253267117,10320,1588857869253181609,,0.199959322108,-3.58624932293,1.68104987922
1588857869258972571,10321,1588857869258784674,,0.201626937469,-3.57352728609,1.67950649133
1588857869264893585,10322,1588857869264790578,,0.202663668696,-3.5531717739,1.67551558547
1588857869270732606,10323,1588857869270604120,,0.204292912534,-3.52671807717,1.67058610426
1588857869276457891,10324,1588857869276393159,,0.205340895006,-3.50647389449,1.66656617156
1588857869282597879,10325,1588857869282523648,,0.207019771925,-3.48052672306,1.66184762193
1588857869288577324,10326,1588857869288515983,,0.207888693605,-3.4601099125,1.65762896051
1588857869294580977,10327,1588857869294505769,,0.209457418651,-3.43516682991,1.65299768637
1588857869300766117,10328,1588857869300636781,,0.210430303126,-3.41521757432,1.64908229786
1588857869306663103,10329,1588857869306584458,,0.212109707496,-3.39031555345,1.64478491288
1588857869313360906,10330,1588857869313258157,,0.212883676347,-3.37071540676,1.6406612503
1588857869318990037,10331,1588857869318829276,,0.214628737161,-3.36047145311,1.64003548946
1588857869324942300,10332,1588857869324825770,,0.215596885884,-3.3407781682,1.63604017422
1588857869330571069,10333,1588857869330500929,,0.216464273179,-3.3211927891,1.63193279435
1588857869336705586,10334,1588857869336622686,,0.218328497132,-3.29630967665,1.62777689952
1588857869342643269,10335,1588857869342571197,,0.22004777382,-3.27165641876,1.62336851718
1588857869348601104,10336,1588857869348533659,,0.221008740641,-3.25195589773,1.61958429138
1588857869354584431,10337,1588857869354514568,,0.222069873205,-3.23209950547,1.61575305682
1588857869360648147,10338,1588857869360547985,,0.222967271067,-3.21258086961,1.61191605972
1588857869367021137,10339,1588857869366945238,,0.224906243839,-3.18780026836,1.60791455658
1588857869375744273,10340,1588857869375604167,,0.227684888725,-3.15793761933,1.60355980592
1588857869381981972,10341,1588857869381885557,,0.228538147381,-3.13863398819,1.59967714626
1588857869387848605,10342,1588857869387767989,,0.22933246818,-3.11942513857,1.59586589508
1588857869393751109,10343,1588857869393674775,,0.231274470867,-3.0949080031,1.59214282033
1588857869400203436,10344,1588857869400118037,,0.232083296306,-3.07588338023,1.58814900639
1588857869406166022,10345,1588857869406030178,,0.232843952772,-3.07143382978,1.58791258105
1588857869411982161,10346,1588857869411850052,,0.234624953229,-3.04750936951,1.58391193118
1588857869417870863,10347,1588857869417766900,,0.236452992661,-3.02431613739,1.58015224656
1588857869423953441,10348,1588857869423869739,,0.237439144444,-3.00562548863,1.57669145845
1588857869429848327,10349,1588857869429753121,,0.238329459775,-2.98677129539,1.57284223392
1588857869435906155,10350,1588857869435828480,,0.240382433968,-2.96386693818,1.56958902481
1588857869441749757,10351,1588857869441637408,,0.241376402619,-2.94521249731,1.56606481918
1588857869447886798,10352,1588857869447783997,,0.242365514753,-2.92716363185,1.56262675183
1588857869454114653,10353,1588857869454018581,,0.243594715571,-2.90884152837,1.55955480284
1588857869459926979,10354,1588857869459831609,,0.244445713255,-2.89099140241,1.55602074393
1588857869466208121,10355,1588857869465964921,,0.246384682276,-2.88255256595,1.55590992131
1588857869471843228,10356,1588857869471721056,,0.247207302833,-2.86484993697,1.55244013777
1588857869477792520,10357,1588857869477689424,,0.24854780484,-2.8444026523,1.54903850797
1588857869483733021,10358,1588857869483652448,,0.249309227188,-2.82619895451,1.5454423358
1588857869490079534,10359,1588857869489940593,,0.250493748154,-2.8055286623,1.54156622139
1588857869495861501,10360,1588857869495764760,,0.251145260179,-2.78769703104,1.53790118902
1588857869501784458,10361,1588857869501701864,,0.252560068543,-2.7672749276,1.53414027708
1588857869507612592,10362,1588857869507540220,,0.253098353234,-2.75050993124,1.53060633558
1588857869513623211,10363,1588857869513501774,,0.254075912977,-2.7308865819,1.52668519251
1588857869516551459,10364,1588857869516470081,,0.254728826421,-2.72714069157,1.52666295338
1588857869522777648,10365,1588857869522677607,,0.255840562094,-2.70726699271,1.52311928183
1588857869528651951,10366,1588857869528573545,,0.256436585785,-2.69084223079,1.5197677155
1588857869534579739,10367,1588857869534510665,,0.257595558727,-2.67075939073,1.51594112513
1588857869540618281,10368,1588857869540552216,,0.258203248233,-2.65518605103,1.51252322768
1588857869546720991,10369,1588857869546651732,,0.259302274174,-2.63624551479,1.50882739126
1588857869552968142,10370,1588857869552903835,,0.259815148242,-2.62064820326,1.50536860997
1588857869559011468,10371,1588857869558779070,,0.260817306634,-2.61364108079,1.50470865603
1588857869564963279,10372,1588857869564837557,,0.261351957108,-2.59798063929,1.50153953338
1588857869570632730,10373,1588857869570536971,,0.262328654358,-2.57954202162,1.49835798737
1588857869576641242,10374,1588857869576564898,,0.262729762251,-2.56495799758,1.49531737359
1588857869582837768,10375,1588857869582757421,,0.263778892976,-2.54697250071,1.49240621152
1588857869588784611,10376,1588857869588642837,,0.264154701148,-2.532982899,1.48940552708
1588857869594824984,10377,1588857869594750222,,0.265078173355,-2.51585401459,1.48631115182
1588857869600972688,10378,1588857869600854675,,0.265576451889,-2.50213715287,1.48360974251
1588857869606852349,10379,1588857869606746970,,0.266354316682,-2.48625441365,1.4806551755
1588857869616074274,10380,1588857869615967297,,0.267674351671,-2.46772335743,1.47760696691
1588857869622054740,10381,1588857869621941316,,0.26798341447,-2.45485487874,1.47490557007
1588857869628046863,10382,1588857869627958825,,0.268814798012,-2.44064297167,1.47228705613
1588857869633869575,10383,1588857869633779342,,0.269336257561,-2.42894078251,1.46998408707
1588857869640181426,10384,1588857869640094774,,0.269716848208,-2.41768489706,1.46743935046
1588857869646051245,10385,1588857869645972868,,0.27056121866,-2.41301295555,1.46708597637
1588857869652260875,10386,1588857869652006290,,0.271005968783,-2.40200347341,1.4646372376
1588857869657795456,10387,1588857869657657975,,0.2713368875,-2.39163304856,1.46219602593
1588857869664047030,10388,1588857869663930367,,0.272248856133,-2.37943086549,1.45988824569
1588857869670032482,10389,1588857869669936899,,0.272763551954,-2.36958130234,1.45774321128
1588857869676094914,10390,1588857869675984673,,0.273763607228,-2.35793876999,1.45572824936
1588857869681851833,10391,1588857869681762226,,0.274465063999,-2.34885920046,1.45414384322
1588857869687918217,10392,1588857869687826535,,0.275898090731,-2.33799591223,1.45286650227
1588857869693871804,10393,1588857869693763352,,0.276634678974,-2.32951779358,1.4515335017
1588857869700209873,10394,1588857869700093164,,0.278310767228,-2.31983395869,1.45094545762
1588857869705988102,10395,1588857869705819125,,0.279014874804,-2.31780241213,1.45127000081
1588857869711914750,10396,1588857869711828852,,0.28051810787,-2.30792806702,1.45046720725
1588857869717953392,10397,1588857869717854728,,0.281304570353,-2.30047333634,1.4495045209
1588857869723935205,10398,1588857869723847540,,0.282065841764,-2.29364346691,1.4486139799
1588857869730028713,10399,1588857869729894996,,0.283340434342,-2.2854986926,1.44799458989
1588857869735879225,10400,1588857869735781557,,0.284504772598,-2.277733551,1.44716783984
1588857869741947143,10401,1588857869741873718,,0.285072973406,-2.27199499448,1.44640147797
1588857869748029038,10402,1588857869747954060,,0.286079334563,-2.26474953001,1.44574641148
1588857869754275579,10403,1588857869754185834,,0.286519055938,-2.26014823646,1.44511206815
1588857869760283763,10404,1588857869760197782,,0.28754060452,-2.25397970656,1.44489354479
1588857869766171174,10405,1588857869766003521,,0.287988681117,-2.25206956127,1.44501696022
1588857869771911910,10406,1588857869771819766,,0.288476846227,-2.24814538167,1.444685411
1588857869777935154,10407,1588857869777817204,,0.289290520842,-2.24244947498,1.44457104428
1588857869783939322,10408,1588857869783810671,,0.289798527425,-2.2389257142,1.44465326586
1588857869789811258,10409,1588857869789726506,,0.290617512605,-2.23423435404,1.4450410664
1588857869795928128,10410,1588857869795826218,,0.291042780717,-2.23192616891,1.44536811224
1588857869801981047,10411,1588857869801855288,,0.291647196238,-2.22785800941,1.44597137942
1588857869807828483,10412,1588857869807755719,,0.291978857627,-2.2247543234,1.44662519354
1588857869813768708,10413,1588857869813688331,,0.292265590237,-2.22123190828,1.44721589651
1588857869816926611,10414,1588857869816837106,,0.292975385104,-2.21683675256,1.44791581261
1588857869822814240,10415,1588857869822713279,,0.293165415125,-2.21323476806,1.448438564
1588857869829393449,10416,1588857869829294497,,0.293757355689,-2.20737109811,1.44916357776
1588857869834775440,10417,1588857869834702238,,0.294091929732,-2.20331768983,1.45014316586
1588857869840834595,10418,1588857869840690529,,0.294527418974,-2.19610334784,1.45106892943
1588857869846886245,10419,1588857869846747279,,0.294705757971,-2.19070609502,1.4519532494
1588857869853547666,10420,1588857869853425329,,0.295287171643,-2.1825374237,1.45312158227
1588857869859207398,10421,1588857869858904252,,0.295600749507,-2.18046301206,1.45316995305
1588857869864826142,10422,1588857869864737222,,0.296061306711,-2.17230252763,1.45429394132
1588857869870842307,10423,1588857869870755664,,0.296225076705,-2.16547477803,1.45547554458
1588857869876819166,10424,1588857869876731246,,0.296576134184,-2.15623540879,1.45720744841
1588857869882795137,10425,1588857869882682637,,0.296660056925,-2.14808872884,1.45885429805
1588857869888784997,10426,1588857869888695397,,0.296985154583,-2.13771504134,1.46109464521
1588857869894952616,10427,1588857869894769148,,0.297158584043,-2.12882653927,1.46298855083
1588857869900894751,10428,1588857869900782723,,0.297586938348,-2.11772319008,1.46501914084
1588857869907099515,10429,1588857869906975996,,0.297823577448,-2.10813169439,1.46702274548
1588857869915938127,10430,1588857869915799758,,0.29829128952,-2.09502588597,1.46944958231
1588857869921830540,10431,1588857869921749532,,0.298349932522,-2.08249519686,1.47134609553
1588857869928023509,10432,1588857869927864313,,0.298537100599,-2.07152505707,1.47371900014
1588857869933685163,10433,1588857869933599029,,0.298554754783,-2.06040577625,1.47584125277
1588857869940023447,10434,1588857869939901090,,0.298903749327,-2.04715367955,1.47839627618
1588857869946262357,10435,1588857869946024166,,0.299006980813,-2.0457501251,1.47858644706
1588857869952291886,10436,1588857869952022814,,0.29907717957,-2.03390990954,1.48120233615
1588857869957790939,10437,1588857869957708603,,0.299210651768,-2.02052774409,1.4840410239
1588857869963821037,10438,1588857869963732340,,0.299231716912,-2.00792878456,1.48696023403
1588857869969802110,10439,1588857869969710384,,0.299429047482,-1.99379344109,1.49018224016
1588857869975787366,10440,1588857869975703691,,0.29945362979,-1.98064037042,1.49318807624
1588857869981666983,10441,1588857869981587549,,0.29967225565,-1.96624470582,1.49667959894
1588857869987934215,10442,1588857869987822563,,0.299650995899,-1.95270863377,1.49970498335
1588857869993839227,10443,1588857869993770454,,0.299766199209,-1.93785053892,1.50319688707
1588857869999993004,10444,1588857869999928513,,0.299771488148,-1.92374010752,1.50669070549
1588857870005953478,10445,1588857870005855121,,0.299839247748,-1.92208343861,1.50702127156
1588857870011763260,10446,1588857870011603973,,0.299908526094,-1.90756331715,1.51065802768
1588857870014680932,10447,1588857870014611122,,0.299959690244,-1.89205886052,1.51443631745
1588857870020794742,10448,1588857870020689937,,0.299953760992,-1.8768197151,1.51824068088
1588857870026858365,10449,1588857870026777509,,0.300015598024,-1.86032529074,1.52231303943
1588857870035721794,10450,1588857870035644142,,0.300004295976,-1.84322190835,1.52647654941
1588857870041743458,10451,1588857870041668473,,0.300042886595,-1.82720534381,1.53049576807
1588857870047786340,10452,1588857870047675518,,0.300033438744,-1.81074872401,1.53458303792
1588857870054028819,10453,1588857870053920775,,0.300045333383,-1.79405019514,1.53869078485
1588857870060160666,10454,1588857870060049916,,0.300020872298,-1.77710151424,1.54293283617
1588857870065856822,10455,1588857870065654045,,0.300052180688,-1.77701461509,1.54294937956
1588857870071928899,10456,1588857870071849872,,0.300058136943,-1.75990233428,1.5473736994
1588857870077730294,10457,1588857870077625799,,0.30004901734,-1.74253852383,1.55167775553
1588857870083766852,10458,1588857870083683930,,0.30001417849,-1.72477666387,1.55613568274
1588857870089785453,10459,1588857870089663262,,0.300059456456,-1.70669319434,1.5607847307
1588857870095733891,10460,1588857870095629783,,0.300019781158,-1.6884357306,1.5654744712
1588857870101607342,10461,1588857870101492737,,0.300009780552,-1.66967012105,1.57023904736
1588857870104594546,10462,1588857870104523905,,0.299939694907,-1.6699909045,1.57014548909
1588857870107603350,10463,1588857870107514496,,0.299933542775,-1.65111178033,1.57515477449
1588857870110581249,10464,1588857870110499148,,0.299811691585,-1.65171995288,1.57527483202
1588857870113634506,10465,1588857870113526660,,0.299777510991,-1.63242657549,1.58021876286
1588857870116633230,10466,1588857870116532784,,0.299751829578,-1.63288033472,1.58032570406
1588857870120025047,10467,1588857870119949842,,0.299666672605,-1.61379930021,1.5854534429
1588857870128605428,10468,1588857870128528630,,0.299668903945,-1.59436354491,1.59100529634
1588857870131681797,10469,1588857870131600742,,0.299662821286,-1.59477087454,1.5912246932
1588857870134610016,10470,1588857870134530605,,0.299503510658,-1.57525713016,1.59676225755
1588857870137723761,10471,1588857870137645870,,0.299395695621,-1.57588503803,1.59703865242
1588857870143632680,10472,1588857870143534933,,0.299351791254,-1.55566129475,1.60242984293
1588857870146590911,10473,1588857870146475100,,0.299302313999,-1.53501574274,1.6078617237
1588857870149997597,10474,1588857870149884355,,0.299250303936,-1.53587190085,1.6080754216
1588857870155702891,10475,1588857870155595870,,0.29916229582,-1.5152607696,1.61374675938
1588857870162003485,10476,1588857870161903084,,0.299099732838,-1.49421395643,1.6191830849
1588857870168016329,10477,1588857870167886544,,0.299087092661,-1.47248157001,1.62484812144
1588857870173885551,10478,1588857870173785475,,0.299137574186,-1.45083465984,1.63064350376
1588857870180274090,10479,1588857870180109744,,0.299100210781,-1.42844295345,1.63638355422
1588857870186196737,10480,1588857870186093927,,0.299158933983,-1.40578631788,1.64220972207
1588857870191668742,10481,1588857870191584277,,0.299230004542,-1.4060441629,1.64235838724
1588857870194558682,10482,1588857870194477632,,0.2992799504,-1.38269429958,1.64827022284
1588857870197489494,10483,1588857870197425584,,0.299302641045,-1.38276624053,1.64830942097
1588857870200466115,10484,1588857870200388086,,0.299387615461,-1.35920295317,1.65442225457
1588857870203878015,10485,1588857870203790617,,0.299402279791,-1.35921585352,1.65441110543
1588857870209772360,10486,1588857870209678205,,0.299404680333,-1.33530342279,1.66042212905
1588857870215762136,10487,1588857870215699175,,0.299451672889,-1.31092941141,1.66659460542
1588857870221788589,10488,1588857870221706399,,0.299596863815,-1.28592151405,1.67311811479
1588857870228145532,10489,1588857870228025608,,0.299559797163,-1.26094072907,1.67948609396
1588857870233938018,10490,1588857870233814187,,0.299690250598,-1.23492500733,1.68629349775
1588857870239886478,10491,1588857870239783457,,0.29977051822,-1.20933715527,1.69293399499
1588857870246265139,10492,1588857870246037614,,0.300067331684,-1.20763354125,1.69365582519
1588857870252275864,10493,1588857870252166789,,0.300215914162,-1.18149671315,1.70021181623
1588857870257679647,10494,1588857870257571056,,0.300287307145,-1.15482106856,1.70664938546
1588857870263910036,10495,1588857870263823282,,0.30055528274,-1.12564178792,1.71351301432
1588857870269902370,10496,1588857870269758129,,0.300806663575,-1.09767119812,1.72038203778
1588857870275874174,10497,1588857870275788948,,0.301274473729,-1.06624464903,1.72743207641
1588857870281706733,10498,1588857870281536468,,0.301284781663,-1.03726114371,1.73383684779
1588857870284636870,10499,1588857870284544244,,0.301696492126,-1.03141706394,1.73410251373
1588857870288023876,10500,1588857870287930407,,0.301931049277,-1.00165972091,1.74092464066
1588857870293809774,10501,1588857870293715713,,0.302148508763,-0.971397006792,1.74776943984
1588857870300089125,10502,1588857870299987076,,0.302348415263,-0.937523929212,1.75457323057
1588857870306735215,10503,1588857870306450886,,0.302439391153,-0.933982737754,1.75457918829
1588857870312221008,10504,1588857870312097452,,0.302651946771,-0.899745505396,1.76165237315
1588857870318087172,10505,1588857870317969681,,0.30273941611,-0.869541803825,1.76849553892
1588857870324075003,10506,1588857870323971925,,0.30265713916,-0.835695130327,1.77487862891
1588857870330063747,10507,1588857870329919799,,0.302436010708,-0.805191178593,1.78149827375
1588857870336040561,10508,1588857870335933159,,0.301510279234,-0.771770708186,1.7872800101
1588857870342057323,10509,1588857870341902024,,0.301153499983,-0.741215717306,1.79387187293
1588857870347979021,10510,1588857870347867557,,0.300386426311,-0.708741117788,1.80016845401
1588857870354342478,10511,1588857870354209544,,0.300048316848,-0.678317953241,1.80650857578
1588857870360470174,10512,1588857870360345227,,0.29968473868,-0.647838837396,1.81298842979
1588857870368993700,10513,1588857870368865953,,0.298470437614,-0.613743218131,1.81819885182
1588857870374974504,10514,1588857870374849536,,0.298248810809,-0.583606782232,1.82534475024
1588857870380942282,10515,1588857870380838502,,0.297876910232,-0.552497400905,1.83232718345
1588857870386955843,10516,1588857870386883801,,0.297581747355,-0.522345168997,1.8394826332
1588857870396162089,10517,1588857870396041368,,0.297253264883,-0.491627542025,1.84645387803
1588857870402050683,10518,1588857870401951459,,0.296854992075,-0.461304490696,1.85339417427
1588857870407926949,10519,1588857870407835839,,0.296682884082,-0.430980081277,1.86065047403
1588857870414164995,10520,1588857870413980152,,0.296530449034,-0.400693358957,1.8679426196
1588857870422881618,10521,1588857870422798689,,0.296199107097,-0.37012993086,1.87506790011
1588857870429013989,10522,1588857870428906913,,0.296180633633,-0.339494218972,1.88265210315
1588857870435063728,10523,1588857870434925211,,0.296146625937,-0.308885646509,1.89027968426
1588857870441077621,10524,1588857870440968359,,0.296106757132,-0.278191727652,1.89794320701
1588857870446998586,10525,1588857870446920411,,0.296056368593,-0.247427575575,1.90560034678
1588857870453883722,10526,1588857870453697555,,0.295993630796,-0.216525594683,1.91331248097
1588857870459389454,10527,1588857870459145886,,0.295980290831,-0.216891186983,1.91321064111
1588857870464965734,10528,1588857870464876409,,0.296008171844,-0.185989440078,1.92086002644
1588857870470961431,10529,1588857870470879824,,0.295966249694,-0.155133664111,1.92863363975
1588857870477012827,10530,1588857870476903559,,0.296026097064,-0.123825892119,1.93647962142
1588857870482889803,10531,1588857870482794462,,0.295983509245,-0.092536913415,1.94438397931
1588857870488906949,10532,1588857870488826577,,0.295959844522,-0.0612463053511,1.95213017564
1588857870494842273,10533,1588857870494768267,,0.296001562629,-0.0299182252883,1.95998248265
1588857870500968302,10534,1588857870500886983,,0.29596268047,0.00168994635626,1.96782568344
1588857870507059729,10535,1588857870506977078,,0.295980122173,0.0332849472283,1.97563673355
1588857870515858619,10536,1588857870515745986,,0.296008078361,0.0641786875233,1.98293248711
1588857870522017564,10537,1588857870521910030,,0.296129078324,0.0955123905865,1.99053738797
1588857870527835626,10538,1588857870527735732,,0.296261973588,0.127004662188,1.99807124738
1588857870533910861,10539,1588857870533785588,,0.29642226635,0.158378569361,2.00579488991
1588857870542919026,10540,1588857870542761333,,0.296818674942,0.188481410947,2.01294262069
1588857870548864700,10541,1588857870548764084,,0.297026391672,0.219808953086,2.02059168501
1588857870554868130,10542,1588857870554773499,,0.297270847436,0.251265301481,2.02834546729
1588857870560776101,10543,1588857870560698245,,0.297496524864,0.282900689162,2.03641768553
1588857870567128000,10544,1588857870567023366,,0.297675333881,0.314641096143,2.04433660463
1588857870576128359,10545,1588857870576013095,,0.298137381077,0.345077785053,2.05197238421
1588857870582033038,10546,1588857870581923606,,0.29873445992,0.375344362897,2.05970992631
1588857870588087138,10547,1588857870587986668,,0.299126692332,0.407041244322,2.06761753503
1588857870594063361,10548,1588857870593930652,,0.300820557735,0.437187071102,2.07676698135
1588857870602991619,10549,1588857870602898490,,0.302408797186,0.466881452411,2.08583910675
1588857870609066138,10550,1588857870608982657,,0.302752011511,0.498302896231,2.09377797016
1588857870614932751,10551,1588857870614856010,,0.303225081514,0.529732958787,2.10216650258
1588857870620970912,10552,1588857870620850030,,0.303628828127,0.561348234758,2.11071440465
1588857870627218570,10553,1588857870627071550,,0.304171296306,0.593090103558,2.11949360108
1588857870635994761,10554,1588857870635846131,,0.305303166778,0.623309078623,2.1281095807
1588857870641991467,10555,1588857870641850827,,0.305744207399,0.654848824074,2.13612599447
1588857870647965678,10556,1588857870647892566,,0.306011213569,0.686667104549,2.14366078316
1588857870654255550,10557,1588857870654167721,,0.306498432844,0.717049652551,2.15085071468
1588857870660232145,10558,1588857870660143093,,0.306676579443,0.748860164879,2.15856191413
1588857870666944839,10559,1588857870666846057,,0.307056598332,0.779803375183,2.16575781739
1588857870672028457,10560,1588857870671912820,,0.307292012308,0.778684255882,2.16519440634
1588857870678032248,10561,1588857870677938145,,0.307635392817,0.810947371695,2.17310110725
1588857870684042113,10562,1588857870683892544,,0.308355170493,0.841910648224,2.180704028
1588857870689807122,10563,1588857870689741116,,0.30868369137,0.874293082745,2.18878562183
1588857870695869373,10564,1588857870695764096,,0.309524504033,0.905561906109,2.19633071713
1588857870702071356,10565,1588857870701953268,,0.309822522315,0.937979148069,2.20424020164
1588857870707994623,10566,1588857870707904459,,0.310149700116,0.970414430361,2.21197588996
1588857870713815922,10567,1588857870713747906,,0.310410496708,1.00263516615,2.21941333288
1588857870716865349,10568,1588857870716759196,,0.310782647888,1.00147600882,2.21836711384
1588857870722793570,10569,1588857870722728000,,0.311397912926,1.03302876809,2.22519764469
1588857870726809824,10570,1588857870726739789,,0.311814835857,1.06453431406,2.23151977245
1588857870731838082,10571,1588857870731694097,,0.312010140311,1.06360423497,2.23070864514
1588857870737775860,10572,1588857870737667890,,0.312241595778,1.09614404112,2.23796647178
1588857870740797731,10573,1588857870740679112,,0.312736919666,1.12776594305,2.24397611462
1588857870743852271,10574,1588857870743791409,,0.312949797621,1.12688331251,2.24320638723
1588857870750145030,10575,1588857870750086205,,0.313436058877,1.15825048847,2.24985616735
1588857870755743967,10576,1588857870755684194,,0.313691753225,1.19043451769,2.2572926413
1588857870759053729,10577,1588857870758704116,,0.314115369131,1.18845833606,2.25543497418
1588857870764697645,10578,1588857870764627962,,0.31436415609,1.22058404138,2.26260168674
1588857870767903115,10579,1588857870767803115,,0.314780757463,1.25152680043,2.26867010793
1588857870773758037,10580,1588857870773681896,,0.315102129798,1.28352740025,2.27580252409
1588857870776988996,10581,1588857870776909461,,0.315309548223,1.2825282114,2.27465826403
1588857870782749905,10582,1588857870782673822,,0.315717521785,1.31369232855,2.28053016755
1588857870786691048,10583,1588857870786617748,,0.316008489481,1.34594795626,2.28789391589
1588857870791899162,10584,1588857870791818080,,0.316237689027,1.34508071245,2.28688996664
1588857870797797728,10585,1588857870797688424,,0.316474392517,1.3771695641,2.29411290951
1588857870800951300,10586,1588857870800886440,,0.316898158019,1.40855096027,2.30004216997
1588857870806764796,10587,1588857870806649273,,0.317177026459,1.44060828197,2.30727749337
1588857870809969426,10588,1588857870809901074,,0.317841937724,1.43933024711,2.30529906888
1588857870815798548,10589,1588857870815715182,,0.318357560653,1.47107349429,2.31156948291
1588857870819501218,10590,1588857870819185333,,0.318763866153,1.47052778392,2.31035120898
1588857870825039815,10591,1588857870824966149,,0.319453626581,1.5024010692,2.31670851328
1588857870830934289,10592,1588857870830812372,,0.320007588234,1.53474318148,2.32378616426
1588857870836996006,10593,1588857870836889497,,0.321080993109,1.56725333079,2.33012914731
1588857870843067343,10594,1588857870842949782,,0.322311000725,1.59977530478,2.33668168625
1588857870848875837,10595,1588857870848788108,,0.322839002402,1.63221450372,2.34391520587
1588857870855134077,10596,1588857870855005529,,0.32344277417,1.66451630759,2.35122052242
1588857870861104130,10597,1588857870861038896,,0.324596453402,1.69647485246,2.35742079515
1588857870867242603,10598,1588857870867093356,,0.32507639963,1.72868689963,2.36462782585
1588857870873512974,10599,1588857870873450020,,0.326311489769,1.76066206328,2.37061005303
1588857870879218273,10600,1588857870879112118,,0.326942942996,1.76090472263,2.3700226395
1588857870885149426,10601,1588857870885047840,,0.328141587946,1.79276746749,2.37528367424
1588857870890949425,10602,1588857870890883944,,0.328762901967,1.82467641055,2.38193809289
1588857870896978805,10603,1588857870896893895,,0.330008843549,1.85666949213,2.3873286023
1588857870902911842,10604,1588857870902841540,,0.330678749027,1.88844336683,2.39384706593
1588857870908892211,10605,1588857870908823216,,0.331287408583,1.92010444405,2.40030522128
1588857870914795684,10606,1588857870914723343,,0.331995120103,1.95148443311,2.40682298576
1588857870920803606,10607,1588857870920743551,,0.333241161,1.98277289663,2.41183566376
1588857870923733842,10608,1588857870923658666,,0.333934292565,1.98281384649,2.41042801551
1588857870927129259,10609,1588857870926996862,,0.33541026031,2.01397360978,2.41570885357
1588857870936026682,10610,1588857870935945486,,0.336749384587,2.04463019837,2.42076319225
1588857870942096811,10611,1588857870941993117,,0.338152608371,2.07492243519,2.42572769928
1588857870948178192,10612,1588857870948033096,,0.338726529498,2.10526405121,2.43184431651
1588857870954545456,10613,1588857870954386587,,0.33986373004,2.13484527582,2.43683799238
1588857870960354911,10614,1588857870960272602,,0.340530993638,2.16451566884,2.44312837586
1588857870969150903,10615,1588857870969038513,,0.341686385772,2.19334873613,2.44805625185
1588857870974938512,10616,1588857870974802318,,0.342978198839,2.22160729113,2.45309828472
1588857870984325422,10617,1588857870984207862,,0.344683623868,2.24914325802,2.45715452372
1588857870989950757,10618,1588857870989879960,,0.345307541739,2.27831250386,2.46334386006
1588857870996074751,10619,1588857870995968767,,0.345810722174,2.30727851695,2.4697708895
1588857871002062199,10620,1588857871001963195,,0.346889400226,2.33535140138,2.47463732644
1588857871008004136,10621,1588857871007906769,,0.347432146904,2.36402273144,2.48084253584
1588857871013780468,10622,1588857871013699184,,0.348435470419,2.3915790996,2.48535424753
1588857871016887695,10623,1588857871016777550,,0.348991157274,2.39064738849,2.48404736876
1588857871020505095,10624,1588857871020418034,,0.349374144634,2.41935542263,2.49000257303
1588857871027113681,10625,1588857871026970946,,0.349925524911,2.44730300393,2.49586062868
1588857871032039976,10626,1588857871031963125,,0.351112018785,2.44515194635,2.49281563577
1588857871038144056,10627,1588857871038064115,,0.351688896468,2.4727928968,2.49848772915
1588857871044139875,10628,1588857871044038017,,0.352775556372,2.49911267846,2.50318641007
1588857871050189912,10629,1588857871050115093,,0.353352840364,2.5264556049,2.50891248666
1588857871056022172,10630,1588857871055870220,,0.354555637163,2.55239603664,2.51327810726
1588857871061899081,10631,1588857871061783050,,0.35527400671,2.57938968824,2.51903778359
1588857871067945042,10632,1588857871067862442,,0.356698187807,2.60481520586,2.52387923841
1588857871073922890,10633,1588857871073845124,,0.357412682754,2.63137804878,2.52931745932
1588857871080101736,10634,1588857871080028472,,0.358688385971,2.65683373765,2.53379245172
1588857871086519859,10635,1588857871086408658,,0.359425651898,2.6829002538,2.53933022114
1588857871092042298,10636,1588857871091971036,,0.360807273011,2.68020090037,2.53679451576
1588857871097769756,10637,1588857871097683492,,0.361506445009,2.70608441398,2.54219809446
1588857871100878024,10638,1588857871100793544,,0.36222825127,2.73160788905,2.54736530047
1588857871104151718,10639,1588857871104039671,,0.362956886971,2.73001641847,2.54556555743
1588857871110165683,10640,1588857871110082908,,0.363771424593,2.75513778427,2.55073135996
1588857871116104296,10641,1588857871116035240,,0.365216515874,2.77827219969,2.55385751375
1588857871122096696,10642,1588857871122018531,,0.365970552503,2.80329124752,2.55873938416
1588857871128258947,10643,1588857871128122580,,0.366734566004,2.82791107182,2.56345032976
1588857871134197180,10644,1588857871134034319,,0.36751736973,2.85230763682,2.5684007769
1588857871140940421,10645,1588857871140844021,,0.3683437133,2.87658905653,2.57357277477
1588857871149132206,10646,1588857871149021207,,0.369821158389,2.89862025172,2.57614478193
1588857871155153304,10647,1588857871155028278,,0.370587809228,2.92227330795,2.58080733816
1588857871161086890,10648,1588857871160992162,,0.371271632985,2.94591157323,2.58539825096
1588857871167179394,10649,1588857871167101670,,0.372680566148,2.9671101255,2.58798585744
1588857871175816194,10650,1588857871175737323,,0.373945449031,2.98832131421,2.590486215
1588857871178749725,10651,1588857871178654129,,0.374488732883,2.98617596666,2.58824247846
1588857871184770818,10652,1588857871184694598,,0.375694481181,3.0067979509,2.59042910579
1588857871187895231,10653,1588857871187818728,,0.37622635116,3.02941360467,2.59429837799
1588857871190733955,10654,1588857871190644554,,0.376873020042,3.02729359224,2.59248322719
1588857871194140964,10655,1588857871194047154,,0.377368790386,3.04929330762,2.59643089234
1588857871200631016,10656,1588857871200512754,,0.377968905085,3.07118963486,2.60037169689
1588857871209133527,10657,1588857871208966494,,0.378797095166,3.0909390646,2.60197031429
1588857871215211353,10658,1588857871215114703,,0.37930270633,3.11232536851,2.60541045026
1588857871221101909,10659,1588857871221025726,,0.379583104879,3.13389739493,2.60917802995
1588857871227226776,10660,1588857871227095517,,0.380010814119,3.15470322959,2.61219106845
1588857871236022402,10661,1588857871235927902,,0.381017327079,3.17178884436,2.61102118977
