%time,field.header.seq,field.header.stamp,field.header.frame_id,field.vector.x,field.vector.y,field.vector.z
1588857867368037954,10006,1588857867367840175,,0.499477784844,-0.20107658352,0.215189209137
1588857867373951425,10007,1588857867373860144,,0.499479029199,-0.201060472322,0.215187309805
1588857867380077983,10008,1588857867379911035,,0.499480312798,-0.20105203499,0.215186915677
1588857867386011461,10009,1588857867385848377,,0.499481994935,-0.201037674196,0.215185083933
1588857867392042427,10010,1588857867391893615,,0.499482138829,-0.201030037675,0.215185262386
1588857867397952063,10011,1588857867397822319,,0.49948286611,-0.201016912644,0.215188991375
1588857867404065075,10012,1588857867403920765,,0.499483288921,-0.201009190585,0.215191945604
1588857867409984993,10013,1588857867409837853,,0.499482911245,-0.201001533891,0.215192674058
1588857867416002784,10014,1588857867415873052,,0.499482203071,-0.200989040386,0.215194649957
1588857867422094580,10015,1588857867421873679,,0.499481883206,-0.200975794489,0.215195135724
1588857867428063996,10016,1588857867427907226,,0.499481333803,-0.200970093905,0.215192831514
1588857867434056355,10017,1588857867433926246,,0.499481263913,-0.200962608442,0.215193239705
1588857867440101254,10018,1588857867439895505,,0.499480161173,-0.200948143025,0.215192911397
1588857867445985481,10019,1588857867445881313,,0.499479420578,-0.200937719938,0.215193317706
1588857867452392465,10020,1588857867452254486,,0.499479227004,-0.200933886265,0.215193173768
1588857867458001748,10021,1588857867457876318,,0.499478473317,-0.200929416328,0.215192287065
1588857867464083961,10022,1588857867463901630,,0.499478185402,-0.200923290075,0.215192455861
1588857867470043081,10023,1588857867469874297,,0.49947765225,-0.200918714262,0.215191711785
1588857867476057689,10024,1588857867475862604,,0.49947608004,-0.200917332655,0.215189378458
1588857867482016632,10025,1588857867481856445,,0.499474956776,-0.200916866398,0.215187570219
1588857867488049022,10026,1588857867487899638,,0.499474021224,-0.200913921296,0.215186540333
1588857867493966848,10027,1588857867493818146,,0.499472410295,-0.200913355734,0.215184419224
1588857867499997951,10028,1588857867499882817,,0.499470977351,-0.200912117483,0.215181733367
1588857867505963400,10029,1588857867505809099,,0.499469601566,-0.200912043494,0.215180322697
1588857867511934650,10030,1588857867511828942,,0.499467114023,-0.200912123144,0.215175651207
1588857867518116822,10031,1588857867517886825,,0.499465016699,-0.200911599938,0.215172291554
1588857867524020357,10032,1588857867523823976,,0.499463597697,-0.200911890281,0.215170016968
1588857867530071873,10033,1588857867529901449,,0.499462938423,-0.200912567705,0.215169508329
1588857867536048503,10034,1588857867535908631,,0.49946070264,-0.200912508751,0.21516546715
1588857867542044044,10035,1588857867541889846,,0.499459581991,-0.200913732997,0.215163226161
1588857867548081669,10036,1588857867547868585,,0.499457634851,-0.200914468766,0.215159412069
1588857867553967833,10037,1588857867553874422,,0.499456858576,-0.200913847603,0.215158102661
1588857867559968975,10038,1588857867559864749,,0.499455278188,-0.200914726154,0.2151547352
1588857867565957042,10039,1588857867565880401,,0.499455103525,-0.200915589864,0.215154030101
1588857867571967837,10040,1588857867571840549,,0.499454116016,-0.200916339368,0.215151397988
1588857867578064247,10041,1588857867577881052,,0.499454088477,-0.200916313555,0.215151396183
1588857867584072215,10042,1588857867583902702,,0.499453424211,-0.200916532455,0.215150182303
1588857867590061437,10043,1588857867589906601,,0.499452986942,-0.200917163769,0.215148440316
1588857867596043301,10044,1588857867595911942,,0.49945270528,-0.200917535583,0.215145883229
1588857867602057279,10045,1588857867601873024,,0.499452482633,-0.200918581673,0.215144965925
1588857867608169590,10046,1588857867607929540,,0.499451008001,-0.200919882032,0.215143004232
1588857867614014019,10047,1588857867613905660,,0.499450966506,-0.200919116949,0.215142048479
1588857867619976588,10048,1588857867619864591,,0.499450313814,-0.200919550421,0.215139195842
1588857867626019979,10049,1588857867625864492,,0.49944934517,-0.200920064658,0.215137051889
1588857867632050092,10050,1588857867631924098,,0.499448704431,-0.200920813818,0.215132969562
1588857867638021061,10051,1588857867637861813,,0.499448451156,-0.200921868555,0.215130700545
1588857867644069564,10052,1588857867643904993,,0.499448068305,-0.200922544286,0.215125141364
1588857867650247458,10053,1588857867650121912,,0.499447410196,-0.200924966411,0.215119835682
1588857867656110562,10054,1588857867655951603,,0.499447181363,-0.200928513109,0.215108130279
1588857867662124574,10055,1588857867661910175,,0.499446292162,-0.200929671188,0.215101911323
1588857867668049537,10056,1588857867667879864,,0.499445504286,-0.200928945173,0.215094423834
1588857867674082824,10057,1588857867673933226,,0.499444334491,-0.200927836713,0.215090425851
1588857867679996274,10058,1588857867679885653,,0.499442265862,-0.200923028336,0.215083780949
1588857867685965626,10059,1588857867685869497,,0.499441473663,-0.20091896771,0.215080140823
1588857867691998583,10060,1588857867691879356,,0.499438454612,-0.200909337565,0.215071125016
1588857867698070941,10061,1588857867697907851,,0.499436863288,-0.200901800695,0.215065937205
1588857867704173432,10062,1588857867703933356,,0.499434117988,-0.200887238864,0.21505492385
1588857867710083243,10063,1588857867709910351,,0.499432912412,-0.200879315019,0.215049304848
1588857867716268234,10064,1588857867715957305,,0.499430033914,-0.200862204685,0.215038061059
1588857867722034342,10065,1588857867721893066,,0.499428899466,-0.200855757145,0.215032794934
1588857867728015241,10066,1588857867727886611,,0.499426622222,-0.200837988904,0.215020918436
1588857867734067329,10067,1588857867733873604,,0.4994266447,-0.200829570202,0.215016647912
1588857867740120243,10068,1588857867739932680,,0.49942652054,-0.200819411625,0.215010997952
1588857867746019967,10069,1588857867745885007,,0.499426891457,-0.200800957476,0.215002687552
1588857867752649119,10070,1588857867752455524,,0.499427771735,-0.200783922372,0.214994352667
1588857867758054507,10071,1588857867757858809,,0.499428624589,-0.200775176495,0.214990832101
1588857867764164060,10072,1588857867763976394,,0.499429798394,-0.200757811266,0.214983396653
1588857867770102253,10073,1588857867769949763,,0.499430914427,-0.20074768913,0.21498041877
1588857867776124884,10074,1588857867776003937,,0.4994320737,-0.200728453555,0.214973491852
1588857867782101773,10075,1588857867781976083,,0.499432925373,-0.200717391221,0.214969575887
1588857867788097249,10076,1588857867787946424,,0.499432951842,-0.200708256289,0.214965093268
1588857867794256993,10077,1588857867794004686,,0.499433548169,-0.20068697929,0.214956695715
1588857867800194004,10078,1588857867799989166,,0.499433499817,-0.200666073306,0.214949628579
1588857867806046824,10079,1588857867805948051,,0.499434570761,-0.200653794168,0.214948404922
1588857867812051797,10080,1588857867811953792,,0.499435293107,-0.200638226931,0.214950591232
1588857867818027877,10081,1588857867817915623,,0.499435435931,-0.200608803553,0.214955745099
1588857867824113360,10082,1588857867823950358,,0.499436184018,-0.200596415942,0.214952491167
1588857867830142312,10083,1588857867829949078,,0.499437835078,-0.200570477193,0.214944804328
1588857867836109576,10084,1588857867835970411,,0.499439450147,-0.200558737643,0.214941096813
1588857867842053538,10085,1588857867841914840,,0.499440906852,-0.200530246052,0.214931244976
1588857867848226825,10086,1588857867847999190,,0.499441465887,-0.200516321546,0.214925803906
1588857867854082901,10087,1588857867853947260,,0.499442151288,-0.200490000104,0.214914517276
1588857867860057048,10088,1588857867859941539,,0.499442315227,-0.200475675501,0.214907549051
1588857867865944075,10089,1588857867865855827,,0.499444546637,-0.200443233891,0.214893818696
1588857867872126762,10090,1588857867871939277,,0.499444496785,-0.20042959483,0.214886771789
1588857867878101005,10091,1588857867877946105,,0.499446701874,-0.200399348352,0.214874369822
1588857867884085974,10092,1588857867883937888,,0.499447597215,-0.200383969278,0.214867293627
1588857867890229553,10093,1588857867890004191,,0.499449501434,-0.200353305593,0.214856908384
1588857867896090159,10094,1588857867895894395,,0.499450245474,-0.200336816445,0.214851366805
1588857867902123250,10095,1588857867901897172,,0.499451238978,-0.200304668742,0.214837273669
1588857867908016915,10096,1588857867907903764,,0.499452758579,-0.200285792806,0.2148311615
1588857867914042030,10097,1588857867913918477,,0.499452695041,-0.200249007437,0.214814886623
1588857867920098189,10098,1588857867919947626,,0.499453444453,-0.200230843323,0.214807689423
1588857867926077152,10099,1588857867925932014,,0.49945366205,-0.200192992291,0.214791244624
1588857867932057407,10100,1588857867931941762,,0.499454136145,-0.200173789051,0.214782822651
1588857867938115489,10101,1588857867937941112,,0.499455742373,-0.200133584621,0.214760563107
1588857867944028619,10102,1588857867943871777,,0.499455706116,-0.200112509593,0.214752255998
1588857867950389812,10103,1588857867950195034,,0.499453775854,-0.200076886474,0.214733913464
1588857867956107038,10104,1588857867955927611,,0.499454556989,-0.200058854236,0.214726562177
1588857867962083793,10105,1588857867961976943,,0.499457880177,-0.200020764525,0.21471139345
1588857867968163983,10106,1588857867967955033,,0.49946084704,-0.200002286839,0.214705971986
1588857867975524684,10107,1588857867975397882,,0.499467365062,-0.199963581197,0.214695662073
1588857867979966714,10108,1588857867979850575,,0.499470370558,-0.199944958799,0.214687655189
1588857867986020320,10109,1588857867985892227,,0.49947847695,-0.199894361058,0.21467111948
1588857867992039072,10110,1588857867991917851,,0.499482481468,-0.19986507769,0.214662735387
1588857867998126133,10111,1588857867997936386,,0.499484332723,-0.199832194854,0.214650803884
1588857868004073138,10112,1588857868003941822,,0.499489434741,-0.199758537739,0.214621972231
1588857868010111979,10113,1588857868009982766,,0.499494270572,-0.199671501462,0.214590716712
1588857868016117624,10114,1588857868015977612,,0.499497176594,-0.199622816391,0.214576950964
1588857868022102400,10115,1588857868021914190,,0.499503603023,-0.199523113932,0.214550476381
1588857868028068313,10116,1588857868027977295,,0.499505072338,-0.199475639052,0.214535489371
1588857868034194657,10117,1588857868033985918,,0.49950718324,-0.199428862512,0.214521636766
1588857868040105240,10118,1588857868039978414,,0.499513962991,-0.199335612108,0.214495732773
1588857868046013133,10119,1588857868045908407,,0.499515626598,-0.199293693297,0.214481277863
1588857868052495814,10120,1588857868052403308,,0.499519178128,-0.199214779128,0.214455001176
1588857868058171923,10121,1588857868057933796,,0.499521189919,-0.199181037852,0.214444090523
1588857868061051268,10122,1588857868060887538,,0.499524894538,-0.199111422493,0.214418753919
1588857868067022720,10123,1588857868066902127,,0.499526990989,-0.199078554437,0.214406023524
1588857868073035675,10124,1588857868072884014,,0.499531028816,-0.199013035044,0.214381135757
1588857868079028594,10125,1588857868078935380,,0.499532776123,-0.198983253031,0.214370258561
1588857868085170505,10126,1588857868085040432,,0.499539692441,-0.198913554977,0.214348941484
1588857868091072543,10127,1588857868090959736,,0.499542279184,-0.198873143514,0.214337610666
1588857868097137964,10128,1588857868096972945,,0.499547283845,-0.198790391433,0.214314207693
1588857868103030532,10129,1588857868102953081,,0.49954877801,-0.198749661053,0.214302268723
1588857868109002039,10130,1588857868108933842,,0.499553052339,-0.198703503475,0.214292453677
1588857868114978848,10131,1588857868114881847,,0.499556989672,-0.198606489614,0.214266248844
1588857868121126702,10132,1588857868121021318,,0.499560544875,-0.198506827657,0.214240350955
1588857868127102096,10133,1588857868126976335,,0.499562605502,-0.198455663181,0.214227756701
1588857868133154049,10134,1588857868132972870,,0.499565116997,-0.198358018466,0.214203400718
1588857868142146313,10135,1588857868141949667,,0.499572662341,-0.19822388082,0.214173669915
1588857868148199143,10136,1588857868148088769,,0.499576226381,-0.198183638695,0.214164675044
1588857868154028074,10137,1588857868153922643,,0.499580165242,-0.198103860549,0.2141446931
1588857868160052290,10138,1588857868159892073,,0.49958229079,-0.198067768372,0.214135772262
1588857868166001588,10139,1588857868165897598,,0.49958672954,-0.197989937374,0.214113030548
1588857868172085484,10140,1588857868171930328,,0.499588076449,-0.197951070493,0.214100707642
1588857868178072384,10141,1588857868177978455,,0.499591198552,-0.197870499548,0.21407561084
1588857868184125090,10142,1588857868184016696,,0.499593687846,-0.197824117461,0.214064149469
1588857868190060959,10143,1588857868189909764,,0.499598182968,-0.197732799089,0.214039408463
1588857868196113069,10144,1588857868195896280,,0.499600830066,-0.197682099948,0.214025856651
1588857868202196771,10145,1588857868201947221,,0.499604018106,-0.197631631788,0.214013771179
1588857868208047504,10146,1588857868207954618,,0.499610501188,-0.197527131349,0.2139936145
1588857868214069995,10147,1588857868213950474,,0.499619298648,-0.197422993556,0.213977681823
1588857868220234819,10148,1588857868220010912,,0.499623680235,-0.197372449457,0.213967108654
1588857868226026173,10149,1588857868225919906,,0.499629055246,-0.197319213025,0.213958996882
1588857868235123512,10150,1588857868235014783,,0.49964467577,-0.197133706216,0.213916501162
1588857868241025372,10151,1588857868240924430,,0.499648705725,-0.197090298063,0.213904614702
1588857868247162633,10152,1588857868246982254,,0.499653748547,-0.197051834239,0.213893694764
1588857868253335852,10153,1588857868253239635,,0.499661030815,-0.19696147505,0.213864977911
1588857868259208252,10154,1588857868259082853,,0.499670657943,-0.196881639912,0.213840994243
1588857868265109929,10155,1588857868264913854,,0.499676506253,-0.196832710473,0.213828614282
1588857868271068565,10156,1588857868270906408,,0.499679961958,-0.196789048464,0.213815044113
1588857868277201165,10157,1588857868277028683,,0.499691122022,-0.196693049448,0.213793821817
1588857868283068998,10158,1588857868282968440,,0.499702265178,-0.196587451593,0.213773261231
1588857868289109072,10159,1588857868288947934,,0.499708784082,-0.196531642049,0.213764501467
1588857868295187658,10160,1588857868295039574,,0.499715259189,-0.196474692698,0.213757212259
1588857868301142849,10161,1588857868301046361,,0.499728016514,-0.196362061362,0.21373913327
1588857868307075190,10162,1588857868306959602,,0.499741093982,-0.196250048044,0.213719772166
1588857868313091920,10163,1588857868312956315,,0.499749206258,-0.196197693902,0.213709480308
1588857868319113946,10164,1588857868319026252,,0.499756775336,-0.196140641127,0.213700396056
1588857868325096438,10165,1588857868324987471,,0.499771034822,-0.196040980999,0.213679046501
1588857868331143223,10166,1588857868331019655,,0.499777112023,-0.195993945205,0.213668129673
1588857868337166750,10167,1588857868337042550,,0.499789852349,-0.195901482937,0.213644839628
1588857868343187627,10168,1588857868343042231,,0.499797687566,-0.195855883499,0.213634473674
1588857868349504409,10169,1588857868349392254,,0.499810318217,-0.195764294399,0.213611045419
1588857868355070913,10170,1588857868354983422,,0.499817871555,-0.195719605244,0.213600184147
1588857868361168770,10171,1588857868361007322,,0.49983250643,-0.195624471236,0.213575041361
1588857868367121163,10172,1588857868366994008,,0.499839263183,-0.195571397715,0.213562507678
1588857868373125240,10173,1588857868372949628,,0.499853812575,-0.195459766229,0.213540872655
1588857868382143806,10174,1588857868381984697,,0.499874556956,-0.19528268716,0.213507128361
1588857868388176460,10175,1588857868388033794,,0.499881931927,-0.195222650945,0.213497045302
1588857868394203468,10176,1588857868394013926,,0.499896846391,-0.195097841975,0.21347643163
1588857868400196677,10177,1588857868400089730,,0.499903958857,-0.195036494532,0.213465653729
1588857868406093486,10178,1588857868405960562,,0.499918887257,-0.194913099634,0.213443247069
1588857868412146337,10179,1588857868411991413,,0.49992605111,-0.194852361558,0.213431570586
1588857868418168084,10180,1588857868418035560,,0.499940319245,-0.194736287698,0.213408524561
1588857868424141480,10181,1588857868423984338,,0.499947558513,-0.194680973927,0.213395468381
1588857868430165675,10182,1588857868430038898,,0.499962973779,-0.194570077259,0.213372046708
1588857868436381689,10183,1588857868436149321,,0.499969097432,-0.194514432102,0.21335722391
1588857868442144639,10184,1588857868442033559,,0.499984879667,-0.194401003549,0.213334838096
1588857868448155625,10185,1588857868448067721,,0.499991253483,-0.194345222315,0.213321021078
1588857868454115555,10186,1588857868454025781,,0.500006635575,-0.194227817839,0.213300579708
1588857868460089943,10187,1588857868459972469,,0.500013582853,-0.194162099328,0.21328737194
1588857868466187070,10188,1588857868466050873,,0.500030760332,-0.194032475478,0.213270360626
1588857868472117249,10189,1588857868472004449,,0.500038512782,-0.193964371096,0.213259181863
1588857868478163090,10190,1588857868478013376,,0.500055072454,-0.193823701941,0.213240645023
1588857868484119032,10191,1588857868484035412,,0.500064087556,-0.1937542054,0.213231227028
1588857868490131043,10192,1588857868489963891,,0.500080281853,-0.193611073961,0.213213260566
1588857868496100141,10193,1588857868495997974,,0.500088330679,-0.193536368166,0.213202173833
1588857868502177261,10194,1588857868502032291,,0.500095796961,-0.193467064811,0.213191519692
1588857868508273167,10195,1588857868508080872,,0.500104142523,-0.193398885423,0.213180655477
1588857868514295158,10196,1588857868514118778,,0.500119938244,-0.193260296952,0.213158554389
1588857868520182810,10197,1588857868520057350,,0.500128388852,-0.193196470662,0.213146636842
1588857868526117910,10198,1588857868525997614,,0.500147299029,-0.193067582369,0.213125603812
1588857868532818451,10199,1588857868532715976,,0.500154630808,-0.193008243247,0.213113712237
1588857868538141565,10200,1588857868538021540,,0.50016256223,-0.19294742787,0.213101688906
1588857868544246810,10201,1588857868544089264,,0.500179535916,-0.192820931616,0.213077638715
1588857868550498922,10202,1588857868550353666,,0.500195573655,-0.19269964872,0.21305662689
1588857868556181749,10203,1588857868556024780,,0.500204128672,-0.192635030302,0.213046690958
1588857868562246685,10204,1588857868562071054,,0.500212725113,-0.19257240773,0.21303654436
1588857868568219922,10205,1588857868568071222,,0.500230248002,-0.192441561044,0.213016334344
1588857868574163905,10206,1588857868574042100,,0.500237603785,-0.192374085006,0.21300436704
1588857868580162994,10207,1588857868580011876,,0.500247519839,-0.192301051576,0.212995897831
1588857868586130064,10208,1588857868586015348,,0.50026422263,-0.192157780539,0.212977941159
1588857868592094046,10209,1588857868592001969,,0.500271675445,-0.192086242401,0.212966872099
1588857868598149691,10210,1588857868598069179,,0.500287603179,-0.191941218921,0.212947197204
1588857868604273392,10211,1588857868604064748,,0.500293976414,-0.19188811442,0.212939991454
1588857868610123816,10212,1588857868610029914,,0.500309910208,-0.191738948995,0.212918132123
1588857868616250237,10213,1588857868616072818,,0.500317101221,-0.19168864551,0.212910591244
1588857868622163721,10214,1588857868622037543,,0.500334287584,-0.191551370821,0.212891564819
1588857868628235630,10215,1588857868628085148,,0.500342188416,-0.191493729993,0.212884088644
1588857868634202028,10216,1588857868634062951,,0.500358346499,-0.191383345201,0.212866286983
1588857868640176563,10217,1588857868640024286,,0.500365588677,-0.191330854852,0.212857805134
1588857868646163260,10218,1588857868646008784,,0.50038266803,-0.191222461428,0.212843453245
1588857868652749949,10219,1588857868652629919,,0.500391325588,-0.191161906605,0.212834730077
1588857868658123586,10220,1588857868657973650,,0.500408653253,-0.191039386023,0.212815920892
1588857868664239900,10221,1588857868664053004,,0.500418481727,-0.19097277883,0.212809297242
1588857868670241672,10222,1588857868670101144,,0.500436117614,-0.190833972018,0.212789830119
1588857868676192314,10223,1588857868676024594,,0.500446691186,-0.190761228327,0.21278143098
1588857868682234622,10224,1588857868682049871,,0.500454924044,-0.190686689866,0.212770986247
1588857868688212568,10225,1588857868688046540,,0.500464254172,-0.190609073461,0.212763373582
1588857868694341165,10226,1588857868694145819,,0.500480708914,-0.190457345731,0.212742295663
1588857868700238251,10227,1588857868700072831,,0.500487688571,-0.190398319019,0.212737458807
1588857868706101245,10228,1588857868706000713,,0.500505087288,-0.190236214575,0.212718062853
1588857868715182975,10229,1588857868715026732,,0.500531225606,-0.190038398909,0.212698116653
1588857868721256625,10230,1588857868721076106,,0.500538596175,-0.189980787555,0.212689810574
1588857868727238247,10231,1588857868727081556,,0.500556329174,-0.18987053965,0.212673457112
1588857868733187821,10232,1588857868733036818,,0.500564010919,-0.189819040182,0.212665182554
1588857868739160711,10233,1588857868739018350,,0.500579613481,-0.18971080606,0.212648536406
1588857868745220513,10234,1588857868745066084,,0.500589024172,-0.189659910579,0.212642460742
1588857868751391136,10235,1588857868751192150,,0.500605979144,-0.189542180263,0.212624110004
1588857868757222724,10236,1588857868757076021,,0.500615666381,-0.189480159907,0.212614213643
1588857868763246273,10237,1588857868763094683,,0.500633877604,-0.189351538194,0.21259336344
1588857868769166565,10238,1588857868769035507,,0.500644401762,-0.189282355606,0.212586464465
1588857868775144059,10239,1588857868774974767,,0.500664056561,-0.189129910399,0.212572506949
1588857868781130761,10240,1588857868780981381,,0.5006742029,-0.18905159653,0.212564462335
1588857868787175297,10241,1588857868786991556,,0.500692157203,-0.188892178589,0.212546775709
1588857868790185155,10242,1588857868790077766,,0.50070299461,-0.188809756564,0.21253772709
1588857868796164259,10243,1588857868796013515,,0.500719950889,-0.188652378733,0.212521282871
1588857868802247363,10244,1588857868802041910,,0.500729481167,-0.188573174617,0.212512436762
1588857868808092209,10245,1588857868807979495,,0.500746472725,-0.188426518555,0.212497208622
1588857868811171849,10246,1588857868811029434,,0.500755731925,-0.188356188289,0.212489077004
1588857868817143299,10247,1588857868817038046,,0.500763691755,-0.188290646296,0.212480828265
1588857868823318008,10248,1588857868823081114,,0.500773676111,-0.188221720751,0.212472601151
1588857868829132305,10249,1588857868829028979,,0.50079112261,-0.188094380201,0.212453943199
1588857868835276063,10250,1588857868835074114,,0.500800682644,-0.188031644284,0.212443941538
1588857868841162124,10251,1588857868841074160,,0.500815054482,-0.187930707074,0.21242914517
1588857868847190836,10252,1588857868847069882,,0.500824251378,-0.187856062201,0.212418256068
1588857868853484970,10253,1588857868853387595,,0.500839085817,-0.187739843759,0.212405974788
1588857868859346687,10254,1588857868859263055,,0.500847684895,-0.187665916913,0.212397242281
1588857868865248357,10255,1588857868865084627,,0.500863789312,-0.187531829731,0.212381548527
1588857868871266269,10256,1588857868871078965,,0.500872723774,-0.187464307421,0.212376530317
1588857868877251757,10257,1588857868877042788,,0.500886825462,-0.187327680088,0.212364054142
1588857868883221426,10258,1588857868883082707,,0.500894884482,-0.187256541636,0.212357185855
1588857868889261028,10259,1588857868889112979,,0.500911412751,-0.18711095435,0.212345104742
1588857868895211301,10260,1588857868895053809,,0.500918629311,-0.187038750355,0.212336138374
1588857868901234563,10261,1588857868901096870,,0.500936907375,-0.186898086982,0.212322489433
1588857868907217438,10262,1588857868907081305,,0.500946442603,-0.186829446037,0.212315676093
1588857868913162205,10263,1588857868913016338,,0.500964991234,-0.186693304285,0.212296339561
1588857868916194879,10264,1588857868916084081,,0.500973387052,-0.18662792251,0.212288705728
1588857868922175700,10265,1588857868922085792,,0.500982091904,-0.186561192542,0.212280090785
1588857868928189909,10266,1588857868928034834,,0.500999667384,-0.186428465998,0.212263704957
1588857868934273457,10267,1588857868934097211,,0.501017763136,-0.186297059703,0.212248201814
1588857868940178510,10268,1588857868940023553,,0.501024932631,-0.186232453969,0.212238888882
1588857868946100908,10269,1588857868946033019,,0.501031697763,-0.186161082879,0.212229201996
1588857868955207158,10270,1588857868955095449,,0.501066088046,-0.185884823368,0.212194062519
1588857868961136518,10271,1588857868961008827,,0.501074024617,-0.18581382682,0.212184506815
1588857868967176729,10272,1588857868967046925,,0.501081123936,-0.185743685131,0.212176326027
1588857868973129463,10273,1588857868973038920,,0.501097367826,-0.185601676031,0.212160887427
1588857868979234301,10274,1588857868979138801,,0.501114105184,-0.185464961495,0.212150001077
1588857868985336911,10275,1588857868985134880,,0.501122011482,-0.185400791636,0.212143285107
1588857868991275506,10276,1588857868991100300,,0.501129590696,-0.185333302489,0.212137164307
1588857868997230262,10277,1588857868997109234,,0.50114563499,-0.185207317265,0.212124606128
1588857869003205920,10278,1588857869003068995,,0.501162344261,-0.185085683267,0.212111497738
1588857869009153127,10279,1588857869009030087,,0.501170022258,-0.185028268811,0.212103129722
1588857869015210898,10280,1588857869015052961,,0.50119404949,-0.184855618193,0.212076723571
1588857869021244340,10281,1588857869021078953,,0.501209455429,-0.184738437865,0.212059818992
1588857869027264761,10282,1588857869027106170,,0.501216036261,-0.184679559305,0.212052914054
1588857869033180648,10283,1588857869033054319,,0.501223932672,-0.184619504597,0.212047399012
1588857869039194640,10284,1588857869039092503,,0.501238460494,-0.184497345754,0.212034968702
1588857869045195980,10285,1588857869045104221,,0.501244533299,-0.184434918281,0.212025282802
1588857869051471097,10286,1588857869051314473,,0.501260582621,-0.184312220646,0.212010515613
1588857869057285163,10287,1588857869057119187,,0.501266870821,-0.18424666784,0.211999659162
1588857869063204790,10288,1588857869063107042,,0.501279381056,-0.184121215898,0.211983214317
1588857869069179638,10289,1588857869069092045,,0.501286877608,-0.184055484131,0.211973268912
1588857869075246253,10290,1588857869075068034,,0.50129839508,-0.183937316348,0.211953913891
1588857869081265855,10291,1588857869081140865,,0.501305450559,-0.183878202231,0.211945037728
1588857869087303586,10292,1588857869087093996,,0.501319259985,-0.183762257017,0.211927647089
1588857869093210386,10293,1588857869093109372,,0.501326605988,-0.183703161114,0.211919332801
1588857869099283501,10294,1588857869099111136,,0.501340630728,-0.183594981319,0.211902906424
1588857869105282643,10295,1588857869105156252,,0.501347777113,-0.183540468962,0.211896449258
1588857869111152042,10296,1588857869111062945,,0.501362069105,-0.183434161329,0.21188269032
1588857869117261890,10297,1588857869117126827,,0.501370083725,-0.183375652961,0.211876234058
1588857869123264833,10298,1588857869123118447,,0.501384493724,-0.183268263202,0.211860512671
1588857869129183034,10299,1588857869129101202,,0.50139150825,-0.183212235537,0.21185098162
1588857869135206741,10300,1588857869135085778,,0.501407749036,-0.183103809313,0.211835815575
1588857869141297404,10301,1588857869141131792,,0.501414107802,-0.183048773855,0.211826689846
1588857869147216388,10302,1588857869147073185,,0.501422042716,-0.182993833637,0.211820424451
1588857869153599520,10303,1588857869153496159,,0.501436046551,-0.182879287676,0.211808766969
1588857869159390170,10304,1588857869159237438,,0.501444188074,-0.182825596557,0.211804526516
1588857869165263539,10305,1588857869165159202,,0.50144939234,-0.182787596735,0.211800093848
1588857869171170874,10306,1588857869171052336,,0.501465546733,-0.182671741018,0.211792525645
1588857869177345897,10307,1588857869177178556,,0.501478661888,-0.182579086258,0.211783599877
1588857869183221100,10308,1588857869183122548,,0.50148743689,-0.182519677263,0.211780139244
1588857869189218116,10309,1588857869189077517,,0.501495019814,-0.182468440857,0.211776810164
1588857869195226056,10310,1588857869195130701,,0.501508576799,-0.182373246992,0.211766554755
1588857869201198583,10311,1588857869201048943,,0.501514576837,-0.182330940575,0.211761149646
1588857869207235720,10312,1588857869207100126,,0.50152735973,-0.182232324004,0.211748634573
1588857869213156245,10313,1588857869213038056,,0.501534300554,-0.182185094739,0.211745456967
1588857869216146810,10314,1588857869216056089,,0.501540940548,-0.182136094235,0.211741126634
1588857869222191949,10315,1588857869222042892,,0.501553550606,-0.182031399591,0.211732842529
1588857869228281050,10316,1588857869228065072,,0.501561489264,-0.181979303592,0.211727966481
1588857869234211648,10317,1588857869234110473,,0.501567757197,-0.181931695338,0.211722429423
1588857869240384175,10318,1588857869240243992,,0.501575861121,-0.181879489043,0.211719054444
1588857869246261949,10319,1588857869246040529,,0.501591570865,-0.181775615633,0.211710732953
1588857869252671152,10320,1588857869252586249,,0.501599674577,-0.181723984215,0.211706896442
1588857869258294476,10321,1588857869258194290,,0.5016130155,-0.181622207921,0.211694549339
1588857869264324621,10322,1588857869264133606,,0.50162130935,-0.181569532135,0.21169016417
1588857869270344612,10323,1588857869270124372,,0.5016343433,-0.181468701502,0.211678428055
1588857869276141022,10324,1588857869276060994,,0.50164272716,-0.181418140196,0.211674116633
1588857869282144085,10325,1588857869282065919,,0.501656158175,-0.181322510318,0.211664355109
1588857869288193051,10326,1588857869288120948,,0.501663109549,-0.181271640323,0.21165872194
1588857869294207345,10327,1588857869294090580,,0.501675659349,-0.181185038343,0.211649907417
1588857869300250306,10328,1588857869300157379,,0.501683442425,-0.181138825897,0.211646929709
1588857869306211011,10329,1588857869306114491,,0.50169687766,-0.181053390507,0.211640995823
1588857869312887250,10330,1588857869312813801,,0.501703069411,-0.181010729078,0.211636541458
1588857869318326379,10331,1588857869318165336,,0.501717029897,-0.180928777449,0.211631535372
1588857869324316337,10332,1588857869324134296,,0.501724775087,-0.180885689199,0.211628187357
1588857869330230673,10333,1588857869330109230,,0.501731714185,-0.180843741327,0.211624012108
1588857869336386068,10334,1588857869336162124,,0.501746627977,-0.18075964709,0.211619507615
1588857869342227224,10335,1588857869342124262,,0.501760382191,-0.180677585085,0.211613031571
1588857869348276058,10336,1588857869348126442,,0.501768069925,-0.18063529579,0.211611586483
1588857869354245943,10337,1588857869354088648,,0.501776558986,-0.180591867276,0.211609792263
1588857869360293690,10338,1588857869360135206,,0.501783738169,-0.180551205022,0.211607967994
1588857869366684858,10339,1588857869366511939,,0.501799249951,-0.18046846723,0.211604832723
1588857869375286961,10340,1588857869375172160,,0.50182147911,-0.180345048731,0.211598865391
1588857869381313004,10341,1588857869381156667,,0.501828305179,-0.180306033056,0.211596657458
1588857869387309092,10342,1588857869387160810,,0.501834659745,-0.180267660834,0.211594992092
1588857869393216126,10343,1588857869393134559,,0.501850195767,-0.180186661556,0.211593991945
1588857869399599340,10344,1588857869399513577,,0.50185666637,-0.180149395149,0.211590774078
1588857869405293204,10345,1588857869405197958,,0.501862751622,-0.180113798746,0.211588882675
1588857869411381781,10346,1588857869411194443,,0.501876999626,-0.18003707946,0.211585546575
1588857869417301792,10347,1588857869417202009,,0.501891623941,-0.179965908375,0.211584062791
1588857869423386427,10348,1588857869423252039,,0.501899513156,-0.179930408393,0.211584882789
1588857869429291906,10349,1588857869429189453,,0.501906635678,-0.179893202055,0.211582495794
1588857869435307240,10350,1588857869435147219,,0.501923059472,-0.179823147473,0.21158476519
1588857869441232850,10351,1588857869441098630,,0.501931011221,-0.179786595856,0.211584742523
1588857869447312070,10352,1588857869447212310,,0.501938924118,-0.179754342543,0.211585272387
1588857869453579330,10353,1588857869453445647,,0.501948757725,-0.17971930659,0.211588582013
1588857869459455822,10354,1588857869459324831,,0.501955565706,-0.17968739878,0.211588032842
1588857869465320861,10355,1588857869465208631,,0.501971077458,-0.179619888088,0.211587146261
1588857869471290462,10356,1588857869471173694,,0.501977658423,-0.179588461132,0.211586936511
1588857869477328841,10357,1588857869477187745,,0.501988382439,-0.179534325854,0.211587084223
1588857869483258448,10358,1588857869483154547,,0.501994473818,-0.179497335732,0.21158547471
1588857869489320745,10359,1588857869489212641,,0.502003949985,-0.179439756344,0.211581411533
1588857869495255174,10360,1588857869495159470,,0.502009162081,-0.179403976248,0.211578809512
1588857869501330720,10361,1588857869501178339,,0.502020480548,-0.179346508381,0.211575199457
1588857869507184360,10362,1588857869507083905,,0.502024786826,-0.179317278865,0.211573150538
1588857869513187577,10363,1588857869513090836,,0.502032607304,-0.179264108988,0.211567735623
1588857869516253604,10364,1588857869516088676,,0.502037830611,-0.179234141865,0.21156755771
1588857869522355274,10365,1588857869522220967,,0.502046724497,-0.179177840108,0.211564880296
1588857869528281019,10366,1588857869528169896,,0.502051492686,-0.179147944695,0.211563443436
1588857869534218658,10367,1588857869534088533,,0.50206076447,-0.179087542916,0.211557895949
1588857869540268469,10368,1588857869540144309,,0.502065625986,-0.179061918288,0.211555293291
1588857869546336959,10369,1588857869546235990,,0.502074418193,-0.179007999599,0.211550128
1588857869552551242,10370,1588857869552474003,,0.502078521186,-0.178979412058,0.211546505488
1588857869558372872,10371,1588857869558220405,,0.502086538453,-0.178923355078,0.211541225856
1588857869564282242,10372,1588857869564177532,,0.502090815657,-0.178892789157,0.211539552278
1588857869570315156,10373,1588857869570119521,,0.502098629235,-0.178838465269,0.211537396173
1588857869576269210,10374,1588857869576114858,,0.502101838098,-0.178813385821,0.211535969449
1588857869582348699,10375,1588857869582207811,,0.502110231144,-0.178759442001,0.211535165191
1588857869588312775,10376,1588857869588146565,,0.502113237609,-0.178735751938,0.211533216403
1588857869594439932,10377,1588857869594240083,,0.502120625387,-0.178685172857,0.2115300744
1588857869600394098,10378,1588857869600211569,,0.502124611615,-0.178660053316,0.211529616963
1588857869606228823,10379,1588857869606110282,,0.502130834533,-0.178615707685,0.211526659498
1588857869615309845,10380,1588857869615214944,,0.502141394813,-0.178548213483,0.211522462391
1588857869621429367,10381,1588857869621225696,,0.502143867316,-0.17852399436,0.211520533393
1588857869627411670,10382,1588857869627256424,,0.502150518384,-0.178486938215,0.21151874506
1588857869633356219,10383,1588857869633143415,,0.50215469006,-0.178467805626,0.211518942538
1588857869639620585,10384,1588857869639517093,,0.502157734786,-0.178450024135,0.211516651043
1588857869645282982,10385,1588857869645182392,,0.502164489749,-0.178412648603,0.211513824051
1588857869651601037,10386,1588857869651385822,,0.50216804775,-0.178394553319,0.211511729284
1588857869657322262,10387,1588857869657182361,,0.5021706951,-0.178379219235,0.211509106919
1588857869663452340,10388,1588857869663217693,,0.502177990849,-0.178346813037,0.211506947494
1588857869669378147,10389,1588857869669228142,,0.502182108416,-0.178330742407,0.211505468687
1588857869675429167,10390,1588857869675232840,,0.502190108858,-0.178297774736,0.211504392139
1588857869681272661,10391,1588857869681147405,,0.502195720512,-0.178282689028,0.211506104602
1588857869687370731,10392,1588857869687204367,,0.502207184726,-0.178250642823,0.211509600899
1588857869693329687,10393,1588857869693177422,,0.502213077432,-0.178234917657,0.211511961841
1588857869699636181,10394,1588857869699529630,,0.502226486138,-0.178206716317,0.211519574823
1588857869705325545,10395,1588857869705210133,,0.502232118998,-0.178190463945,0.211522171168
1588857869711316120,10396,1588857869711170421,,0.502244144863,-0.178157837388,0.211527340871
1588857869717344237,10397,1588857869717233108,,0.502250436563,-0.178141595359,0.211530488334
1588857869723346996,10398,1588857869723174592,,0.502256526734,-0.178127308013,0.211533451909
1588857869729361218,10399,1588857869729223492,,0.502266723475,-0.178099384836,0.211537805543
1588857869735332428,10400,1588857869735175531,,0.502276038181,-0.178071309176,0.211539702911
1588857869741426997,10401,1588857869741256008,,0.502280583787,-0.178056183129,0.211541267617
1588857869747343243,10402,1588857869747231160,,0.502288634677,-0.178025664656,0.211542888396
1588857869753679920,10403,1588857869753542572,,0.502292152448,-0.178012887721,0.211543822003
1588857869759659370,10404,1588857869759568575,,0.502300324836,-0.177984085826,0.211547210402
1588857869765346449,10405,1588857869765228474,,0.502303909449,-0.177968804664,0.211548197725
1588857869771293994,10406,1588857869771187666,,0.50230781477,-0.177954394684,0.211549791196
1588857869777320312,10407,1588857869777204185,,0.502314324167,-0.177922171606,0.211552212306
1588857869783371875,10408,1588857869783230734,,0.502318388219,-0.177903609439,0.211555277058
1588857869789377327,10409,1588857869789219874,,0.502324940101,-0.177871912668,0.21155983799
1588857869795444734,10410,1588857869795244429,,0.502328342246,-0.177855409351,0.211562944898
1588857869801360652,10411,1588857869801228287,,0.50233317757,-0.177824834989,0.211567278307
1588857869807301204,10412,1588857869807205658,,0.502335830861,-0.177805900628,0.211571035038
1588857869813332918,10413,1588857869813198944,,0.502338124722,-0.177787514134,0.211573312455
1588857869816415064,10414,1588857869816209355,,0.502343803081,-0.177752352888,0.211578911784
1588857869822339125,10415,1588857869822193339,,0.502345323321,-0.177737200915,0.211579677819
1588857869828777076,10416,1588857869828682231,,0.502350058846,-0.177707799796,0.211581100869
1588857869834318508,10417,1588857869834212124,,0.502352735438,-0.177696698262,0.211583606141
1588857869840353422,10418,1588857869840214300,,0.502356219352,-0.17766409979,0.211584733184
1588857869846458226,10419,1588857869846250015,,0.502357646064,-0.1776498015,0.21158458781
1588857869853010721,10420,1588857869852927286,,0.502362297373,-0.177617068158,0.211585780466
1588857869858263027,10421,1588857869858173537,,0.502364805996,-0.177600472865,0.211586167432
1588857869864301425,10422,1588857869864183408,,0.502368490454,-0.177571514038,0.211586078076
1588857869870354325,10423,1588857869870198352,,0.502369800614,-0.177556898732,0.21158552923
1588857869876322002,10424,1588857869876212030,,0.502372609073,-0.17752664463,0.211588469247
1588857869882335563,10425,1588857869882173024,,0.502373280455,-0.177508758624,0.211589822186
1588857869888343027,10426,1588857869888181147,,0.502375881237,-0.17747665546,0.211595023379
1588857869894328951,10427,1588857869894206583,,0.502377268672,-0.177460004907,0.211596560258
1588857869900340426,10428,1588857869900222533,,0.502380695507,-0.177429178834,0.211598304798
1588857869906561602,10429,1588857869906421768,,0.50238258862,-0.177413962881,0.211598954632
1588857869915279085,10430,1588857869915176486,,0.502386330316,-0.177374119664,0.211602118514
1588857869921345700,10431,1588857869921193705,,0.50238679946,-0.177342336491,0.211600175035
1588857869927329428,10432,1588857869927205218,,0.502388296805,-0.177326468566,0.211601184974
1588857869933273084,10433,1588857869933161632,,0.502388438038,-0.177312810044,0.211599339064
1588857869939551342,10434,1588857869939461144,,0.502391229995,-0.177285463118,0.211600111789
1588857869945419823,10435,1588857869945240542,,0.502392055847,-0.177274234682,0.211601633156
1588857869951547940,10436,1588857869951398824,,0.502392617437,-0.177261528434,0.2116020564
1588857869957322140,10437,1588857869957190860,,0.502393685214,-0.177239803639,0.21160343277
1588857869963421098,10438,1588857869963224222,,0.502393853735,-0.177227632888,0.211604631219
1588857869969315573,10439,1588857869969184239,,0.50239543238,-0.177206430724,0.211607437122
1588857869975253961,10440,1588857869975176896,,0.502395629038,-0.177196317587,0.211607705954
1588857869981286250,10441,1588857869981184931,,0.502397378045,-0.177179465652,0.21161105979
1588857869987333920,10442,1588857869987225800,,0.502397207967,-0.177172663445,0.211609891273
1588857869993339035,10443,1588857869993236607,,0.502398129594,-0.177158429003,0.211611668924
1588857869999739809,10444,1588857869999654786,,0.502398171905,-0.177153290705,0.211612683183
1588857870005322532,10445,1588857870005190949,,0.502398713982,-0.177140037353,0.211615327711
1588857870011256528,10446,1588857870011156651,,0.502399268209,-0.177134707189,0.211616714058
1588857870014321048,10447,1588857870014185832,,0.502399677522,-0.177124558749,0.211618468573
1588857870020348141,10448,1588857870020206262,,0.502399630088,-0.177119559886,0.211619674906
1588857870026445274,10449,1588857870026336787,,0.502400124784,-0.177107516495,0.211622275773
1588857870035397856,10450,1588857870035223892,,0.502400034368,-0.177093569699,0.211624863787
1588857870041397957,10451,1588857870041254180,,0.502400343093,-0.177091256193,0.211625562784
1588857870047327269,10452,1588857870047233962,,0.50240026751,-0.177088331424,0.211626078895
1588857870053615097,10453,1588857870053506888,,0.502400362667,-0.177086350932,0.211626038936
1588857870059786474,10454,1588857870059654318,,0.502400166978,-0.177085219084,0.211626360947
1588857870065352621,10455,1588857870065202059,,0.502400417446,-0.177084523891,0.211626493294
1588857870071432410,10456,1588857870071248598,,0.502400465096,-0.177084903363,0.211627568423
1588857870077342181,10457,1588857870077219328,,0.502400392139,-0.177086060918,0.211626983862
1588857870083446984,10458,1588857870083265645,,0.502400113428,-0.177086794547,0.211626940153
1588857870089350882,10459,1588857870089248397,,0.502400475652,-0.177087685866,0.211627742768
1588857870095389034,10460,1588857870095222032,,0.502400158249,-0.177089885845,0.21162819577
1588857870101254698,10461,1588857870101142292,,0.502400078244,-0.177090691271,0.211628579803
1588857870104284595,10462,1588857870104171609,,0.502399517559,-0.177093257539,0.211627831337
1588857870107264567,10463,1588857870107162808,,0.502399468342,-0.177095795413,0.211629512903
1588857870110270675,10464,1588857870110166257,,0.502398493533,-0.177100660794,0.211630473363
1588857870113254735,10465,1588857870113164910,,0.502398220088,-0.177102495116,0.211630979475
1588857870116291334,10466,1588857870116183458,,0.502398014637,-0.17710612519,0.211631835004
1588857870119720791,10467,1588857870119599660,,0.502397333381,-0.17711223859,0.211633166496
1588857870128266704,10468,1588857870128157064,,0.502397351232,-0.177118064382,0.211637253365
1588857870131344210,10469,1588857870131242417,,0.50239730257,-0.177121323019,0.21163900854
1588857870134306328,10470,1588857870134214489,,0.502396028085,-0.177129044836,0.211642351112
1588857870137422378,10471,1588857870137230464,,0.502395165565,-0.177134068099,0.211644562271
1588857870143350855,10472,1588857870143209165,,0.50239481433,-0.177138599604,0.211646111432
1588857870146258393,10473,1588857870146179464,,0.502394418512,-0.177142216023,0.211647371269
1588857870149713452,10474,1588857870149586733,,0.502394002431,-0.177149065288,0.211649080852
1588857870155459857,10475,1588857870155264688,,0.502393298367,-0.177155386125,0.211651649083
1588857870161409441,10476,1588857870161262801,,0.502392797863,-0.177160620192,0.211651737544
1588857870167381020,10477,1588857870167242342,,0.502392696741,-0.17716273796,0.211653063622
1588857870173385955,10478,1588857870173269637,,0.502393100593,-0.177167877394,0.211654848001
1588857870179598165,10479,1588857870179518775,,0.502392801686,-0.177169365856,0.211655612877
1588857870185350154,10480,1588857870185246537,,0.502393271472,-0.177171011793,0.211656497464
1588857870191412034,10481,1588857870191236097,,0.502393840036,-0.177173074553,0.211657686785
1588857870194375346,10482,1588857870194204519,,0.502394239603,-0.177171421063,0.211658695116
1588857870197255555,10483,1588857870197160560,,0.502394421128,-0.177171996591,0.211659008701
1588857870200291554,10484,1588857870200143080,,0.502395100924,-0.177170851564,0.211661071052
1588857870203347456,10485,1588857870203226068,,0.502395218238,-0.177170954767,0.211660981859
1588857870209330437,10486,1588857870209196016,,0.502395237443,-0.177169201886,0.211661683407
1588857870215436367,10487,1588857870215244256,,0.502395613383,-0.177165911067,0.211663137899
1588857870221382272,10488,1588857870221251047,,0.502396774911,-0.177159673264,0.21166686963
1588857870227451448,10489,1588857870227303962,,0.502396478377,-0.17715574584,0.21166883375
1588857870233412367,10490,1588857870233212598,,0.502397522005,-0.17714560176,0.211673797557
1588857870239403176,10491,1588857870239304238,,0.502398164146,-0.17714091282,0.211676918066
1588857870245436392,10492,1588857870245302449,,0.502400538653,-0.177127283907,0.211682692707
1588857870251600185,10493,1588857870251431574,,0.502401727313,-0.177120204671,0.211684636788
1588857870257447351,10494,1588857870257240862,,0.502402298457,-0.177110785731,0.211685140788
1588857870263599052,10495,1588857870263374538,,0.502404442262,-0.177083277838,0.211688568231
1588857870269361393,10496,1588857870269206051,,0.502406453309,-0.177067348904,0.211691561472
1588857870275393283,10497,1588857870275235766,,0.50241019579,-0.177025651016,0.211695533155
1588857870281355376,10498,1588857870281223878,,0.502410278253,-0.177005345482,0.211693880699
1588857870284339586,10499,1588857870284209696,,0.502413571937,-0.176958592844,0.211696006027
1588857870287392738,10500,1588857870287281137,,0.502415448394,-0.17693391389,0.211697238095
1588857870293386612,10501,1588857870293239954,,0.50241718807,-0.176906978523,0.211698204901
1588857870299586132,10502,1588857870299479515,,0.502418787322,-0.176852916079,0.211698404683
1588857870305549684,10503,1588857870305444537,,0.502419515129,-0.176824586548,0.211698452345
1588857870311501764,10504,1588857870311325726,,0.502421215574,-0.176769335969,0.211700376004
1588857870317396437,10505,1588857870317273780,,0.502421915329,-0.176748048014,0.211700035915
1588857870323411106,10506,1588857870323264792,,0.502421257113,-0.17669927994,0.211695599307
1588857870329491952,10507,1588857870329313241,,0.502419488086,-0.17667888658,0.211692646902
1588857870335467227,10508,1588857870335286176,,0.502412082234,-0.176636763297,0.211682590673
1588857870341449487,10509,1588857870341282565,,0.502409228,-0.176619135376,0.211678622574
1588857870347339500,10510,1588857870347247721,,0.50240309141,-0.176587691417,0.211671907013
1588857870353705929,10511,1588857870353600782,,0.502400386535,-0.176574169085,0.211665162241
1588857870359831751,10512,1588857870359726698,,0.502397477909,-0.176561678621,0.211659165458
1588857870368395922,10513,1588857870368296079,,0.502387763501,-0.17652170495,0.211642651013
1588857870374431395,10514,1588857870374259706,,0.502385990486,-0.176514822926,0.211641265835
1588857870380376531,10515,1588857870380250481,,0.502383015282,-0.176501544896,0.211638226045
1588857870386445644,10516,1588857870386338613,,0.502380653979,-0.176497281013,0.21163623115
1588857870395591554,10517,1588857870395327241,,0.502378026119,-0.176489820336,0.211632431024
1588857870401441093,10518,1588857870401280288,,0.502374839937,-0.176486812069,0.211628059358
1588857870407442045,10519,1588857870407277180,,0.502373463073,-0.176485058203,0.211625899404
1588857870413432105,10520,1588857870413311961,,0.502372243592,-0.176484840583,0.211623717529
1588857870422466091,10521,1588857870422295070,,0.502369592857,-0.176483613581,0.211619899667
1588857870428491137,10522,1588857870428278452,,0.502369445069,-0.176482982111,0.211619459735
1588857870434483273,10523,1588857870434312474,,0.502369173007,-0.17648371113,0.211619080985
1588857870440501239,10524,1588857870440330469,,0.502368854057,-0.176484870352,0.211618711523
1588857870446486177,10525,1588857870446351384,,0.502368450949,-0.176486550316,0.211618020346
1588857870453163813,10526,1588857870453066919,,0.502367949046,-0.176488179925,0.211617506056
1588857870458412595,10527,1588857870458280917,,0.502367842327,-0.176491104664,0.211616691337
1588857870464450985,10528,1588857870464327368,,0.502368065375,-0.176493758126,0.21161541956
1588857870470451143,10529,1588857870470305142,,0.502367729998,-0.176497771077,0.211614893677
1588857870476501970,10530,1588857870476292572,,0.502368208777,-0.176499129563,0.211614706365
1588857870482359056,10531,1588857870482251994,,0.502367868074,-0.176501569719,0.211614753231
1588857870488482077,10532,1588857870488327715,,0.502367678756,-0.176504898028,0.211613309509
1588857870494434344,10533,1588857870494268777,,0.502368012501,-0.176508797654,0.211612496898
1588857870500446911,10534,1588857870500294639,,0.502367701444,-0.176511297594,0.211611401176
1588857870506497437,10535,1588857870506393960,,0.502367840977,-0.176514713946,0.211609845487
1588857870515402038,10536,1588857870515284607,,0.502368064627,-0.176524521476,0.211603972153
1588857870521563966,10537,1588857870521368325,,0.502369032627,-0.176531560494,0.211600384199
1588857870527491137,10538,1588857870527287187,,0.502370095789,-0.176538052303,0.211596047579
1588857870533397568,10539,1588857870533297081,,0.502371378131,-0.176546182568,0.211593056338
1588857870542506408,10540,1588857870542328493,,0.5023745494,-0.176565143157,0.211585292354
1588857870548419419,10541,1588857870548275257,,0.502376211133,-0.176574938252,0.211581381011
1588857870554433066,10542,1588857870554296901,,0.502378166779,-0.176584305378,0.211578156791
1588857870560436856,10543,1588857870560273678,,0.502379972199,-0.176592813102,0.21157733683
1588857870566652033,10544,1588857870566546801,,0.502381402671,-0.176601024073,0.211575154627
1588857870575511289,10545,1588857870575401559,,0.502385099049,-0.176620178744,0.211570578818
1588857870581441089,10546,1588857870581304540,,0.502389875679,-0.176641178875,0.211566695966
1588857870587408688,10547,1588857870587297419,,0.502393013539,-0.176651191833,0.211564059833
1588857870593426371,10548,1588857870593322738,,0.502406564462,-0.176674039234,0.2115712519
1588857870602470732,10549,1588857870602315131,,0.502419270377,-0.176700895021,0.211577726194
1588857870608519246,10550,1588857870608353981,,0.502422016092,-0.176714302021,0.211575042464
1588857870614428281,10551,1588857870614275055,,0.502425800652,-0.176727978743,0.211575871417
1588857870620386638,10552,1588857870620276694,,0.502429030625,-0.176740483464,0.211577897902
1588857870626691353,10553,1588857870626505842,,0.50243337037,-0.176752256258,0.211581704537
1588857870635439257,10554,1588857870635345707,,0.502442425334,-0.176776464203,0.211584142438
1588857870641475007,10555,1588857870641322613,,0.502445953659,-0.176790329248,0.211581727995
1588857870647470687,10556,1588857870647341421,,0.502448089709,-0.176802160621,0.211575411901
1588857870653810757,10557,1588857870653670165,,0.502451987463,-0.176825643883,0.211566295441
1588857870659735750,10558,1588857870659645166,,0.502453412636,-0.176837840969,0.211561314741
1588857870666505781,10559,1588857870666393234,,0.502456452787,-0.1768570856,0.211552184389
1588857870671465370,10560,1588857870671330629,,0.502458336098,-0.176866038554,0.2115476771
1588857870677465012,10561,1588857870677342876,,0.502461083143,-0.176874804747,0.211544212928
1588857870683501836,10562,1588857870683339435,,0.502466841364,-0.176894022223,0.211538305372
1588857870689386085,10563,1588857870689255463,,0.502469469531,-0.176901910859,0.211536221094
1588857870695441535,10564,1588857870695288761,,0.502476196032,-0.176918704751,0.211529845737
1588857870701477592,10565,1588857870701328466,,0.502478580179,-0.176926279697,0.211526393393
1588857870707420196,10566,1588857870707325500,,0.502481197601,-0.176933650853,0.211521565546
1588857870713372672,10567,1588857870713274387,,0.502483283974,-0.176942651138,0.211514373546
1588857870716429705,10568,1588857870716296742,,0.502486261183,-0.176951924397,0.211506003794
1588857870722399539,10569,1588857870722278537,,0.502491183303,-0.176966153573,0.211493985228
1588857870726409054,10570,1588857870726289593,,0.502494518687,-0.176980617953,0.211477935063
1588857870731347961,10571,1588857870731258272,,0.502496081122,-0.176988058586,0.211471446045
1588857870737369711,10572,1588857870737282977,,0.502497932766,-0.176994078903,0.211462923966
1588857870740398113,10573,1588857870740289695,,0.502501895357,-0.177007245093,0.211444465758
1588857870743496707,10574,1588857870743404209,,0.502503598381,-0.177014306138,0.211438307938
1588857870749756612,10575,1588857870749685851,,0.502507488471,-0.177029285499,0.211425026987
1588857870755410621,10576,1588857870755278508,,0.502509534026,-0.177037478227,0.211418102538
1588857870758442051,10577,1588857870758326690,,0.502512922953,-0.177053287679,0.211403241201
1588857870764379991,10578,1588857870764249616,,0.502514913249,-0.177061668125,0.21139422838
1588857870767614258,10579,1588857870767273799,,0.50251824606,-0.177079206311,0.211376505685
1588857870773447366,10580,1588857870773274352,,0.502520817038,-0.177087949091,0.211367378119
1588857870776548752,10581,1588857870776362184,,0.502522476386,-0.177095942602,0.211358224039
1588857870782434761,10582,1588857870782312190,,0.502525740174,-0.177111017828,0.211339102226
1588857870786328373,10583,1588857870786240193,,0.502528067916,-0.177116974928,0.211332011683
1588857870791486571,10584,1588857870791319850,,0.502529901512,-0.177123912879,0.211323980089
1588857870797430555,10585,1588857870797320125,,0.50253179514,-0.177130791635,0.211315866239
1588857870800415749,10586,1588857870800327899,,0.502535185264,-0.177142891088,0.211297512667
1588857870806380846,10587,1588857870806283917,,0.502537416212,-0.17714911791,0.211289723905
1588857870809476685,10588,1588857870809323499,,0.502542735502,-0.177159342189,0.211273896509
1588857870815449741,10589,1588857870815310624,,0.502546860485,-0.177167590222,0.211258511319
1588857870818453122,10590,1588857870818355495,,0.502550110929,-0.177171955905,0.211248765128
1588857870824470810,10591,1588857870824381319,,0.502555629013,-0.177178646206,0.211234204416
1588857870830398717,10592,1588857870830276235,,0.502560060706,-0.177181042548,0.211225542314
1588857870836520272,10593,1588857870836363983,,0.502568647945,-0.177181525455,0.211211145153
1588857870842559040,10594,1588857870842409307,,0.502578488006,-0.177181318956,0.211198573141
1588857870848450293,10595,1588857870848324975,,0.502582712019,-0.177181154305,0.211191604063
1588857870854503929,10596,1588857870854408575,,0.502587542193,-0.177181443048,0.211185370802
1588857870860462442,10597,1588857870860369139,,0.502596771627,-0.17718380681,0.211170464954
1588857870866461764,10598,1588857870866362488,,0.502600611197,-0.177183446345,0.211163787221
1588857870872975245,10599,1588857870872864004,,0.502610491918,-0.177184259718,0.211147491368
1588857870878459222,10600,1588857870878348221,,0.502615543544,-0.177182318443,0.21114279206
1588857870884588403,10601,1588857870884436158,,0.502625132704,-0.177183285048,0.211120913197
1588857870890496308,10602,1588857870890362686,,0.502630103216,-0.177183111198,0.211110374123
1588857870896647185,10603,1588857870896406051,,0.502640070748,-0.177181468754,0.211089922646
1588857870902493113,10604,1588857870902355824,,0.502645429992,-0.177180760005,0.211078699793
1588857870908448647,10605,1588857870908358488,,0.502650299269,-0.177180109339,0.211067205547
1588857870914444612,10606,1588857870914319434,,0.502655960961,-0.177180838889,0.211056405298
1588857870920475391,10607,1588857870920369387,,0.502665929288,-0.177181408104,0.211033787491
1588857870923451380,10608,1588857870923297239,,0.502671474341,-0.177181080505,0.211022526305
1588857870926500648,10609,1588857870926370820,,0.502683282082,-0.177181762877,0.21100228289
1588857870935607380,10610,1588857870935435171,,0.502693995077,-0.177185530445,0.21098046253
1588857870941506430,10611,1588857870941392728,,0.502705220867,-0.177191249015,0.21095816447
1588857870947552823,10612,1588857870947399410,,0.502709812236,-0.177195585281,0.21094533011
1588857870953876114,10613,1588857870953727622,,0.50271890984,-0.177204994097,0.210923764863
1588857870959947475,10614,1588857870959863960,,0.502724247949,-0.177212655831,0.210912831711
1588857870968573176,10615,1588857870968436919,,0.502733491086,-0.177225959434,0.210891262684
1588857870974461716,10616,1588857870974342947,,0.502743825591,-0.177242779554,0.210870876807
1588857870983552847,10617,1588857870983393228,,0.502757468991,-0.177264278111,0.210842880146
1588857870989516620,10618,1588857870989391250,,0.502762460334,-0.177271585638,0.210832229463
1588857870995521327,10619,1588857870995414760,,0.502766485777,-0.177279371864,0.210823767116
1588857871001529007,10620,1588857871001412587,,0.502775115202,-0.177293133751,0.210803112371
1588857871007602483,10621,1588857871007403343,,0.502779457175,-0.177300916661,0.210793465658
1588857871013419238,10622,1588857871013301155,,0.502787483763,-0.177316405982,0.210770574286
1588857871016482677,10623,1588857871016335355,,0.502791929258,-0.177323859671,0.210760119256
1588857871019839090,10624,1588857871019711082,,0.502794993157,-0.177328900668,0.210749084572
1588857871026691327,10625,1588857871026568344,,0.502799404199,-0.177338768754,0.210737586833
1588857871031520613,10626,1588857871031427337,,0.50280889615,-0.177355977215,0.21071322689
1588857871037537042,10627,1588857871037432865,,0.502813511172,-0.177367020443,0.210700560929
1588857871043579426,10628,1588857871043395028,,0.502822204451,-0.177387333918,0.210680432444
1588857871049830008,10629,1588857871049731513,,0.502826822723,-0.177398142107,0.210668853157
1588857871055495919,10630,1588857871055342572,,0.502836445097,-0.177418829275,0.210646725466
1588857871061496442,10631,1588857871061356262,,0.502842192054,-0.177429729032,0.210636090634
1588857871067550932,10632,1588857871067394119,,0.502853585502,-0.177451791712,0.210618455568
1588857871073501095,10633,1588857871073365431,,0.502859301462,-0.177463353325,0.210605945246
1588857871079731062,10634,1588857871079567466,,0.502869507088,-0.17748234957,0.210586084746
1588857871086124891,10635,1588857871085985534,,0.502875405215,-0.177495016644,0.2105750871
1588857871091521263,10636,1588857871091433188,,0.502886458184,-0.177516611472,0.210554801457
1588857871097513006,10637,1588857871097337281,,0.50289205156,-0.177529280244,0.210543095867
1588857871100545748,10638,1588857871100414330,,0.50289782601,-0.177543347419,0.210529869771
1588857871103511462,10639,1588857871103409788,,0.502903655096,-0.177556079184,0.210515471827
1588857871109549813,10640,1588857871109416919,,0.502910171397,-0.177571861933,0.210502609828
1588857871115545971,10641,1588857871115411088,,0.502921732127,-0.177602019778,0.210473810766
1588857871121514697,10642,1588857871121390398,,0.50292776442,-0.17761556104,0.210459442318
1588857871127589355,10643,1588857871127455576,,0.502933876528,-0.177630737743,0.210444096059
1588857871133697397,10644,1588857871133478718,,0.502940138958,-0.17764612354,0.210431060057
1588857871140228713,10645,1588857871140095785,,0.502946749706,-0.177660835085,0.210420195314
1588857871148501917,10646,1588857871148372800,,0.502958569267,-0.177691934771,0.210388934059
1588857871154590450,10647,1588857871154396540,,0.502964702474,-0.177708427875,0.210374805121
1588857871160452097,10648,1588857871160371674,,0.502970173064,-0.17772338977,0.210360515419
1588857871166802459,10649,1588857871166699577,,0.502981444529,-0.177756202192,0.21033061606
1588857871175534911,10650,1588857871175360234,,0.502991563592,-0.17778722891,0.210300439864
1588857871178422322,10651,1588857871178319254,,0.502995909863,-0.177804391691,0.210282489972
