%time,field.header.seq,field.header.stamp,field.header.frame_id,field.vector.x,field.vector.y,field.vector.z
1589276146763327432,749,1589276146763181464,,0.500518007178,-0.203676158043,0.216317851425
1589276146769308465,750,1589276146769146302,,0.500518861006,-0.203682181193,0.216314565752
1589276146778287527,751,1589276146778145008,,0.500523819706,-0.203696706656,0.216308874211
1589276146784268149,752,1589276146784154326,,0.500527043043,-0.203704009565,0.2163054516
1589276146790317909,753,1589276146790204272,,0.500528521781,-0.203708573662,0.216304590112
1589276146793639390,754,1589276146793536324,,0.500531419505,-0.20371481864,0.216301690725
1589276146796650644,755,1589276146796459343,,0.500532183217,-0.203719084238,0.216300361345
1589276146802328427,756,1589276146802146800,,0.500534787413,-0.203725875376,0.216293856631
1589276146808389276,757,1589276146808200487,,0.500535542055,-0.203730514935,0.216291132438
1589276146814302277,758,1589276146814183955,,0.500537955771,-0.203736934263,0.216285649217
1589276146820346115,759,1589276146820195964,,0.500538967312,-0.203738555044,0.216281675816
1589276146826402282,760,1589276146826278932,,0.50054113917,-0.203743627141,0.216275539077
1589276146832336346,761,1589276146832209030,,0.500541674219,-0.203745622746,0.216272685726
1589276146838374608,762,1589276146838206006,,0.500543592658,-0.203749501501,0.216267634079
1589276146844299888,763,1589276146844169703,,0.500544190467,-0.203751858636,0.216265656297
1589276146850279325,764,1589276146850165049,,0.500546925758,-0.203754412439,0.216261862596
1589276146856242941,765,1589276146856154953,,0.500548113147,-0.203755167825,0.216260500698
1589276146862254898,766,1589276146862139016,,0.500549173138,-0.203756164686,0.21625754728
1589276146868290442,767,1589276146868170517,,0.500552204709,-0.20375805794,0.216254741608
1589276146874245241,768,1589276146874155446,,0.500554639601,-0.20375985235,0.216251113096
1589276146880435723,769,1589276146880228812,,0.500555462863,-0.203760679683,0.216248394199
1589276146886357751,770,1589276146886190558,,0.50055804655,-0.203761754215,0.216241575743
1589276146892319240,771,1589276146892179158,,0.50055882471,-0.203763625021,0.216238723753
1589276146898346994,772,1589276146898196077,,0.50056152916,-0.203763583025,0.216232241046
1589276146904340950,773,1589276146904209903,,0.500563191984,-0.203765152378,0.216229271075
1589276146910440303,774,1589276146910234532,,0.500564833884,-0.203766923924,0.216220968443
1589276146916405601,775,1589276146916263498,,0.500565777792,-0.203767213461,0.216217587758
1589276146922346246,776,1589276146922245887,,0.500567911993,-0.203768541844,0.216213920795
1589276146928302267,777,1589276146928166093,,0.500568597158,-0.20376749904,0.216210094501
1589276146934368210,778,1589276146934229184,,0.50056903886,-0.203768894217,0.216208528158
1589276146940320089,779,1589276146940174427,,0.500570558888,-0.203767743668,0.216206626834
1589276146946336984,780,1589276146946226404,,0.500571684949,-0.203766897994,0.216201255794
1589276146952319181,781,1589276146952204343,,0.50057236259,-0.203767416172,0.216199651463
1589276146958330948,782,1589276146958213875,,0.500573482029,-0.203766552685,0.216194522428
1589276146964381655,783,1589276146964207682,,0.500574316558,-0.203765016213,0.216193154518
1589276146970275339,784,1589276146970181385,,0.500576268896,-0.203762233464,0.216189784101
1589276146976368609,785,1589276146976207575,,0.500576464262,-0.203761069138,0.216185283001
1589276146982449752,786,1589276146982304005,,0.500578686985,-0.203757070797,0.216180375965
1589276146988468350,787,1589276146988243063,,0.500579613044,-0.203755282764,0.216176221935
1589276146994749490,788,1589276146994455534,,0.500582040875,-0.203750302893,0.21617334547
1589276146997675606,789,1589276146997559641,,0.500583550564,-0.203746200695,0.216171436427
1589276147003272619,790,1589276147003165428,,0.500586029913,-0.203738611215,0.216166555691
1589276147009436748,791,1589276147009246652,,0.500588348578,-0.203731989515,0.216165108005
1589276147015292755,792,1589276147015200688,,0.500594101835,-0.20371481091,0.216162501881
1589276147021419704,793,1589276147021204771,,0.500598895007,-0.20370247691,0.21616178607
1589276147027380271,794,1589276147027194770,,0.500602282585,-0.203692646136,0.216160506937
1589276147033248533,795,1589276147033110785,,0.500605868664,-0.203682284022,0.216158665907
1589276147039280784,796,1589276147039147372,,0.500611782522,-0.203663409435,0.216155566128
1589276147045434598,797,1589276147045242909,,0.500614117047,-0.203656640232,0.216154177479
1589276147051297317,798,1589276147051199883,,0.500618640603,-0.203639354784,0.216149008392
1589276147057308145,799,1589276147057218353,,0.500621354833,-0.203629783529,0.216146701459
1589276147063377384,800,1589276147063253291,,0.500630110693,-0.203577561633,0.216136645656
1589276147069351191,801,1589276147069241769,,0.500633337537,-0.203565924659,0.216134244255
1589276147075393766,802,1589276147075232429,,0.500637106006,-0.203545439643,0.216127484857
1589276147081342609,803,1589276147081252546,,0.500638225076,-0.203535523779,0.216124236094
1589276147087333562,804,1589276147087208760,,0.500640596442,-0.203514595247,0.216113764568
1589276147093766754,805,1589276147093595000,,0.500641558948,-0.20350410048,0.216108693809
1589276147099425043,806,1589276147099273744,,0.500639837729,-0.203484150963,0.216093187929
1589276147105401299,807,1589276147105281409,,0.500638155684,-0.203473722101,0.216085394665
1589276147111350525,808,1589276147111213312,,0.500633644107,-0.203454490492,0.216069519873
1589276147117347815,809,1589276147117245040,,0.500632833269,-0.203444381282,0.21606156004
1589276147123422353,810,1589276147123289803,,0.500632642748,-0.203426487706,0.216047967338
1589276147129282740,811,1589276147129217584,,0.500632857525,-0.203414865468,0.216041107059
1589276147141529412,812,1589276147141319298,,0.500635116619,-0.203381566292,0.216026177618
1589276147147469071,813,1589276147147208839,,0.500636813067,-0.203363979475,0.216019806984
1589276147153434938,814,1589276147153275598,,0.500638531836,-0.203355149638,0.216018102121
1589276147159432397,815,1589276147159283350,,0.500641908679,-0.203337152006,0.216011845596
1589276147165371373,816,1589276147165192394,,0.500643447645,-0.20332901038,0.216009625009
1589276147171481538,817,1589276147171307863,,0.500645364894,-0.203316405436,0.216004732616
1589276147177456042,818,1589276147177281107,,0.50064556165,-0.20331085787,0.216000628537
1589276147183466013,819,1589276147183284007,,0.500646152743,-0.203300481263,0.215993866746
1589276147189382358,820,1589276147189270302,,0.500646037611,-0.203296892934,0.215990673489
1589276147201347440,821,1589276147201244066,,0.500647538291,-0.203279670598,0.215980513187
1589276147207415636,822,1589276147207221124,,0.500648088243,-0.203276552365,0.215978674654
1589276147213477542,823,1589276147213285049,,0.500648649449,-0.203270976254,0.215974985713
1589276147219348105,824,1589276147219225410,,0.500649855212,-0.203256487035,0.215967599105
1589276147225517419,825,1589276147225300002,,0.500651383927,-0.203248439751,0.215964672443
1589276147231423179,826,1589276147231323577,,0.500653205939,-0.203235702972,0.21595966872
1589276147237349282,827,1589276147237246756,,0.500653976438,-0.203226282213,0.215955974079
1589276147243292643,828,1589276147243191306,,0.500655294919,-0.203215993155,0.215951080455
1589276147249369181,829,1589276147249197847,,0.500657099195,-0.203197357843,0.215941708898
1589276147261444184,830,1589276147261290049,,0.50066101378,-0.203166541034,0.215930249282
1589276147267486909,831,1589276147267283824,,0.500662707904,-0.203156927669,0.215926317575
1589276147273414912,832,1589276147273293535,,0.500664982545,-0.203142060306,0.21591976271
1589276147279492240,833,1589276147279307577,,0.500666069707,-0.203134749864,0.215916226962
1589276147285367181,834,1589276147285234732,,0.500668351628,-0.203119805156,0.215909917428
1589276147291438235,835,1589276147291238145,,0.500670129828,-0.20311168073,0.215906295291
1589276147297681851,836,1589276147297546968,,0.500672487909,-0.203094656549,0.215898711626
1589276147303426488,837,1589276147303266212,,0.500673432112,-0.203082903153,0.215894216044
1589276147309432952,838,1589276147309276982,,0.500674479062,-0.203072755143,0.215889200233
1589276147321508912,839,1589276147321343409,,0.500677981963,-0.203025800404,0.215865931038
1589276147327421001,840,1589276147327296504,,0.500678780744,-0.203013180498,0.215859124703
1589276147333428534,841,1589276147333226966,,0.50067985595,-0.203001990848,0.215853699255
1589276147339349529,842,1589276147339254675,,0.50068326492,-0.202975829594,0.215843940688
1589276147345461254,843,1589276147345315756,,0.500686878398,-0.202948466517,0.215834631417
1589276147351376781,844,1589276147351276464,,0.500689210137,-0.20293332276,0.2158292274
1589276147357453517,845,1589276147357239051,,0.500693506684,-0.202906092394,0.215817698576
1589276147363498889,846,1589276147363317511,,0.500695056617,-0.202892277963,0.215812609676
1589276147369394356,847,1589276147369259236,,0.500697466375,-0.202865399941,0.215801683432
1589276147378531389,848,1589276147378375980,,0.500699400407,-0.202839307227,0.215790821399
1589276147384380826,849,1589276147384261240,,0.500702789826,-0.202816990402,0.215780970877
1589276147390376934,850,1589276147390244636,,0.500704648443,-0.202793427088,0.215769395781
1589276147396800838,851,1589276147396672674,,0.500705655227,-0.202783204867,0.215764372571
1589276147402439171,852,1589276147402319216,,0.500706546099,-0.202771962473,0.2157592998
1589276147408415021,853,1589276147408306411,,0.500708429119,-0.202748635476,0.215747955022
1589276147414449722,854,1589276147414332581,,0.500709543074,-0.202734669898,0.215741940611
1589276147420435530,855,1589276147420262529,,0.500714038083,-0.202704989279,0.215731160337
1589276147426424379,856,1589276147426279171,,0.500716718539,-0.202687768773,0.21572598352
1589276147432421992,857,1589276147432283628,,0.500721444056,-0.202652883184,0.215713844872
1589276147438332848,858,1589276147438245031,,0.500723815248,-0.202635950012,0.215708066191
1589276147444370556,859,1589276147444267662,,0.500726371722,-0.202618799544,0.21570306724
1589276147450447398,860,1589276147450301016,,0.500731240275,-0.20258110114,0.215690968985
1589276147456459231,861,1589276147456234449,,0.500733594566,-0.202560727668,0.215686734778
1589276147462290845,862,1589276147462219776,,0.500739314416,-0.202518814501,0.215675712686
1589276147468414982,863,1589276147468239474,,0.500741691758,-0.202500505881,0.215671696878
1589276147474384380,864,1589276147474233149,,0.500743756302,-0.202484707458,0.215667625217
1589276147480449056,865,1589276147480283811,,0.500747107113,-0.202450147574,0.215663044066
1589276147486474567,866,1589276147486344881,,0.500750563605,-0.202417753761,0.215661995477
1589276147492413021,867,1589276147492249909,,0.50075167643,-0.202400667381,0.215659830922
1589276147498361475,868,1589276147498261046,,0.500757558219,-0.202363025596,0.215654480124
1589276147504382294,869,1589276147504291952,,0.500761338535,-0.202338848533,0.215650865022
1589276147510334921,870,1589276147510267070,,0.500767025206,-0.202299286546,0.215639729442
1589276147516491576,871,1589276147516318420,,0.500769070971,-0.202280915405,0.215634839329
1589276147522362101,872,1589276147522283471,,0.500771369831,-0.202258443267,0.215628397179
1589276147528354636,873,1589276147528288637,,0.500776428387,-0.202209526257,0.215616604386
1589276147534429499,874,1589276147534301804,,0.500779810138,-0.202178960185,0.215611558283
1589276147540345899,875,1589276147540263593,,0.500784065742,-0.202124693617,0.215597525595
1589276147546469375,876,1589276147546304620,,0.500786838256,-0.202097417443,0.215592627532
1589276147552441664,877,1589276147552280485,,0.500794672559,-0.202040977477,0.215582418156
1589276147558571229,878,1589276147558404503,,0.500800229775,-0.201983323352,0.215568312187
1589276147564469570,879,1589276147564352126,,0.500802988545,-0.201956265384,0.215563034819
1589276147570451932,880,1589276147570343165,,0.500806205268,-0.201929280082,0.215557781346
1589276147576436777,881,1589276147576305981,,0.50080969746,-0.201895907579,0.215550092111
1589276147582605322,882,1589276147582509570,,0.500814630824,-0.20184108712,0.215538538035
1589276147588452467,883,1589276147588333547,,0.500821680667,-0.20178125214,0.215525682506
1589276147594736991,884,1589276147594537804,,0.500825392497,-0.201751555142,0.215521461673
1589276147600506609,885,1589276147600309756,,0.500830757719,-0.201701663538,0.215509596184
1589276147606433669,886,1589276147606285107,,0.500832880311,-0.201680900441,0.21550293745
1589276147612425408,887,1589276147612312675,,0.500840046032,-0.201619530591,0.215492078074
1589276147618449149,888,1589276147618313420,,0.500842439319,-0.201595137974,0.215486937799
1589276147624428527,889,1589276147624274283,,0.500850079731,-0.201528873849,0.215477932536
1589276147630476940,890,1589276147630376587,,0.500852826748,-0.201501027655,0.215473507859
1589276147636395382,891,1589276147636301321,,0.500858556941,-0.201442404083,0.215466705568
1589276147642381667,892,1589276147642285401,,0.500861997195,-0.201413636241,0.215463810542
1589276147648514362,893,1589276147648385842,,0.50086938973,-0.201355133401,0.215454069734
1589276147654485984,894,1589276147654346765,,0.500872204372,-0.201323475532,0.215448558415
1589276147660378779,895,1589276147660277767,,0.500878564789,-0.201266515123,0.215440367005
1589276147666425446,896,1589276147666290750,,0.500882058711,-0.201239991292,0.215438239994
1589276147672475615,897,1589276147672341224,,0.500888267767,-0.201176591136,0.215427711799
1589276147678493014,898,1589276147678342155,,0.50089184184,-0.201150327316,0.215425254635
1589276147684534321,899,1589276147684367938,,0.500898799491,-0.201079984835,0.215414548577
1589276147690470369,900,1589276147690330872,,0.500901112631,-0.201048340052,0.215408534786
1589276147696867463,901,1589276147696619054,,0.500904389031,-0.201014714911,0.215404738664
1589276147702321026,902,1589276147702238847,,0.500910158178,-0.200951814016,0.215397115355
1589276147708417365,903,1589276147708294993,,0.500917849119,-0.200880963013,0.215386562938
1589276147714519785,904,1589276147714385737,,0.50092179001,-0.200845954931,0.215382183615
1589276147720567175,905,1589276147720373794,,0.500929087753,-0.20078075574,0.215374075919
1589276147726325709,906,1589276147726231503,,0.500931706736,-0.200753017717,0.215369593163
1589276147732385061,907,1589276147732238784,,0.500940471577,-0.200666163017,0.215360823023
1589276147738493510,908,1589276147738357521,,0.500943108093,-0.200635307654,0.215357974585
1589276147744453776,909,1589276147744377121,,0.500947123425,-0.200588075401,0.215352826371
1589276147750436671,910,1589276147750311779,,0.500950808166,-0.200509510413,0.215343582124
1589276147756453471,911,1589276147756321481,,0.500952941115,-0.200470601962,0.215339493682
1589276147762428878,912,1589276147762298413,,0.500958302621,-0.200395682335,0.215329911195
1589276147768450737,913,1589276147768356620,,0.500961095721,-0.20035433931,0.215325893418
1589276147774437830,914,1589276147774308500,,0.500965879015,-0.200276957979,0.215307591089
1589276147780571561,915,1589276147780408958,,0.500971309724,-0.200204368078,0.215300883518
1589276147786555194,916,1589276147786373311,,0.500973523626,-0.200172558301,0.215297008496
1589276147793052881,917,1589276147792911238,,0.500976965128,-0.200123939899,0.215290736907
1589276147798740988,918,1589276147798617984,,0.500979560734,-0.200046896051,0.215276063656
1589276147804495706,919,1589276147804393366,,0.5009830243,-0.200001309969,0.215273361927
1589276147810468902,920,1589276147810349188,,0.500989305151,-0.199910732991,0.215266013888
1589276147816427798,921,1589276147816324547,,0.500991179223,-0.199875008635,0.215259734458
1589276147822489359,922,1589276147822411728,,0.500994445286,-0.199832924703,0.21525396057
1589276147828446616,923,1589276147828282368,,0.501002080083,-0.199749458615,0.215241846089
1589276147834482046,924,1589276147834330995,,0.501005328973,-0.199707244441,0.215235243998
1589276147840483989,925,1589276147840363105,,0.501013140363,-0.199612867864,0.215223681689
1589276147846522472,926,1589276147846354371,,0.501015035327,-0.199579423387,0.215218174891
1589276147852541770,927,1589276147852395363,,0.501023454019,-0.199478820313,0.215209170576
1589276147858493528,928,1589276147858364281,,0.501026920473,-0.199438498565,0.215205268456
1589276147864395161,929,1589276147864274331,,0.501034594352,-0.19933547189,0.215195131083
1589276147870442021,930,1589276147870296298,,0.501039405644,-0.199287717992,0.21519115261
1589276147876482740,931,1589276147876365409,,0.501045582341,-0.199197729024,0.215179278382
1589276147882477279,932,1589276147882378612,,0.501050840479,-0.199146442275,0.215175285626
1589276147888470621,933,1589276147888356116,,0.50106080497,-0.199047732435,0.215163874573
1589276147894810498,934,1589276147894726826,,0.501063861099,-0.198997854405,0.215157167225
1589276147900470796,935,1589276147900369409,,0.501068679714,-0.198945312911,0.215152059316
1589276147906556716,936,1589276147906374721,,0.501076454596,-0.198841058199,0.215143592849
1589276147912567476,937,1589276147912413825,,0.501083887859,-0.198785343232,0.215140717457
1589276147918455484,938,1589276147918339791,,0.501092268779,-0.19868283838,0.215133183523
1589276147924493439,939,1589276147924328691,,0.501096349596,-0.198630707577,0.215130429016
1589276147930407819,940,1589276147930307137,,0.501106498575,-0.198521940853,0.215121715828
1589276147936451759,941,1589276147936308054,,0.501110284627,-0.198471558748,0.215118263698
1589276147942435291,942,1589276147942322575,,0.501117927,-0.198361429502,0.215108949075
1589276147948539105,943,1589276147948410676,,0.50112049362,-0.198311664131,0.215103732438
1589276147954523204,944,1589276147954379581,,0.501126512361,-0.198203559576,0.215093921623
1589276147960403424,945,1589276147960286864,,0.501130290864,-0.198150287803,0.215089679606
1589276147966424153,946,1589276147966288372,,0.501136685038,-0.198047664138,0.215083063652
1589276147972472110,947,1589276147972401022,,0.501140289834,-0.1979942824,0.215078590087
1589276147978445529,948,1589276147978315883,,0.501143150038,-0.197896104018,0.215071887766
1589276147984414418,949,1589276147984329689,,0.501145693071,-0.197849101258,0.215066725247
1589276147990489942,950,1589276147990372540,,0.501148852916,-0.197750170609,0.215062566009
1589276147996699074,951,1589276147996544808,,0.501150830025,-0.19770286095,0.215056720125
1589276148002533980,952,1589276148002431466,,0.501153321036,-0.197604750816,0.215058788038
1589276148008477453,953,1589276148008378036,,0.501153418697,-0.197558855772,0.215050989199
1589276148014530727,954,1589276148014429517,,0.501154851868,-0.197462915728,0.215051344205
1589276148020434477,955,1589276148020302968,,0.501154600392,-0.197413051827,0.215045055706
1589276148026542234,956,1589276148026375128,,0.501156143982,-0.197316906405,0.215043267213
1589276148032676574,957,1589276148032437164,,0.501153919786,-0.197270115354,0.215037337898
1589276148038428631,958,1589276148038320619,,0.501155723337,-0.197174602564,0.215035192511
1589276148044545711,959,1589276148044381472,,0.501154921553,-0.197125841712,0.215030303825
1589276148050554020,960,1589276148050405817,,0.501154992462,-0.19703008551,0.215030460362
1589276148056492723,961,1589276148056318553,,0.501154504412,-0.196980135309,0.215028633559
1589276148062344726,962,1589276148062273648,,0.501153630593,-0.196885009271,0.215029019051
1589276148068481588,963,1589276148068365299,,0.501152618758,-0.196834278357,0.215031687057
1589276148074523843,964,1589276148074408236,,0.501151083754,-0.196737705695,0.21503390885
1589276148080514417,965,1589276148080370740,,0.501149693267,-0.196688914835,0.21503489946
1589276148086482018,966,1589276148086356472,,0.501148590488,-0.196640728969,0.215034184291
1589276148092431321,967,1589276148092317940,,0.501146501693,-0.196543799966,0.215039385576
1589276148098944575,968,1589276148098756507,,0.501143802858,-0.196449040574,0.215042367959
1589276148104540334,969,1589276148104403545,,0.501142794648,-0.196401406028,0.215044429859
1589276148110462995,970,1589276148110338985,,0.501141457375,-0.196354544318,0.215046624995
1589276148116581385,971,1589276148116421398,,0.501139281152,-0.196258090429,0.215052248674
1589276148122563482,972,1589276148122446492,,0.501134487625,-0.196170400775,0.215055018117
1589276148128525844,973,1589276148128388125,,0.501133325343,-0.196122882699,0.215059205925
1589276148134509580,974,1589276148134372358,,0.501131350583,-0.196075314661,0.21506147184
1589276148140601103,975,1589276148140438008,,0.501128646363,-0.195980556407,0.215072249341
1589276148146654040,976,1589276148146399270,,0.501125167238,-0.195934217113,0.215073283381
1589276148152538519,977,1589276148152386537,,0.501122491577,-0.195836267521,0.215079250817
1589276148158564932,978,1589276148158391794,,0.501117882419,-0.195742391125,0.215081806259
1589276148164627703,979,1589276148164415985,,0.501116699976,-0.195690000534,0.215088179666
1589276148170550917,980,1589276148170421768,,0.501115923387,-0.195639996146,0.215092075342
1589276148176490940,981,1589276148176379027,,0.501112686614,-0.195540048504,0.21509495707
1589276148182544184,982,1589276148182449809,,0.501112433265,-0.195485996758,0.215097520522
1589276148188623929,983,1589276148188419591,,0.501107784591,-0.19538494136,0.215094352784
1589276148194910024,984,1589276148194787927,,0.501104412549,-0.195282811106,0.215098963095
1589276148200514785,985,1589276148200382174,,0.501101964494,-0.19523178241,0.215097570215
1589276148206482368,986,1589276148206374925,,0.501099023336,-0.195184993421,0.215097946986
1589276148212508733,987,1589276148212379203,,0.501097332962,-0.195084956686,0.215101939695
1589276148218510531,988,1589276148218389447,,0.501094391164,-0.194989502741,0.215104424698
1589276148224544568,989,1589276148224400109,,0.501093110475,-0.194940941501,0.215106068483
1589276148230506806,990,1589276148230386813,,0.50109344667,-0.194894154644,0.215104797287
1589276148236489405,991,1589276148236396817,,0.501091275768,-0.19479749803,0.215111253595
1589276148242451154,992,1589276148242349739,,0.501089728553,-0.194749984975,0.215108896611
1589276148248570198,993,1589276148248413442,,0.501089263621,-0.194645412717,0.215110289985
1589276148254474790,994,1589276148254314026,,0.501088119658,-0.194595773283,0.215106656971
1589276148257524739,995,1589276148257333543,,0.501090696992,-0.194489205356,0.215104782135
1589276148263513517,996,1589276148263364625,,0.501092262772,-0.194436143828,0.215103781716
1589276148269529219,997,1589276148269376771,,0.501092836994,-0.194329102568,0.215100844096
1589276148275565802,998,1589276148275478939,,0.50109362686,-0.194274157846,0.215099550997
1589276148281479351,999,1589276148281365340,,0.501097251687,-0.194158397027,0.215093593413
1589276148287551160,1000,1589276148287465574,,0.501099531934,-0.194099961078,0.215092353898
1589276148293605130,1001,1589276148293430259,,0.501102304653,-0.193988304854,0.21508207379
1589276148299644647,1002,1589276148299443392,,0.501102254904,-0.193933751659,0.215080432499
1589276148305586818,1003,1589276148305397436,,0.501101687451,-0.193824621729,0.215069485308
1589276148311540502,1004,1589276148311388100,,0.501101441892,-0.193777979599,0.215070996577
1589276148317502058,1005,1589276148317401526,,0.501099102168,-0.193679458753,0.21506321157
1589276148323538562,1006,1589276148323441959,,0.501099063196,-0.193631238459,0.215065056825
1589276148329549089,1007,1589276148329429349,,0.501097866165,-0.193535430802,0.215058182216
1589276148338586300,1008,1589276148338419386,,0.501096941675,-0.193383757941,0.215048494594
1589276148344533508,1009,1589276148344411105,,0.501097778063,-0.193327346922,0.215046356494
1589276148350503517,1010,1589276148350422675,,0.501099210588,-0.193211899178,0.215031758862
1589276148356552754,1011,1589276148356423154,,0.501100399812,-0.19314756783,0.215024098679
1589276148362468119,1012,1589276148362386197,,0.501104289583,-0.19302199923,0.215005471834
1589276148368466259,1013,1589276148368404722,,0.501105905661,-0.192954699723,0.214999611678
1589276148374586360,1014,1589276148374441848,,0.501109610214,-0.192822838518,0.214981738894
1589276148380598091,1015,1589276148380427533,,0.50111325843,-0.192757472046,0.214978441297
1589276148386545230,1016,1589276148386457334,,0.501117541702,-0.192627972583,0.214961944214
1589276148392622305,1017,1589276148392406316,,0.501119410209,-0.19256994754,0.214959960099
1589276148398871319,1018,1589276148398761366,,0.501120797352,-0.192510470754,0.214955364279
1589276148404477240,1019,1589276148404388843,,0.501121888887,-0.192407150597,0.214945960897
1589276148410484601,1020,1589276148410408861,,0.501122788701,-0.192353536544,0.214942252796
1589276148416755066,1021,1589276148416457324,,0.501121132837,-0.192254855554,0.214930857938
1589276148422545584,1022,1589276148422477746,,0.501118669573,-0.192161237382,0.214920323509
1589276148428477402,1023,1589276148428380868,,0.501119021164,-0.19211027737,0.214912450896
1589276148434483194,1024,1589276148434370851,,0.501117761292,-0.192061315898,0.214908218876
1589276148440603467,1025,1589276148440423726,,0.501117263259,-0.191952792266,0.214893985132
1589276148446533150,1026,1589276148446401257,,0.501119249379,-0.191890869905,0.21488591623
1589276148452590414,1027,1589276148452472425,,0.501123222123,-0.19176371957,0.214875399114
1589276148458642757,1028,1589276148458454724,,0.501125481079,-0.191695711018,0.214868929827
1589276148464556949,1029,1589276148464365613,,0.501132475488,-0.191550670974,0.214854144745
1589276148470493678,1030,1589276148470413198,,0.501135797641,-0.191479222425,0.214851860881
1589276148476502180,1031,1589276148476393944,,0.501143313654,-0.191332752389,0.214829245413
1589276148479453723,1032,1589276148479379373,,0.501144333608,-0.191259908041,0.214821764448
1589276148485692164,1033,1589276148485497220,,0.501148888473,-0.191129340669,0.21480330961
1589276148491646100,1034,1589276148491495919,,0.50114880625,-0.191064554016,0.214794989204
1589276148497848374,1035,1589276148497743080,,0.5011460382,-0.190950700911,0.214772468622
1589276148503564323,1036,1589276148503457694,,0.501144455532,-0.190900499894,0.214767076322
1589276148509492686,1037,1589276148509397521,,0.501141600172,-0.190801998251,0.214756318921
1589276148515655704,1038,1589276148515564397,,0.501140165565,-0.190756272145,0.214751449994
1589276148521576527,1039,1589276148521425795,,0.501137432209,-0.190665283144,0.21474458497
1589276148527530204,1040,1589276148527414977,,0.501137119764,-0.190613756725,0.214740277858
1589276148533531576,1041,1589276148533442190,,0.50113652263,-0.190508247316,0.214729544722
1589276148539667135,1042,1589276148539451459,,0.501137524599,-0.19044828948,0.214722590255
1589276148545548463,1043,1589276148545411230,,0.50114091645,-0.190322964739,0.214707104342
1589276148551681770,1044,1589276148551517028,,0.501143658728,-0.190251874384,0.214693874869
1589276148557634523,1045,1589276148557470947,,0.501148505567,-0.190107355068,0.214676175356
1589276148563569325,1046,1589276148563411513,,0.501151651181,-0.190029712823,0.21466773691
1589276148569595656,1047,1589276148569439660,,0.50115732168,-0.189878903011,0.214650998942
1589276148575708345,1048,1589276148575587831,,0.50115945309,-0.189808081617,0.214642174145
1589276148581673905,1049,1589276148581498883,,0.501164702932,-0.189663952826,0.214632580922
1589276148587575801,1050,1589276148587483299,,0.501165678609,-0.189604437938,0.214627257481
1589276148593610997,1051,1589276148593469681,,0.50116721908,-0.189486945258,0.214622294365
1589276148599620825,1052,1589276148599529344,,0.501166763832,-0.189436582743,0.214615743769
1589276148605602854,1053,1589276148605471321,,0.501163674677,-0.189340459763,0.214607537648
1589276148611602910,1054,1589276148611467827,,0.501161485143,-0.189296057798,0.214602373322
1589276148617564778,1055,1589276148617452079,,0.501158330613,-0.189205231461,0.214592181416
1589276148623620886,1056,1589276148623494152,,0.501154979238,-0.189164222701,0.214583421414
1589276148629578931,1057,1589276148629468544,,0.501152419419,-0.189064733034,0.214572329017
1589276148635790600,1058,1589276148635725557,,0.501150790236,-0.189017450926,0.214566351645
1589276148641647263,1059,1589276148641472359,,0.501151938707,-0.188904544947,0.214559279545
1589276148647723424,1060,1589276148647551974,,0.501151395285,-0.188844705425,0.214553460662
1589276148653572348,1061,1589276148653467648,,0.501152411558,-0.188786371914,0.21454872761
1589276148659560208,1062,1589276148659420448,,0.501154385931,-0.188662111251,0.214540337987
1589276148665839928,1063,1589276148665734123,,0.501157549787,-0.188596963654,0.214537497108
1589276148671772306,1064,1589276148671523534,,0.501160924662,-0.188467734606,0.214528916918
1589276148677687277,1065,1589276148677531433,,0.501162384398,-0.188404897698,0.214520831813
1589276148683641535,1066,1589276148683552277,,0.501163320579,-0.188285809538,0.214506187597
1589276148689759036,1067,1589276148689587528,,0.501163229793,-0.188228495411,0.214498421579
1589276148695802073,1068,1589276148695670846,,0.501162027736,-0.188176658421,0.214492781615
1589276148701687310,1069,1589276148701509968,,0.501159406929,-0.188080436783,0.214484270322
1589276148707650408,1070,1589276148707518121,,0.501157385762,-0.188036297403,0.214481327664
1589276148713689047,1071,1589276148713528032,,0.501153289868,-0.187952714423,0.214477717336
1589276148719561723,1072,1589276148719435977,,0.501152128009,-0.187913954496,0.214481201933
1589276148725693173,1073,1589276148725538210,,0.501150601672,-0.187836269011,0.214484765573
1589276148731641069,1074,1589276148731513951,,0.501149558501,-0.187793451326,0.214484793125
1589276148737573165,1075,1589276148737453096,,0.501147492042,-0.187702346443,0.21448202948
1589276148743699580,1076,1589276148743544821,,0.501148252902,-0.187648138968,0.214479646606
1589276148749619897,1077,1589276148749466910,,0.501147332038,-0.187539587559,0.214472802152
1589276148758658597,1078,1589276148758494746,,0.501150758116,-0.187350635999,0.214453986223
1589276148764681105,1079,1589276148764490192,,0.501152861556,-0.18728658174,0.214454199505
1589276148770626541,1080,1589276148770506734,,0.501154876987,-0.187217422781,0.21445066279
1589276148776675624,1081,1589276148776498489,,0.501155215279,-0.187151641946,0.214441328413
1589276148783010830,1082,1589276148782820453,,0.501159193319,-0.187023547781,0.214437430956
1589276148788730726,1083,1589276148788531939,,0.501160703536,-0.186959753777,0.214431867873
1589276148795011787,1084,1589276148794879509,,0.501161597504,-0.186849401734,0.214421009811
1589276148800550501,1085,1589276148800455469,,0.501163918206,-0.186812092462,0.214423853529
1589276148806558160,1086,1589276148806465325,,0.501161192235,-0.186717024833,0.214412638756
1589276148812590631,1087,1589276148812490191,,0.501161181425,-0.186688729088,0.214414132702
1589276148818539206,1088,1589276148818442280,,0.501158605782,-0.186606347845,0.214408139507
1589276148824606551,1089,1589276148824505537,,0.501156241264,-0.186571161232,0.214406090744
1589276148830666963,1090,1589276148830527762,,0.501154699216,-0.18649739657,0.214399538337
1589276148836669653,1091,1589276148836475193,,0.501154743896,-0.186458179203,0.214397186016
1589276148842808523,1092,1589276148842703600,,0.501157575199,-0.186366004231,0.214386014377
1589276148848559626,1093,1589276148848460320,,0.501159135009,-0.186316312759,0.214381849552
1589276148854688801,1094,1589276148854512849,,0.501161732866,-0.186207458949,0.214371523423
1589276148860591761,1095,1589276148860473067,,0.501165801048,-0.186145262662,0.214369518832
1589276148866665468,1096,1589276148866489165,,0.501171189511,-0.186024805243,0.214360899977
1589276148872591143,1097,1589276148872486238,,0.501175163215,-0.185961523112,0.214357504669
1589276148878642371,1098,1589276148878526907,,0.50117906501,-0.185896930162,0.214354170042
1589276148884622293,1099,1589276148884467228,,0.501184991582,-0.185773449708,0.214345672428
1589276148890584905,1100,1589276148890475401,,0.501189523945,-0.185657972324,0.214337003203
1589276148896806327,1101,1589276148896693960,,0.501192981996,-0.185596709737,0.214332980288
1589276148903056589,1102,1589276148902905346,,0.501195959428,-0.185542047009,0.214328974374
1589276148908658946,1103,1589276148908504749,,0.501196492117,-0.185444121777,0.214322268592
1589276148914681610,1104,1589276148914513061,,0.501196614898,-0.185353017961,0.214317016575
1589276148920718781,1105,1589276148920558154,,0.501197425972,-0.185308486793,0.214313619136
1589276148926632258,1106,1589276148926545612,,0.501197874866,-0.185265081645,0.214312362514
1589276148932643096,1107,1589276148932501499,,0.501197601484,-0.185223978698,0.214310701054
1589276148938656727,1108,1589276148938505090,,0.501198690743,-0.18513646612,0.214304503827
1589276148944647109,1109,1589276148944470460,,0.501200756071,-0.185087398314,0.214304634807
1589276148950593378,1110,1589276148950468725,,0.501204675687,-0.184978296475,0.214294983873
1589276148956651477,1111,1589276148956487663,,0.501206673345,-0.184928083361,0.214289913619
1589276148962643061,1112,1589276148962537340,,0.501212913632,-0.184807144626,0.21427831224
1589276148968502887,1113,1589276148968407907,,0.501216839199,-0.184745445432,0.214271905716
1589276148974674411,1114,1589276148974518874,,0.501225585613,-0.184613447547,0.214257566409
1589276148980648161,1115,1589276148980507134,,0.501231043075,-0.184546662623,0.214252086407
1589276148986710998,1116,1589276148986572596,,0.501239098297,-0.18441293354,0.214236347597
1589276148992757036,1117,1589276148992603230,,0.501243569658,-0.184349334004,0.214231187117
1589276148998995090,1118,1589276148998909086,,0.501250509166,-0.184227871861,0.214215965225
1589276149004626825,1119,1589276149004489795,,0.501253055039,-0.184169459733,0.214211898989
1589276149010596452,1120,1589276149010508161,,0.501255368364,-0.18406622288,0.21419764455
1589276149016701719,1121,1589276149016574084,,0.501255086791,-0.184021180422,0.214197825451
1589276149022960175,1122,1589276149022874405,,0.50125458455,-0.183934172107,0.214189415736
1589276149028675853,1123,1589276149028532248,,0.501254037981,-0.183893466542,0.214187079306
1589276149034660436,1124,1589276149034484248,,0.501253989062,-0.183812487876,0.214182809948
1589276149040668528,1125,1589276149040492123,,0.501255744165,-0.183771056403,0.214181260016
1589276149046675671,1126,1589276149046552133,,0.501254772423,-0.183727288203,0.214174801481
1589276149052649024,1127,1589276149052517513,,0.501256690238,-0.183630547684,0.214171431104
1589276149058805812,1128,1589276149058607515,,0.501261037145,-0.18352109406,0.214155697027
1589276149064653675,1129,1589276149064498793,,0.501263617753,-0.183466287777,0.214151833083
1589276149070541324,1130,1589276149070441653,,0.501268408095,-0.183404086381,0.214147072499
1589276149073567857,1131,1589276149073489156,,0.501273757354,-0.183275178515,0.214130324525
1589276149079729326,1132,1589276149079533070,,0.501282707114,-0.183144358453,0.214120044336
1589276149085678444,1133,1589276149085456046,,0.501285861892,-0.183076090766,0.214110770996
1589276149091601409,1134,1589276149091495605,,0.501297361053,-0.182896927336,0.214090782259
1589276149097781869,1135,1589276149097677165,,0.501302935266,-0.182787423235,0.214081557816
1589276149103596436,1136,1589276149103474981,,0.501305573351,-0.182739020391,0.214077056083
1589276149109570272,1137,1589276149109485887,,0.501306463022,-0.182650151242,0.214070831558
1589276149115675550,1138,1589276149115540730,,0.501306533291,-0.182609868286,0.214068254914
1589276149121657937,1139,1589276149121557024,,0.501306520563,-0.182572171453,0.214067830406
1589276149127719912,1140,1589276149127581816,,0.501308725898,-0.18249994051,0.214065484289
1589276149133729494,1141,1589276149133551695,,0.501307344309,-0.182423991953,0.214053125434
1589276149139667915,1142,1589276149139553117,,0.501308242895,-0.182383531526,0.214049157094
1589276149145694738,1143,1589276149145512000,,0.501309411742,-0.18233715308,0.214046413223
1589276149151594855,1144,1589276149151512208,,0.501311706089,-0.182240277025,0.214034155827
1589276149157876782,1145,1589276149157631587,,0.501313332179,-0.182187989885,0.214026815702
1589276149163687138,1146,1589276149163545280,,0.501318395954,-0.182079026778,0.214013114848
1589276149169703607,1147,1589276149169543454,,0.501323473542,-0.182017978313,0.214009606642
1589276149178740821,1148,1589276149178560116,,0.501333965429,-0.181829070441,0.213991224743
1589276149184680175,1149,1589276149184582103,,0.501336564569,-0.181772370101,0.213982061062
1589276149190800168,1150,1589276149190589465,,0.501342172104,-0.181650512144,0.213967894892
1589276149196874193,1151,1589276149196762255,,0.501345031964,-0.181594333799,0.213958799555
1589276149202818727,1152,1589276149202720257,,0.50134832634,-0.181484834949,0.213944544106
1589276149208667707,1153,1589276149208575465,,0.501350140264,-0.181440401931,0.213937379093
1589276149214814889,1154,1589276149214605561,,0.501351516023,-0.181359508059,0.213928167177
1589276149220626479,1155,1589276149220516212,,0.501352199981,-0.181315215532,0.213922494712
1589276149226596001,1156,1589276149226503304,,0.50134994164,-0.181252457724,0.21391731398
1589276149232680131,1157,1589276149232522782,,0.501350712069,-0.181211925834,0.213916821983
1589276149238689953,1158,1589276149238511451,,0.501350863376,-0.18117886647,0.21391427607
1589276149244697094,1159,1589276149244563421,,0.501350485046,-0.181109636847,0.213909291058
1589276149250682246,1160,1589276149250538006,,0.501350126723,-0.181076850095,0.213905178956
1589276149256750511,1161,1589276149256579531,,0.501351491244,-0.180995453438,0.213897898626
1589276149262666649,1162,1589276149262573833,,0.501352993176,-0.180947476046,0.213891558602
1589276149268580861,1163,1589276149268500397,,0.501354908719,-0.180850247301,0.213878510433
1589276149274731122,1164,1589276149274556530,,0.501356803369,-0.180796131437,0.213872194413
1589276149280765974,1165,1589276149280597080,,0.501359960258,-0.180682628384,0.213857551658
1589276149286722749,1166,1589276149286567575,,0.501362766287,-0.180622613419,0.213851140563
1589276149292692007,1167,1589276149292564807,,0.501364212734,-0.18050822749,0.213836751135
1589276149299080844,1168,1589276149298899558,,0.501367133165,-0.180443780898,0.213828966748
1589276149304644103,1169,1589276149304535150,,0.501368658087,-0.180334965012,0.213816738463
1589276149310647107,1170,1589276149310520115,,0.501370005274,-0.180278817294,0.213811617008
1589276149316763789,1171,1589276149316604276,,0.501370113801,-0.180185563062,0.213803145539
1589276149322962249,1172,1589276149322829869,,0.501368073823,-0.180141802762,0.213798197568
1589276149328666315,1173,1589276149328581963,,0.50136495433,-0.180058793052,0.213787774684
1589276149334641780,1174,1589276149334517910,,0.501363350474,-0.180024777891,0.213787347493
1589276149340610614,1175,1589276149340501228,,0.501359462078,-0.179951033167,0.213775813293
1589276149346739233,1176,1589276149346573957,,0.501359581983,-0.179915382471,0.213773439063
1589276149352739836,1177,1589276149352571127,,0.501358398935,-0.179837561094,0.213761217156
1589276149358767871,1178,1589276149358623278,,0.501357214444,-0.179796898908,0.213754390118
1589276149364776182,1179,1589276149364628314,,0.501359643234,-0.17970684446,0.21374644276
1589276149370717903,1180,1589276149370585179,,0.501360294567,-0.179658812064,0.213736817246
1589276149376840893,1181,1589276149376600945,,0.501364357563,-0.179557957616,0.213724817181
1589276149383156083,1182,1589276149383008394,,0.501367120082,-0.179499826094,0.213717457091
1589276149388682033,1183,1589276149388565397,,0.501371083198,-0.179393524961,0.213703691308
1589276149394669120,1184,1589276149394541270,,0.501373803789,-0.179333077539,0.213698499156
1589276149400706270,1185,1589276149400595160,,0.501376546346,-0.179279373849,0.213691522416
1589276149406764226,1186,1589276149406584559,,0.501380297873,-0.179171897481,0.213673540749
1589276149412713318,1187,1589276149412586153,,0.50138487941,-0.179074893634,0.213661661916
1589276149418695387,1188,1589276149418576535,,0.501386414288,-0.179028122473,0.213655657001
1589276149424751369,1189,1589276149424607652,,0.501386025578,-0.178987402177,0.213649459944
1589276149430835198,1190,1589276149430553996,,0.50138618606,-0.178909894204,0.213638002141
1589276149436737093,1191,1589276149436582177,,0.501385359312,-0.178878349259,0.213636655608
1589276149442650839,1192,1589276149442564113,,0.501385303105,-0.178812085159,0.213630739584
1589276149448689321,1193,1589276149448588554,,0.501384245558,-0.178779129387,0.213626718792
1589276149454816169,1194,1589276149454661293,,0.501384440311,-0.178714710307,0.2136218669
1589276149460834624,1195,1589276149460634476,,0.501384476734,-0.178645528825,0.213612510326
1589276149466676800,1196,1589276149466547413,,0.501384684673,-0.178606495036,0.213606993263
1589276149472609569,1197,1589276149472527065,,0.501386686455,-0.178524783623,0.21360058236
1589276149478874642,1198,1589276149478576229,,0.501388237255,-0.178478437468,0.213597061583
1589276149484682421,1199,1589276149484544526,,0.501391478947,-0.17843274208,0.213593028874
1589276149490791890,1200,1589276149490655134,,0.501394934658,-0.178335535742,0.213579410523
1589276149496891838,1201,1589276149496792945,,0.50139867495,-0.178291302538,0.213576259745
1589276149503025653,1202,1589276149502917338,,0.501402305189,-0.178196675211,0.213565455936
1589276149508640666,1203,1589276149508540025,,0.5014038078,-0.178156876386,0.213562581705
1589276149514728159,1204,1589276149514604537,,0.501405932979,-0.178112596621,0.213559060988
1589276149520814704,1205,1589276149520619320,,0.501406583987,-0.178035182072,0.213550758705
1589276149526761091,1206,1589276149526606655,,0.501406107651,-0.178000176163,0.213545978243
1589276149532728091,1207,1589276149532596150,,0.50140749488,-0.177963324691,0.213544612993
1589276149538748488,1208,1589276149538630783,,0.501405586069,-0.177935087761,0.213539023773
1589276149544750768,1209,1589276149544612073,,0.501404282351,-0.177907217656,0.213537381268
1589276149550693703,1210,1589276149550565047,,0.501404095717,-0.177852630254,0.213534278896
1589276149556665557,1211,1589276149556577120,,0.501403684591,-0.17783637377,0.213532865069
1589276149562902242,1212,1589276149562806887,,0.501401261512,-0.177782646093,0.213528464132
1589276149571677968,1213,1589276149571579854,,0.501401132777,-0.17769817777,0.213521383464
1589276149577771875,1214,1589276149577626517,,0.501402084398,-0.177667747547,0.213517618662
1589276149583704957,1215,1589276149583603119,,0.501404112297,-0.177605244792,0.213510364895
1589276149589692085,1216,1589276149589590571,,0.501406539251,-0.177571295284,0.213508302034
1589276149596229714,1217,1589276149596132471,,0.501410355474,-0.177503359663,0.213501061928
1589276149601633517,1218,1589276149601533358,,0.501413213858,-0.177469041853,0.21349739909
1589276149607674146,1219,1589276149607576443,,0.501414442268,-0.177430160864,0.213490515038
1589276149613730684,1220,1589276149613594048,,0.501418716462,-0.17736093361,0.213483664327
1589276149619664738,1221,1589276149619540933,,0.501420812443,-0.177326830909,0.213481309276
1589276149623146847,1222,1589276149623075985,,0.5014227363,-0.177290831489,0.213478198175
1589276149631735088,1223,1589276149631601657,,0.501427533212,-0.177193492214,0.213468971739
1589276149637823637,1224,1589276149637652743,,0.501428859946,-0.177145405894,0.213463184029
1589276149643808254,1225,1589276149643625065,,0.501428995277,-0.177114447698,0.213458213275
1589276149649656603,1226,1589276149649559833,,0.501428451725,-0.177072556943,0.2134547914
1589276149658708795,1227,1589276149658612195,,0.50142915771,-0.177001145458,0.213448374191
1589276149664836844,1228,1589276149664673448,,0.501428328777,-0.17698121569,0.213445503079
1589276149670803327,1229,1589276149670614907,,0.501428761468,-0.176958769076,0.21344367709
1589276149676701728,1230,1589276149676553076,,0.501428942401,-0.176914006033,0.213438158528
1589276149679736387,1231,1589276149679609022,,0.501430697142,-0.176860739867,0.213435692573
1589276149685817778,1232,1589276149685633163,,0.501431432909,-0.176838311891,0.213435128135
1589276149691689301,1233,1589276149691587870,,0.501433025883,-0.176814986866,0.213433469357
1589276149697838979,1234,1589276149697744539,,0.50143606958,-0.176762669667,0.21342976644
1589276149703815635,1235,1589276149703651682,,0.501438403468,-0.17670704002,0.213425345227
1589276149709743018,1236,1589276149709639220,,0.501439222231,-0.176680672835,0.213424036192
1589276149716120677,1237,1589276149716019779,,0.501439653483,-0.176656176912,0.213424008437
1589276149721738750,1238,1589276149721636515,,0.501440480943,-0.176605585678,0.213419521071
1589276149727841266,1239,1589276149727698020,,0.501442370086,-0.176553873619,0.21341354399
1589276149733813525,1240,1589276149733642013,,0.501442632081,-0.176530026014,0.213410135612
1589276149739707987,1241,1589276149739599874,,0.501442860295,-0.176507068837,0.213406712431
1589276149745785899,1242,1589276149745603811,,0.501443618048,-0.176461539822,0.213401660428
1589276149751791221,1243,1589276149751658061,,0.501443817323,-0.176437835357,0.213398830419
1589276149757792636,1244,1589276149757634017,,0.501444731296,-0.176392836767,0.213395879504
1589276149763785581,1245,1589276149763650801,,0.501444448849,-0.176373541275,0.213393022603
1589276149769790963,1246,1589276149769645670,,0.501445547415,-0.176331231022,0.213389316505
1589276149778796543,1247,1589276149778609008,,0.501448381012,-0.176269506159,0.21338667429
1589276149784861140,1248,1589276149784672802,,0.501448802221,-0.176251119543,0.2133848465
1589276149790751956,1249,1589276149790653681,,0.501450035338,-0.176213907413,0.213382002946
1589276149800055380,1250,1589276149799915430,,0.501450640617,-0.176159004763,0.213379498
1589276149805833709,1251,1589276149805645640,,0.501450553971,-0.176143610214,0.213380709818
1589276149811840772,1252,1589276149811632947,,0.501450269544,-0.176109517207,0.21337843642
1589276149817722090,1253,1589276149817608165,,0.50144994338,-0.176093980105,0.213376897207
1589276149823785868,1254,1589276149823687958,,0.501450571462,-0.176062134064,0.213375935513
1589276149829755207,1255,1589276149829631853,,0.50145008933,-0.176045674658,0.213374006185
1589276149838803227,1256,1589276149838687969,,0.501449491185,-0.175998616098,0.213370880329
1589276149844768419,1257,1589276149844654258,,0.5014501674,-0.175968920548,0.21336773329
1589276149850791396,1258,1589276149850647217,,0.501450929881,-0.17595225407,0.213365610898
1589276149856920805,1259,1589276149856823886,,0.501452412497,-0.175921225705,0.213363407121
1589276149863158607,1260,1589276149863045723,,0.5014527954,-0.175906167553,0.213362275336
1589276149871846085,1261,1589276149871692352,,0.501454848064,-0.17586315091,0.21335955468
1589276149877880677,1262,1589276149877700705,,0.501457069561,-0.175835725111,0.213358021567
1589276149883823698,1263,1589276149883673557,,0.501458498412,-0.175822808555,0.21335786478
1589276149889792352,1264,1589276149889682496,,0.501460168049,-0.175797674234,0.213356482487
1589276149898928275,1265,1589276149898792560,,0.501462246219,-0.17575994025,0.213351028852
1589276149904770639,1266,1589276149904647891,,0.501463345182,-0.175746846842,0.213351396464
1589276149910875717,1267,1589276149910682310,,0.501464570186,-0.175722775547,0.213347327494
1589276149916801330,1268,1589276149916646810,,0.501466170971,-0.175712556018,0.21334739471
1589276149923192200,1269,1589276149923099696,,0.501467292357,-0.175690824522,0.213345091152
1589276149929968703,1270,1589276149929869977,,0.501468019642,-0.175679898699,0.213343055285
1589276149934720438,1271,1589276149934594268,,0.501469450129,-0.17565951907,0.213339605603
1589276149940791148,1272,1589276149940631604,,0.501469996358,-0.175650555157,0.213337581805
1589276149946787763,1273,1589276149946609172,,0.501471950848,-0.175632205493,0.213335405461
1589276149952809852,1274,1589276149952688265,,0.501472928696,-0.175625140871,0.21333415354
1589276149958784738,1275,1589276149958640546,,0.501475098088,-0.175606023374,0.213329913118
1589276149964868049,1276,1589276149964713124,,0.501475219692,-0.175599456766,0.213328854798
1589276149970818024,1277,1589276149970704052,,0.501477568463,-0.175590560479,0.213329247153
1589276149976769759,1278,1589276149976639321,,0.501479065642,-0.175575086282,0.213326974139
1589276149979760415,1279,1589276149979649646,,0.501479563142,-0.175566666469,0.21332555221
1589276149985702455,1280,1589276149985608802,,0.501480583726,-0.175561224559,0.213325766428
1589276149991831511,1281,1589276149991648623,,0.501482126528,-0.17554572442,0.213325065003
1589276149997986631,1282,1589276149997843670,,0.501483469649,-0.175539303871,0.213323623145
1589276150003860903,1283,1589276150003642185,,0.501485054554,-0.175527898292,0.21332225493
1589276150012862016,1284,1589276150012677288,,0.501486790848,-0.175511874754,0.213321536289
1589276150018816999,1285,1589276150018705089,,0.50148723789,-0.175506389079,0.21332124006
1589276150024922731,1286,1589276150024695904,,0.501487951327,-0.17549742375,0.21332206165
1589276150030849058,1287,1589276150030697382,,0.501488037251,-0.175493616152,0.213322206564
1589276150036837577,1288,1589276150036710541,,0.501488452843,-0.175488720067,0.213321958596
1589276150043261108,1289,1589276150043173550,,0.50148858474,-0.175485352939,0.213322571616
1589276150051755766,1290,1589276150051640439,,0.501489136754,-0.175474293879,0.213323320724
1589276150057899850,1291,1589276150057736785,,0.501489597993,-0.175470221207,0.21332257783
1589276150063885540,1292,1589276150063665971,,0.501490009837,-0.175467286927,0.213324238016
1589276150069777200,1293,1589276150069665575,,0.50149057748,-0.175458462631,0.213322625826
1589276150076812530,1294,1589276150076154055,,0.501491782564,-0.175453079342,0.213323660473
1589276150081781144,1295,1589276150081654160,,0.501492276387,-0.175449076179,0.213323169918
1589276150087832771,1296,1589276150087694380,,0.501493758618,-0.175437302826,0.213321626155
1589276150093848984,1297,1589276150093698918,,0.501494696263,-0.175434526236,0.213322776405
1589276150100159239,1298,1589276150100051261,,0.501495383168,-0.175431232274,0.213322752021
1589276150105917933,1299,1589276150105751370,,0.501497702262,-0.175421154601,0.213322753588
1589276150111790967,1300,1589276150111666924,,0.501498949751,-0.17541703053,0.213323094299
1589276150117881530,1301,1589276150117655310,,0.501499927272,-0.175411076831,0.213322684462
1589276150123794713,1302,1589276150123673237,,0.501502235196,-0.175401077825,0.213321974048
1589276150129795769,1303,1589276150129663976,,0.50150341567,-0.175397521075,0.213321806626
1589276150138803006,1304,1589276150138691879,,0.501506738419,-0.175384272882,0.213321463321
1589276150144812280,1305,1589276150144699728,,0.501508734902,-0.17537667282,0.213321083962
1589276150150840465,1306,1589276150150705197,,0.501509984491,-0.17537173119,0.213320904663
1589276150156863680,1307,1589276150156681605,,0.501511984888,-0.175364727484,0.213320730544
1589276150162946176,1308,1589276150162844962,,0.50151336893,-0.175360817545,0.213321177199
1589276150171795253,1309,1589276150171639118,,0.501516106206,-0.17535074858,0.213319624601
1589276150174972695,1310,1589276150174713942,,0.501517974391,-0.175346013773,0.213319355796
1589276150180852677,1311,1589276150180709094,,0.50151884161,-0.175342140372,0.213319167639
1589276150186885005,1312,1589276150186716233,,0.501520337314,-0.17533666534,0.213317823078
1589276150192826264,1313,1589276150192641688,,0.501521050577,-0.175333563513,0.213318482737
1589276150198955386,1314,1589276150198850518,,0.501521781659,-0.175331977152,0.213317905192
1589276150204827934,1315,1589276150204680538,,0.501523462842,-0.175326875907,0.213317475097
1589276150210876767,1316,1589276150210733054,,0.501523966625,-0.175324985392,0.213316515496
1589276150216780213,1317,1589276150216642913,,0.501524819314,-0.175322191497,0.213316688732
1589276150223315465,1318,1589276150223207304,,0.501526028258,-0.175319089131,0.213316714299
1589276150229855003,1319,1589276150229733068,,0.501527196983,-0.175314466801,0.213316859672
1589276150234848539,1320,1589276150234714719,,0.501527016539,-0.175313569338,0.213314987567
1589276150240821662,1321,1589276150240718472,,0.501528556492,-0.175309671204,0.213315809016
1589276150246828243,1322,1589276150246690714,,0.50152877034,-0.175310085102,0.213315256678
1589276150252846335,1323,1589276150252691198,,0.501529194322,-0.175309222114,0.213315584681
1589276150258776131,1324,1589276150258663042,,0.501529283188,-0.17530844895,0.213315840889
1589276150264861252,1325,1589276150264749131,,0.501530312516,-0.1753063395,0.213316055447
1589276150270857783,1326,1589276150270701769,,0.501530760126,-0.17530481048,0.213316054872
1589276150276871966,1327,1589276150276762203,,0.501531063136,-0.175303484718,0.213315868665
1589276150279819707,1328,1589276150279718571,,0.501530870734,-0.175303187485,0.213315572265
1589276150285836812,1329,1589276150285705975,,0.50153161889,-0.175302110818,0.213315921218
1589276150289613903,1330,1589276150289500131,,0.501531821643,-0.175300782414,0.213316502667
1589276150294829049,1331,1589276150294736699,,0.501532253724,-0.175299146133,0.213315901764
1589276150301180390,1332,1589276150301037108,,0.50153300381,-0.175297160295,0.2133167803
1589276150306882302,1333,1589276150306731172,,0.501532826271,-0.175294084924,0.213315177634
1589276150312824124,1334,1589276150312702730,,0.50153395292,-0.175292865219,0.213316256522
1589276150316194401,1335,1589276150316080962,,0.501534468957,-0.175290826267,0.213316775705
1589276150321781778,1336,1589276150321678469,,0.501535998265,-0.175285958094,0.213317371414
1589276150327836033,1337,1589276150327640410,,0.501536496774,-0.175283181109,0.213316316829
1589276150330746098,1338,1589276150330652971,,0.501538107903,-0.175276813238,0.213317177331
1589276150336832834,1339,1589276150336711810,,0.501538849264,-0.175274325146,0.213316589823
1589276150343277050,1340,1589276150343181133,,0.501540502704,-0.175268816112,0.213317717963
1589276150350066560,1341,1589276150349954749,,0.501541377448,-0.175264391865,0.213318018877
1589276150354842500,1342,1589276150354664105,,0.501542578516,-0.175258373458,0.213318750601
1589276150360915580,1343,1589276150360716828,,0.501544105018,-0.175254480934,0.213320680729
1589276150366771543,1344,1589276150366678196,,0.501545422294,-0.175245696666,0.213323876151
1589276150372941767,1345,1589276150372727284,,0.501546192819,-0.175240370783,0.213326763763
1589276150378772241,1346,1589276150378686967,,0.501547748614,-0.175223145432,0.213332891064
1589276150384867570,1347,1589276150384698360,,0.501548832356,-0.175206877557,0.213339912847
1589276150390804283,1348,1589276150390723015,,0.501549106738,-0.175197933954,0.213341922576
1589276150397193221,1349,1589276150397080174,,0.501548749713,-0.175188961345,0.213343267635
1589276150403038791,1350,1589276150402952783,,0.501548589819,-0.17518113989,0.21334716699
1589276150411771866,1351,1589276150411673369,,0.501545417721,-0.175156846811,0.213349983298
1589276150417784953,1352,1589276150417684931,,0.501543413476,-0.175138733473,0.213350993873
1589276150423935247,1353,1589276150423806885,,0.501541911736,-0.175130632781,0.213350732785
1589276150429803474,1354,1589276150429719347,,0.50154026648,-0.175121392713,0.213351162582
1589276150436317461,1355,1589276150436249026,,0.501536537134,-0.175106042971,0.213351643211
1589276150441799525,1356,1589276150441723465,,0.501535180911,-0.175098029906,0.213354597966
1589276150447827306,1357,1589276150447741044,,0.501533282978,-0.175091870494,0.213355355749
1589276150453780316,1358,1589276150453685375,,0.501530953593,-0.175075193388,0.213357239544
1589276150456802399,1359,1589276150456735299,,0.501529576929,-0.17506766887,0.213355920785
1589276150462817933,1360,1589276150462716089,,0.501529307619,-0.175059099963,0.213357389656
1589276150465974277,1361,1589276150465772536,,0.501527930428,-0.175041561315,0.21335992124
1589276150471842884,1362,1589276150471748006,,0.501527125749,-0.175033803512,0.213360293751
1589276150477865629,1363,1589276150477723715,,0.501525470837,-0.175017486151,0.213362579457
1589276150480792261,1364,1589276150480671181,,0.501525119013,-0.175011197148,0.213362348168
1589276150483856428,1365,1589276150483735370,,0.501523606191,-0.174997304239,0.213362019824
1589276150486923977,1366,1589276150486734265,,0.501523031103,-0.174982818511,0.213363273075
1589276150489908966,1367,1589276150489775756,,0.501522333362,-0.174975121827,0.213363624579
1589276150495937432,1368,1589276150495819313,,0.501522214292,-0.17496813115,0.213365423362
1589276150501905625,1369,1589276150501783759,,0.501521086359,-0.174952956595,0.213367587565
1589276150507881583,1370,1589276150507722530,,0.501520679199,-0.174948341565,0.213370022686
1589276150513824599,1371,1589276150513721164,,0.501519191969,-0.174935500951,0.213372395304
1589276150519847466,1372,1589276150519713704,,0.501518354406,-0.174929750172,0.213375357308
1589276150525789959,1373,1589276150525699492,,0.501516465349,-0.174919453863,0.213377214472
1589276150531962303,1374,1589276150531782024,,0.501515735913,-0.174912141143,0.213378152055
1589276150537932814,1375,1589276150537743187,,0.501514819275,-0.174907414413,0.213379850094
1589276150543912122,1376,1589276150543753119,,0.501513697564,-0.174903161178,0.213379415184
1589276150550110740,1377,1589276150549939775,,0.50151200489,-0.174890980071,0.213382555329
1589276150556895743,1378,1589276150556767769,,0.50151101269,-0.174884996031,0.213383634709
1589276150561928642,1379,1589276150561738507,,0.501509778379,-0.174875608922,0.213387289609
1589276150567908125,1380,1589276150567746055,,0.501509016966,-0.174870510077,0.213387629544
1589276150573928752,1381,1589276150573756177,,0.501508672761,-0.174865488253,0.213389169044
1589276150579899486,1382,1589276150579767041,,0.501507920751,-0.174861506942,0.213390502635
1589276150585959626,1383,1589276150585782216,,0.501507555452,-0.174856053379,0.213390256316
1589276150591914316,1384,1589276150591754768,,0.501506708933,-0.174847932245,0.213391161306
1589276150598179594,1385,1589276150598043546,,0.501505873459,-0.174842670616,0.213391111724
1589276150603924911,1386,1589276150603744042,,0.501505858095,-0.174835712269,0.213392205041
1589276150610111437,1387,1589276150610018056,,0.501505689096,-0.174834017805,0.213392992552
1589276150616073580,1388,1589276150615975113,,0.501505224071,-0.174827371931,0.213393367229
1589276150621866157,1389,1589276150621792136,,0.501505444508,-0.174823744138,0.213394636392
1589276150627993003,1390,1589276150627822400,,0.501505788053,-0.174819180229,0.213395319845
1589276150633899488,1391,1589276150633768246,,0.501507419886,-0.174814931289,0.213397088269
1589276150639875061,1392,1589276150639746510,,0.501508670894,-0.174807840097,0.213397303843
1589276150645896442,1393,1589276150645751473,,0.501508895475,-0.174805720361,0.213397181757
1589276150651869537,1394,1589276150651716898,,0.501511343206,-0.174797157068,0.213398161643
1589276150654919801,1395,1589276150654792440,,0.501512228863,-0.174795172477,0.213398373856
1589276150660920333,1396,1589276150660780012,,0.501515047803,-0.174786980665,0.213398770315
1589276150663828537,1397,1589276150663721632,,0.501516082303,-0.174784753932,0.213398590897
1589276150666846688,1398,1589276150666748682,,0.501517990869,-0.174777349432,0.213397499464
1589276150672938101,1399,1589276150672778573,,0.501519851154,-0.174772097362,0.213397775565
1589276150678963516,1400,1589276150678779163,,0.50152241488,-0.174762730019,0.213399014428
1589276150684847017,1401,1589276150684730939,,0.501523569227,-0.174758238094,0.213398665547
1589276150690826389,1402,1589276150690712817,,0.50152649291,-0.174748009114,0.213398426674
1589276150697241490,1403,1589276150697113543,,0.501528147922,-0.17474228265,0.213398061483
