%time,field.header.seq,field.header.stamp,field.header.frame_id,field.vector.x,field.vector.y,field.vector.z
1588856535718727374,749,1588856535718526108,,0.502911526843,-0.199990957365,0.222243240545
1588856535721680283,750,1588856535721514865,,0.502911961438,-0.199994754954,0.222239981511
1588856535724740789,751,1588856535724543352,,0.502912126326,-0.19999885629,0.222237148627
1588856535727644427,752,1588856535727549089,,0.502911718065,-0.20000178443,0.22223181258
1588856535730640603,753,1588856535730519769,,0.502912232576,-0.200005076147,0.222228474807
1588856535733678024,754,1588856535733543506,,0.502912503297,-0.200008603905,0.222224334492
1588856535739702022,755,1588856535739524057,,0.502912896825,-0.200012397085,0.222220379839
1588856535742611571,756,1588856535742471464,,0.50291271476,-0.200015554588,0.222216764178
1588856535745679451,757,1588856535745532709,,0.502913100841,-0.20001850335,0.222213279837
1588856535751599783,758,1588856535751493592,,0.502912773823,-0.200023050345,0.222210480089
1588856535754639778,759,1588856535754472593,,0.502913003485,-0.200024157222,0.222205928675
1588856535757651871,760,1588856535757501209,,0.502913073361,-0.200028568197,0.222203555419
1588856535764131568,761,1588856535763925559,,0.502913290643,-0.200031635791,0.222199146632
1588856535767009741,762,1588856535766897547,,0.502914328949,-0.200033442814,0.222195288306
1588856535772741361,763,1588856535772634843,,0.502913872425,-0.200036936886,0.222189978335
1588856535775596144,764,1588856535775497343,,0.502914474395,-0.200039402332,0.222184387697
1588856535778642538,765,1588856535778515947,,0.50291505958,-0.200041706811,0.222179812455
1588856535781772681,766,1588856535781570161,,0.502916245332,-0.20004453566,0.222177151432
1588856535787725054,767,1588856535787537650,,0.502915964626,-0.200046417833,0.222173371879
1588856535790686061,768,1588856535790566030,,0.502916551708,-0.200047276322,0.222170496218
1588856535796804292,769,1588856535796556054,,0.502916725542,-0.200048841367,0.222167143746
1588856535799639052,770,1588856535799532613,,0.502916555713,-0.200049799019,0.222162308213
1588856535802691417,771,1588856535802545147,,0.502916900562,-0.200051396857,0.222159292098
1588856535808713658,772,1588856535808509646,,0.502917538757,-0.200051848425,0.2221550899
1588856535814743827,773,1588856535814544084,,0.502917438219,-0.200054459501,0.222151178901
1588856535817725792,774,1588856535817534935,,0.502918144087,-0.200055333415,0.22214556799
1588856535820669350,775,1588856535820536106,,0.502918441612,-0.200056221747,0.222142283816
1588856535823628670,776,1588856535823534225,,0.502918627535,-0.200057312893,0.222136898638
1588856535826686660,777,1588856535826547231,,0.502918999985,-0.200057293573,0.222134190156
1588856535832734028,778,1588856535832564833,,0.502919854577,-0.200057503664,0.222129891144
1588856535835607255,779,1588856535835523274,,0.502919682147,-0.200058339511,0.222125512881
1588856535838668969,780,1588856535838576349,,0.502919972824,-0.200058491898,0.222122607644
1588856535844764866,781,1588856535844570145,,0.502920902005,-0.200057182386,0.222118385231
1588856535847629691,782,1588856535847535530,,0.502921294529,-0.20005538214,0.222114105871
1588856535850791293,783,1588856535850615519,,0.502921675071,-0.200055639616,0.222110816542
1588856535856669503,784,1588856535856524487,,0.502922731988,-0.200053293461,0.222106911973
1588856535859662107,785,1588856535859560428,,0.502923255345,-0.200050280571,0.222103269959
1588856535862629579,786,1588856535862529547,,0.502923624579,-0.200048685073,0.222099285139
1588856535868754124,787,1588856535868550569,,0.502924374731,-0.200044338626,0.222094001677
1588856535871824286,788,1588856535871579496,,0.502925034073,-0.200043683056,0.222088406172
1588856535874625289,789,1588856535874529340,,0.50292570296,-0.20004071831,0.222083294956
1588856535880767033,790,1588856535880578309,,0.502926107014,-0.200035504596,0.222077419084
1588856535883669333,791,1588856535883525705,,0.502926435518,-0.200033250783,0.222071965792
1588856535886719643,792,1588856535886562961,,0.502926666435,-0.200027866206,0.22206468653
1588856535892769463,793,1588856535892572562,,0.502928413361,-0.200020118345,0.222059145271
1588856535895661768,794,1588856535895561872,,0.502928595523,-0.200011584351,0.22205130544
1588856535901811279,795,1588856535901571191,,0.502930018786,-0.200001376636,0.222044308014
1588856535904682048,796,1588856535904566386,,0.50293151878,-0.199987880115,0.222036888556
1588856535907704802,797,1588856535907581876,,0.502931958045,-0.19997291913,0.222026494711
1588856535913767171,798,1588856535913604299,,0.502931986367,-0.199955002784,0.222015424865
1588856535916792916,799,1588856535916642417,,0.502931501525,-0.199936857035,0.222002136021
1588856535922722174,800,1588856535922562023,,0.502930803266,-0.199920178806,0.22199025986
1588856535925761916,801,1588856535925576694,,0.502929127429,-0.199906146859,0.221977107043
1588856535928778247,802,1588856535928630085,,0.502929361876,-0.199887575622,0.221964464474
1588856535931793447,803,1588856535931648472,,0.502929122763,-0.199867043169,0.221949459278
1588856535937728351,804,1588856535937624348,,0.502928380045,-0.199850812598,0.22193567066
1588856535940729182,805,1588856535940606292,,0.502927707882,-0.199832034635,0.22191898966
1588856535946702541,806,1588856535946573592,,0.502926363509,-0.199814704826,0.221902946803
1588856535949844424,807,1588856535949622774,,0.502925818784,-0.199796830651,0.221888161505
1588856535952756694,808,1588856535952569959,,0.502924066641,-0.199778419284,0.221872848928
1588856535955788140,809,1588856535955621605,,0.502922420304,-0.199754746084,0.221854691395
1588856535961754124,810,1588856535961596595,,0.502921258229,-0.199732430787,0.221840219499
1588856535964977617,811,1588856535964847659,,0.502920564739,-0.199717300224,0.221825604535
1588856535970734784,812,1588856535970595017,,0.502919502686,-0.199699743994,0.22181140697
1588856535973766197,813,1588856535973624904,,0.502919239752,-0.199677047135,0.221795966625
1588856535976783851,814,1588856535976671967,,0.502919247106,-0.199654493934,0.221781237618
1588856535979766258,815,1588856535979617079,,0.50291836368,-0.199634676206,0.22176531628
1588856535985814429,816,1588856535985630610,,0.502917697493,-0.199617720246,0.221749348261
1588856535988762161,817,1588856535988624722,,0.502916252455,-0.199597043852,0.221731846351
1588856535994946778,818,1588856535994697781,,0.502915503684,-0.199577409043,0.221715355452
1588856535997769357,819,1588856535997642671,,0.502915103872,-0.199555904524,0.221699399173
1588856536000795525,820,1588856536000677231,,0.502914150938,-0.199534208084,0.221682134211
1588856536003738342,821,1588856536003617562,,0.502913435381,-0.199512119573,0.221665826423
1588856536009708035,822,1588856536009585902,,0.502914004836,-0.199491280167,0.221651060135
1588856536012707004,823,1588856536012593736,,0.502914213935,-0.199466529803,0.221635070656
1588856536018758074,824,1588856536018614687,,0.50291332329,-0.199444691029,0.221618117481
1588856536021754997,825,1588856536021598316,,0.502912702551,-0.19942305589,0.221601430425
1588856536024772896,826,1588856536024631498,,0.502911545855,-0.199400083868,0.221584773351
1588856536030892295,827,1588856536030679955,,0.502910731721,-0.199376691585,0.221567092281
1588856536033737285,828,1588856536033600185,,0.502909572617,-0.199353114141,0.221550363263
1588856536036698464,829,1588856536036577045,,0.502908452681,-0.199328830865,0.221532956591
1588856536042903450,830,1588856536042703319,,0.502908165041,-0.199306930122,0.221514803657
1588856536045902551,831,1588856536045731997,,0.502907451502,-0.199281873165,0.2214982696
1588856536048782608,832,1588856536048659643,,0.502906351328,-0.199256611534,0.221478297777
1588856536054899213,833,1588856536054728705,,0.502905098236,-0.199235209132,0.221459895489
1588856536057800703,834,1588856536057685132,,0.50290330604,-0.199208252654,0.221439363931
1588856536060806512,835,1588856536060636163,,0.502901952658,-0.199183523635,0.221419547115
1588856536067210875,836,1588856536067030181,,0.502900439272,-0.199160854447,0.221401283958
1588856536069786877,837,1588856536069669901,,0.502899819198,-0.199134727139,0.221382627947
1588856536072765882,838,1588856536072661003,,0.50289888715,-0.199107462676,0.221363772681
1588856536078828607,839,1588856536078705865,,0.502898198329,-0.199080834532,0.221344728832
1588856536081812366,840,1588856536081677148,,0.502897131362,-0.199054801283,0.221325797652
1588856536084858063,841,1588856536084677927,,0.502895973289,-0.199028279956,0.22130584343
1588856536090852757,842,1588856536090663351,,0.502894582741,-0.198998730706,0.221285864595
1588856536093763409,843,1588856536093652895,,0.502894345592,-0.198968744381,0.221268172631
1588856536096860983,844,1588856536096670146,,0.502893120276,-0.19893838747,0.221246735687
1588856536102717489,845,1588856536102549492,,0.502892036052,-0.198907895306,0.221226568866
1588856536108901369,846,1588856536108696239,,0.50288889953,-0.198849741,0.22118463159
1588856536117896613,847,1588856536117707197,,0.502887504,-0.198817137949,0.221162645603
1588856536120902878,848,1588856536120673023,,0.502886947606,-0.198785817746,0.221142875384
1588856536123779480,849,1588856536123659472,,0.502885520849,-0.198751679333,0.221120714776
1588856536126818487,850,1588856536126672257,,0.502882576781,-0.198718484818,0.221095350288
1588856536129928434,851,1588856536129769848,,0.502880929515,-0.198687980786,0.22107443645
1588856536132786801,852,1588856536132653931,,0.502880459764,-0.198659519372,0.221054885212
1588856536138791189,853,1588856536138670064,,0.502879331787,-0.198625731989,0.221032628048
1588856536141805014,854,1588856536141702321,,0.502877229696,-0.198588171455,0.22100782454
1588856536144831425,855,1588856536144657424,,0.502876317652,-0.198558890888,0.220986453189
1588856536150828208,856,1588856536150643005,,0.502874056812,-0.19852746282,0.220963781349
1588856536153744237,857,1588856536153618839,,0.502871001356,-0.198492489618,0.220938901985
1588856536159848136,858,1588856536159688349,,0.502869286986,-0.198456358466,0.220914662051
1588856536162876827,859,1588856536162721450,,0.502868287496,-0.198420897969,0.220891962828
1588856536165896145,860,1588856536165765649,,0.502865902948,-0.198386408723,0.220867664749
1588856536171797677,861,1588856536171692625,,0.502862895146,-0.198352504425,0.220842658149
1588856536174819186,862,1588856536174655991,,0.502860308209,-0.198316332452,0.2208168739
1588856536177804138,863,1588856536177678985,,0.502858048899,-0.198278688114,0.220789780085
1588856536183804912,864,1588856536183705955,,0.502855502141,-0.198239438503,0.220761971624
1588856536186869115,865,1588856536186712896,,0.502852290783,-0.198198997049,0.220734104381
1588856536189945127,866,1588856536189696273,,0.50285036153,-0.198158909818,0.220707310998
1588856536195823939,867,1588856536195617472,,0.502848879785,-0.198115635326,0.220678178077
1588856536198770395,868,1588856536198627487,,0.502846597369,-0.198073201417,0.22065023989
1588856536201908565,869,1588856536201708506,,0.502843890909,-0.198029482227,0.220620119382
1588856536207800134,870,1588856536207650591,,0.502842706796,-0.197981169255,0.220589405282
1588856536210824597,871,1588856536210682222,,0.502840854343,-0.197933562692,0.220558649304
1588856536213739703,872,1588856536213645843,,0.502839344563,-0.197889236378,0.220530058977
1588856536219840792,873,1588856536219685166,,0.502836715792,-0.197840853819,0.220496854772
1588856536222864544,874,1588856536222681730,,0.502833932338,-0.197791698372,0.220464108075
1588856536225784662,875,1588856536225671388,,0.502833294013,-0.197742323612,0.220433647011
1588856536231825009,876,1588856536231687922,,0.502830916292,-0.197690132764,0.220398715389
1588856536234767335,877,1588856536234619129,,0.502828591027,-0.197639552592,0.220365909448
1588856536237715324,878,1588856536237624966,,0.50282628053,-0.19758846308,0.220331857169
1588856536243827419,879,1588856536243730628,,0.502824220366,-0.197538215749,0.220298640812
1588856536246828948,880,1588856536246673031,,0.502822540049,-0.197487637846,0.220265914224
1588856536249770166,881,1588856536249648542,,0.502820437655,-0.197435105182,0.220232073982
1588856536255832233,882,1588856536255671417,,0.502817471649,-0.197386737401,0.220198974955
1588856536258801041,883,1588856536258669744,,0.502816614698,-0.197334877499,0.220166468037
1588856536261822964,884,1588856536261676349,,0.502813440097,-0.197285109058,0.220133245538
1588856536268165280,885,1588856536268024534,,0.502810548504,-0.197235060255,0.220098442436
1588856536270769982,886,1588856536270643840,,0.502809954159,-0.197184962335,0.220065833514
1588856536273757816,887,1588856536273633078,,0.502808459655,-0.197130917396,0.220031502552
1588856536279776496,888,1588856536279674501,,0.50280541667,-0.197082362279,0.21999622772
1588856536282843443,889,1588856536282708089,,0.502805217038,-0.197026475085,0.219962122409
1588856536288852183,890,1588856536288727142,,0.502801831482,-0.196970898815,0.219922552167
1588856536291816791,891,1588856536291660025,,0.502799115794,-0.196913105543,0.219883929895
1588856536294818182,892,1588856536294703004,,0.502797397428,-0.196857533764,0.219846099546
1588856536297865457,893,1588856536297668255,,0.502795471734,-0.196798677003,0.219806349615
1588856536303771431,894,1588856536303649005,,0.502792783101,-0.196739507888,0.219766195845
1588856536306779759,895,1588856536306638569,,0.502790780464,-0.196678320052,0.219725217449
1588856536312726702,896,1588856536312631559,,0.502789393096,-0.196616288017,0.219683909708
1588856536318827357,897,1588856536318662859,,0.502787611276,-0.196556333819,0.2196452156
1588856536321831328,898,1588856536321674748,,0.502786563478,-0.196493863204,0.219603484627
1588856536324820562,899,1588856536324721255,,0.502783710374,-0.196436272958,0.219561888466
1588856536328011919,900,1588856536327777801,,0.502784566263,-0.19637564062,0.219523403963
1588856536333822502,901,1588856536333702655,,0.50278542881,-0.196312511722,0.219482413528
1588856536336829412,902,1588856536336711529,,0.502783287188,-0.196252176157,0.219436576755
1588856536339779286,903,1588856536339679136,,0.502782918806,-0.196197212927,0.219393914635
1588856536342774964,904,1588856536342610622,,0.502782870166,-0.196134693484,0.219349713138
1588856536348762486,905,1588856536348624277,,0.502782634134,-0.196078811037,0.219304933167
1588856536351788442,906,1588856536351643238,,0.502780982249,-0.196022139338,0.219258145722
1588856536357848112,907,1588856536357649071,,0.502780050963,-0.195963160601,0.219211298285
1588856536360835716,908,1588856536360692595,,0.502777971503,-0.195909277291,0.219162240857
1588856536364245899,909,1588856536364125485,,0.50277622843,-0.195851190728,0.219112641227
1588856536367209216,910,1588856536367064566,,0.502776366904,-0.195797840343,0.219066582631
1588856536372797975,911,1588856536372694753,,0.502774819491,-0.195742326395,0.219017791253
1588856536375737366,912,1588856536375625681,,0.502772336202,-0.195683381613,0.218968017311
1588856536381838272,913,1588856536381706209,,0.502771984894,-0.195622493695,0.218918380985
1588856536384771144,914,1588856536384644124,,0.502770908452,-0.195561225539,0.21886780059
1588856536387837419,915,1588856536387679581,,0.502769191414,-0.195500221912,0.218815484981
1588856536390899470,916,1588856536390698322,,0.502768147478,-0.19543435411,0.218764206536
1588856536396781324,917,1588856536396654179,,0.502767840552,-0.195370209329,0.218713277759
1588856536399837817,918,1588856536399683473,,0.502767967857,-0.195301461501,0.218662584201
1588856536405882414,919,1588856536405757729,,0.502767945488,-0.195231275507,0.218610572089
1588856536408838903,920,1588856536408715562,,0.502768756047,-0.195162634376,0.218560359676
1588856536414827502,921,1588856536414718277,,0.502768765135,-0.195093191786,0.218510555875
1588856536417778784,922,1588856536417644295,,0.502769233545,-0.195023174598,0.218459129464
1588856536420752689,923,1588856536420658506,,0.502768316312,-0.194955077707,0.218406435078
1588856536423768346,924,1588856536423683949,,0.502769380073,-0.194882303852,0.218355131764
1588856536429932973,925,1588856536429778210,,0.502769258381,-0.194816469557,0.218304159786
1588856536432835551,926,1588856536432701974,,0.502769044708,-0.194749639401,0.218252460984
1588856536435829843,927,1588856536435698111,,0.502768445645,-0.194680357649,0.218199267888
1588856536441915575,928,1588856536441727144,,0.502767018795,-0.194614939472,0.218145864841
1588856536444857441,929,1588856536444717480,,0.502766842101,-0.19454967562,0.218091346701
1588856536447894579,930,1588856536447759990,,0.502763376722,-0.194487541196,0.21803747251
1588856536453854595,931,1588856536453741555,,0.502763050042,-0.194421505553,0.217988731079
1588856536456831956,932,1588856536456704453,,0.502759286179,-0.194358954656,0.217936006471
1588856536459840818,933,1588856536459729925,,0.502756937568,-0.1942958236,0.217880854007
1588856536465929744,934,1588856536465845588,,0.502755303889,-0.194234407998,0.217831110722
1588856536468854260,935,1588856536468697327,,0.502753580705,-0.194171499687,0.217779563871
1588856536471872770,936,1588856536471719405,,0.502752083293,-0.194107500521,0.217726144419
1588856536477917815,937,1588856536477741798,,0.502753116439,-0.194043164978,0.217677410918
1588856536480828094,938,1588856536480690766,,0.502750947909,-0.193976116302,0.217623956637
1588856536483918675,939,1588856536483731885,,0.502751967529,-0.193908262068,0.217576153534
1588856536489795078,940,1588856536489660234,,0.502750480601,-0.19383901805,0.217525085249
1588856536492812331,941,1588856536492661212,,0.502751214216,-0.19376797372,0.217476065787
1588856536495841536,942,1588856536495677179,,0.502750673472,-0.193695769094,0.21742277158
1588856536501810174,943,1588856536501669020,,0.502751250548,-0.193622873959,0.217370226344
1588856536504867048,944,1588856536504700120,,0.502752209193,-0.193550586715,0.217316888656
1588856536507783618,945,1588856536507699239,,0.502753160903,-0.193472777839,0.21726328137
1588856536513894815,946,1588856536513687333,,0.502753655483,-0.193398026963,0.217206846756
1588856536516825825,947,1588856536516705429,,0.502753148974,-0.193321282395,0.217151285828
1588856536519908696,948,1588856536519761335,,0.502753019567,-0.193244274392,0.217094883395
1588856536525956860,949,1588856536525847833,,0.502753238223,-0.193168124717,0.217036777627
1588856536528843137,950,1588856536528700755,,0.502752150212,-0.193092302337,0.216980574997
1588856536531894354,951,1588856536531735934,,0.502751431886,-0.193016021153,0.216923985673
1588856536537853953,952,1588856536537729721,,0.50275218678,-0.192940979153,0.216869368913
1588856536540799255,953,1588856536540693308,,0.502749842973,-0.192871267386,0.216815323002
1588856536543814299,954,1588856536543689764,,0.502749309936,-0.192794343305,0.216758415105
1588856536549857629,955,1588856536549768222,,0.502749752383,-0.192722755501,0.216707159837
1588856536552811335,956,1588856536552708931,,0.502747498529,-0.192651135349,0.216650788968
1588856536559040844,957,1588856536558742388,,0.502746297975,-0.192577968929,0.216597260374
1588856536561853526,958,1588856536561712256,,0.502747196896,-0.192503060761,0.216546269679
1588856536565117644,959,1588856536564972770,,0.502744378326,-0.192433361731,0.216492168745
1588856536570919877,960,1588856536570689443,,0.502744408034,-0.192359146696,0.216440852087
1588856536573815983,961,1588856536573691796,,0.502744960169,-0.192282023014,0.216390182192
1588856536576818718,962,1588856536576685474,,0.50274499798,-0.192204170362,0.216337635131
1588856536582854663,963,1588856536582715766,,0.502744233525,-0.192128437501,0.216284723323
1588856536585807975,964,1588856536585720207,,0.502745868562,-0.192047623714,0.216232003891
1588856536588878103,965,1588856536588756457,,0.502746076786,-0.191967290964,0.216180811933
1588856536594935284,966,1588856536594786365,,0.502747898158,-0.19188622472,0.216130623816
1588856536597789331,967,1588856536597687903,,0.5027487674,-0.19180685011,0.216079596714
1588856536600799013,968,1588856536600684060,,0.502750608777,-0.191724875675,0.216028644345
1588856536606798784,969,1588856536606685000,,0.50275042453,-0.191643407135,0.215977878781
1588856536609781444,970,1588856536609694877,,0.502752515019,-0.191563302821,0.215928359841
1588856536612874815,971,1588856536612750195,,0.502753132166,-0.191484936157,0.215879044596
1588856536618809283,972,1588856536618715940,,0.502753462633,-0.191405488297,0.215828684541
1588856536621859974,973,1588856536621739653,,0.502754941145,-0.191322148433,0.215778111539
1588856536624884596,974,1588856536624710759,,0.502754372928,-0.19124326957,0.215728345546
1588856536630802138,975,1588856536630672139,,0.50275543225,-0.191163256398,0.215680805411
1588856536633807281,976,1588856536633662630,,0.502755037971,-0.191083859556,0.215632596768
1588856536636902005,977,1588856536636689947,,0.502755016724,-0.191004610476,0.215584499342
1588856536642868908,978,1588856536642695027,,0.502755612537,-0.190923828922,0.215537850077
1588856536645942872,979,1588856536645773944,,0.502754610126,-0.190841135357,0.215488223843
1588856536651934264,980,1588856536651766101,,0.502754280803,-0.190761933964,0.215442520633
1588856536654817731,981,1588856536654703154,,0.50275426671,-0.190678620842,0.21539528806
1588856536657854491,982,1588856536657726596,,0.502754826995,-0.190593498386,0.215350044113
1588856536660832605,983,1588856536660715933,,0.502753206016,-0.190510344461,0.215301179638
1588856536667159025,984,1588856536667019591,,0.502754454019,-0.190425926347,0.215254531931
1588856536669825005,985,1588856536669714888,,0.502756350231,-0.190340784291,0.21520911371
1588856536675811360,986,1588856536675666608,,0.502755321157,-0.190250211838,0.215159034064
1588856536678992348,987,1588856536678739305,,0.502757162434,-0.190164643833,0.215114534551
1588856536681776658,988,1588856536681691684,,0.502757006072,-0.190075728083,0.215065806319
1588856536684840652,989,1588856536684718498,,0.502758350313,-0.189988252426,0.21501872097
1588856536690847728,990,1588856536690720306,,0.502759387185,-0.18989823932,0.214970054155
1588856536693850376,991,1588856536693725528,,0.502759815562,-0.189808520984,0.214925029686
1588856536699899914,992,1588856536699775131,,0.502759708913,-0.189720842762,0.21487801346
1588856536702881979,993,1588856536702783052,,0.502762692118,-0.189625136738,0.214835378084
1588856536705851958,994,1588856536705742010,,0.502764195194,-0.189534660282,0.214794585945
1588856536714937485,995,1588856536714797899,,0.502765122446,-0.18944360865,0.214753057967
1588856536717844092,996,1588856536717739849,,0.502766898213,-0.189353476045,0.214713606229
1588856536720887675,997,1588856536720759601,,0.502768469098,-0.189263352099,0.214674364325
1588856536723931953,998,1588856536723740787,,0.502770191301,-0.189173621559,0.214635799466
1588856536726820603,999,1588856536726735833,,0.502771629856,-0.189080388731,0.214596367623
1588856536729819415,1000,1588856536729735618,,0.502772607055,-0.188993408122,0.21455940339
1588856536739069465,1001,1588856536738768671,,0.502774952735,-0.188901403774,0.214522003493
1588856536741845085,1002,1588856536741742061,,0.502777143659,-0.188811272724,0.214483659839
1588856536744840184,1003,1588856536744724533,,0.502777643931,-0.188724703973,0.214446414547
1588856536747845524,1004,1588856536747739756,,0.50278065276,-0.188633364212,0.214410437167
1588856536750915189,1005,1588856536750774718,,0.502780168406,-0.188546159304,0.214369099138
1588856536753872778,1006,1588856536753773293,,0.502781157938,-0.188456684654,0.214330484021
1588856536759848947,1007,1588856536759742876,,0.502783537455,-0.188364887041,0.214292721598
1588856536762880090,1008,1588856536762733937,,0.502784281398,-0.188274685793,0.214253865548
1588856536768905341,1009,1588856536768723858,,0.502786699375,-0.18817879897,0.21421630648
1588856536771893327,1010,1588856536771765304,,0.502786908518,-0.188088550175,0.214179539019
1588856536774866498,1011,1588856536774736198,,0.502789409745,-0.187993631411,0.214146341429
1588856536778043680,1012,1588856536777853888,,0.502791828949,-0.18789774379,0.214110006575
1588856536783956362,1013,1588856536783805995,,0.502793776799,-0.187804921791,0.214075194329
1588856536786941177,1014,1588856536786803526,,0.502798001668,-0.187704583897,0.214044190156
1588856536792936399,1015,1588856536792786250,,0.502800888485,-0.187609893871,0.214012920049
1588856536796031108,1016,1588856536795831174,,0.502804844293,-0.187512631206,0.21398133195
1588856536799060991,1017,1588856536798950872,,0.502807899121,-0.187416296251,0.213952713856
1588856536801899444,1018,1588856536801772471,,0.502810840566,-0.187317436271,0.213919462621
1588856536807945368,1019,1588856536807746847,,0.502813359322,-0.187221439294,0.213886898235
1588856536810878623,1020,1588856536810756327,,0.502816684034,-0.187121881444,0.213854519047
1588856536816930631,1021,1588856536816741060,,0.50281833898,-0.187024620433,0.213818449141
1588856536819911722,1022,1588856536819783819,,0.502821266563,-0.186927872281,0.213783744312
1588856536822884927,1023,1588856536822776867,,0.502823273128,-0.186831027672,0.213745455557
1588856536828992849,1024,1588856536828767689,,0.502825206636,-0.186734644526,0.213706227192
1588856536831935906,1025,1588856536831759321,,0.502829691446,-0.18663524947,0.213668373613
1588856536834808006,1026,1588856536834707875,,0.502833583252,-0.186538989055,0.213629050133
1588856536840952387,1027,1588856536840801208,,0.502837121424,-0.186441058498,0.213588292668
1588856536843976461,1028,1588856536843791997,,0.502841933155,-0.186344034676,0.213549800713
1588856536846943756,1029,1588856536846797653,,0.502848419861,-0.186243782715,0.213515281881
1588856536852858009,1030,1588856536852745350,,0.502852270378,-0.186150382252,0.213479243119
1588856536856000703,1031,1588856536855764159,,0.502859281243,-0.186052871751,0.213445315442
1588856536858846225,1032,1588856536858748478,,0.502866464992,-0.185954516887,0.213412390452
1588856536865134622,1033,1588856536864988290,,0.502870833838,-0.185859878442,0.213377029348
1588856536868147966,1034,1588856536868060919,,0.502879973857,-0.185762896218,0.213347127149
1588856536870797146,1035,1588856536870698176,,0.502887209513,-0.185663965257,0.213314351006
1588856536876985426,1036,1588856536876795362,,0.502892031667,-0.185567389382,0.213276877278
1588856536879934409,1037,1588856536879772439,,0.502898647361,-0.185473918891,0.213244031831
1588856536882830296,1038,1588856536882729873,,0.50290505824,-0.185378838266,0.213209744206
1588856536888916322,1039,1588856536888738913,,0.502909416066,-0.185283132208,0.213173181252
1588856536892013133,1040,1588856536891780719,,0.50291396088,-0.185189797248,0.2131381874
1588856536894947362,1041,1588856536894810363,,0.502918178011,-0.185095005309,0.213104426517
1588856536903942332,1042,1588856536903820795,,0.502921066765,-0.185005602161,0.21306872944
1588856536906903789,1043,1588856536906758205,,0.502926052857,-0.184911796192,0.213035138948
1588856536909922165,1044,1588856536909811825,,0.50292921729,-0.184820128155,0.212999921808
1588856536912902143,1045,1588856536912798669,,0.50293303252,-0.184730120185,0.212967200088
1588856536921930561,1046,1588856536921758732,,0.502941122894,-0.184551002641,0.212903832538
1588856536924936133,1047,1588856536924765097,,0.502946144937,-0.184460463132,0.212872386101
1588856536927924669,1048,1588856536927762770,,0.502949240458,-0.18437267359,0.212839343328
1588856536934028782,1049,1588856536933865829,,0.502951648065,-0.184282994082,0.212807153553
1588856536936906713,1050,1588856536936752438,,0.502955920205,-0.184197468324,0.212778441416
1588856536946026367,1051,1588856536945928092,,0.502957421005,-0.184111985671,0.212747139906
1588856536948950195,1052,1588856536948800359,,0.502958848531,-0.184031060618,0.212714772596
1588856536951942738,1053,1588856536951792977,,0.502961319299,-0.183966155537,0.212689758802
1588856536954932584,1054,1588856536954794794,,0.502963239548,-0.183883206911,0.212658005998
1588856536957962331,1055,1588856536957844495,,0.50296454655,-0.183793077152,0.212623687777
1588856536960937122,1056,1588856536960795836,,0.502965498517,-0.183730569215,0.212597909092
1588856536964387014,1057,1588856536964251754,,0.502967550821,-0.183655657871,0.212570431577
1588856536969935681,1058,1588856536969786379,,0.502970286458,-0.18357080222,0.212541366849
1588856536972929246,1059,1588856536972830738,,0.50297177031,-0.183497594093,0.212512620674
1588856536975976933,1060,1588856536975810303,,0.502973973322,-0.183425671509,0.212484943418
1588856536982005436,1061,1588856536981815614,,0.502977772378,-0.183354779811,0.212458399257
1588856536987926175,1062,1588856536987817254,,0.502980220622,-0.183287746262,0.212431789627
1588856536990927657,1063,1588856536990806676,,0.502985982882,-0.183210523208,0.212404251234
1588856536993948979,1064,1588856536993805540,,0.502990806248,-0.183139636837,0.212374797623
1588856536996913316,1065,1588856536996776337,,0.502995479391,-0.183065701051,0.21234566995
1588856536999858188,1066,1588856536999716735,,0.503000163253,-0.182986763542,0.212311551435
1588856537006017206,1067,1588856537005852314,,0.503005291809,-0.182909695278,0.212281608392
1588856537008919459,1068,1588856537008808429,,0.503010394918,-0.18283178682,0.212248703344
1588856537014953807,1069,1588856537014857933,,0.503016252422,-0.182750806952,0.2122169518
1588856537018009578,1070,1588856537017829901,,0.50302213432,-0.182671294405,0.212185793101
1588856537021057478,1071,1588856537020857376,,0.503028260159,-0.1825935443,0.212154654966
1588856537030122957,1072,1588856537029914569,,0.503033210423,-0.182513898348,0.212120695004
1588856537032961496,1073,1588856537032844136,,0.503040003143,-0.182435056255,0.212089260848
1588856537035932134,1074,1588856537035815400,,0.503046123772,-0.182359316677,0.212057670001
1588856537042095312,1075,1588856537041905883,,0.503059835839,-0.182203242621,0.21199354271
1588856537045050750,1076,1588856537044944235,,0.503065675588,-0.182128944739,0.21196172678
1588856537047859700,1077,1588856537047762115,,0.503071492944,-0.182050521194,0.211928624377
1588856537053977884,1078,1588856537053848314,,0.503076216691,-0.181975119401,0.211890612152
1588856537056940651,1079,1588856537056801057,,0.503083473601,-0.181900912145,0.211854319013
1588856537063035462,1080,1588856537062845077,,0.503089996211,-0.181828032534,0.211809844361
1588856537066258025,1081,1588856537066154052,,0.503094383359,-0.181762165074,0.211765367633
1588856537069002437,1082,1588856537068857983,,0.503100095077,-0.181702638557,0.211733567365
1588856537075026256,1083,1588856537074844281,,0.503107156081,-0.181634173435,0.211695624219
1588856537077940006,1084,1588856537077826953,,0.503110243899,-0.181563743566,0.211651048568
1588856537081027575,1085,1588856537080868029,,0.503113379129,-0.181510756113,0.211615631495
1588856537087003845,1086,1588856537086823415,,0.503118150344,-0.181444351837,0.211576813148
1588856537089897460,1087,1588856537089768442,,0.50312359568,-0.181376058658,0.211537026345
1588856537093002207,1088,1588856537092811983,,0.503127910489,-0.181316810259,0.211499359565
1588856537101981508,1089,1588856537101813955,,0.503137039588,-0.181203512647,0.211422449091
1588856537108055841,1090,1588856537107881682,,0.503141812172,-0.181148291014,0.211385496069
1588856537110998536,1091,1588856537110882649,,0.503146779952,-0.181087186571,0.211349397625
1588856537113938310,1092,1588856537113844483,,0.503151642791,-0.181027943702,0.21131178898
1588856537117022426,1093,1588856537116872588,,0.503156166468,-0.180971998182,0.211271650831
1588856537122906500,1094,1588856537122782409,,0.503161346464,-0.180909761045,0.2112301627
1588856537126010318,1095,1588856537125908157,,0.503165353143,-0.180853422432,0.211187272622
1588856537132013851,1096,1588856537131882713,,0.503169973779,-0.18080337498,0.211149648509
1588856537135021575,1097,1588856537134862413,,0.503174251532,-0.180743333415,0.211108845142
1588856537137934309,1098,1588856537137833967,,0.503178955083,-0.180677280481,0.211064418357
1588856537140931697,1099,1588856537140782978,,0.503180898275,-0.180629372746,0.211025544084
1588856537146961392,1100,1588856537146791999,,0.503184743848,-0.180570430167,0.21098622966
1588856537149890774,1101,1588856537149794518,,0.503187905539,-0.180510710453,0.210946362937
1588856537156005375,1102,1588856537155848122,,0.503189884768,-0.180459916103,0.210908157885
1588856537162039360,1103,1588856537161862965,,0.503194350305,-0.180359618039,0.210832055022
1588856537165257148,1104,1588856537165133322,,0.503197261892,-0.180314153184,0.210797384469
1588856537171008195,1105,1588856537170790039,,0.503199208665,-0.180271322563,0.210761701914
1588856537173877065,1106,1588856537173781164,,0.503201712979,-0.180220318478,0.210726644692
1588856537180067980,1107,1588856537179813040,,0.503202615696,-0.180178911288,0.210688758222
1588856537182996938,1108,1588856537182818293,,0.50320472235,-0.180133827402,0.210655952921
1588856537185951601,1109,1588856537185800842,,0.503205550583,-0.180090224033,0.210618707028
1588856537189014190,1110,1588856537188938118,,0.503206999568,-0.18005859917,0.21058824275
1588856537195066012,1111,1588856537194933425,,0.503209462721,-0.180013452214,0.210554245542
1588856537198025517,1112,1588856537197889051,,0.50321040206,-0.17997104879,0.210513493754
1588856537203958038,1113,1588856537203802396,,0.503212376168,-0.179930450573,0.210482944646
1588856537206981938,1114,1588856537206897087,,0.503214130457,-0.179884442138,0.210446560247
1588856537209960383,1115,1588856537209799232,,0.503215918722,-0.179839267556,0.210410549976
1588856537216066300,1116,1588856537215865402,,0.50321780261,-0.179794217166,0.210375943547
1588856537221981502,1117,1588856537221840177,,0.50322292903,-0.179708230108,0.21031170259
1588856537227965481,1118,1588856537227854649,,0.503224465623,-0.179666558894,0.21027848824
1588856537230956576,1119,1588856537230823394,,0.503226641599,-0.179622127103,0.210244127394
1588856537233997709,1120,1588856537233880118,,0.503229395518,-0.179581622469,0.21021324811
1588856537239904984,1121,1588856537239791649,,0.503232684234,-0.179536918653,0.210181931795
1588856537242931166,1122,1588856537242796183,,0.503235399649,-0.17949405564,0.210149935393
1588856537246102869,1123,1588856537245970939,,0.503237513765,-0.179452362831,0.210116367525
1588856537251962265,1124,1588856537251834515,,0.503241335084,-0.179409388231,0.210086341667
1588856537254954404,1125,1588856537254853077,,0.503244583939,-0.179370971366,0.21005772384
1588856537257962437,1126,1588856537257838085,,0.50324690296,-0.179334769227,0.210026339764
1588856537264396968,1127,1588856537264285381,,0.50324839333,-0.179295441026,0.209993807938
1588856537267251561,1128,1588856537267160746,,0.503251252359,-0.179255820819,0.209961020915
1588856537269974178,1129,1588856537269832523,,0.503253063953,-0.179218743289,0.209930428922
1588856537275957685,1130,1588856537275826429,,0.503255127942,-0.179186714155,0.209899984827
1588856537282046223,1131,1588856537281901988,,0.503261142262,-0.179110768747,0.209841606275
1588856537288053049,1132,1588856537287855121,,0.503263807369,-0.179076347576,0.209809650963
1588856537291106769,1133,1588856537290883142,,0.503265400455,-0.179042540741,0.209778410934
1588856537293974300,1134,1588856537293867136,,0.503266903806,-0.179007282505,0.209749006176
1588856537300037418,1135,1588856537299919663,,0.503269883988,-0.178972011454,0.209721831577
1588856537303000002,1136,1588856537302889822,,0.503271243106,-0.178940540187,0.209695341655
1588856537306075940,1137,1588856537305974347,,0.503272953174,-0.178914254218,0.209672141126
1588856537314972223,1138,1588856537314871739,,0.503275730606,-0.17888122021,0.20964711578
1588856537317985570,1139,1588856537317838825,,0.503278298861,-0.178849352907,0.209620650203
1588856537321010548,1140,1588856537320881284,,0.50328126096,-0.178821533678,0.209600763579
1588856537324046636,1141,1588856537323935779,,0.503282853305,-0.178795327633,0.209578257528
1588856537327005355,1142,1588856537326879140,,0.503285786947,-0.178764462354,0.209555111023
1588856537329978751,1143,1588856537329868547,,0.503287751453,-0.178739700919,0.209533753483
1588856537336095575,1144,1588856537335914164,,0.503289533004,-0.178714437434,0.209512763395
1588856537344991424,1145,1588856537344873951,,0.50329391434,-0.178664071777,0.209475428482
1588856537347969917,1146,1588856537347828405,,0.503295314476,-0.178643586491,0.209454589098
1588856537350995327,1147,1588856537350819449,,0.503296941977,-0.178622521119,0.209433401265
1588856537356987811,1148,1588856537356850727,,0.50329942047,-0.178599372145,0.209411476473
1588856537359990165,1149,1588856537359859261,,0.503302674485,-0.178576269336,0.209392598149
1588856537362966528,1150,1588856537362837374,,0.503304963864,-0.17855677104,0.209371140206
1588856537369016460,1151,1588856537368837882,,0.503307118996,-0.17853955714,0.209353450144
1588856537372023692,1152,1588856537371857249,,0.503309530207,-0.178520444549,0.209337869186
1588856537375009927,1153,1588856537374846790,,0.50331359099,-0.178497239059,0.209317214029
1588856537381044497,1154,1588856537380918310,,0.503316514461,-0.178478900023,0.209302703082
1588856537384115071,1155,1588856537383959349,,0.503319342281,-0.178459326203,0.209286625351
1588856537387148571,1156,1588856537386994616,,0.50332383164,-0.178437821409,0.209269011398
1588856537392968763,1157,1588856537392829901,,0.503328109621,-0.178417966517,0.209254134533
1588856537395932584,1158,1588856537395827586,,0.503331583195,-0.178400084498,0.209238929174
1588856537405068162,1159,1588856537404895491,,0.503339429076,-0.178367572892,0.209210085235
1588856537408059861,1160,1588856537407934990,,0.503341601973,-0.178352702327,0.209195148088
1588856537411040959,1161,1588856537410892504,,0.503344921737,-0.178339155485,0.209180201905
1588856537417097648,1162,1588856537416966602,,0.503348317343,-0.178327017163,0.209165024407
1588856537420095516,1163,1588856537419920086,,0.503352660576,-0.178312814831,0.209150256545
1588856537423034647,1164,1588856537422940778,,0.503356239347,-0.178300492534,0.209134978637
1588856537428948633,1165,1588856537428830186,,0.503359577927,-0.178290382535,0.209122110679
1588856537432013536,1166,1588856537431842450,,0.503362340345,-0.178278426518,0.209110886387
1588856537434958608,1167,1588856537434840436,,0.503366006789,-0.178268019283,0.209096294332
1588856537440958894,1168,1588856537440836871,,0.503368570651,-0.178256450548,0.209082410091
1588856537444007038,1169,1588856537443855210,,0.503372031572,-0.178245761031,0.209073207074
1588856537450020501,1170,1588856537449893624,,0.503375240759,-0.178235542638,0.209058593273
1588856537452985663,1171,1588856537452869477,,0.503378679762,-0.178223256453,0.209047546285
1588856537456050007,1172,1588856537455842683,,0.503383125737,-0.178210259673,0.209039094731
1588856537465277417,1173,1588856537465140527,,0.503389496387,-0.178194103489,0.209018488513
1588856537468316907,1174,1588856537468206161,,0.503392024097,-0.178185928677,0.209008076163
1588856537474025518,1175,1588856537473875265,,0.503395685425,-0.178175259038,0.208998015381
1588856537477041000,1176,1588856537476879667,,0.503398463393,-0.178168038809,0.208986725841
1588856537480058234,1177,1588856537479865119,,0.503401849536,-0.178159501741,0.208976467869
1588856537486160587,1178,1588856537486049156,,0.503405493703,-0.178149356065,0.208966676298
1588856537488957080,1179,1588856537488859788,,0.503408503586,-0.178141929507,0.208958974598
1588856537494957798,1180,1588856537494850199,,0.50341117437,-0.178135432688,0.208950256932
1588856537498055703,1181,1588856537497930638,,0.503414639609,-0.178127528102,0.208941334046
1588856537501041850,1182,1588856537500901779,,0.503417316374,-0.178122030666,0.208932670126
1588856537504112494,1183,1588856537503969854,,0.503420424295,-0.178115381392,0.208923763527
1588856537510018198,1184,1588856537509918224,,0.50342302953,-0.178109206842,0.208914633633
1588856537512994446,1185,1588856537512900005,,0.503426590333,-0.17810172193,0.208907131111
1588856537522054788,1186,1588856537521856418,,0.503431017067,-0.178091746548,0.208893213896
1588856537524942935,1187,1588856537524857059,,0.503433259153,-0.178085739455,0.208886611458
1588856537527989630,1188,1588856537527897788,,0.503434844998,-0.178081990455,0.208877931185
1588856537533972956,1189,1588856537533875681,,0.503437534935,-0.178076886988,0.208870731261
1588856537536958569,1190,1588856537536866546,,0.503439277346,-0.178074025209,0.208862588513
1588856537542950312,1191,1588856537542875610,,0.503441351316,-0.178068625556,0.20885600206
1588856537546118687,1192,1588856537546041089,,0.50344365897,-0.178066160276,0.208850046136
1588856537548988173,1193,1588856537548881231,,0.503445468616,-0.178061282126,0.208844037758
1588856537552022749,1194,1588856537551912252,,0.503447007972,-0.178059521444,0.208837942728
1588856537558010792,1195,1588856537557913444,,0.503449307534,-0.178056405123,0.208830972381
1588856537561049473,1196,1588856537560941784,,0.503451289661,-0.178053991453,0.208825882524
1588856537567471937,1197,1588856537567265960,,0.503452862874,-0.178051331609,0.208819295016
1588856537570004694,1198,1588856537569896154,,0.503454936618,-0.17804858336,0.208813081489
1588856537573024283,1199,1588856537572910580,,0.503456590768,-0.178046749221,0.208808104965
1588856537582037861,1200,1588856537581910910,,0.503460224715,-0.178044414244,0.208797250359
1588856537584989429,1201,1588856537584889251,,0.503461625418,-0.178044136354,0.208791757503
1588856537591054283,1202,1588856537590881887,,0.503463208542,-0.178044510406,0.208785409159
1588856537594099689,1203,1588856537593846172,,0.503464882314,-0.178044097485,0.208781074133
1588856537596993196,1204,1588856537596884911,,0.503467020088,-0.178042537867,0.20877703021
1588856537603000178,1205,1588856537602855254,,0.503468941717,-0.178042200936,0.20877325228
1588856537606132975,1206,1588856537606009470,,0.503470178575,-0.178042353324,0.208767250783
1588856537608985923,1207,1588856537608904001,,0.503472054078,-0.178042367782,0.208763547869
1588856537618132605,1208,1588856537617948357,,0.503474258456,-0.178044038035,0.208759354454
1588856537621059444,1209,1588856537620887524,,0.503476644114,-0.178043187353,0.208756866076
1588856537624019470,1210,1588856537623890763,,0.503478143264,-0.178043981824,0.208753310051
1588856537627136008,1211,1588856537626890791,,0.503480196008,-0.178045296554,0.208751392397
1588856537629968230,1212,1588856537629849235,,0.503482199007,-0.178045467629,0.208749099682
1588856537633150402,1213,1588856537633030577,,0.503485750622,-0.178047063668,0.208749199851
1588856537639279467,1214,1588856537639161521,,0.503488216894,-0.178048698499,0.208747077879
1588856537642107388,1215,1588856537641910913,,0.503491025827,-0.17804940679,0.20874625415
1588856537645078327,1216,1588856537644937444,,0.503494044287,-0.178051853794,0.208746587447
1588856537651092781,1217,1588856537650921019,,0.503497213211,-0.178053981329,0.208746966688
1588856537654108189,1218,1588856537653889052,,0.503500632521,-0.178055849974,0.208746260715
1588856537657007025,1219,1588856537656873506,,0.503503417655,-0.178057297547,0.208746721933
1588856537664491241,1220,1588856537664310116,,0.503505681737,-0.178058407584,0.208745817645
1588856537666281982,1221,1588856537666134377,,0.503508302227,-0.178059868458,0.208745933107
1588856537669362186,1222,1588856537669251394,,0.503510780577,-0.178062562427,0.208746389376
1588856537675002822,1223,1588856537674881291,,0.503513276524,-0.178064292778,0.208747114823
1588856537678036417,1224,1588856537677922889,,0.503515502805,-0.178066068494,0.208747450707
1588856537681065403,1225,1588856537680905262,,0.503517768074,-0.178068761675,0.208747667447
1588856537687072873,1226,1588856537686926070,,0.503520548054,-0.178070705681,0.208749764047
1588856537690021911,1227,1588856537689881609,,0.503522640378,-0.178072559249,0.20874872422
1588856537692993917,1228,1588856537692833566,,0.503525055815,-0.178074914397,0.20875093496
1588856537698943444,1229,1588856537698848527,,0.503527809418,-0.178076613752,0.208752251661
1588856537701940485,1230,1588856537701848709,,0.503529521204,-0.178078342365,0.208752086577
1588856537705016763,1231,1588856537704857952,,0.503531964649,-0.178081680876,0.20875275782
1588856537711002925,1232,1588856537710874123,,0.503534211127,-0.178083686438,0.208752595393
1588856537714065907,1233,1588856537713870295,,0.503536164321,-0.178085420767,0.20875168054
1588856537716999005,1234,1588856537716872485,,0.50353737651,-0.178087520332,0.208751505925
1588856537723039208,1235,1588856537722943647,,0.50353872187,-0.178089878152,0.208750565922
1588856537726040197,1236,1588856537725891966,,0.503540230069,-0.17809250327,0.208749768962
1588856537732134950,1237,1588856537731914927,,0.50354110187,-0.178095325168,0.208748610484
1588856537735006644,1238,1588856537734895367,,0.503542570462,-0.178097044753,0.208747039335
1588856537738099374,1239,1588856537737966965,,0.503543120173,-0.178100173779,0.208744347853
1588856537744049515,1240,1588856537743925821,,0.503544373153,-0.178102564075,0.208742917045
1588856537747064398,1241,1588856537746952537,,0.503545291623,-0.178104679708,0.208742010532
1588856537749991040,1242,1588856537749884413,,0.503546636768,-0.178106607801,0.208740307651
1588856537756078713,1243,1588856537755929723,,0.503547028681,-0.178108705649,0.208738560535
1588856537759280979,1244,1588856537759124482,,0.503548166784,-0.178110374015,0.208736391035
1588856537765512056,1245,1588856537765353000,,0.503549259354,-0.178113879387,0.208734188143
1588856537768357841,1246,1588856537768233375,,0.50355027071,-0.178116590371,0.208731371209
1588856537771069701,1247,1588856537770913269,,0.503550787726,-0.178118076737,0.208728576524
1588856537773973742,1248,1588856537773879164,,0.503552033528,-0.178119136485,0.208726434868
1588856537780045994,1249,1588856537779927342,,0.503552255765,-0.178121692106,0.208722175783
1588856537783109011,1250,1588856537782958445,,0.503552894999,-0.178123697625,0.208718710229
1588856537786003965,1251,1588856537785915261,,0.503553985512,-0.178125383678,0.208715486542
1588856537792095303,1252,1588856537791935007,,0.503554948253,-0.178126250946,0.20871352457
1588856537795065631,1253,1588856537794962188,,0.503555220746,-0.178128124786,0.208709623963
1588856537798054558,1254,1588856537797925272,,0.503556079301,-0.178129746452,0.208706983571
1588856537804162875,1255,1588856537803986615,,0.503556593484,-0.178131021076,0.208702786051
1588856537807082725,1256,1588856537806941121,,0.503556689468,-0.178133556805,0.208697655801
1588856537810031017,1257,1588856537809922093,,0.503558036849,-0.178135100873,0.208694144671
1588856537822183980,1258,1588856537821990632,,0.503559111995,-0.178135962295,0.208684415377
1588856537825156054,1259,1588856537825011728,,0.503560425138,-0.178136321514,0.208679907253
1588856537828105731,1260,1588856537827949658,,0.503561216928,-0.178137286626,0.208676285814
1588856537831078642,1261,1588856537830966003,,0.5035620969,-0.17813719933,0.208670769795
1588856537837116290,1262,1588856537837002658,,0.503562719452,-0.178137911127,0.208664632679
1588856537840116469,1263,1588856537839987853,,0.503564394677,-0.178138136713,0.208658369911
1588856537843077179,1264,1588856537842942602,,0.503564678804,-0.178139010675,0.208650092683
1588856537846150180,1265,1588856537846004920,,0.503565569105,-0.178138636471,0.208644396763
1588856537852089210,1266,1588856537851966272,,0.503567260723,-0.178137153885,0.208639892639
1588856537855124887,1267,1588856537854989219,,0.503568407799,-0.178135717128,0.208635229832
1588856537861056423,1268,1588856537860983227,,0.503569066998,-0.178135251499,0.208630890919
1588856537864231276,1269,1588856537864011016,,0.503570345667,-0.178134438299,0.208623550706
1588856537867254783,1270,1588856537867133773,,0.503571462001,-0.178134710509,0.208615961476
1588856537873142998,1271,1588856537873004065,,0.503572742312,-0.178134374834,0.208606519746
1588856537876081763,1272,1588856537875963740,,0.503574190608,-0.178135970762,0.208597276953
1588856537882072664,1273,1588856537881937203,,0.503575664072,-0.178136686706,0.208589453216
1588856537885080190,1274,1588856537884937491,,0.503576358742,-0.178137357913,0.208582052587
1588856537888092124,1275,1588856537887971278,,0.503577604308,-0.178138512353,0.208574145066
1588856537891016246,1276,1588856537890935742,,0.503578500881,-0.178140288624,0.208567010964
1588856537897085583,1277,1588856537896936781,,0.503578510565,-0.178142355755,0.208556212975
1588856537900097024,1278,1588856537899989350,,0.503579900733,-0.178145672715,0.208545404616
1588856537906357672,1279,1588856537906225746,,0.503581238667,-0.178149877382,0.208534941162
1588856537909059343,1280,1588856537908900993,,0.503581979045,-0.178152210417,0.208524252577
1588856537915010747,1281,1588856537914899981,,0.503583353605,-0.178155784021,0.208516619083
1588856537917975725,1282,1588856537917878840,,0.503583695729,-0.178160418383,0.208504815116
1588856537921015278,1283,1588856537920906706,,0.503585278377,-0.178164395424,0.208495622642
1588856537923957874,1284,1588856537923880940,,0.503586459104,-0.178169022489,0.208485796351
1588856537930035667,1285,1588856537929907563,,0.503588143791,-0.178174153692,0.208474407639
1588856537932960737,1286,1588856537932873911,,0.503588953522,-0.178180978182,0.208461563335
1588856537936039826,1287,1588856537935951435,,0.503590972943,-0.178186845409,0.20845176434
1588856537945117615,1288,1588856537944942453,,0.503593433877,-0.178200493246,0.208426944457
1588856537948121736,1289,1588856537947967432,,0.503595472463,-0.178209469647,0.208415303794
1588856537954443884,1290,1588856537954200881,,0.503596203751,-0.178218277269,0.20840318784
1588856537957104045,1291,1588856537956958295,,0.503597749465,-0.178227818466,0.208389948678
1588856537960098636,1292,1588856537959953023,,0.503599553154,-0.178236632179,0.208379266556
1588856537966378142,1293,1588856537966267843,,0.503600433435,-0.178247369852,0.208365708869
1588856537969394782,1294,1588856537969279159,,0.503601429823,-0.178255749848,0.208353615004
1588856537972102551,1295,1588856537972017927,,0.503601932999,-0.178264390523,0.208343476831
1588856537978164597,1296,1588856537977977569,,0.50360294917,-0.178276647316,0.208329156962
1588856537981059401,1297,1588856537980941511,,0.503603455743,-0.178287210311,0.208316569666
1588856537984129505,1298,1588856537983978554,,0.50360405464,-0.178298585731,0.208306629941
1588856537990082020,1299,1588856537989945763,,0.503604413611,-0.178312102182,0.208294331226
1588856537993095010,1300,1588856537992959502,,0.503605034626,-0.178327659993,0.208279217943
1588856537996060194,1301,1588856537995908466,,0.503604766074,-0.178345100572,0.208266954226
1588856538002049242,1302,1588856538001926594,,0.503604186643,-0.178362121378,0.208253089145
1588856538005087414,1303,1588856538004931327,,0.503603703248,-0.178380750224,0.208240272025
1588856538008108721,1304,1588856538007991542,,0.503603413312,-0.178400094877,0.208226643908
1588856538014047663,1305,1588856538013935273,,0.503603072104,-0.178417823113,0.208213264565
1588856538017066013,1306,1588856538016982951,,0.50360180525,-0.17843722319,0.208201873584
1588856538020103166,1307,1588856538019978284,,0.503601960943,-0.178457407149,0.208187663635
1588856538026445352,1308,1588856538026345343,,0.503600570782,-0.178479682252,0.208174508878
1588856538029215737,1309,1588856538029016389,,0.503600940982,-0.178501901468,0.208157738511
1588856538032118004,1310,1588856538032033133,,0.503601125101,-0.178523015072,0.208143907694
1588856538038152048,1311,1588856538037991593,,0.50360085443,-0.178547927363,0.208124676627
1588856538041137230,1312,1588856538040955444,,0.503600846693,-0.178569465664,0.208108583804
1588856538047100146,1313,1588856538046968013,,0.503599873586,-0.178596187199,0.208090813699
1588856538050268908,1314,1588856538050061101,,0.503599673506,-0.178619495277,0.208076033258
1588856538053159956,1315,1588856538053049297,,0.503599827004,-0.178643930935,0.208057892369
1588856538056158775,1316,1588856538056023038,,0.503600021754,-0.17866876584,0.208041198357
1588856538062177494,1317,1588856538062061777,,0.503600665955,-0.178692995619,0.208024335416
1588856538065517546,1318,1588856538065376267,,0.503602177354,-0.178717722656,0.208006963695
1588856538068465018,1319,1588856538068308363,,0.503602754153,-0.178741531753,0.207990401919
1588856538074085837,1320,1588856538073945465,,0.503603131924,-0.178769497507,0.2079716173
1588856538077126799,1321,1588856538076952537,,0.503604043922,-0.178796030439,0.207953231672
1588856538080040788,1322,1588856538079923479,,0.503606633791,-0.178820259886,0.20793640265
1588856538086401526,1323,1588856538086255494,,0.503608199334,-0.178846474137,0.207916235854
1588856538089150840,1324,1588856538088988856,,0.503610552855,-0.178872548679,0.207898536721
1588856538092203439,1325,1588856538092048230,,0.503612524559,-0.178900557424,0.207875906261
1588856538098157839,1326,1588856538097996610,,0.503614614036,-0.178927305011,0.207855864064
1588856538101083435,1327,1588856538100932265,,0.503615504616,-0.17895369427,0.207835492872
1588856538107116566,1328,1588856538106964521,,0.503616822106,-0.178982133896,0.207811360903
1588856538110114994,1329,1588856538109955283,,0.503618201859,-0.179008505689,0.207792720777
1588856538113086292,1330,1588856538112989193,,0.503620366003,-0.179036661258,0.207771846427
1588856538119752990,1331,1588856538119655491,,0.503622185048,-0.179063782641,0.20775274632
1588856538122140455,1332,1588856538121985301,,0.503624372469,-0.179090096649,0.207731996766
1588856538125284099,1333,1588856538125086107,,0.503626559331,-0.179116492617,0.207708853639
1588856538131204532,1334,1588856538131009513,,0.503628150289,-0.179143309509,0.207688359567
1588856538134207033,1335,1588856538134024159,,0.503630213054,-0.179168913958,0.207665827111
1588856538137075288,1336,1588856538136940301,,0.503631903035,-0.179194918377,0.207644392004
1588856538143143190,1337,1588856538142997873,,0.503634289216,-0.179220450288,0.207623632151
1588856538146343498,1338,1588856538146220719,,0.503636068983,-0.179246633328,0.20760072354
1588856538149086892,1339,1588856538148983992,,0.503638157621,-0.179274662663,0.207580028779
1588856538155175759,1340,1588856538154989105,,0.50363991125,-0.179300324098,0.207559728207
1588856538158161334,1341,1588856538157979122,,0.503642764287,-0.179327625909,0.207536611077
1588856538161171902,1342,1588856538160984269,,0.503644916683,-0.179353165869,0.207517067992
1588856538167194531,1343,1588856538167105400,,0.503645607038,-0.179381662601,0.207494446526
1588856538170056375,1344,1588856538169951110,,0.503647898158,-0.179407813891,0.207473202913
1588856538173177358,1345,1588856538172956974,,0.503650043,-0.179432477067,0.207450335648
1588856538182154946,1346,1588856538182005287,,0.503654034669,-0.179486003962,0.207405249015
1588856538185143418,1347,1588856538184973115,,0.503655214667,-0.179513336183,0.207380272394
1588856538191199797,1348,1588856538190986674,,0.503656982875,-0.179543489177,0.207358084647
1588856538194131980,1349,1588856538193976972,,0.503658120735,-0.179572644336,0.207336410841
1588856538197097015,1350,1588856538196986086,,0.503660118997,-0.179603024625,0.207313024392
1588856538203120141,1351,1588856538202991468,,0.503662260786,-0.179630076652,0.207290750435
1588856538206109555,1352,1588856538206000047,,0.503664153384,-0.179658798347,0.207267706856
1588856538209138741,1353,1588856538209005361,,0.503665187185,-0.179685328811,0.207245750374
1588856538218196239,1354,1588856538218032920,,0.503666289881,-0.17971631348,0.207223983124
1588856538221150563,1355,1588856538220997389,,0.503667250476,-0.179753866854,0.207197688228
1588856538224097645,1356,1588856538223998613,,0.503668388255,-0.179781385517,0.207177188488
1588856538227101583,1357,1588856538227031456,,0.503669977985,-0.179813139329,0.207154101393
1588856538230167157,1358,1588856538230052813,,0.503672547746,-0.179847618728,0.207128529053
1588856538233096283,1359,1588856538232993273,,0.503674527303,-0.1798808183,0.207105943534
1588856538242143252,1360,1588856538242019170,,0.503678715924,-0.179945689549,0.207060944607
1588856538248213520,1361,1588856538248070464,,0.503680018315,-0.179977770846,0.207037054157
1588856538251341798,1362,1588856538251104294,,0.503681505475,-0.18001393385,0.207013936316
1588856538254212359,1363,1588856538254048885,,0.503682425689,-0.18004724903,0.206991484178
1588856538260153942,1364,1588856538260019428,,0.503684267771,-0.180079409138,0.20696640177
1588856538263154311,1365,1588856538263050106,,0.503687441047,-0.180114607769,0.206939202457
1588856538269445539,1366,1588856538269306876,,0.503690059902,-0.180148233526,0.206913451317
1588856538272017873,1367,1588856538271938222,,0.503692459294,-0.180178007791,0.206887888508
1588856538275042776,1368,1588856538274950827,,0.503697004544,-0.180211704557,0.206862956743
1588856538278126608,1369,1588856538278009324,,0.50369891344,-0.180254822633,0.206832192096
1588856538284182778,1370,1588856538284039752,,0.50369960042,-0.180287086125,0.206808072569
1588856538287219761,1371,1588856538287051362,,0.503699580886,-0.180320502807,0.206779592624
1588856538293173015,1372,1588856538293067748,,0.503697978786,-0.1803635317,0.206740029605
1588856538296138316,1373,1588856538296025202,,0.503703271292,-0.180413075091,0.206663776485
1588856538299207012,1374,1588856538299076599,,0.503704479788,-0.180470210566,0.206578032395
1588856538302074474,1375,1588856538301938697,,0.503700089877,-0.180517400071,0.206511205466
1588856538308272413,1376,1588856538308077564,,0.503695872462,-0.180566525366,0.206465824677
1588856538311219055,1377,1588856538311067472,,0.50369155416,-0.180614351331,0.206410927453
1588856538317156335,1378,1588856538316991626,,0.503685310799,-0.180660813037,0.206364392273
1588856538320142300,1379,1588856538320025485,,0.503682122515,-0.180701329934,0.20632736373
1588856538323107064,1380,1588856538323000469,,0.503682491999,-0.180733165701,0.206295958601
1588856538326140958,1381,1588856538326047374,,0.503689401532,-0.180761891964,0.206290771172
1588856538332085347,1382,1588856538331985973,,0.503700617128,-0.180791490177,0.206304264962
1588856538335094799,1383,1588856538335009418,,0.503711194948,-0.180821775526,0.206312545078
1588856538341105657,1384,1588856538340995019,,0.503724254697,-0.180847450399,0.20631787086
1588856538344224683,1385,1588856538344045383,,0.50373637799,-0.180877381922,0.206302052494
1588856538347175381,1386,1588856538347042979,,0.503745207031,-0.180908606965,0.206268157496
1588856538350174657,1387,1588856538350064328,,0.503749975311,-0.180951208192,0.206217854159
1588856538356054645,1388,1588856538355951804,,0.50374820217,-0.180996494715,0.206155470184
1588856538365397808,1389,1588856538365305981,,0.503736771823,-0.181108836013,0.206003766557
1588856538368410320,1390,1588856538368325035,,0.503729222086,-0.181167616148,0.205923484451
1588856538371169644,1391,1588856538371023975,,0.503718952305,-0.18122991448,0.205837425754
1588856538377210774,1392,1588856538377053987,,0.503709706189,-0.181288576357,0.205757004692
1588856538380325012,1393,1588856538380156203,,0.503701373593,-0.181348191451,0.20568133873
1588856538383212169,1394,1588856538383043328,,0.503693535429,-0.181403547422,0.205616724049
1588856538389139192,1395,1588856538388984327,,0.503687807372,-0.181447907629,0.205572316832
1588856538392106060,1396,1588856538392007142,,0.503685503627,-0.181492766688,0.205527447089
1588856538395085027,1397,1588856538394981142,,0.503683542257,-0.181547566845,0.205465236414
1588856538401119126,1398,1588856538400988795,,0.503682008174,-0.18159382217,0.205413159058
1588856538404219961,1399,1588856538404011545,,0.503681731522,-0.181632219037,0.20535768154
1588856538407185332,1400,1588856538407027769,,0.503678762847,-0.181684941476,0.205278210295
1588856538413270586,1401,1588856538413068650,,0.503672882329,-0.181737816772,0.205204437628
1588856538422144361,1402,1588856538421979046,,0.50366167455,-0.181833240351,0.205048567638
1588856538425129056,1403,1588856538424987910,,0.503655164176,-0.181879389404,0.204974195308
