%time,field.header.seq,field.header.stamp,field.header.frame_id,field.wrench.force.x,field.wrench.force.y,field.wrench.force.z,field.wrench.torque.x,field.wrench.torque.y,field.wrench.torque.z
1588764819587295822,11303,1588764819587159154,,-0.00961232474821,-0.753828984463,0.440829164717,0.0768761807575,0.00702089118866,0.00057683495123
1588764819593241518,11304,1588764819593126535,,0.0111404578294,-0.88656510184,0.511427367624,0.091070382382,0.0071200820698,0.000951459470539
1588764819599256540,11305,1588764819599116295,,-0.0124006854036,-0.88796279381,0.578580556107,0.105286369894,0.00718664210837,0.000223701182371
1588764819605367050,11306,1588764819605256719,,-0.0151228006489,-1.15270015486,0.696590712084,0.134784679527,0.00789663101275,-0.000133260655856
1588764819614276190,11307,1588764819614173312,,-0.0170932306875,-1.28570186887,0.789546662025,0.155300464836,0.00664675884271,-0.00239488618489
1588764819620179537,11308,1588764819620083720,,-0.0170799505802,-1.28568734479,0.789570600003,0.155300414118,0.00664730402873,-0.00239666125557
1588764819623780070,11309,1588764819623534967,,0.00405960513809,-1.41839437828,0.86020024272,0.166835507223,0.006650503727,-0.00555413708606
1588764819629134045,11310,1588764819629034523,,0.0263803115134,-1.41876654462,0.883421243184,0.172197756458,0.00664807078307,-0.00620972631758
1588764819632211540,11311,1588764819632068703,,0.0487908552038,-1.41915627327,0.906646216244,0.182220657095,0.00601503181003,-0.0111619319083
1588764819635186760,11312,1588764819635099255,,0.0479982768164,-1.41979066399,0.952391972561,0.189337262426,0.00601325381247,-0.014569617875
1588764819638189120,11313,1588764819638110559,,0.0480114591771,-1.41979049275,0.952391563381,0.189337141385,0.00601422689514,-0.0145707891564
1588764819641216263,11314,1588764819641069634,,0.02411830652,-1.55202501607,0.999286527227,0.19453318934,0.00536584108405,-0.0146435925971
1588764819647202428,11315,1588764819647099211,,0.0690009608892,-1.55274779514,1.04596249871,0.202574374536,0.0053650365939,-0.0186492770882
1588764819650195574,11316,1588764819650092925,,0.0911057951192,-1.55341413871,1.09215152699,0.206936843938,0.00471733669195,-0.0219643044406
1588764819656292429,11317,1588764819656185057,,0.112854339467,-1.81764623532,1.14133734304,0.219656580864,0.00405842855942,-0.0304981804218
1588764819662465760,11318,1588764819662203551,,0.112825076072,-1.81764479539,1.14134252936,0.219656942699,0.00405628850773,-0.03049585899
1588764819668305824,11319,1588764819668201432,,0.134976157182,-1.81821774578,1.18762554036,0.22774462783,0.00275270609181,-0.036459271731
1588764819674266260,11320,1588764819674159205,,0.179962977171,-1.81888123367,1.23447186567,0.23590647355,0.00274548600288,-0.044947673342
1588764819677334420,11321,1588764819677228395,,0.201691447539,-1.95157874814,1.30512940139,0.251283633262,0.00076965954251,-0.0553192554741
1588764819683261037,11322,1588764819683147434,,0.201694453901,-1.95158349224,1.30512184284,0.25128414412,0.00077188444191,-0.0553169038865
1588764819689262328,11323,1588764819689169243,,0.269003196712,-1.95278518454,1.39843795626,0.269345253389,-0.000560429313389,-0.0689707766286
1588764819695368726,11324,1588764819695234332,,0.268993869828,-1.95278456151,1.39844062035,0.269345381465,-0.000561428388183,-0.068970268337
1588764819701185798,11325,1588764819701083287,,0.290810023502,-2.08543769674,1.46903989702,0.277322971363,-0.00122620791031,-0.0759023804911
1588764819704324446,11326,1588764819704123021,,0.313398799323,-2.08572192042,1.49262135677,0.284701633467,-0.00189793585402,-0.0837526178183
1588764819707232135,11327,1588764819707110498,,0.312691209424,-2.08614601529,1.53862400358,0.289930603524,-0.00256400160969,-0.0854984012419
1588764819710169447,11328,1588764819710053026,,0.358342052036,-2.2184688034,1.56364648417,0.296357982278,-0.00322730105578,-0.0923310050333
1588764819713210640,11329,1588764819713076630,,0.358380129924,-2.21849961557,1.56359404054,0.296356707924,-0.00322317714445,-0.0923352393174
1588764819719264361,11330,1588764819719151846,,0.379882006316,-2.21946399537,1.65613747588,0.307978625299,-0.00390444418284,-0.104657847281
1588764819722213021,11331,1588764819722070482,,0.379866175663,-2.21948869785,1.65610800167,0.307979482957,-0.00390321185425,-0.104655369369
1588764819725348535,11332,1588764819725252318,,0.402959046899,-2.2196136891,1.65652792991,0.311758535483,-0.00390727692021,-0.108969407357
1588764819728207916,11333,1588764819728127519,,0.402562050657,-2.21980294548,1.67967918214,0.315283022936,-0.00457769265499,-0.109843846858
1588764819731224423,11334,1588764819731082566,,0.471313288745,-2.35224973609,1.70509313261,0.322671783275,-0.005243915897,-0.118342241789
1588764819734233307,11335,1588764819734150864,,0.471345951273,-2.35223716006,1.70510145299,0.322670850988,-0.00524197380122,-0.118344869771
1588764819737274481,11336,1588764819737191992,,0.447923836813,-2.35231122877,1.72771193471,0.326207064746,-0.00525274740488,-0.119352611863
1588764819740162290,11337,1588764819740069825,,0.470136153669,-2.35283445421,1.77430636287,0.333408806895,-0.0059288546482,-0.126342853778
1588764819743134589,11338,1588764819743056574,,0.470132001849,-2.35286323089,1.77426930278,0.333407548179,-0.00593009290095,-0.12634611727
1588764819746179664,11339,1588764819746073542,,0.470116057196,-2.35286192549,1.77427525868,0.338046010751,-0.00594158830348,-0.12900860965
1588764819749157512,11340,1588764819749052931,,0.492826143326,-2.4851434086,1.79873915068,0.346358413613,-0.00728392108798,-0.137800157007
1588764819752129270,11341,1588764819752042628,,0.492878564231,-2.48511290987,1.79876692407,0.346357915877,-0.00727942081555,-0.137801645852
1588764819755108489,11342,1588764819755012651,,0.515565774061,-2.48540243745,1.82225103466,0.350863970538,-0.00728666323342,-0.141228534751
1588764819758164354,11343,1588764819758060271,,0.538599574834,-2.61756944927,1.82359117152,0.35651364589,-0.00729665307903,-0.147350610159
1588764819761146881,11344,1588764819761047849,,0.561348120588,-2.61784252893,1.84720580149,0.360105578098,-0.00796155904728,-0.150790388497
1588764819767218251,11345,1588764819767144122,,0.606372320329,-2.61849121104,1.91740665916,0.370848339033,-0.00866219106387,-0.159436771886
1588764819770395434,11346,1588764819770259977,,0.605595604904,-2.6187934544,1.96369319287,0.380809006303,-0.0100095659644,-0.167481892673
1588764819776154684,11347,1588764819776053936,,0.60563562305,-2.6187290071,1.9637667959,0.380808792221,-0.0100091341597,-0.167482405245
1588764819779192977,11348,1588764819779100542,,0.674202942506,-2.7514201321,2.01214408184,0.388956194117,-0.0106928178633,-0.176020103449
1588764819782201893,11349,1588764819782113800,,0.720046296465,-2.75176500651,2.03628248669,0.393519400244,-0.0120267855138,-0.181123365926
1588764819785171526,11350,1588764819785044857,,0.719296093079,-2.7520810914,2.08243932684,0.398792578135,-0.0120404556939,-0.184697931395
1588764819788200198,11351,1588764819788123295,,0.742341493114,-2.8842961281,2.08369801244,0.40253178251,-0.0127186110329,-0.18812678548
1588764819791287606,11352,1588764819791160343,,0.764403252985,-2.88479491395,2.15358988905,0.412371148739,-0.0134102905263,-0.196956577008
1588764819794286355,11353,1588764819794147998,,0.76442458047,-2.88480804362,2.15356473114,0.412372559131,-0.0134032431221,-0.196954103741
1588764819797110322,11354,1588764819796997684,,0.764048838276,-3.01707587297,2.17743388536,0.415057948287,-0.0147282014316,-0.200551160451
1588764819800220313,11355,1588764819800063231,,0.809693728872,-2.88546914249,2.22381878779,0.421286153284,-0.0153967458638,-0.205648808602
1588764819803214831,11356,1588764819803112610,,0.855634019666,-3.01793248676,2.24859522783,0.427659768519,-0.0147439391741,-0.210731260894
1588764819806202528,11357,1588764819806116293,,0.855731179787,-2.88579002471,2.24784758732,0.429549161096,-0.0147404167526,-0.21344885398
1588764819809207418,11358,1588764819809106940,,0.878161538871,-3.01827787973,2.29534548814,0.438589612795,-0.015429087067,-0.221390536149
1588764819812253758,11359,1588764819812144843,,0.878293532159,-3.01823904621,2.29534604991,0.438586532378,-0.015416357998,-0.221397525275
1588764819815188477,11360,1588764819815107181,,0.87799858405,-3.15054108363,2.31912041077,0.443066360543,-0.0160840455571,-0.224082799914
1588764819818179905,11361,1588764819818101080,,0.923207654547,-3.15119209829,2.38940277267,0.452867957115,-0.0174316178928,-0.231875113696
1588764819821082041,11362,1588764819820997523,,0.923231422389,-3.15123691513,2.38933448249,0.452866981759,-0.0174250346185,-0.231877513435
1588764819824451727,11363,1588764819824259777,,0.969236962873,-3.15166148492,2.41324007478,0.463937890898,-0.0174362870099,-0.242382434281
1588764819827429063,11364,1588764819827310295,,0.969187071132,-3.15168992751,2.41322296654,0.463940764855,-0.0174370217865,-0.242376880377
1588764819830101912,11365,1588764819830023677,,1.0143585174,-3.15231446496,2.4835985747,0.468225513185,-0.0181138845257,-0.248392279806
1588764819833108117,11366,1588764819833027700,,0.990370566765,-3.15246087359,2.5294044604,0.475271909257,-0.0181377183478,-0.250289464856
1588764819836177641,11367,1588764819836078922,,1.03671937321,-3.28494420881,2.53082620288,0.478144352125,-0.0187936391974,-0.255422476262
1588764819839179411,11368,1588764819839104661,,1.05952502507,-3.28536565408,2.55419057151,0.4826484398,-0.0187887021587,-0.258866184211
1588764819842212421,11369,1588764819842095613,,1.08203609649,-3.28558946942,2.57799385789,0.487177845911,-0.019483037594,-0.262280387541
1588764819845247515,11370,1588764819845101942,,1.08164802367,-3.28567262916,2.60118410847,0.489864586647,-0.0194871853899,-0.265883295242
1588764819848178142,11371,1588764819848099122,,1.10444159004,-3.28564549351,2.62508823387,0.494369513446,-0.0195117244149,-0.269320445155
1588764819851175994,11372,1588764819851082472,,1.12644019246,-3.41825932537,2.69575680624,0.504080613688,-0.020212537482,-0.273604773773
1588764819854117340,11373,1588764819854017771,,1.12622996695,-3.41831591225,2.69577288855,0.504085658537,-0.0202342340431,-0.273593875349
1588764819857281891,11374,1588764819856962016,,1.14897497307,-3.41853368857,2.71938933212,0.50675422776,-0.0202389438165,-0.276135193012
1588764819860059736,11375,1588764819860000146,,1.17176921608,-3.41878544554,2.743089302,0.511269716465,-0.0209071244976,-0.279563060398
1588764819863240611,11376,1588764819863150387,,1.19418504115,-3.55131103851,2.79041893727,0.516536859127,-0.0209156039532,-0.282999781508
1588764819866170282,11377,1588764819866055730,,1.17020924264,-3.55151410053,2.83627202498,0.522631409154,-0.0215975154173,-0.283084986551
1588764819869137976,11378,1588764819869060678,,1.19325437123,-3.55158348779,2.83682182104,0.528215742427,-0.0222944150312,-0.287418110269
1588764819872105185,11379,1588764819872018002,,1.21571089382,-3.55189893966,2.88361494176,0.535269018317,-0.0223201655562,-0.28902030026
1588764819875253410,11380,1588764819875146997,,1.23842980998,-3.55201303284,2.9073773279,0.539767549911,-0.0223557754959,-0.292468552055
1588764819878278017,11381,1588764819878208135,,1.2605784601,-3.55240439718,2.97743896015,0.5531256612,-0.0230602513935,-0.296727058473
1588764819881217997,11382,1588764819881142534,,1.26054451646,-3.55236610382,2.97749901814,0.553126215816,-0.0230691581749,-0.296725332286
1588764819887278109,11383,1588764819887187882,,1.25942291073,-3.55270570727,3.0470435953,0.566530348944,-0.0237663744952,-0.302960393813
1588764819890223493,11384,1588764819890129017,,1.28182027717,-3.55301609826,3.0939382824,0.579138482496,-0.0244684916286,-0.308127729667
1588764819893103194,11385,1588764819893027936,,1.30497846308,-3.68527603187,3.09499457022,0.585604318214,-0.0245003143252,-0.31156537633
1588764819896286489,11386,1588764819896209734,,1.30498243486,-3.68526312746,3.09500826105,0.585606880847,-0.0244962426904,-0.311560879827
1588764819899255558,11387,1588764819899166470,,1.32761811235,-3.68557327134,3.14174186994,0.591786001683,-0.0244960751788,-0.314999537242
1588764819902326666,11388,1588764819902197740,,1.32683981019,-3.68575475036,3.18820559597,0.597953448328,-0.0251836783641,-0.317650795406
1588764819908277412,11389,1588764819908179942,,1.32654557437,-3.68588848551,3.21130025014,0.604231792932,-0.0258456889779,-0.319410330189
1588764819911222557,11390,1588764819911137214,,1.37142373621,-3.81865500311,3.30559411457,0.622145811037,-0.0265725880796,-0.32894257931
1588764819914146857,11391,1588764819914065133,,1.37114586252,-3.81861473573,3.3057559001,0.622155303668,-0.0266104740646,-0.328921561926
1588764819917186906,11392,1588764819917024309,,1.39368665338,-3.81880446837,3.35262912145,0.629215369706,-0.0272991356294,-0.331429743902
1588764819920086666,11393,1588764819919986512,,1.39362989217,-3.81892108571,3.37574479794,0.634555946499,-0.0272803545306,-0.332306626257
1588764819923486451,11394,1588764819923419785,,1.41634409314,-3.81901475924,3.39957375184,0.640859358672,-0.0273392066598,-0.334818159409
1588764819929215839,11395,1588764819929100504,,1.41628408738,-3.81920781121,3.42250730633,0.644403912627,-0.027290761689,-0.336612185262
1588764819932046862,11396,1588764819931992671,,1.43799020883,-3.95189334048,3.516271428,0.655762764422,-0.0273206636234,-0.339990531308
1588764819935154480,11397,1588764819935083770,,1.46124932543,-3.95187729401,3.51682670544,0.660364713681,-0.0266273793589,-0.34066666871
1588764819938230515,11398,1588764819938066389,,1.43764047698,-4.08412555732,3.54014342627,0.663835540889,-0.0273020757458,-0.338947659289
1588764819941214884,11399,1588764819941136332,,1.41361921646,-4.08420286861,3.58608624009,0.667185833271,-0.0273000776963,-0.338120300403
1588764819947301166,11400,1588764819947222074,,1.4583255161,-4.08469430583,3.67995085009,0.678514424046,-0.0280170109601,-0.339486600216
1588764819950251299,11401,1588764819950185425,,1.45747372365,-4.0848727121,3.72645412912,0.683753828822,-0.0273553439434,-0.341232305846
1588764819953217570,11402,1588764819953146158,,1.45691724528,-4.21718415575,3.75021448003,0.694651624345,-0.0280671871349,-0.344733335491
1588764819956306720,11403,1588764819956226405,,1.45684819118,-4.21712885934,3.7503034865,0.694663556449,-0.028061138608,-0.344709783207
1588764819959197014,11404,1588764819959063207,,1.4104173048,-4.08470671153,3.74891038114,0.700139939145,-0.0294048226434,-0.344003176258
1588764819962302972,11405,1588764819962180365,,1.4328078985,-4.08495230783,3.79578168292,0.706275040857,-0.0294192489809,-0.34558812873
1588764819965226649,11406,1588764819965149257,,1.50166740196,-4.21758693887,3.84420073218,0.714310060356,-0.0287611199389,-0.349595637797
1588764819968111903,11407,1588764819968036877,,1.52459833475,-4.21778697832,3.86781939742,0.719724623597,-0.0294444283349,-0.353037381814
1588764819971100126,11408,1588764819971044742,,1.5001320795,-4.21795922368,3.93702453492,0.731229328264,-0.0301435806249,-0.355772459207
1588764819974131465,11409,1588764819974017685,,1.5001484267,-4.21795885194,3.93701870434,0.731227918334,-0.0301434723768,-0.355775366233
1588764819977236362,11410,1588764819977077824,,1.49970724029,-4.21809239791,3.96018023375,0.736607755106,-0.0301569973352,-0.357520429237
1588764819980146167,11411,1588764819980070684,,1.45294877175,-4.21801474654,3.98248963993,0.741948604304,-0.0308082816558,-0.357756994592
1588764819983211366,11412,1588764819983149903,,1.61493493719,-4.4833102751,4.0330509548,0.75097962362,-0.0301581403495,-0.365734068562
1588764819986266963,11413,1588764819986107055,,1.61497037471,-4.48329475316,4.03305401939,0.750982036063,-0.0301479866595,-0.365729952068
1588764819989247688,11414,1588764819989168892,,1.54402303406,-4.48333027941,4.10128374842,0.758757465299,-0.0308127011882,-0.365152208161
1588764819992164661,11415,1588764819992093519,,1.54402424387,-4.48330065669,4.10131567488,0.758758962174,-0.0308119940304,-0.36514915743
1588764819995097006,11416,1588764819994998688,,1.54360735294,-4.61570191194,4.12492861317,0.764125630399,-0.0308167617192,-0.36691212406
1588764819998050655,11417,1588764819997955109,,1.54259863754,-4.48341328167,4.17124284427,0.767530893627,-0.0315384761005,-0.367747774205
1588764820001110390,11418,1588764820001015459,,1.54268124209,-4.61569792572,4.17165722244,0.768409424124,-0.0315291772051,-0.366842051346
1588764820007130135,11419,1588764820007054623,,1.63462505361,-4.6160890165,4.24326144863,0.779063487334,-0.0308973185708,-0.372510102927
1588764820010352193,11420,1588764820010232396,,1.56413646776,-4.61599771063,4.28836636202,0.787891121442,-0.0315972649239,-0.371933555719
1588764820013223203,11421,1588764820013142580,,1.56467512637,-4.61610441298,4.28805499109,0.787878830016,-0.0315143902052,-0.371966623087
1588764820016422024,11422,1588764820016201064,,1.58754461418,-4.61626506183,4.31169457439,0.792389882104,-0.0315363282558,-0.376343502701
1588764820019171671,11423,1588764820019090296,,1.56432191253,-4.61613877644,4.31129013362,0.794214043067,-0.0322248793057,-0.376482439234
1588764820022128459,11424,1588764820022029621,,1.58681053351,-4.61643518831,4.35816699745,0.799420221555,-0.0315528863356,-0.377179188956
1588764820025290511,11425,1588764820025140949,,1.67958375025,-4.749085632,4.38363753901,0.80486279173,-0.0308885952381,-0.382009072318
1588764820028092510,11426,1588764820027979770,,1.72576580044,-4.74929997316,4.40776832495,0.810277279109,-0.0308980246292,-0.385299280628
1588764820031222460,11427,1588764820031139765,,1.65502240944,-4.88146736071,4.45341740304,0.817365468409,-0.0322554851244,-0.388373855058
1588764820034019990,11428,1588764820033933677,,1.65491120915,-4.8815006338,4.45342225565,0.81737355644,-0.0322559630463,-0.388356792964
1588764820037178989,11429,1588764820036972415,,1.67785516205,-4.88172177404,4.47700477338,0.821839718117,-0.0322613933678,-0.389987675433
1588764820040092238,11430,1588764820039987554,,1.6308921042,-4.74936802089,4.49885176333,0.8253110721,-0.0329292177025,-0.388392128169
1588764820043033382,11431,1588764820042941839,,1.70015070922,-4.74955195885,4.52370749418,0.830734610145,-0.0329570235358,-0.39150459166
1588764820046075368,11432,1588764820045980655,,1.7698372839,-4.88206795171,4.52560149144,0.833545388668,-0.0323017877094,-0.393739326081
1588764820049131505,11433,1588764820048991832,,1.74592999312,-4.88203267246,4.54845024736,0.836173477446,-0.0329799399004,-0.394731696219
1588764820052072578,11434,1588764820051951052,,1.6758819371,-5.01407886547,4.5476309056,0.839785321862,-0.033666029673,-0.392351986574
1588764820055212819,11435,1588764820055003802,,1.67489442963,-5.01424143341,4.59409400412,0.844133028168,-0.0343649669641,-0.395018469718
1588764820058075123,11436,1588764820057992150,,1.72103197742,-5.01440580869,4.61839520789,0.848638354703,-0.0337039407286,-0.398311818418
1588764820060992055,11437,1588764820060933990,,1.76670454491,-5.01477992255,4.66568399266,0.852080786722,-0.0343839781108,-0.401607950528
1588764820067098757,11438,1588764820066965283,,1.76635263378,-5.14726741922,4.68918231451,0.860270147972,-0.0343636039581,-0.40606682667
1588764820070018147,11439,1588764820069955171,,1.67273825633,-5.27945771719,4.710997301,0.862775832447,-0.0343562019715,-0.402040581451
1588764820073050105,11440,1588764820072969611,,1.67274865965,-5.27941196762,4.71104487664,0.862785131511,-0.0343389812279,-0.402022096425
1588764820076195236,11441,1588764820076005345,,1.76510190732,-5.27982841297,4.75931488301,0.865306255574,-0.0336810151303,-0.405058928051
1588764820079055054,11442,1588764820078985104,,1.85829899766,-5.28015557383,4.76106529057,0.86907355308,-0.0336582523457,-0.409900173703
1588764820082051361,11443,1588764820081983657,,1.83457420829,-5.28005338113,4.78395546587,0.871605885762,-0.0336460434644,-0.406312252818
1588764820085257999,11444,1588764820085170094,,1.7877364371,-5.41229022875,4.80672629563,0.874198823063,-0.033636487048,-0.406598264524
1588764820088118752,11445,1588764820088034174,,1.76381815374,-5.41212416356,4.8297619233,0.874995080697,-0.035030406562,-0.40762740185
1588764820091072152,11446,1588764820091000536,,1.80961784633,-5.41233997539,4.87726335378,0.880308628926,-0.0350334353572,-0.412733929482
1588764820094074873,11447,1588764820093975186,,1.80952653537,-5.41236629864,4.90040460957,0.883812670176,-0.034333344015,-0.412703605935
1588764820097299274,11448,1588764820097188944,,1.71645084733,-5.54425330759,4.87601269566,0.879238137227,-0.034375849841,-0.406041130456
1588764820100123300,11449,1588764820100051620,,1.78561110906,-5.54469747876,4.92364296175,0.882624784331,-0.0343658373368,-0.407393806147
1588764820103176199,11450,1588764820103116662,,1.90215799333,-5.54520355315,4.92571874781,0.88726291576,-0.034344881391,-0.410249211147
1588764820109202013,11451,1588764820109083545,,1.90152515887,-5.67773496467,4.94929584476,0.88986437951,-0.0337260159792,-0.411149090461
1588764820112214729,11452,1588764820112139634,,1.82984474085,-5.81051288177,5.01779122362,0.904102881151,-0.0351830554022,-0.414156410992
1588764820115247755,11453,1588764820115159828,,1.8290823307,-5.81096439114,5.01754632874,0.904094601782,-0.0352917168882,-0.414165239496
1588764820118238113,11454,1588764820118150289,,1.92142658626,-5.81150986415,5.06578887396,0.910326509032,-0.0346538080707,-0.419899137101
1588764820121262005,11455,1588764820121156732,,1.87420253313,-5.81137616214,5.1113651004,0.919240099,-0.0359919000277,-0.422824214423
1588764820124569091,11456,1588764820124477851,,1.87362184625,-5.94386163148,5.15820145304,0.925403496278,-0.0366364167363,-0.425498851926
1588764820130183619,11457,1588764820130098918,,1.89557590849,-5.81191099132,5.20465573776,0.935318943523,-0.0367526209564,-0.432528460284
1588764820133145990,11458,1588764820133088060,,1.89576046092,-5.81189138431,5.20461041349,0.935301667394,-0.0367583259458,-0.432565332243
1588764820136179826,11459,1588764820136106564,,1.77972093258,-5.94378366948,5.17952925965,0.931642160179,-0.0360549759237,-0.426039157188
1588764820139197663,11460,1588764820139122888,,1.94195763283,-5.9441636177,5.22945614684,0.933165902314,-0.0353648572266,-0.424001980247
1588764820142205653,11461,1588764820142130526,,1.94272484753,-5.94379623345,5.22958876543,0.93316245934,-0.0352707416198,-0.424017396913
1588764820145207172,11462,1588764820145139950,,2.03477965836,-5.94481226932,5.25427140449,0.935801958869,-0.0346994490207,-0.426133656258
1588764820148331583,11463,1588764820148224617,,1.91819707059,-5.94418933796,5.22907352017,0.935885294851,-0.0347516958261,-0.422244063331
1588764820151224656,11464,1588764820151156461,,1.80161730485,-6.20846510809,5.25096973528,0.938391579649,-0.0353616106237,-0.418385378278
1588764820154216354,11465,1588764820154125487,,1.87204403072,-6.07629653285,5.27489760717,0.941996133408,-0.0358952920765,-0.422478383691
1588764820157375874,11466,1588764820157269176,,2.03417499519,-6.07671020842,5.37117576179,0.956371563165,-0.0351867624602,-0.437720263127
1588764820160294685,11467,1588764820160223118,,2.03273555859,-6.0774414853,5.37089332176,0.95637896445,-0.035359624014,-0.437690161169
1588764820163220919,11468,1588764820163148768,,1.93934742952,-6.07708244045,5.36920323701,0.959113796652,-0.037403471379,-0.437323581721
1588764820166218406,11469,1588764820166120097,,1.91621138806,-6.0766959744,5.39220484326,0.963607966206,-0.0380375007792,-0.441090706746
1588764820169265057,11470,1588764820169208365,,2.07892087348,-6.07701822612,5.44210975498,0.972801373429,-0.0379838896518,-0.455461364071
1588764820172218927,11471,1588764820172128180,,2.07936267556,-6.07666417137,5.44233631044,0.97279550904,-0.0379482421893,-0.45547686076
1588764820175298629,11472,1588764820175189225,,2.10055633046,-6.07768852393,5.46565392956,0.9773097972,-0.0381866936855,-0.459829640778
1588764820178196479,11473,1588764820178131705,,2.05415297073,-6.07733594159,5.4417507636,0.978386610221,-0.0389227958455,-0.46103891578
1588764820181237418,11474,1588764820181153424,,1.93899173655,-5.94417961468,5.39269740313,0.973783627963,-0.0375285533037,-0.44628109123
1588764820187249677,11475,1588764820187178428,,2.19575600154,-5.81207673535,5.42101697892,0.9728701098,-0.0353959434204,-0.451964242591
1588764820190200047,11476,1588764820190110505,,2.00820877703,-5.94469668068,5.39398280802,0.971923188985,-0.0362638401009,-0.444933202449
1588764820193295110,11477,1588764820193187738,,2.00773161365,-5.94462117584,5.3942436443,0.971932006715,-0.0363360358309,-0.444908049884
1588764820196354150,11478,1588764820196249067,,2.00804525205,-5.94433788676,5.41767260519,0.972756403408,-0.0375962083626,-0.447663117763
1588764820199049329,11479,1588764820198993074,,2.00882537693,-5.94429320209,5.41743242099,0.972757522956,-0.0374586525611,-0.44767221618
1588764820202091608,11480,1588764820202034795,,2.19454619179,-6.07718139248,5.49120556818,0.978926235631,-0.0367192163294,-0.456470880451
1588764820205102947,11481,1588764820205010663,,2.17138439891,-6.07712988025,5.49068763049,0.98358385748,-0.0360335343079,-0.460211335627
1588764820208132385,11482,1588764820208077992,,2.0308357197,-6.07673000056,5.53454877178,0.992389667714,-0.0387022279083,-0.458209402856
1588764820211013894,11483,1588764820210959755,,2.03133761433,-6.07653008419,5.53458408193,0.992384966858,-0.038639837015,-0.458224849223
1588764820214362655,11484,1588764820214288794,,2.14520082549,-6.21044162463,5.58318533203,1.00045675324,-0.0382265935541,-0.464690625664
1588764820217451043,11485,1588764820217302084,,2.19045285046,-6.21079073572,5.65389778963,1.01295036511,-0.038952227428,-0.470609650697
1588764820220296758,11486,1588764820220220923,,2.12061019601,-6.07800995929,5.67549452294,1.01738225253,-0.0402699950556,-0.471006532927
1588764820223726580,11487,1588764820223625929,,2.12109283655,-6.07798280049,5.6753432499,1.01738890679,-0.0401699014701,-0.471000706676
1588764820229374928,11488,1588764820229247701,,1.95815195074,-6.20983618309,5.69573090975,1.01401456604,-0.0380355111693,-0.449202942694
1588764820232101256,11489,1588764820232018052,,1.9576491987,-6.20980034208,5.69594280217,1.01403151779,-0.038088583411,-0.449160177128
1588764820235110190,11490,1588764820235018531,,2.18703167139,-6.34486778125,5.7001455863,1.01680503771,-0.0366172309969,-0.451315837108
1588764820238304752,11491,1588764820238225056,,1.92954547792,-6.47654406694,5.74193423653,1.01974564311,-0.0359981540239,-0.43278327302
1588764820241299810,11492,1588764820241201181,,1.93011669296,-6.47615997017,5.74217547375,1.01974911217,-0.035923671871,-0.432781287918
1588764820247129017,11493,1588764820247050441,,1.97620129819,-6.60892711724,5.85931756768,1.03089528017,-0.0363690247304,-0.432354828477
1588764820250061649,11494,1588764820249997934,,2.0694124079,-6.60905887564,5.90762309136,1.03710296433,-0.0356143752674,-0.43717492878
1588764820253083226,11495,1588764820252978828,,2.04615255232,-6.74128477035,5.93073713101,1.04337535274,-0.0355551123908,-0.43816530628
1588764820256244244,11496,1588764820256182267,,1.93049146112,-6.60826894467,5.90500486376,1.04804040423,-0.0374884158381,-0.435133045343
1588764820259154756,11497,1588764820259057492,,2.04546692769,-6.74106642687,6.02392453128,1.06127311976,-0.0374344330994,-0.446108788661
1588764820262108015,11498,1588764820262025622,,2.04531281009,-6.74106600014,6.02397733834,1.06128026817,-0.0374441023075,-0.446090971025
1588764820265103294,11499,1588764820264986389,,2.11026881823,-6.74338320417,6.04798044316,1.06669989231,-0.0381652396317,-0.451075126829
1588764820268052654,11500,1588764820267969904,,2.08660726393,-6.61056068668,6.04770587885,1.07222985594,-0.0396526386837,-0.453910071818
1588764820271094295,11501,1588764820271024157,,2.04082871825,-6.60983416283,6.04712452652,1.07499027148,-0.0395784861363,-0.455105604588
1588764820274056881,11502,1588764820273971317,,2.08781056524,-6.6099509703,6.0711067588,1.07770287633,-0.0401250123446,-0.460271573786
1588764820277434245,11503,1588764820277296031,,2.20550436664,-6.47756351431,6.04991479634,1.0772313641,-0.0400191417049,-0.473250319134
1588764820280279950,11504,1588764820280173417,,2.18368826909,-6.47694875307,6.02627255604,1.07655827627,-0.0405392683734,-0.478015520979
1588764820283321880,11505,1588764820283205435,,2.18460086677,-6.47645619773,6.02647116462,1.07655332794,-0.0404262571684,-0.478036235676
1588764820286257841,11506,1588764820286186381,,2.16234571284,-6.34358215585,6.00261592742,1.07408305266,-0.0403105139782,-0.482769945661
1588764820289206066,11507,1588764820289110297,,1.97748667262,-6.34240464224,5.95280834968,1.0640170223,-0.0408640123989,-0.469467282531
1588764820292217977,11508,1588764820292141784,,1.97791563959,-6.34218478516,5.95290007541,1.0582567628,-0.0401457144011,-0.457679029699
1588764820295272244,11509,1588764820295194370,,2.30436346205,-6.34280269047,5.98262557899,1.054481176,-0.0354048827824,-0.458420467149
1588764820298394342,11510,1588764820298245724,,2.09141879422,-6.34435971452,5.88470695979,1.05121002201,-0.0374475801019,-0.45063361758
1588764820301379021,11511,1588764820301267560,,2.09067269436,-6.34452732059,5.88479137488,1.05120249389,-0.0375844095394,-0.450639787342
1588764820307332868,11512,1588764820307197033,,2.09126531298,-6.34419983066,5.93122245746,1.05739895684,-0.0380592272476,-0.455149944756
1588764820310265705,11513,1588764820310157275,,2.23096066516,-6.34476744186,5.98028396622,1.06921961708,-0.0372732417321,-0.46412928791
1588764820313257497,11514,1588764820313146694,,2.23170534328,-6.34456771481,5.98021801194,1.06922416231,-0.0371425038483,-0.464129297866
1588764820316297919,11515,1588764820316221018,,2.11527108411,-6.34400900578,6.00126846901,1.07362559763,-0.0377384210789,-0.462969963652
1588764820319256781,11516,1588764820319181026,,2.20712774243,-6.34442465301,6.09608108702,1.08602504903,-0.03835042939,-0.470400709423
1588764820322248696,11517,1588764820322159078,,2.20724326605,-6.34426691096,6.09620342472,1.08604182388,-0.0383014600922,-0.470365969145
1588764820325381468,11518,1588764820325287939,,2.20696169752,-6.34415524005,6.14280406266,1.09767599273,-0.0382426147618,-0.472029158
1588764820328285913,11519,1588764820328198715,,2.20738337705,-6.34401302953,6.14279941918,1.09768836212,-0.0381456089832,-0.47200824228
1588764820331310603,11520,1588764820331219694,,2.1367157403,-6.47608781075,6.16531665156,1.1030159369,-0.0388453137534,-0.470493503489
1588764820334325194,11521,1588764820334220616,,2.24535777601,-6.34746834126,6.25925785968,1.11073481286,-0.039913130645,-0.476061713406
1588764820337484428,11522,1588764820337190871,,2.2446056124,-6.34754443306,6.25945046747,1.11072083813,-0.0400818330507,-0.476080144387
1588764820340376191,11523,1588764820340279481,,2.26792056007,-6.47999676523,6.2833588977,1.11331309786,-0.0400114186465,-0.475925672856
1588764820343286859,11524,1588764820343214793,,2.17464645957,-6.47978102661,6.30464729634,1.11675352944,-0.04055775612,-0.471836664601
1588764820349194574,11525,1588764820349076538,,2.17535685973,-6.47956949052,6.30461962838,1.11676152623,-0.0404246420828,-0.47182916081
1588764820352170531,11526,1588764820352087011,,2.22054114659,-6.61218149898,6.42210271248,1.12246226368,-0.0396521515382,-0.473295812604
1588764820355185460,11527,1588764820355092121,,1.82541399595,-6.87535353484,6.34533691353,1.11502637781,-0.0388485633672,-0.446589441135
1588764820358154733,11528,1588764820358069453,,1.82594087236,-6.87523040118,6.3453187385,1.11503951783,-0.0387377446857,-0.446566259197
1588764820361146905,11529,1588764820361053244,,1.89553597242,-7.0079587779,6.41660969847,1.11524129956,-0.037258110904,-0.434238645567
1588764820367290072,11530,1588764820367198785,,2.1294992913,-7.00788039044,6.46801057872,1.12577626078,-0.0337337907271,-0.427119502778
1588764820370449101,11531,1588764820370327472,,1.73341851533,-7.27129143844,6.46133121442,1.13461121969,-0.0349998700589,-0.412091499141
1588764820373319004,11532,1588764820373207449,,1.92036110578,-7.13877438697,6.51153214681,1.14181689948,-0.034896619815,-0.420898411649
1588764820376414129,11533,1588764820376294840,,1.92115130588,-7.13817973786,6.51195094526,1.14182559546,-0.0347825717928,-0.420884261049
1588764820379311782,11534,1588764820379195137,,2.0842680738,-7.13821847788,6.56193728786,1.15362271733,-0.0340811407996,-0.43069118512
1588764820382224479,11535,1588764820382135941,,1.84382768864,-7.1410184263,6.55586498562,1.16267700402,-0.0378810367309,-0.428394986573
1588764820385278609,11536,1588764820385177409,,1.84300504437,-7.1410949799,6.55601291293,1.16267067572,-0.0380288239193,-0.428399068062
1588764820388295316,11537,1588764820388211755,,2.05370098109,-7.00933292313,6.60592037743,1.17273859525,-0.0386071140445,-0.444419513683
1588764820391378826,11538,1588764820391283417,,2.05418979659,-7.00902012818,6.60610027946,1.17276426565,-0.038477664538,-0.444362996587
1588764820394328135,11539,1588764820394173974,,2.10152631211,-7.00914794584,6.62997086298,1.17641273859,-0.0376221071415,-0.450440108972
1588764820397229414,11540,1588764820397000869,,2.03297199166,-7.0085477945,6.60540697969,1.17744541024,-0.0381720694028,-0.449995451906
1588764820400409174,11541,1588764820400288490,,2.01054329895,-7.00830492396,6.58171710095,1.17672211982,-0.0394256277265,-0.451984204928
1588764820403401376,11542,1588764820403248781,,2.08051433218,-7.00862904349,6.60608476682,1.17577993122,-0.0379831403436,-0.457041315764
1588764820406395168,11543,1588764820406285482,,2.15140631922,-7.00865571845,6.58417565791,1.17327176997,-0.0379090479826,-0.461231421177
1588764820409434903,11544,1588764820409315060,,2.15226425618,-7.00821154499,6.56120848808,1.16891486863,-0.0385116856032,-0.46496880679
1588764820412263034,11545,1588764820412142473,,2.10613820028,-6.87541980266,6.53683925606,1.1645122557,-0.0391442357259,-0.465283305098
1588764820415324744,11546,1588764820415139587,,2.12954366273,-6.87526327048,6.53747777236,1.1609321968,-0.0384093320595,-0.467901628571
1588764820418208916,11547,1588764820418127574,,2.19950878617,-6.875156283,6.56238224281,1.1590340985,-0.0383334981729,-0.471134219774
1588764820421332685,11548,1588764820421236450,,2.22289491851,-6.87487585913,6.56319003838,1.15725787993,-0.0383157662079,-0.472809605871
1588764820424674925,11549,1588764820424595479,,2.17695193114,-6.87458520095,6.53897349843,1.15834624121,-0.038255424131,-0.473997116185
1588764820430470789,11550,1588764820430321830,,2.17738980656,-6.87439290357,6.53902987044,1.15834876278,-0.0381853155533,-0.473996607136
1588764820433303724,11551,1588764820433216596,,2.22342401115,-6.87448363132,6.58657252215,1.16268066157,-0.0381839499672,-0.476395103711
1588764820436351754,11552,1588764820436273238,,2.19180739134,-7.01114819565,6.56145159808,1.1655347666,-0.0395088537766,-0.477446184323
1588764820439343186,11553,1588764820439266583,,1.8653646755,-6.87723870643,6.53192769182,1.1642871217,-0.0409994824323,-0.455724814822
1588764820442355809,11554,1588764820442281501,,1.86615301325,-6.87691132186,6.53204719605,1.16425967047,-0.0409538413886,-0.455799044267
1588764820445302453,11555,1588764820445192586,,1.81978599876,-7.00934239175,6.55443179396,1.16184922541,-0.0394258890184,-0.435066172829
1588764820448227841,11556,1588764820448079054,,2.19406385692,-6.87801008765,6.58437296865,1.16634569349,-0.0345316212925,-0.437213479547
1588764820451140288,11557,1588764820451056839,,1.82181544144,-7.00875526006,6.55449587609,1.16778374612,-0.0344362066262,-0.412084509111
1588764820454349060,11558,1588764820454227083,,1.82267615167,-7.0083249906,6.5547166575,1.16776666517,-0.0343632876221,-0.412138997026
1588764820457253072,11559,1588764820457109435,,1.72939124225,-7.14041315807,6.5764959017,1.17212465942,-0.0349386696047,-0.408071755277
1588764820460263950,11560,1588764820460167343,,1.98462184373,-7.27345647012,6.67500806179,1.1836276305,-0.0342268130577,-0.417260327063
1588764820463177727,11561,1588764820463099752,,1.98549107289,-7.27292379624,6.67532996666,1.18361826705,-0.0341398018458,-0.41729401481
1588764820466381081,11562,1588764820466283542,,1.91629873604,-7.27233115127,6.67421029136,1.18544414179,-0.0340202161276,-0.416776980533
1588764820469377823,11563,1588764820469263964,,1.800588916,-7.27149863343,6.64913288076,1.18464437167,-0.0352791150819,-0.414757653911
1588764820472422457,11564,1588764820472310652,,1.80116959998,-7.2712169439,6.64928365414,1.18465086811,-0.03518333782,-0.414747234107
1588764820475266107,11565,1588764820475152841,,1.94041773927,-7.27146621385,6.72179506049,1.18800298198,-0.0344215704866,-0.420192186746
1588764820478213144,11566,1588764820478137794,,1.94140237377,-7.27131842429,6.69849884179,1.18632315923,-0.0343085001241,-0.420207211939
1588764820481224235,11567,1588764820481106670,,1.87187234024,-7.27108010134,6.69709592692,1.18723285982,-0.0342255475236,-0.419728394813
1588764820487228842,11568,1588764820487139160,,1.94205194127,-7.40367191185,6.72190786098,1.18809564436,-0.0347754144123,-0.423834090293
1588764820490306654,11569,1588764820490181295,,1.96570220149,-7.40377387692,6.72218954624,1.18818693361,-0.0347167649722,-0.42828381241
1588764820493220160,11570,1588764820493133375,,1.94272068561,-7.40378122824,6.72159420632,1.18818856226,-0.0346663724304,-0.428438645265
1588764820496399207,11571,1588764820496304360,,1.94266732211,-7.40399721666,6.72137171295,1.1863825994,-0.0353468471852,-0.430308598387
1588764820499304238,11572,1588764820499211955,,2.00121155295,-7.40902252816,6.76719444539,1.19164699815,-0.0362558368892,-0.43528251998
1588764820502253550,11573,1588764820502187449,,2.00072866499,-7.40908725551,6.76726636195,1.19164140658,-0.0363460321006,-0.43529030565
1588764820505213267,11574,1588764820505115465,,2.00128982584,-7.40895165986,6.76724888703,1.19439722277,-0.0363200416837,-0.437140584412
1588764820508268381,11575,1588764820508183271,,2.00248129275,-7.54110894,6.76744844112,1.1962576164,-0.0367394890241,-0.438006077908
1588764820511438624,11576,1588764820511341041,,2.00327498567,-7.40827575769,6.81375691154,1.20242937246,-0.0365543663199,-0.440668563263
1588764820514282553,11577,1588764820514197494,,2.00382080127,-7.40792943472,6.81397294582,1.2024352079,-0.0364704984814,-0.440659589307
1588764820517314224,11578,1588764820517200117,,2.02721476973,-7.40779633399,6.83788393539,1.20600686503,-0.0364119834219,-0.44320601937
1588764820520272970,11579,1588764820520205544,,2.02752235474,-7.40758382416,6.86119891825,1.21143050841,-0.0369721933175,-0.446781014671
1588764820523823897,11580,1588764820523647016,,2.02784650465,-7.407314237,6.86139416989,1.21143638041,-0.0369199485071,-0.446769413084
1588764820529120031,11581,1588764820529057295,,2.05126668414,-7.40704329485,6.8853693044,1.21313666756,-0.0375280053308,-0.447496051781
1588764820532254610,11582,1588764820532166965,,2.07550563373,-7.40661065221,6.88606358758,1.21590842938,-0.0373831922181,-0.448208467958
1588764820535092783,11583,1588764820535027610,,2.05255320607,-7.538772365,6.88603972982,1.21593960816,-0.0372914024465,-0.449262589193
1588764820538160342,11584,1588764820538034155,,2.02967558172,-7.40607025957,6.88536937515,1.21589194826,-0.0378981763414,-0.446639234074
1588764820541185608,11585,1588764820541078923,,2.05297240422,-7.5385057486,6.90937878415,1.21666276453,-0.0371439118693,-0.446477716106
1588764820547230991,11586,1588764820547113741,,2.03068794888,-7.40560447814,6.90874505173,1.21573077974,-0.0370229658607,-0.445750606351
1588764820550217668,11587,1588764820550084519,,2.03089919241,-7.53795938118,6.90907856515,1.21570759724,-0.0369834714594,-0.444851464672
1588764820553134174,11588,1588764820553035168,,1.93797313191,-7.53764372584,6.90731910647,1.21374643085,-0.036936345012,-0.439067406751
1588764820556133804,11589,1588764820556050984,,1.63663524596,-7.53670612238,6.80848574229,1.20280806449,-0.0368602556397,-0.412753237442
1588764820559230420,11590,1588764820559079219,,1.82271957674,-7.53717618532,6.85855907393,1.20052121152,-0.0334417946623,-0.404273819118
1588764820562094769,11591,1588764820562037854,,2.00978339286,-7.40499012048,6.86185778727,1.19767512945,-0.0307314297856,-0.399470552569
1588764820565460989,11592,1588764820565335374,,1.82366645544,-7.53687621705,6.83545177595,1.19755210681,-0.0313650261821,-0.386920842009
1588764820568153997,11593,1588764820568071369,,1.56822392045,-7.53611020901,6.78409970111,1.19581821192,-0.0313255756119,-0.377592575749
1588764820571326640,11594,1588764820571197040,,1.59094639618,-7.53615384605,6.83117181704,1.19920865513,-0.0319780820884,-0.378315767852
1588764820574313452,11595,1588764820574211240,,1.73036827631,-7.53644554816,6.8803374726,1.20449921765,-0.0312774996241,-0.382840296156
1588764820577401015,11596,1588764820577237822,,1.6606261464,-7.4037135304,6.87876944183,1.20910285976,-0.0319298786993,-0.384124751896
1588764820583675533,11597,1588764820583291966,,1.66075344403,-7.4035882385,6.87887356077,1.2091074495,-0.0319026786607,-0.384112564619
1588764820586312237,11598,1588764820586200763,,1.70727524752,-7.40373670165,6.87973120034,1.21195097952,-0.0326042502334,-0.389268341464
1588764820589456493,11599,1588764820589311804,,1.76789297186,-7.27536368083,6.87901185766,1.21390588375,-0.0347681698264,-0.397051548133
1588764820592396401,11600,1588764820592303141,,1.76761128794,-7.27540198322,6.87904373466,1.21389733325,-0.0348377528084,-0.397071589775
1588764820595374946,11601,1588764820595286557,,1.72181734778,-7.27506132987,6.85493928656,1.2131376613,-0.0354815975223,-0.398345188144
1588764820598325292,11602,1588764820598242543,,1.8165894408,-7.2750472019,6.8566419448,1.21058531115,-0.0352372111435,-0.407895141837
1588764820601350449,11603,1588764820601263918,,1.81766870471,-7.27476538331,6.85665493104,1.21058448692,-0.035075364307,-0.407911537233
1588764820607521545,11604,1588764820607336143,,1.81836489034,-7.27455819433,6.85669015987,1.20612426391,-0.0356240312083,-0.413474422755
1588764820610347450,11605,1588764820610247530,,1.8193451418,-7.27423166331,6.85677655382,1.20612783247,-0.0354698013106,-0.413477272414
1588764820613319238,11606,1588764820613190297,,1.86617171429,-7.27431171899,6.85766983786,1.20623387659,-0.0361217024343,-0.418690798799
1588764820616369322,11607,1588764820616251511,,1.88921966109,-7.27431189763,6.90464467706,1.20690558028,-0.0353808328244,-0.421285074842
1588764820619331772,11608,1588764820619220473,,1.91371118331,-7.14151845059,6.90491976364,1.20972744296,-0.0352308069342,-0.424766625432
1588764820622293471,11609,1588764820622208828,,1.91386672032,-7.14140636473,6.90499257974,1.20973485085,-0.035190212405,-0.424748892516
1588764820625504158,11610,1588764820625387593,,1.96035267829,-7.14140056374,6.92933940003,1.21421410757,-0.0358410695827,-0.427126666009
1588764820628389482,11611,1588764820628278079,,1.96088436795,-7.14114370248,6.92945367774,1.21792335472,-0.0364196198258,-0.428896724491
1588764820631273079,11612,1588764820631184550,,1.96123632823,-7.14100522575,6.92949677729,1.21792278178,-0.036368806738,-0.428902663151
1588764820634380079,11613,1588764820634281007,,1.96149096068,-7.14094873986,6.92948291445,1.2188494119,-0.0356715810522,-0.42981142647
1588764820637516108,11614,1588764820637246688,,1.96134155875,-7.1409920043,6.95266132023,1.22055386385,-0.0362974951961,-0.430703775865
1588764820640334508,11615,1588764820640208089,,1.96174580925,-7.00850203005,6.95232361762,1.22143550824,-0.0369506061375,-0.429799382716
1588764820643424580,11616,1588764820643289125,,1.96190613593,-7.00848976542,6.95229073984,1.22143287022,-0.0369305942541,-0.429808599498
1588764820646245133,11617,1588764820646161171,,1.96194551617,-7.14097467597,6.95250871399,1.22053894047,-0.0369074568351,-0.430748843249
1588764820649106601,11618,1588764820649038926,,1.98545885156,-7.00853965788,6.95265964984,1.21967347388,-0.0362191960635,-0.433371316008
1588764820652515134,11619,1588764820652323075,,1.9860549984,-7.00849262461,6.92935667093,1.21797135588,-0.0361988470484,-0.432502611124
1588764820655316483,11620,1588764820655178576,,1.98571102828,-7.00853389416,6.95259344134,1.21689154592,-0.036189853945,-0.431598404869
1588764820658165731,11621,1588764820658090176,,1.96297724805,-7.00833921722,6.92895876242,1.21335948639,-0.0361654991257,-0.430890881982
1588764820661174265,11622,1588764820661083624,,1.94018493632,-7.00816590474,6.90522105444,1.21161698165,-0.036819066336,-0.428318244432
1588764820667152736,11623,1588764820667060821,,1.94036480819,-7.0080211901,6.90531738275,1.21071179818,-0.0361119626988,-0.42832665763
1588764820670380351,11624,1588764820670261937,,1.9410628586,-6.87542378619,6.88182026041,1.20992474411,-0.0360852472916,-0.427427533027
1588764820673161777,11625,1588764820673034353,,1.94079291255,-6.8754267103,6.90507458025,1.2106925678,-0.0360670429982,-0.427417961785
1588764820676124339,11626,1588764820676050925,,1.91790228408,-6.87525184198,6.88143634847,1.21080120641,-0.0360478186095,-0.425716412506
1588764820679197719,11627,1588764820679130036,,1.918173536,-6.74276406097,6.88113254679,1.20988962706,-0.0360276711733,-0.425739365086
1588764820685380048,11628,1588764820685268137,,1.9182149886,-6.74273827664,6.88114625719,1.21080140982,-0.0360152399688,-0.425718591342
1588764820688328884,11629,1588764820688232657,,1.89543832634,-6.74256144062,6.85750745666,1.20996193438,-0.0353339891388,-0.422213561362
1588764820694482479,11630,1588764820694319440,,1.89543997058,-6.74252021556,6.85754753599,1.20996686244,-0.0353217152359,-0.422200465511
1588764820697751403,11631,1588764820697494953,,1.89558815111,-6.6100211771,6.85729033824,1.20906081021,-0.0353073095633,-0.422207140734
1588764820703511184,11632,1588764820703392053,,1.89599464548,-6.60994588958,6.83406797887,1.20735888943,-0.0352927334356,-0.421309277965
1588764820709327300,11633,1588764820709242673,,1.89675687943,-6.60973138023,6.78760110674,1.19940448681,-0.0352726844746,-0.420499704613
1588764820712397343,11634,1588764820712317269,,1.89671156465,-6.60969363923,6.78765052125,1.19940875209,-0.0352707052329,-0.420487704446
1588764820715346496,11635,1588764820715254794,,1.87333256624,-6.47718700095,6.78694926371,1.19663448623,-0.035263369223,-0.418825438433
1588764820718349840,11636,1588764820718254853,,1.89704947331,-6.47711532147,6.76423459678,1.19225247313,-0.0345783646131,-0.420559897035
1588764820721316096,11637,1588764820721224440,,1.89698915261,-6.47705267197,6.76431150314,1.19225902831,-0.0345738553608,-0.420541683931
1588764820724567369,11638,1588764820724486409,,1.89735433523,-6.4769754996,6.74110348327,1.19149437438,-0.0345707563252,-0.420544155618
1588764820730391079,11639,1588764820730211797,,1.89811053575,-6.47681016425,6.69459248652,1.18449288361,-0.0345635415485,-0.421558617582
1588764820733425693,11640,1588764820733340267,,1.89805654436,-6.4767564615,6.6946597496,1.18449655819,-0.0345661131628,-0.421548081777
1588764820736363897,11641,1588764820736236784,,1.89815496778,-6.34432372019,6.6943495775,1.18357826537,-0.0345626369283,-0.421560639404
1588764820739395720,11642,1588764820739280437,,1.89804565782,-6.34462703659,6.69409310225,1.1808897468,-0.0345292627112,-0.423414142017
1588764820745335409,11643,1588764820745203128,,1.89806485947,-6.3446171204,6.69409705628,1.18088864669,-0.0345295483793,-0.423417186909
1588764820748346111,11644,1588764820748250389,,1.89886410733,-6.34444348315,6.64767843991,1.1784345068,-0.034528002004,-0.423452764637
1588764820754432738,11645,1588764820754329271,,1.89887160074,-6.3444467814,6.64767315166,1.17843209587,-0.0345335194421,-0.423459024081
1588764820757393034,11646,1588764820757300353,,1.9226646958,-6.21189319867,6.62448793119,1.17677401718,-0.0352099307998,-0.425170886124
1588764820760277440,11647,1588764820760196812,,1.92285144894,-6.21187779804,6.62444816736,1.17674328863,-0.0345379417795,-0.424291742037
1588764820766251838,11648,1588764820766157091,,1.90011592795,-6.21176739112,6.60072767652,1.1750594436,-0.0345381104639,-0.424491736353
1588764820769292939,11649,1588764820769205827,,1.90057431769,-6.21167574182,6.57750522919,1.16969179012,-0.0345378778921,-0.423676520839
1588764820772372457,11650,1588764820772268507,,1.90068808754,-6.21169350416,6.57745557968,1.16968424966,-0.0345373639443,-0.423697379956
1588764820778273270,11651,1588764820778190113,,1.90116701277,-6.21161892134,6.55421111245,1.1670643633,-0.0345332302325,-0.422827263168
1588764820781246854,11652,1588764820781179202,,1.90170066556,-6.07924576343,6.53045464976,1.16261415753,-0.034524568146,-0.421993610261
1588764820790396655,11653,1588764820790316916,,1.85594414499,-5.94672874715,6.4826753054,1.15181890416,-0.0345052500197,-0.416962912255
1588764820793325045,11654,1588764820793223451,,1.85592422977,-5.94680615112,6.48261000146,1.15181693345,-0.0345101836725,-0.416967947794
1588764820796377468,11655,1588764820796277594,,1.87992080682,-6.07920369015,6.43673141792,1.14933379215,-0.0338342987663,-0.415944995124
1588764820802423167,11656,1588764820802217632,,1.87985428418,-6.07928116007,6.43667767871,1.14840682539,-0.034509599171,-0.415040560406
1588764820805319814,11657,1588764820805200087,,1.8573145354,-6.07920244825,6.38969195331,1.14220311917,-0.0338360908973,-0.410708309867
1588764820808227681,11658,1588764820808154216,,1.85731887775,-6.07930065247,6.38959725738,1.14220025294,-0.033837465525,-0.410716167694
1588764820814486759,11659,1588764820814365651,,1.81195496989,-5.94664285789,6.31855780901,1.13431680899,-0.0331631565432,-0.40656005615
1588764820817737998,11660,1588764820817468339,,1.8119557703,-5.94669319613,6.3185102038,1.13431441445,-0.0331669664076,-0.406566426158
1588764820823966441,11661,1588764820823874624,,1.81239295756,-5.81425027591,6.29496081645,1.12797721588,-0.0331653980747,-0.402997091325
1588764820829448834,11662,1588764820829308910,,1.81237856607,-5.81428331954,6.2949344395,1.12797738236,-0.0331655990359,-0.402996608816
1588764820832422453,11663,1588764820832334223,,1.81364612661,-5.6817221013,6.22480279361,1.11924933202,-0.0324906650545,-0.402216492533
1588764820835426274,11664,1588764820835312595,,1.81353186107,-5.68174528583,6.22481492288,1.11925346215,-0.0324992320903,-0.402204307255
1588764820838463607,11665,1588764820838287065,,1.81427693415,-5.68166088323,6.17821993303,1.11680597834,-0.0325000705752,-0.402239353932
1588764820841463474,11666,1588764820841366874,,1.79094919421,-5.68165037195,6.17775291004,1.11494454212,-0.0325016277787,-0.400583321632
1588764820850508598,11667,1588764820850404295,,1.76837114294,-5.54918116217,6.13046252514,1.11064684394,-0.0325067981273,-0.399875071529
1588764820856379751,11668,1588764820856269619,,1.81533808714,-5.54929602267,6.10797513376,1.1071418383,-0.0318365563842,-0.40054291085
1588764820859451630,11669,1588764820859332048,,1.79252480908,-5.41686888231,6.08393222622,1.10270256773,-0.0318334732829,-0.39984277068
1588764820862438262,11670,1588764820862338229,,1.77005207042,-5.28438299497,6.03664003326,1.09836462242,-0.0311552144252,-0.39731715811
1588764820865424808,11671,1588764820865319046,,1.77000779557,-5.28442848795,6.03661319119,1.09836417442,-0.0311629980583,-0.397317786163
1588764820871850154,11672,1588764820871726187,,1.77082697273,-5.28429939914,5.99003126082,1.09222641995,-0.0311610271848,-0.396500401349
1588764820877688582,11673,1588764820877388039,,1.77118697221,-5.2842854259,5.96676022309,1.08870032898,-0.0318371199809,-0.395644195418
1588764820883342268,11674,1588764820883266794,,1.77115947716,-5.28430440665,5.96675157495,1.08869891751,-0.0318460682462,-0.39564735919
1588764820886366085,11675,1588764820886288118,,1.77149784068,-5.28426412469,5.94351028746,1.0861135503,-0.0311761591645,-0.39659830247
1588764820889397878,11676,1588764820889306233,,1.74868982209,-5.15180303419,5.91940852696,1.08439707513,-0.0318583272589,-0.394944432981
1588764820892341675,11677,1588764820892241524,,1.74862855601,-5.1518511328,5.91938476403,1.08257152304,-0.0311866903987,-0.394968107168
1588764820895403268,11678,1588764820895257203,,1.74931491743,-5.1516959627,5.87296354245,1.07827128282,-0.0311972250575,-0.394114875509
1588764820898326725,11679,1588764820898249032,,1.74927564913,-5.15168348607,5.87298618303,1.07827167451,-0.0312051791496,-0.394113174164
1588764820901397322,11680,1588764820901270872,,1.72595538349,-5.01930341149,5.87221532623,1.07732906098,-0.0312139233238,-0.392439343814
1588764820907504082,11681,1588764820907394773,,1.72629201337,-5.01922779542,5.84900388412,1.07564314059,-0.0312207115738,-0.392461738579
1588764820910523712,11682,1588764820910348453,,1.72678441292,-4.8868576971,5.82532152918,1.07119461783,-0.0318935140979,-0.391609769377
1588764820916435776,11683,1588764820916336595,,1.72720118615,-4.7544955796,5.80176306062,1.06493635739,-0.031220732581,-0.391698562535
1588764820919384201,11684,1588764820919257914,,1.72721310528,-4.75449585018,5.80175929051,1.06493522676,-0.0312218076511,-0.391701550747
1588764820922381843,11685,1588764820922291697,,1.75054228242,-4.75455805254,5.80221658784,1.06310524442,-0.0305604237491,-0.39158585687
1588764820925423836,11686,1588764820925342388,,1.72717664917,-4.75451678484,5.80175298774,1.06217851304,-0.030565875213,-0.390834151416
1588764820931467960,11687,1588764820931349420,,1.72729105405,-4.62227972649,5.80136894169,1.05943009024,-0.030563851542,-0.390880651665
1588764820934351789,11688,1588764820934227155,,1.72763329086,-4.62221115234,5.77814656324,1.05772463618,-0.0305700615695,-0.38999117021
1588764820940365519,11689,1588764820940278019,,1.72761992204,-4.62220878684,5.7781524527,1.05587577569,-0.0305765589094,-0.389110518257
1588764820943495249,11690,1588764820943297029,,1.7046860758,-4.6221110341,5.75446185315,1.05324642219,-0.0305799599259,-0.38745525692
1588764820949321112,11691,1588764820949171560,,1.70529548708,-4.35757526526,5.73038645785,1.04970814551,-0.0305780072483,-0.386598855408
1588764820952272532,11692,1588764820952194088,,1.70525075657,-4.35758788811,5.73039017011,1.04970837668,-0.0305871556431,-0.386597504013
1588764820955310166,11693,1588764820955222138,,1.70543986363,-4.48973895993,5.70755387774,1.04709757168,-0.0305896491021,-0.385712429718
1588764820958313564,11694,1588764820958207883,,1.68259794809,-4.35738311438,5.68348837868,1.04540164431,-0.0305953993556,-0.384975640365
1588764820967278776,11695,1588764820967178472,,1.68295811246,-4.35733510033,5.66014343941,1.0409433912,-0.0306006095465,-0.384125036238
1588764820970356855,11696,1588764820970178044,,1.68308472847,-4.22513616036,5.65975795201,1.04001352993,-0.0306013151164,-0.383230614367
1588764820973241615,11697,1588764820973172581,,1.68304693191,-4.22516231799,5.65974966441,1.03816799247,-0.0306002635889,-0.38234152861
1588764820979448330,11698,1588764820979316435,,1.68308916127,-4.22519129282,5.65971547575,1.03724658849,-0.0299254707691,-0.382364962493
1588764820982375769,11699,1588764820982259314,,1.68352363741,-4.09293703059,5.63611872263,1.03375402566,-0.0299255885303,-0.383323276913
1588764820988345795,11700,1588764820988211479,,1.68352681065,-4.09295556366,5.63610431605,1.03280441832,-0.0299300899716,-0.381517091379
1588764820991737694,11701,1588764820991649292,,1.68401469631,-3.96076009571,5.61246214424,1.03111704186,-0.0299296137664,-0.381544064135
1588764820994328070,11702,1588764820994199398,,1.68401339092,-3.96077743067,5.61245030246,1.03111522337,-0.0299357380331,-0.38154849811
1588764821000311288,11703,1588764821000208047,,1.66115350034,-3.96065885679,5.58874596781,1.02942120136,-0.0299365168003,-0.380810378942
1588764821003263930,11704,1588764821003183800,,1.68449747994,-3.82862248645,5.58879557352,1.02758905842,-0.0299378737156,-0.380684214951
1588764821006344146,11705,1588764821006174325,,1.68446013235,-3.82863676274,5.58879705015,1.02755089455,-0.0299454052145,-0.378857234097
1588764821012386271,11706,1588764821012312147,,1.68446615028,-3.82865587249,5.58878214505,1.02573071581,-0.0299460397839,-0.379802180014
1588764821015245186,11707,1588764821015148901,,1.68492901662,-3.69647873874,5.56506495904,1.02403154365,-0.0299517936077,-0.3789137342
1588764821018311004,11708,1588764821018221627,,1.68493898168,-3.6964813647,5.56506019768,1.0249208651,-0.0292822351371,-0.377990542356
1588764821024762136,11709,1588764821024673258,,1.66183763906,-3.56436195825,5.56419274625,1.02307349645,-0.0299545056028,-0.377258759933
1588764821027604990,11710,1588764821027518854,,1.6618575533,-3.56438366821,5.56417289125,1.02307071902,-0.0299590011361,-0.377265934878
1588764821030289578,11711,1588764821030195577,,1.661852188,-3.5644017705,5.56416289742,1.02305139502,-0.0292895284523,-0.3763453851
1588764821036259562,11712,1588764821036199078,,1.66228905716,-3.56434676323,5.54089274038,1.02229886434,-0.029288371543,-0.377290540968
1588764821039341573,11713,1588764821039197949,,1.66231756813,-3.56434673765,5.54088420336,1.02134893618,-0.0292884837457,-0.375475356188
1588764821042509064,11714,1588764821042377318,,1.66248345575,-3.43227042011,5.54049603644,1.02225398653,-0.0292935247003,-0.375471750083
1588764821048294642,11715,1588764821048203735,,1.66293188006,-3.43222339982,5.51721613137,1.02057266628,-0.0292882559176,-0.375509503353
1588764821051487040,11716,1588764821051384846,,1.63927735336,-3.43225447897,5.53996870122,1.02129844288,-0.0299687175131,-0.373831257583
1588764821054302638,11717,1588764821054214416,,1.63933651869,-3.43224936173,5.53995436421,1.02129473261,-0.029967841642,-0.37384146401
1588764821060488333,11718,1588764821060373595,,1.6398964737,-3.30013021976,5.51631660399,1.02235242976,-0.0292927611642,-0.373834241163
1588764821063426300,11719,1588764821063314867,,1.63999005246,-3.30012716598,5.51629061086,1.02234717517,-0.0292880958355,-0.373848976513
1588764821066272551,11720,1588764821066176107,,1.64003991186,-3.30014146303,5.51626723417,1.02232302329,-0.0299622550026,-0.372936737888
1588764821072457428,11721,1588764821072367066,,1.64023119055,-3.16813399562,5.51586595112,1.02508409128,-0.0299673042997,-0.373831408971
1588764821075590379,11722,1588764821075426862,,1.64027767789,-3.16814882709,5.51584360839,1.02507977568,-0.0299717085277,-0.373842889496
1588764821081646923,11723,1588764821081424047,,1.64042121409,-3.03615961668,5.51546628807,1.02596711421,-0.0299771661686,-0.37291247617
1588764821084396640,11724,1588764821084315950,,1.64058084337,-2.90420300913,5.51508681577,1.02688165705,-0.0306563487493,-0.372907506555
1588764821087517222,11725,1588764821087393216,,1.64050400861,-2.90423632389,5.51509212798,1.02688530461,-0.0306618524624,-0.372897009551
1588764821090564963,11726,1588764821090422499,,1.6177257084,-2.7721581156,5.49104127416,1.02703439644,-0.0299877264898,-0.373040828689
1588764821096414843,11727,1588764821096301777,,1.61716197634,-2.77226756193,5.51432905309,1.02781251513,-0.0306683268357,-0.372998040103
1588764821099433675,11728,1588764821099259511,,1.64018930569,-2.77236866366,5.51483065864,1.029668757,-0.0306751691553,-0.373702044236
1588764821105472800,11729,1588764821105355747,,1.63987531901,-2.64048749039,5.53777525061,1.03503456571,-0.0306906171456,-0.374521748332
1588764821108327994,11730,1588764821108222120,,1.63980159471,-2.64050789632,5.53778735187,1.03503796202,-0.0306979416565,-0.37451176178
1588764821111450799,11731,1588764821111289256,,1.63989732383,-2.5086395384,5.5374527021,1.03599762791,-0.0307013865303,-0.376326869137
1588764821114393165,11732,1588764821114314676,,1.66348015691,-2.50863699481,5.51469837602,1.03708000688,-0.0313694558942,-0.377059575637
1588764821120435151,11733,1588764821120315370,,1.66339871878,-2.50865950835,5.51471269934,1.03889314784,-0.0313758129749,-0.376095806952
1588764821123906951,11734,1588764821123827810,,1.68634857753,-2.37691044272,5.5381288998,1.04156522117,-0.0313838704845,-0.3795637082
1588764821129328923,11735,1588764821129233758,,1.6867783842,-2.24498342932,5.51459299221,1.04357156267,-0.0307158185438,-0.380426648493
1588764821132361348,11736,1588764821132278797,,1.71003948917,-2.2450392724,5.51508651896,1.04818565234,-0.0307264633467,-0.382037866869
1588764821135309207,11737,1588764821135242714,,1.71039812975,-2.24500802806,5.49181924229,1.04834695138,-0.0307231293436,-0.382945654657
1588764821138334419,11738,1588764821138243222,,1.68667827967,-2.24502667332,5.51460600605,1.0500360937,-0.0313971038923,-0.383061942818
