%time,field.header.seq,field.header.stamp,field.header.frame_id,field.vector.x,field.vector.y,field.vector.z
1588764819587058119,11303,1588764819586911279,,0.49976473087,-0.199136228283,0.211575019872
1588764819593037478,11304,1588764819592925949,,0.499766862232,-0.199101492509,0.211545381379
1588764819599068083,11305,1588764819598910885,,0.499766754676,-0.199035300431,0.211481060048
1588764819605163404,11306,1588764819604927654,,0.499767839269,-0.199004504596,0.211451515916
1588764819614132597,11307,1588764819613956962,,0.499767412282,-0.198901122949,0.211346861782
1588764819620051733,11308,1588764819619900153,,0.499768892698,-0.198826382605,0.211278153755
1588764819623492404,11309,1588764819623322795,,0.499768298191,-0.198791704133,0.211241410132
1588764819628973441,11310,1588764819628857593,,0.499769214024,-0.198713303591,0.211164856865
1588764819631988727,11311,1588764819631893785,,0.499769528109,-0.198671695177,0.211131362408
1588764819635054411,11312,1588764819634898508,,0.499770087187,-0.198630599952,0.211095038284
1588764819638014798,11313,1588764819637908944,,0.499770820913,-0.198586594329,0.211058645642
1588764819641052684,11314,1588764819640897116,,0.499771182025,-0.19854302803,0.211021299225
1588764819647056137,11315,1588764819646909209,,0.499775402936,-0.198407133899,0.210915767127
1588764819650019357,11316,1588764819649914979,,0.499776869395,-0.198314227801,0.210839477305
1588764819656023298,11317,1588764819655895331,,0.499778833231,-0.198265176654,0.210801699553
1588764819662134791,11318,1588764819661931038,,0.49978112666,-0.198216391677,0.21076334969
1588764819668067565,11319,1588764819667964425,,0.49978239036,-0.198166826639,0.210722975906
1588764819674135064,11320,1588764819673937272,,0.499783788438,-0.198116234196,0.210684241223
1588764819677117207,11321,1588764819676932120,,0.499784779856,-0.198066943631,0.210642620992
1588764819683081867,11322,1588764819682909776,,0.499785275502,-0.198014394463,0.210599455295
1588764819689052127,11323,1588764819688943669,,0.499787392778,-0.197964441162,0.210559483467
1588764819695178501,11324,1588764819694972679,,0.499785847986,-0.197914565681,0.210514855506
1588764819701022830,11325,1588764819700883081,,0.499787601225,-0.197871303783,0.210478752479
1588764819704056067,11326,1588764819703891808,,0.499787686155,-0.197819585728,0.210435901376
1588764819707022936,11327,1588764819706867072,,0.499787288767,-0.197760838899,0.210385857259
1588764819709975555,11328,1588764819709852343,,0.499788742095,-0.19766434085,0.210307192177
1588764819713006137,11329,1588764819712873426,,0.499788681608,-0.197604823573,0.210261670153
1588764819719030210,11330,1588764819718902486,,0.499788399502,-0.197498821557,0.210178237454
1588764819722044556,11331,1588764819721893055,,0.49978801325,-0.197446898967,0.210137498693
1588764819725242373,11332,1588764819725068176,,0.499788154629,-0.197392780876,0.210097589518
1588764819728094812,11333,1588764819727924835,,0.499787648782,-0.197339342513,0.21005350842
1588764819730997220,11334,1588764819730900691,,0.499788505242,-0.197281483014,0.210011001329
1588764819734109990,11335,1588764819733917075,,0.499788699659,-0.197222700207,0.209965211449
1588764819737038686,11336,1588764819736940021,,0.499788763239,-0.197162582712,0.209917913613
1588764819739986758,11337,1588764819739879675,,0.499791437555,-0.197037092347,0.209825673417
1588764819742972539,11338,1588764819742874811,,0.499790638926,-0.19690948841,0.209721477781
1588764819745976986,11339,1588764819745861222,,0.499791634905,-0.196840979207,0.209670441828
1588764819748996738,11340,1588764819748863682,,0.49979155448,-0.196773203957,0.209618465759
1588764819751986683,11341,1588764819751876025,,0.499790846916,-0.196635794743,0.209508088313
1588764819754941619,11342,1588764819754845526,,0.49978983416,-0.196565849908,0.209453413452
1588764819758003028,11343,1588764819757893395,,0.499793201406,-0.196492762891,0.209402223711
1588764819761012571,11344,1588764819760880448,,0.499791817675,-0.196347062691,0.209288064941
1588764819767083007,11345,1588764819766942875,,0.499793009192,-0.19613183225,0.209122350988
1588764819770075678,11346,1588764819769954621,,0.499793918961,-0.196059212428,0.209066317759
1588764819776036207,11347,1588764819775883967,,0.499794577476,-0.195904671131,0.208954533311
1588764819779075260,11348,1588764819778911325,,0.499794175949,-0.195830192138,0.20889982199
1588764819781973372,11349,1588764819781885266,,0.499793434827,-0.195754576573,0.208841920364
1588764819784975781,11350,1588764819784885033,,0.499794618355,-0.195674792312,0.208784969199
1588764819787998185,11351,1588764819787912747,,0.499792868732,-0.195521314028,0.208665165093
1588764819790999366,11352,1588764819790907466,,0.499792312644,-0.195442263606,0.208605182443
1588764819794007225,11353,1588764819793913530,,0.499789747612,-0.195279158801,0.2084828061
1588764819797004066,11354,1588764819796862462,,0.499789321366,-0.195199969808,0.20842309857
1588764819800047910,11355,1588764819799907252,,0.499786483001,-0.195032171664,0.208297155785
1588764819803021351,11356,1588764819802917718,,0.499787807379,-0.194946541164,0.208239959642
1588764819805972148,11357,1588764819805900559,,0.499786281812,-0.194771116659,0.208112326216
1588764819808964443,11358,1588764819808894629,,0.499784825245,-0.194685814038,0.208046584962
1588764819812059733,11359,1588764819811930299,,0.499785625526,-0.19450423631,0.207919791462
1588764819815014995,11360,1588764819814894563,,0.499785303099,-0.194413501583,0.207858659979
1588764819818006923,11361,1588764819817898540,,0.499783023501,-0.194234932691,0.20773102047
1588764819820962940,11362,1588764819820867583,,0.49978172359,-0.194145881268,0.20766674629
1588764819824205388,11363,1588764819824121674,,0.499780300148,-0.193966148976,0.20753937867
1588764819827289781,11364,1588764819827171441,,0.499780961297,-0.193875083645,0.207474670777
1588764819829956646,11365,1588764819829855870,,0.499779759944,-0.193693433553,0.207346233745
1588764819832983970,11366,1588764819832892306,,0.499778758905,-0.1936019332,0.207278134334
1588764819835990216,11367,1588764819835877356,,0.499778704305,-0.193510939844,0.207214811418
1588764819839017326,11368,1588764819838907643,,0.499776399828,-0.193418417524,0.20714752048
1588764819841977597,11369,1588764819841894930,,0.499773030908,-0.193234360784,0.20702174842
1588764819845000501,11370,1588764819844901707,,0.499771096651,-0.193140125162,0.206958968367
1588764819848013814,11371,1588764819847906698,,0.499773766305,-0.192949792829,0.20682974778
1588764819851005125,11372,1588764819850894116,,0.499776255807,-0.19285296906,0.206765620807
1588764819853985525,11373,1588764819853886792,,0.499773830821,-0.192662221863,0.206629350404
1588764819856961537,11374,1588764819856863536,,0.499772593962,-0.192565611645,0.206562206567
1588764819859919483,11375,1588764819859857971,,0.499769112302,-0.19236573624,0.206420212265
1588764819863014178,11376,1588764819862918297,,0.499766860548,-0.192265704537,0.206349084033
1588764819865986974,11377,1588764819865885572,,0.499765002534,-0.192066027993,0.206201343813
1588764819868986714,11378,1588764819868894157,,0.499763925287,-0.191968369761,0.206127628291
1588764819871928281,11379,1588764819871857532,,0.499763353285,-0.191865629114,0.206057316511
1588764819875005354,11380,1588764819874923292,,0.499760942373,-0.191667449938,0.205915246344
1588764819878059122,11381,1588764819877959345,,0.499759286208,-0.191564682083,0.20584305613
1588764819881077814,11382,1588764819880925206,,0.499759123422,-0.19146576844,0.205774285936
1588764819887092296,11383,1588764819886964036,,0.499759774459,-0.191260369478,0.205632639188
1588764819889983640,11384,1588764819889908285,,0.499760615479,-0.191155122392,0.205562660223
1588764819892938662,11385,1588764819892846406,,0.499759425018,-0.19105809833,0.205492800957
1588764819896158750,11386,1588764819895959829,,0.499759918893,-0.190949807632,0.20542232994
1588764819899012432,11387,1588764819898921586,,0.499760340502,-0.190844034389,0.205353690866
1588764819902063915,11388,1588764819901959606,,0.499757573921,-0.190742842152,0.205278373798
1588764819908017986,11389,1588764819907906292,,0.499756788929,-0.19063335817,0.205204106643
1588764819911011369,11390,1588764819910935391,,0.499755345776,-0.190535226676,0.205133313409
1588764819913987064,11391,1588764819913904353,,0.499755579159,-0.19046223247,0.205075336199
1588764819916971482,11392,1588764819916879063,,0.499753419013,-0.190354730923,0.204997709328
1588764819919937266,11393,1588764819919861699,,0.499751803277,-0.190240804982,0.204916934095
1588764819923368746,11394,1588764819923268913,,0.499752689136,-0.190169030316,0.204861637296
1588764819929060391,11395,1588764819928976237,,0.499746549519,-0.18995422335,0.204717615159
1588764819932037246,11396,1588764819931885410,,0.499744845236,-0.189858768139,0.204654701122
1588764819935009421,11397,1588764819934909431,,0.499740038737,-0.189669070884,0.204532494116
1588764819937988105,11398,1588764819937887780,,0.499739289997,-0.189577850655,0.204469666077
1588764819941009076,11399,1588764819940919921,,0.499741396327,-0.18947985201,0.204407196194
1588764819947085875,11400,1588764819946970331,,0.499741224755,-0.189288520589,0.204274241582
1588764819950046166,11401,1588764819949947637,,0.499741872626,-0.18918559373,0.204206627739
1588764819953006123,11402,1588764819952933130,,0.499741363807,-0.189087055369,0.204138153216
1588764819956135958,11403,1588764819955987692,,0.499739490329,-0.188983557646,0.204065132747
1588764819958977933,11404,1588764819958864640,,0.499738783822,-0.188876841868,0.203992004515
1588764819962050358,11405,1588764819961947088,,0.499736926744,-0.188771882396,0.203918580633
1588764819965009738,11406,1588764819964928097,,0.499735616733,-0.188661597061,0.203844120856
1588764819968026705,11407,1588764819967876451,,0.499734122607,-0.188553900007,0.203767858599
1588764819970962759,11408,1588764819970892220,,0.499732861043,-0.188445017873,0.203689605304
1588764819973932844,11409,1588764819973860931,,0.499731679252,-0.188336147013,0.203613216862
1588764819977057646,11410,1588764819976914603,,0.499733993155,-0.1882254982,0.203541361008
1588764819979991016,11411,1588764819979896299,,0.499731590845,-0.188113829714,0.203463299157
1588764819983056579,11412,1588764819982979422,,0.499731728186,-0.188004776708,0.203391397361
1588764819986035866,11413,1588764819985941469,,0.499732031053,-0.187894355555,0.203319263502
1588764819989112012,11414,1588764819988985139,,0.499731767171,-0.187783092467,0.20324863426
1588764819992050129,11415,1588764819991933185,,0.499731983305,-0.187675716669,0.203177282197
1588764819995084249,11416,1588764819994871526,,0.499730461676,-0.187570024847,0.203106184169
1588764819997935921,11417,1588764819997842331,,0.499733512382,-0.187493609634,0.203054937688
1588764820000995435,11418,1588764820000880790,,0.499731985018,-0.187386177394,0.202981839053
1588764820007001342,11419,1588764820006883447,,0.499733947988,-0.187187746552,0.202847276979
1588764820010091402,11420,1588764820009943544,,0.499733117421,-0.187085252958,0.202778805411
1588764820013126977,11421,1588764820012925091,,0.499729786978,-0.186963891463,0.202695256272
1588764820016098851,11422,1588764820015968751,,0.499731279819,-0.186865058287,0.202630068272
1588764820019005644,11423,1588764820018907507,,0.499730627918,-0.18677065372,0.202565728926
1588764820021987864,11424,1588764820021887752,,0.499731464596,-0.186671191668,0.202498344761
1588764820025119618,11425,1588764820025023763,,0.499733341288,-0.186575595418,0.20243179951
1588764820027985101,11426,1588764820027867999,,0.499734756862,-0.186478995369,0.20236250969
1588764820031071045,11427,1588764820030989861,,0.499738725556,-0.186375559591,0.202295983892
1588764820033949656,11428,1588764820033840145,,0.499741094521,-0.186274614735,0.202229262337
1588764820037007197,11429,1588764820036868926,,0.499744417716,-0.186170428025,0.202161491868
1588764820039967432,11430,1588764820039851381,,0.499746566341,-0.18606610793,0.202095546492
1588764820042948215,11431,1588764820042850267,,0.499750460939,-0.185962832472,0.20202919148
1588764820045951033,11432,1588764820045877743,,0.499752935734,-0.185854750398,0.201961689464
1588764820049032272,11433,1588764820048877275,,0.499754863676,-0.185749867566,0.201892079689
1588764820051956279,11434,1588764820051858033,,0.4997588702,-0.185643663091,0.201821475914
1588764820055044276,11435,1588764820054910351,,0.499759745894,-0.185542667864,0.201748840179
1588764820057980593,11436,1588764820057883605,,0.499761891549,-0.18543325349,0.201677495444
1588764820060975729,11437,1588764820060839711,,0.499764935665,-0.185324128136,0.201602765119
1588764820066998321,11438,1588764820066868113,,0.499767367272,-0.185105659048,0.201453475079
1588764820069955769,11439,1588764820069839513,,0.499771064448,-0.184991160749,0.201377881617
1588764820072977752,11440,1588764820072873499,,0.499771412537,-0.184879431143,0.201300321003
1588764820075994765,11441,1588764820075893298,,0.49977592629,-0.184769410239,0.201226838513
1588764820078950649,11442,1588764820078878452,,0.499779039252,-0.184655034752,0.201151881805
1588764820082004065,11443,1588764820081872494,,0.49978388052,-0.184544387657,0.201080580262
1588764820085111613,11444,1588764820084949071,,0.499787630359,-0.184434078392,0.201009555742
1588764820088033809,11445,1588764820087908596,,0.499792060155,-0.184357619254,0.200954728927
1588764820090967753,11446,1588764820090887922,,0.499796445876,-0.184250046826,0.200885538371
1588764820093998075,11447,1588764820093880514,,0.499800473816,-0.184134008295,0.200811507172
1588764820097060753,11448,1588764820096940670,,0.499804398005,-0.184065711453,0.200761857058
1588764820099966926,11449,1588764820099883267,,0.499806519824,-0.183966654142,0.200697771513
1588764820103040197,11450,1588764820102929063,,0.499808795374,-0.18386109081,0.200630459716
1588764820109072765,11451,1588764820108934806,,0.499811810199,-0.183774747191,0.200571118535
1588764820111995390,11452,1588764820111920070,,0.499813694621,-0.183689738989,0.20050605744
1588764820115031959,11453,1588764820114935537,,0.499820085307,-0.183602658299,0.200442565622
1588764820118032801,11454,1588764820117926137,,0.499822344481,-0.183517386549,0.200383244086
1588764820121051084,11455,1588764820120948008,,0.499822749049,-0.183424722492,0.200313445233
1588764820124329950,11456,1588764820124198765,,0.499824142471,-0.183329118048,0.200239182248
1588764820130026098,11457,1588764820129894171,,0.499830605742,-0.183238078727,0.200176695819
1588764820132975323,11458,1588764820132902372,,0.499834531484,-0.183129029403,0.200102856641
1588764820136027229,11459,1588764820135914535,,0.499837992687,-0.183028133495,0.200035497959
1588764820138996041,11460,1588764820138925981,,0.499841133521,-0.182949206998,0.199983281001
1588764820142055502,11461,1588764820141922805,,0.499845948317,-0.182838933561,0.199912820402
1588764820145003155,11462,1588764820144936773,,0.499856590701,-0.182720828369,0.199843637024
1588764820148128607,11463,1588764820148003621,,0.499863991855,-0.1826427002,0.199795599092
1588764820151015795,11464,1588764820150934766,,0.499870016408,-0.182531936797,0.199735104577
1588764820154018184,11465,1588764820153940788,,0.499871865462,-0.182418872046,0.199667333447
1588764820157109084,11466,1588764820156961605,,0.499876153617,-0.182323562825,0.19961088118
1588764820160111374,11467,1588764820160008221,,0.499886748077,-0.182235529592,0.199558107992
1588764820163022086,11468,1588764820162943976,,0.499890277003,-0.182144411662,0.199498410996
1588764820166017305,11469,1588764820165904900,,0.499892901629,-0.182056484473,0.19944018935
1588764820169070037,11470,1588764820168943180,,0.499898271098,-0.181966050888,0.19938111263
1588764820171987701,11471,1588764820171916191,,0.499899788925,-0.181876189261,0.199312750648
1588764820175093004,11472,1588764820174953754,,0.499911314369,-0.181792029478,0.199251815597
1588764820177998520,11473,1588764820177933526,,0.499915954547,-0.181700934852,0.199188708529
1588764820181074731,11474,1588764820180958662,,0.499919291174,-0.181606179774,0.199124147327
1588764820187079147,11475,1588764820186960649,,0.499922186214,-0.181443668051,0.199001689083
1588764820190021163,11476,1588764820189909247,,0.49993198754,-0.181344078147,0.198931229858
1588764820193090182,11477,1588764820192951705,,0.499937361655,-0.181274934504,0.198882995074
1588764820196076132,11478,1588764820195999714,,0.49993993821,-0.181174577913,0.198821335706
1588764820198982998,11479,1588764820198888557,,0.499939646292,-0.181072689961,0.198753223561
1588764820201992150,11480,1588764820201929531,,0.499943460378,-0.180980969381,0.198699110372
1588764820205008535,11481,1588764820204906822,,0.499946787454,-0.180890571592,0.198645025773
1588764820208004204,11482,1588764820207890888,,0.499950031739,-0.180802450016,0.198589676472
1588764820210906375,11483,1588764820210852900,,0.499954800265,-0.180712559658,0.198534681021
1588764820214194129,11484,1588764820214043860,,0.499968015146,-0.180632584788,0.1984788462
1588764820217113963,11485,1588764820217007718,,0.499975026749,-0.180538538247,0.198424328886
1588764820220056967,11486,1588764820219975076,,0.499982034739,-0.180444439267,0.198368768875
1588764820223478600,11487,1588764820223385883,,0.499984743276,-0.18035432039,0.198306117592
1588764820229084528,11488,1588764820229006380,,0.499987024553,-0.180264639635,0.198245593745
1588764820232055257,11489,1588764820231908107,,0.49999111974,-0.180200311609,0.198203233148
1588764820235030914,11490,1588764820234895400,,0.500013081884,-0.180123027243,0.198147584239
1588764820238097715,11491,1588764820237912203,,0.500018322133,-0.180025569859,0.198082399472
1588764820241066425,11492,1588764820240946497,,0.500018508998,-0.179956007535,0.198036124404
1588764820247042409,11493,1588764820246942578,,0.500024655375,-0.17978287481,0.197913459489
1588764820250049453,11494,1588764820249891910,,0.50002237878,-0.179698440533,0.197861481772
1588764820252979570,11495,1588764820252881635,,0.500025432221,-0.179616750963,0.197812540615
1588764820256125676,11496,1588764820255973530,,0.50002516102,-0.179543745196,0.197759825122
1588764820259012688,11497,1588764820258907110,,0.500026115431,-0.179461879078,0.197708578203
1588764820261963027,11498,1588764820261879550,,0.500032692846,-0.179381081244,0.197662583841
1588764820264962998,11499,1588764820264891714,,0.500059825224,-0.179322668689,0.197612278565
1588764820267984265,11500,1588764820267870272,,0.500069215699,-0.179235917422,0.197554569045
1588764820270955339,11501,1588764820270892010,,0.500074854421,-0.179145320857,0.197500100726
1588764820273955289,11502,1588764820273868450,,0.500080861728,-0.179063875169,0.19744236139
1588764820277139556,11503,1588764820277008426,,0.500083432128,-0.178978813847,0.197386263256
1588764820280065656,11504,1588764820279958688,,0.500085387249,-0.178879938997,0.197332139785
1588764820283129851,11505,1588764820282967719,,0.500087823383,-0.178787887845,0.197276088582
1588764820286062409,11506,1588764820285969896,,0.50009124735,-0.178699944583,0.197222244805
1588764820289082193,11507,1588764820288941102,,0.500096210227,-0.178606701437,0.197163833768
1588764820292137173,11508,1588764820291969375,,0.500103561824,-0.178515377977,0.197105836068
1588764820295113983,11509,1588764820294974268,,0.500113780827,-0.17842548765,0.197047955678
1588764820298101169,11510,1588764820298015348,,0.500144165577,-0.178363460067,0.196996297959
1588764820301103533,11511,1588764820300982722,,0.500158712362,-0.178269790088,0.196943716328
1588764820307093289,11512,1588764820306966342,,0.500169148594,-0.178097763555,0.196836417456
1588764820310046412,11513,1588764820309924387,,0.500171672077,-0.178018334939,0.196784429959
1588764820313034824,11514,1588764820312947008,,0.500170354255,-0.177936115712,0.196734409919
1588764820316083152,11515,1588764820315989967,,0.500171930886,-0.177864921992,0.196684200517
1588764820319038749,11516,1588764820318940955,,0.500173991886,-0.177802818278,0.196636867764
1588764820322076980,11517,1588764820321959798,,0.500173679024,-0.177759941634,0.196598507346
1588764820325234092,11518,1588764820325078570,,0.500173750201,-0.177694934238,0.196553391855
1588764820328076037,11519,1588764820327987866,,0.500177885375,-0.177626432892,0.196508526334
1588764820331062304,11520,1588764820330973749,,0.500180195062,-0.177588496661,0.196475433216
1588764820334090438,11521,1588764820333995745,,0.500215109058,-0.177555233833,0.196443605571
1588764820337114778,11522,1588764820336979073,,0.500223093636,-0.177487023232,0.196399521237
1588764820340185656,11523,1588764820340030807,,0.500225248725,-0.177420829055,0.196357303715
1588764820343168851,11524,1588764820342997908,,0.500232573315,-0.177366728963,0.196318186761
1588764820349087334,11525,1588764820348935404,,0.500232099337,-0.177307226688,0.196277253045
1588764820352072602,11526,1588764820351920574,,0.50023041081,-0.177236560196,0.196235820678
1588764820355045317,11527,1588764820354924030,,0.500234717594,-0.177168840058,0.196194750962
1588764820358034960,11528,1588764820357923796,,0.50023854538,-0.177105653783,0.196152302653
1588764820361071377,11529,1588764820360921007,,0.500241813029,-0.177026353432,0.196106533659
1588764820367151522,11530,1588764820367020658,,0.500255737742,-0.176880076826,0.196016464493
1588764820370191969,11531,1588764820370026366,,0.500263563134,-0.17680272943,0.195971499466
1588764820373056918,11532,1588764820372955029,,0.500270324716,-0.176720611755,0.195928556207
1588764820376162830,11533,1588764820376056866,,0.500279980049,-0.176636230586,0.195891054498
1588764820379166381,11534,1588764820378959356,,0.500288355404,-0.176562625411,0.195843984983
1588764820382105691,11535,1588764820381940344,,0.500328859872,-0.176508908416,0.1958069952
1588764820385104191,11536,1588764820384948529,,0.500342089962,-0.17642991482,0.195764896301
1588764820388147162,11537,1588764820388028622,,0.500345545782,-0.176350287126,0.195713671394
1588764820391200686,11538,1588764820391038003,,0.50035283742,-0.176292048921,0.19567104237
1588764820394051999,11539,1588764820393939533,,0.500354476408,-0.176223288468,0.195627560587
1588764820397126259,11540,1588764820396907656,,0.500349788896,-0.176156871434,0.195577219996
1588764820400214880,11541,1588764820400019504,,0.500353575451,-0.176105397649,0.19554242196
1588764820403191615,11542,1588764820403010270,,0.500355531977,-0.176054280459,0.195505051379
1588764820406148922,11543,1588764820406023554,,0.500354328536,-0.176008834083,0.195468917033
1588764820409182084,11544,1588764820409083663,,0.500358853748,-0.175960727357,0.195438388864
1588764820412159153,11545,1588764820411973230,,0.500362568898,-0.175931685731,0.195414357123
1588764820415106620,11546,1588764820414964325,,0.500365792447,-0.175890228477,0.1953825165
1588764820418111073,11547,1588764820417951825,,0.500369718545,-0.175839891125,0.195356680972
1588764820421174598,11548,1588764820421024176,,0.500373897342,-0.175804254154,0.195334991179
1588764820424474957,11549,1588764820424384145,,0.500379207992,-0.175757002378,0.195308455838
1588764820430258472,11550,1588764820430070266,,0.500384574965,-0.175705498949,0.195280963478
1588764820433195133,11551,1588764820433001854,,0.500390117763,-0.175660961854,0.195250332175
1588764820436108464,11552,1588764820436035482,,0.500432357695,-0.175648404357,0.195226117882
1588764820439128357,11553,1588764820439034243,,0.500440103869,-0.175596673624,0.195189713556
1588764820442185682,11554,1588764820442050429,,0.500442775767,-0.175540528012,0.195150035016
1588764820445127413,11555,1588764820445000186,,0.500446616738,-0.175497908129,0.195106910924
1588764820448043711,11556,1588764820447929970,,0.500445149328,-0.175445301029,0.195067438555
1588764820450992718,11557,1588764820450914508,,0.500443475636,-0.175387896319,0.195032616822
1588764820454132015,11558,1588764820453993113,,0.500447754129,-0.175335198686,0.194995322319
1588764820457059299,11559,1588764820456925138,,0.500451585403,-0.175282948813,0.194959091761
1588764820460047206,11560,1588764820459955698,,0.500455446662,-0.175236178922,0.194932481982
1588764820463078670,11561,1588764820462952754,,0.500464607863,-0.175174929838,0.194902127313
1588764820466194278,11562,1588764820466017599,,0.50047321389,-0.175117464096,0.19487491159
1588764820469134939,11563,1588764820469022172,,0.50048031529,-0.175074095025,0.194856739957
1588764820472215644,11564,1588764820472076214,,0.500488766155,-0.175021409396,0.19483881595
1588764820475086525,11565,1588764820474971813,,0.500497409002,-0.174968833591,0.194819682345
1588764820478068768,11566,1588764820477993482,,0.50050327326,-0.174923526672,0.194799896029
1588764820481082575,11567,1588764820480947843,,0.500508597085,-0.174881293518,0.194779253362
1588764820487131113,11568,1588764820486963999,,0.500515793868,-0.174812539465,0.194736915222
1588764820490083647,11569,1588764820489975324,,0.500518775493,-0.17478018069,0.194713663551
1588764820493104985,11570,1588764820492967851,,0.500519842331,-0.174753060507,0.194688862643
1588764820496171499,11571,1588764820496033343,,0.500521539648,-0.174727263837,0.194662584797
1588764820499209113,11572,1588764820499027656,,0.500564385165,-0.17473805834,0.194646308083
1588764820502100317,11573,1588764820502006487,,0.500569174586,-0.174703916995,0.194623070144
1588764820505050319,11574,1588764820504945258,,0.500570629814,-0.174667606285,0.194595793055
1588764820508071784,11575,1588764820507985102,,0.500572904875,-0.174632069577,0.194568455525
1588764820511198282,11576,1588764820511089822,,0.500571095805,-0.174600918776,0.194546051987
1588764820514126426,11577,1588764820513976463,,0.500572447888,-0.174562912219,0.194526587938
1588764820517098282,11578,1588764820516976187,,0.500578059258,-0.174528876262,0.194509329727
1588764820520082089,11579,1588764820519981410,,0.500583191094,-0.174494314145,0.194492120639
1588764820523507622,11580,1588764820523428964,,0.500588601573,-0.174460563262,0.194477172909
1588764820529043653,11581,1588764820528956624,,0.500596192923,-0.174425141848,0.19446469818
1588764820532121655,11582,1588764820531992205,,0.500601460803,-0.174390772711,0.194448933764
1588764820535061454,11583,1588764820534919449,,0.500606847261,-0.174357888766,0.194433730499
1588764820538076207,11584,1588764820537936869,,0.500612161819,-0.174325555855,0.194420612762
1588764820541066380,11585,1588764820540951071,,0.500618108025,-0.174294401972,0.194404632096
1588764820547095406,11586,1588764820546949528,,0.500627837881,-0.17423568303,0.194367133598
1588764820550101771,11587,1588764820549943834,,0.500630692864,-0.174211297904,0.194345760427
1588764820553054038,11588,1588764820552939941,,0.500633370722,-0.174189139549,0.19432765047
1588764820556069763,11589,1588764820555957503,,0.500637641381,-0.174160324288,0.194311802503
1588764820559110650,11590,1588764820558988350,,0.50064109697,-0.174134455946,0.194297162149
1588764820562084748,11591,1588764820561920158,,0.500643445185,-0.174115828911,0.194284233205
1588764820565258527,11592,1588764820565033813,,0.50064746842,-0.174093742692,0.194271450732
1588764820568138687,11593,1588764820567943381,,0.500652570532,-0.174070185412,0.194260116972
1588764820571136581,11594,1588764820570992422,,0.500655538331,-0.174050845888,0.194247214004
1588764820574111869,11595,1588764820574010275,,0.500660530561,-0.174031198884,0.194238287055
1588764820577152684,11596,1588764820577034422,,0.500665669142,-0.174010855509,0.194229413663
1588764820583308399,11597,1588764820583056706,,0.500670009767,-0.17399358509,0.194221686648
1588764820586121332,11598,1588764820586002215,,0.500675287818,-0.173976863272,0.19421305332
1588764820589193910,11599,1588764820589047497,,0.500718294098,-0.173995938736,0.194211648936
1588764820592194664,11600,1588764820592037321,,0.500725325887,-0.17397363608,0.19420096193
1588764820595171075,11601,1588764820595046663,,0.500730109221,-0.173949367585,0.194185545063
1588764820598144227,11602,1588764820598012164,,0.500730907979,-0.173929330534,0.194164544913
1588764820601135472,11603,1588764820601018280,,0.50072906891,-0.173916889068,0.194151345051
1588764820607208343,11604,1588764820607045284,,0.500733046755,-0.173887557677,0.19413474855
1588764820610111939,11605,1588764820610016678,,0.500732925683,-0.173872384316,0.194125862836
1588764820613144936,11606,1588764820612990325,,0.500735813231,-0.173861825463,0.194119984069
1588764820616158959,11607,1588764820616022635,,0.500739127003,-0.173848323532,0.194113918741
1588764820619093988,11608,1588764820619010270,,0.500738947502,-0.173835100961,0.194107529021
1588764820622128568,11609,1588764820622003042,,0.500742559413,-0.173822609924,0.194106212649
1588764820625316917,11610,1588764820625190147,,0.50074448338,-0.173813465253,0.194104219371
1588764820628184586,11611,1588764820628091442,,0.500747318048,-0.1738005157,0.194101902574
1588764820631082868,11612,1588764820630990148,,0.500748458138,-0.173793184623,0.194096054017
1588764820634165189,11613,1588764820634041356,,0.50075075569,-0.173785255697,0.194089950138
1588764820637152697,11614,1588764820637002647,,0.500753676014,-0.173777800209,0.19408507463
1588764820640098278,11615,1588764820640006641,,0.500754840127,-0.17377336494,0.194077850599
1588764820643145955,11616,1588764820643044174,,0.50075730147,-0.173767265661,0.194072884308
1588764820646110344,11617,1588764820645978538,,0.50075938286,-0.173761462365,0.194068404561
1588764820649096383,11618,1588764820648928958,,0.500761171451,-0.173758076299,0.194063740395
1588764820652147687,11619,1588764820652043476,,0.500764073347,-0.173752542426,0.194059367071
1588764820655155317,11620,1588764820655054443,,0.500766233004,-0.173749523922,0.194057104809
1588764820658132760,11621,1588764820657980982,,0.500768987245,-0.173744965234,0.194055569873
1588764820661122892,11622,1588764820660983691,,0.500772756016,-0.17373976364,0.194056885245
1588764820667127780,11623,1588764820666946240,,0.500778591897,-0.173732658563,0.194058444186
1588764820670180632,11624,1588764820669998894,,0.500781449099,-0.173729211893,0.194058384795
1588764820673021623,11625,1588764820672926013,,0.500784528154,-0.173725629598,0.1940583886
1588764820676043980,11626,1588764820675945749,,0.500789486843,-0.173723873649,0.194060479057
1588764820679075871,11627,1588764820678983267,,0.500793568608,-0.17372226317,0.194059900888
1588764820685140233,11628,1588764820685005930,,0.500798274595,-0.173721987624,0.194062187618
1588764820688138394,11629,1588764820688012095,,0.500803089853,-0.173721153337,0.194063941613
1588764820694189317,11630,1588764820694083779,,0.500808889057,-0.173721180507,0.194068723376
1588764820697186458,11631,1588764820697047834,,0.500813060912,-0.173720820045,0.194071189216
1588764820703225694,11632,1588764820703059635,,0.50081819993,-0.173720722508,0.194075688169
1588764820709164090,11633,1588764820709004151,,0.500824734928,-0.173722345016,0.194082630157
1588764820712161041,11634,1588764820712063247,,0.500830143218,-0.173723027183,0.194088027183
1588764820715140211,11635,1588764820715063473,,0.500836805531,-0.173723476045,0.194095684882
1588764820718164368,11636,1588764820718031682,,0.500842858616,-0.17372467462,0.194101955327
1588764820721131180,11637,1588764820721041101,,0.500849153425,-0.173725618625,0.194109236447
1588764820724329235,11638,1588764820724243251,,0.500854977295,-0.173726616657,0.194114674266
1588764820730155438,11639,1588764820730016812,,0.500859734771,-0.173729074488,0.194119827166
1588764820733249566,11640,1588764820733155127,,0.500865094265,-0.173731185896,0.194126470228
1588764820736175551,11641,1588764820736031387,,0.500869801372,-0.173731831926,0.19413105542
1588764820739160097,11642,1588764820739018075,,0.500874412711,-0.173734899207,0.194141077433
1588764820745121272,11643,1588764820745025502,,0.500879724977,-0.173736352056,0.194146144728
1588764820748153936,11644,1588764820748063034,,0.50088515367,-0.173738508093,0.194152338098
1588764820754230341,11645,1588764820754075951,,0.500889751792,-0.17374173597,0.194157249757
1588764820757200144,11646,1588764820757075528,,0.500895050746,-0.173744851146,0.194163317494
1588764820760162083,11647,1588764820760028508,,0.500899134134,-0.173747806391,0.194167714202
1588764820766126796,11648,1588764820765985350,,0.50090459933,-0.173751634653,0.194176211166
1588764820769141106,11649,1588764820768993956,,0.500910062269,-0.173756489167,0.194185005766
1588764820772132707,11650,1588764820772026920,,0.50091488111,-0.173760054384,0.194192434859
1588764820778138389,11651,1588764820778022534,,0.500920331692,-0.173764448856,0.194201543436
1588764820781134775,11652,1588764820781012646,,0.500925253956,-0.173766497461,0.194209234082
1588764820790237907,11653,1588764820790062445,,0.500934387043,-0.173776775715,0.19422687697
1588764820793152257,11654,1588764820793044752,,0.500938637666,-0.173782791498,0.19423495
1588764820796272890,11655,1588764820796094067,,0.500943100703,-0.173789326595,0.194242448363
1588764820802251465,11656,1588764820802049717,,0.500948902577,-0.173796899058,0.194253591125
1588764820805205077,11657,1588764820805004161,,0.500952946626,-0.173805906668,0.194262103648
1588764820808099810,11658,1588764820807998976,,0.500957154882,-0.173813530561,0.194270117187
1588764820814241721,11659,1588764820814116088,,0.500960693481,-0.173822052826,0.194276732555
1588764820817191106,11660,1588764820817081766,,0.500962953978,-0.173829311391,0.194283108385
1588764820823684085,11661,1588764820823544412,,0.500968109007,-0.173836863249,0.194293051586
1588764820829267117,11662,1588764820829071836,,0.500971213099,-0.173842919358,0.194300035091
1588764820832245128,11663,1588764820832065257,,0.500974263635,-0.173850133347,0.194306961561
1588764820835218153,11664,1588764820835076741,,0.500978746828,-0.173858376913,0.194316937104
1588764820838219449,11665,1588764820838050571,,0.500982589693,-0.173866320527,0.194324679356
1588764820841219600,11666,1588764820841089918,,0.500986536553,-0.173874375177,0.194333263794
1588764820850279957,11667,1588764820850079172,,0.500993431331,-0.173891144414,0.194349903394
1588764820856183724,11668,1588764820856038225,,0.500996611107,-0.173900136555,0.194358203776
1588764820859182674,11669,1588764820859080015,,0.500999502508,-0.173907774355,0.194365344795
1588764820862238965,11670,1588764820862062416,,0.501001642664,-0.17391529658,0.194371484658
1588764820865234739,11671,1588764820865100694,,0.501004848103,-0.17392337043,0.19437975032
1588764820871621031,11672,1588764820871446687,,0.50100805975,-0.173931972365,0.194386384009
1588764820877217517,11673,1588764820877100295,,0.5010102643,-0.173939574686,0.194392991764
1588764820883171529,11674,1588764820883061014,,0.501012472905,-0.173947121151,0.194398914054
1588764820886216236,11675,1588764820886099558,,0.501015458074,-0.173955637461,0.194406513218
1588764820889221483,11676,1588764820889072273,,0.50101806935,-0.17396394404,0.194412878706
1588764820892134532,11677,1588764820892041892,,0.501019630025,-0.173971248205,0.19441845822
1588764820895238008,11678,1588764820895041926,,0.501023466074,-0.173981681657,0.194427419211
1588764820898141864,11679,1588764820898039371,,0.501025993943,-0.17398950639,0.194432933805
1588764820901143510,11680,1588764820901051331,,0.501029562121,-0.173998054711,0.194441249142
1588764820907265658,11681,1588764820907111943,,0.5010316459,-0.174006960667,0.194448149318
1588764820910255128,11682,1588764820910104669,,0.50103392001,-0.174013514604,0.194453560323
1588764820916278303,11683,1588764820916133012,,0.501035917912,-0.17402314338,0.194460340023
1588764820919191233,11684,1588764820919081949,,0.501037972968,-0.174029544907,0.194466093427
1588764820922231389,11685,1588764820922080193,,0.501040380014,-0.174036979639,0.194472204959
1588764820925272719,11686,1588764820925176244,,0.501042201972,-0.17404361045,0.19447707742
1588764820931305862,11687,1588764820931164359,,0.501044996315,-0.174050101815,0.194482652228
1588764820934170839,11688,1588764820934029197,,0.501046917477,-0.174058005688,0.194488677827
1588764820940167012,11689,1588764820940066197,,0.501048917603,-0.174066094534,0.194492839884
1588764820943253671,11690,1588764820943079734,,0.501050782589,-0.174073740001,0.194498586745
1588764820949170897,11691,1588764820949020143,,0.50105329921,-0.174081158488,0.194503745981
1588764820952176966,11692,1588764820952044880,,0.501055481256,-0.174088917518,0.194508174201
1588764820955173260,11693,1588764820955040997,,0.501058850933,-0.174096259988,0.194515132634
1588764820958141525,11694,1588764820958042206,,0.501060880183,-0.174103458683,0.194517600152
1588764820967164135,11695,1588764820967021898,,0.501065769177,-0.174118032715,0.194525085678
1588764820970125632,11696,1588764820970039833,,0.501068347179,-0.174123591865,0.194527737606
1588764820973177661,11697,1588764820973018854,,0.501071925699,-0.174129595762,0.194532443937
1588764820979198061,11698,1588764820979108144,,0.501074110202,-0.17413493609,0.19453403449
1588764820982216447,11699,1588764820982084317,,0.501077760331,-0.17414234648,0.194539139255
1588764820988165302,11700,1588764820988044829,,0.501080337158,-0.174150101402,0.194541072268
1588764820991599729,11701,1588764820991490096,,0.501083170198,-0.174155797814,0.194543095218
1588764820994155893,11702,1588764820994043417,,0.501085800729,-0.174163575279,0.194545108436
1588764821000112583,11703,1588764821000023044,,0.501088987028,-0.174171052814,0.194547942071
1588764821003203766,11704,1588764821003042315,,0.501090850123,-0.174177963428,0.194547988978
1588764821006154433,11705,1588764821006029078,,0.501092793202,-0.17418596325,0.19455026288
1588764821012191380,11706,1588764821012065290,,0.501095569666,-0.174191612755,0.194550060816
1588764821015121929,11707,1588764821015016377,,0.50109690404,-0.174201978532,0.194551446642
1588764821018134944,11708,1588764821018059958,,0.501099309732,-0.174208244957,0.194551688601
1588764821024632578,11709,1588764821024498924,,0.501101458561,-0.174215377522,0.194551619995
1588764821027442680,11710,1588764821027336901,,0.501102906785,-0.174223340231,0.19455051302
1588764821030166625,11711,1588764821030039211,,0.501105431463,-0.17423098391,0.19455037143
1588764821036113960,11712,1588764821036033357,,0.50110819963,-0.174238125547,0.194548411248
1588764821039178673,11713,1588764821039045888,,0.501110955923,-0.174246781463,0.194547542142
1588764821042270654,11714,1588764821042140117,,0.501112490961,-0.174255599886,0.1945457685
1588764821048191564,11715,1588764821048068324,,0.501115486906,-0.174263370936,0.194543476423
1588764821051210325,11716,1588764821051125796,,0.50111830772,-0.174272704216,0.194540732722
1588764821054173696,11717,1588764821054049953,,0.50112031013,-0.174281991973,0.194537668563
1588764821060252638,11718,1588764821060070823,,0.501123068827,-0.174290471859,0.194535671899
1588764821063227361,11719,1588764821063097029,,0.501125709087,-0.174300550495,0.194532343603
1588764821066100826,11720,1588764821066018674,,0.501128629547,-0.174311375623,0.19452835466
1588764821072263390,11721,1588764821072063486,,0.501130515625,-0.174321084075,0.194523005329
1588764821075293322,11722,1588764821075147516,,0.501133325704,-0.174332028011,0.19451852467
1588764821081341563,11723,1588764821081118999,,0.501135686989,-0.174344503316,0.194513412338
1588764821084247662,11724,1588764821084119203,,0.501138427638,-0.174356769287,0.194506994372
1588764821087237306,11725,1588764821087095563,,0.501140882596,-0.174368951795,0.194504469678
1588764821090243958,11726,1588764821090091939,,0.501143444332,-0.174380471238,0.194497429956
1588764821096283896,11727,1588764821096103025,,0.501145657198,-0.174393478026,0.194490448386
1588764821099163954,11728,1588764821099049032,,0.50114777208,-0.174407397223,0.194483461372
1588764821105222440,11729,1588764821105116033,,0.501150470359,-0.17441985801,0.194477368143
1588764821108201575,11730,1588764821108066914,,0.501151575977,-0.174437113756,0.194467039358
1588764821111199380,11731,1588764821111073910,,0.501153253655,-0.174450831403,0.194457518374
1588764821114202573,11732,1588764821114082261,,0.501155616759,-0.174465991864,0.194452409739
1588764821120201319,11733,1588764821120089354,,0.501158299446,-0.174480680941,0.194443376546
1588764821123682399,11734,1588764821123565577,,0.501160413751,-0.174497911053,0.194432810243
1588764821129189279,11735,1588764821129043763,,0.501162352391,-0.174512519778,0.194423696289
1588764821132153107,11736,1588764821132047339,,0.501165311895,-0.174527581151,0.194414134407
1588764821135165047,11737,1588764821135049593,,0.501167954601,-0.174544287351,0.194403153891
1588764821138165918,11738,1588764821138044366,,0.501170890062,-0.174562201008,0.194393729842
1588764821144400953,11739,1588764821144314426,,0.501172428057,-0.174578932843,0.194381705626
1588764821147196875,11740,1588764821147080768,,0.501174570805,-0.174596717366,0.194368654068
1588764821153269865,11741,1588764821153108690,,0.501177412213,-0.174614822294,0.194357584295
1588764821156279072,11742,1588764821156137959,,0.501179243724,-0.174631089085,0.194344749629
1588764821159229423,11743,1588764821159121537,,0.501182125487,-0.174649613754,0.194332620414
1588764821165191131,11744,1588764821165084738,,0.501185075817,-0.174668619324,0.19431970089
1588764821168140234,11745,1588764821168036152,,0.501187015376,-0.174688493275,0.194306105449
1588764821171589785,11746,1588764821171491363,,0.501188594866,-0.174709409386,0.19428971262
1588764821180292136,11747,1588764821180138740,,0.501192471803,-0.174752597656,0.19426118755
1588764821183276284,11748,1588764821183139494,,0.501194313198,-0.1747731634,0.194246894164
1588764821189238004,11749,1588764821189108462,,0.501196675299,-0.174796021787,0.194230984409
1588764821192255243,11750,1588764821192120509,,0.501198830844,-0.174819185207,0.194216610575
1588764821195243516,11751,1588764821195135455,,0.501201199785,-0.174841339831,0.194198577131
1588764821201237151,11752,1588764821201156845,,0.501203018472,-0.17486399938,0.194179093434
1588764821207237155,11753,1588764821207087536,,0.501208332789,-0.174905799431,0.194146436485
1588764821213266916,11754,1588764821213150455,,0.501210651023,-0.17492779847,0.19412544369
1588764821216241923,11755,1588764821216126570,,0.501213033647,-0.174953392079,0.194106412642
1588764821219194887,11756,1588764821219096788,,0.501213862977,-0.17497425312,0.194089289459
1588764821225386232,11757,1588764821225257840,,0.501216329915,-0.175001125966,0.194068759401
1588764821228232080,11758,1588764821228118962,,0.501219037184,-0.175026567001,0.194044615631
1588764821231557943,11759,1588764821231406361,,0.501220870787,-0.175053626912,0.194027989028
1588764821237223115,11760,1588764821237075675,,0.501223035764,-0.175074575586,0.194007899279
1588764821240204373,11761,1588764821240056706,,0.501225344067,-0.175097949452,0.193991376095
1588764821243230174,11762,1588764821243077919,,0.501227845028,-0.175123627318,0.193968830731
1588764821249259153,11763,1588764821249098141,,0.5012295932,-0.175144147248,0.193954834204
1588764821252194899,11764,1588764821252085635,,0.501231048825,-0.175172868591,0.193933552586
1588764821255159733,11765,1588764821255058529,,0.501232986128,-0.175202104456,0.193910309804
1588764821261261719,11766,1588764821261107830,,0.501235011105,-0.17522776095,0.193886852393
1588764821270227399,11767,1588764821270135165,,0.501241232798,-0.175281958406,0.193844938793
1588764821273315950,11768,1588764821273150477,,0.501244109441,-0.175308411032,0.193822921238
1588764821276225620,11769,1588764821276082476,,0.501246034338,-0.175335961841,0.193799380973
1588764821282168658,11770,1588764821282099480,,0.501248479281,-0.175364950426,0.193776497653
1588764821285221734,11771,1588764821285093078,,0.5012512041,-0.17539639206,0.193752434831
1588764821288228824,11772,1588764821288096510,,0.501253099627,-0.175426383008,0.193723161042
1588764821294157613,11773,1588764821294040233,,0.501256121111,-0.17545565118,0.193696306504
1588764821297163596,11774,1588764821297074197,,0.501257770353,-0.17548474498,0.193669323523
1588764821300200627,11775,1588764821300104290,,0.501260548951,-0.175518855929,0.193641010389
1588764821306260507,11776,1588764821306118351,,0.501263760951,-0.175552878945,0.193611869914
1588764821309343128,11777,1588764821309186250,,0.501264790268,-0.175580566095,0.193587916048
1588764821312267536,11778,1588764821312089866,,0.501266456497,-0.175615698857,0.193556443351
1588764821318207120,11779,1588764821318102143,,0.501269765455,-0.175651797722,0.193526909975
1588764821321139673,11780,1588764821321030721,,0.501271204006,-0.175692307405,0.1935004209
1588764821327492915,11781,1588764821327347660,,0.501273135535,-0.175725500962,0.193470291256
1588764821330387404,11782,1588764821330138288,,0.501276295539,-0.17576185378,0.193440921055
1588764821336184647,11783,1588764821336076652,,0.501278626293,-0.175796960062,0.193413186917
1588764821339285603,11784,1588764821339146360,,0.501280635944,-0.175829276196,0.193382057599
1588764821342211649,11785,1588764821342049372,,0.501283741123,-0.17586445667,0.193351610112
1588764821345211886,11786,1588764821345108458,,0.501286274767,-0.175904123954,0.193319406453
1588764821351362470,11787,1588764821351273885,,0.50128848818,-0.1759443008,0.193284241846
1588764821354182436,11788,1588764821354118237,,0.501291805889,-0.175981052447,0.193248388323
1588764821357259980,11789,1588764821357108884,,0.501296760219,-0.176018716291,0.193213295732
1588764821360358595,11790,1588764821360175866,,0.501299806048,-0.176058885188,0.193179080843
1588764821366423293,11791,1588764821366182977,,0.501301619683,-0.176097922581,0.193141109663
1588764821369256109,11792,1588764821369134090,,0.501303546289,-0.176140018222,0.193104405358
1588764821375297931,11793,1588764821375155098,,0.501307732828,-0.176179747315,0.193070455397
1588764821378168324,11794,1588764821378066505,,0.501310902013,-0.17622179959,0.193034484362
1588764821381218320,11795,1588764821381082988,,0.501313480336,-0.17626401465,0.192997528138
1588764821387158910,11796,1588764821387058415,,0.501317752041,-0.176305388402,0.192962114227
1588764821390241706,11797,1588764821390090619,,0.501321050644,-0.176348074253,0.192924193766
1588764821393168041,11798,1588764821393096136,,0.501325314672,-0.17639003318,0.192889722303
1588764821399255754,11799,1588764821399153535,,0.501329659584,-0.176434686053,0.192853567087
1588764821402222861,11800,1588764821402122089,,0.501332934871,-0.176478861968,0.192820134002
1588764821405223361,11801,1588764821405087633,,0.501336666454,-0.176520885508,0.192783516923
1588764821411247475,11802,1588764821411094324,,0.501340066183,-0.176571670589,0.19274568193
1588764821414239577,11803,1588764821414128466,,0.501341732101,-0.17661898132,0.192707494705
1588764821423635570,11804,1588764821423472058,,0.501345999969,-0.176711436378,0.192621120296
1588764821426638522,11805,1588764821426511868,,0.501349554138,-0.176763179585,0.192580874278
1588764821429326593,11806,1588764821429167326,,0.50135064905,-0.176814776681,0.192541476915
1588764821435276024,11807,1588764821435159179,,0.501351647395,-0.17686603734,0.192500248882
1588764821438208053,11808,1588764821438126444,,0.501354196698,-0.176920502618,0.192460033968
1588764821441266556,11809,1588764821441157382,,0.501354238932,-0.176973541677,0.192413747271
1588764821447174698,11810,1588764821447060922,,0.501354408726,-0.177028143338,0.192370962312
1588764821450242874,11811,1588764821450118563,,0.501355827911,-0.17707765196,0.192333147561
1588764821453217304,11812,1588764821453118338,,0.501356881406,-0.177133156848,0.192287355221
1588764821459182619,11813,1588764821459075349,,0.501357839675,-0.177195397239,0.192238991903
1588764821462314235,11814,1588764821462213025,,0.501357858651,-0.177248140108,0.192201721691
1588764821465228433,11815,1588764821465094683,,0.501358845498,-0.177310035343,0.192149418329
1588764821471182220,11816,1588764821471088853,,0.501359343101,-0.177374678832,0.192094930672
1588764821474198101,11817,1588764821474071599,,0.501359365247,-0.177435249182,0.192048040599
1588764821477261571,11818,1588764821477128106,,0.501359613066,-0.177492691499,0.191998823327
1588764821483187469,11819,1588764821483092415,,0.501359032871,-0.177545734005,0.191950321555
1588764821486218289,11820,1588764821486139389,,0.501360337391,-0.177598267674,0.191905214388
1588764821492213877,11821,1588764821492119760,,0.501360012489,-0.177653474488,0.191855925153
1588764821495186779,11822,1588764821495089429,,0.501361880409,-0.17770449664,0.191805623044
1588764821498267924,11823,1588764821498148417,,0.501364438234,-0.17774983012,0.191761365052
1588764821501250671,11824,1588764821501149407,,0.501368520539,-0.177793118382,0.191716256224
1588764821507366444,11825,1588764821507168995,,0.501373736677,-0.177834025971,0.191674135371
1588764821510245523,11826,1588764821510138325,,0.501381585791,-0.177874267001,0.191635484996
1588764821513322571,11827,1588764821513157579,,0.50138974641,-0.177912549939,0.191593358992
1588764821519389455,11828,1588764821519195954,,0.501398371264,-0.177955792966,0.191553242862
1588764821522297257,11829,1588764821522197456,,0.501406297992,-0.178000084799,0.191514786011
1588764821528541805,11830,1588764821528240796,,0.501411850012,-0.178047814792,0.191472483712
1588764821531344538,11831,1588764821531229344,,0.501417683377,-0.178098560473,0.191431259049
1588764821534253691,11832,1588764821534167756,,0.501423381158,-0.178149120811,0.191384038016
1588764821543322628,11833,1588764821543219897,,0.50142918651,-0.1782670687,0.191287646541
1588764821546308530,11834,1588764821546184024,,0.501430346994,-0.178327952512,0.191231708494
1588764821552295805,11835,1588764821552187585,,0.501430374342,-0.178397615419,0.191174383031
1588764821555310037,11836,1588764821555188343,,0.501430271516,-0.178469824363,0.191119522352
1588764821558314137,11837,1588764821558210997,,0.501430088266,-0.178548134423,0.191058832582
1588764821567259681,11838,1588764821567182171,,0.501422846709,-0.17869821649,0.1909465107
1588764821570321417,11839,1588764821570189742,,0.501418933969,-0.178772224936,0.19089168099
1588764821576297417,11840,1588764821576176366,,0.501413336557,-0.17886309861,0.190850502115
1588764821579256541,11841,1588764821579169038,,0.501398502793,-0.178937876797,0.190863521508
1588764821582292066,11842,1588764821582187219,,0.501396961753,-0.179006510132,0.19079183335
1588764821588220685,11843,1588764821588130119,,0.501395439334,-0.179086205735,0.190732697279
1588764821591217752,11844,1588764821591137129,,0.501395316683,-0.179156850789,0.19069032539
1588764821594292718,11845,1588764821594180484,,0.50139871006,-0.179196165916,0.190623801088
1588764821600358818,11846,1588764821600194838,,0.50140298134,-0.179243855289,0.190582144007
1588764821603284678,11847,1588764821603202338,,0.501410098834,-0.179296797321,0.19053611072
1588764821606274972,11848,1588764821606191339,,0.501416520152,-0.179326117591,0.190500259655
1588764821612310348,11849,1588764821612178328,,0.501425085303,-0.179368118985,0.190467971037
1588764821615271975,11850,1588764821615176445,,0.501431793379,-0.179421072774,0.190424529202
1588764821618194128,11851,1588764821618105308,,0.501441935539,-0.179469424726,0.190393563994
1588764821624482686,11852,1588764821624377179,,0.501449376991,-0.179518787213,0.190346878574
1588764821627590167,11853,1588764821627491835,,0.501459070399,-0.179576171977,0.190303576679
1588764821630322084,11854,1588764821630214759,,0.501466220449,-0.179633118252,0.190253437145
1588764821636263366,11855,1588764821636140116,,0.501470236441,-0.17969386401,0.190193696945
1588764821639221723,11856,1588764821639135059,,0.501474457038,-0.17976183993,0.190135581051
1588764821645199491,11857,1588764821645109218,,0.501473337627,-0.179835724765,0.190071903831
1588764821648237796,11858,1588764821648134073,,0.501474191304,-0.179907374205,0.190004429048
1588764821651232203,11859,1588764821651130950,,0.50147551147,-0.179985315129,0.189935565117
1588764821657312698,11860,1588764821657228427,,0.501474859246,-0.18006801619,0.189870192419
1588764821660287410,11861,1588764821660185309,,0.50147281789,-0.1801575892,0.189798647181
1588764821663243062,11862,1588764821663152312,,0.501472038062,-0.180250956859,0.189735620083
1588764821669210727,11863,1588764821669124692,,0.50146925547,-0.180358122347,0.189670131598
1588764821672267603,11864,1588764821672146246,,0.501466942703,-0.180472435474,0.189600147041
1588764821675226557,11865,1588764821675163158,,0.501460551143,-0.180583848565,0.189557647729
1588764821681279015,11866,1588764821681153312,,0.501442007555,-0.180688483275,0.189578664764
1588764821684483045,11867,1588764821684393285,,0.501437428144,-0.180792912303,0.189480643129
1588764821687299340,11868,1588764821687153048,,0.501433444324,-0.180890250637,0.189418119161
1588764821693420660,11869,1588764821693228180,,0.50142888292,-0.180974103157,0.189357415138
1588764821696352618,11870,1588764821696195869,,0.501432992328,-0.181053915717,0.189256809177
1588764821699385041,11871,1588764821699214524,,0.501439038364,-0.181122005581,0.189204138922
1588764821705246269,11872,1588764821705131439,,0.501443711967,-0.181183845878,0.189122705001
1588764821708252087,11873,1588764821708104601,,0.501457061148,-0.181239491054,0.189056590194
1588764821711240268,11874,1588764821711158882,,0.501468133071,-0.181289550545,0.189009134225
1588764821717245018,11875,1588764821717144800,,0.501476104688,-0.181345806662,0.188948737466
1588764821720229320,11876,1588764821720118646,,0.501485719466,-0.181407248203,0.188905396536
1588764821723631037,11877,1588764821723566887,,0.501494843788,-0.181472042072,0.188854971342
1588764821729241195,11878,1588764821729119935,,0.501503988844,-0.181535976176,0.188797655487
1588764821732218942,11879,1588764821732118420,,0.50151389293,-0.181607510004,0.188739087919
1588764821735244412,11880,1588764821735158126,,0.501520773167,-0.181684820765,0.188675049247
1588764821741257534,11881,1588764821741163286,,0.501523451057,-0.181762316632,0.188607046514
1588764821744587501,11882,1588764821744501857,,0.50152601223,-0.18184564877,0.188536788836
1588764821747255515,11883,1588764821747146024,,0.501526037644,-0.181932594769,0.188469570455
1588764821753379355,11884,1588764821753222503,,0.501522125645,-0.182021722369,0.18838891294
1588764821756341552,11885,1588764821756209180,,0.501517712547,-0.182113367695,0.18831075025
1588764821762304272,11886,1588764821762133328,,0.501513327977,-0.182209512599,0.188230653187
1588764821765240084,11887,1588764821765100870,,0.501506972426,-0.182318115677,0.188151472919
1588764821768335327,11888,1588764821768164876,,0.501499978645,-0.182428848817,0.18807724066
1588764821771383262,11889,1588764821771274808,,0.50149165226,-0.182556889548,0.187992010882
1588764821777296347,11890,1588764821777166906,,0.501484082094,-0.182683598228,0.187901220629
1588764821780328228,11891,1588764821780222044,,0.501475502409,-0.182804534335,0.187832747697
1588764821786302323,11892,1588764821786160959,,0.501467048706,-0.182923715298,0.187761388916
1588764821789334286,11893,1588764821789182231,,0.501458384904,-0.183041495755,0.187684092561
1588764821792401762,11894,1588764821792188953,,0.501452711815,-0.183147703442,0.187601499479
1588764821798537522,11895,1588764821798361363,,0.50145169642,-0.183242153373,0.187531554629
1588764821801342088,11896,1588764821801177406,,0.501453471565,-0.183324109867,0.187455914233
1588764821804440828,11897,1588764821804342412,,0.50145999005,-0.183389400169,0.187382893072
1588764821810360157,11898,1588764821810225887,,0.501465687026,-0.183451346835,0.187317420561
1588764821813390129,11899,1588764821813247203,,0.501475970111,-0.183501154265,0.187254172381
1588764821816436553,11900,1588764821816258167,,0.501487285379,-0.183554233727,0.187199093578
1588764821822334231,11901,1588764821822201743,,0.501491415505,-0.183611713201,0.18717686706
1588764821825599676,11902,1588764821825497682,,0.501483227256,-0.18366370013,0.187262181334
1588764821828635665,11903,1588764821828540078,,0.501490620849,-0.183733786129,0.187165317121
1588764821834373427,11904,1588764821834272263,,0.501493432121,-0.183803721158,0.187118320444
1588764821837370007,11905,1588764821837243621,,0.501497685467,-0.183874948623,0.187065751436
1588764821840306216,11906,1588764821840209013,,0.501499714254,-0.183962882415,0.18694325483
1588764821846432928,11907,1588764821846221957,,0.50149911162,-0.184041758748,0.186894422402
1588764821849381016,11908,1588764821849278752,,0.501499679766,-0.184125072945,0.186807012043
1588764821852332038,11909,1588764821852224361,,0.501500676292,-0.184214214826,0.186713548382
1588764821858252978,11910,1588764821858149216,,0.501501873013,-0.184301944881,0.186662221949
1588764821861214268,11911,1588764821861127274,,0.50150398999,-0.184393257972,0.186584790656
1588764821870404917,11912,1588764821870315054,,0.501504569263,-0.18460108113,0.186471279854
1588764821876409489,11913,1588764821876233457,,0.501504976165,-0.18472183335,0.18641039887
1588764821879444353,11914,1588764821879246571,,0.50150065574,-0.184852136427,0.186334477107
1588764821882351141,11915,1588764821882210645,,0.501499110946,-0.184992690954,0.186265212968
1588764821885206130,11916,1588764821885108033,,0.501492244693,-0.185125647378,0.186196640946
1588764821888212438,11917,1588764821888128843,,0.501480660549,-0.185254989504,0.186118143155
1588764821894258475,11918,1588764821894178222,,0.50147174682,-0.185358169398,0.186051509256
1588764821897289488,11919,1588764821897165939,,0.501461563326,-0.185454905272,0.185972208817
1588764821900354057,11920,1588764821900221835,,0.501452443946,-0.185561698211,0.185879418292
1588764821906490512,11921,1588764821906284273,,0.501450802079,-0.185631648511,0.18580912032
1588764821909339003,11922,1588764821909185467,,0.501453730575,-0.185681063345,0.185741704251
1588764821912223632,11923,1588764821912149333,,0.501462394306,-0.185744206549,0.185672136239
1588764821918344092,11924,1588764821918232236,,0.501474372784,-0.185801237481,0.18561600911
1588764821921324295,11925,1588764821921200251,,0.501488457912,-0.185844462572,0.18557348461
1588764821927625341,11926,1588764821927518134,,0.50150378221,-0.185890018933,0.185537361464
1588764821930434305,11927,1588764821930253462,,0.501516632397,-0.185940246754,0.185505517667
1588764821933307844,11928,1588764821933213249,,0.501528179316,-0.185991219755,0.185473988324
1588764821936404599,11929,1588764821936241350,,0.50153684056,-0.186044763829,0.185433284385
1588764821942342045,11930,1588764821942176011,,0.501543534724,-0.186112663551,0.18538810511
1588764821945353919,11931,1588764821945192363,,0.501549133292,-0.186183265122,0.185329676476
1588764821951386588,11932,1588764821951259458,,0.501552936637,-0.186252237236,0.185252870079
1588764821954293136,11933,1588764821954175066,,0.501556220581,-0.186328783202,0.185172703237
1588764821963412551,11934,1588764821963285034,,0.501550142132,-0.186491376231,0.184989858465
1588764821966427717,11935,1588764821966257909,,0.501544343093,-0.186573020593,0.184900026496
1588764821969298238,11936,1588764821969204684,,0.501537849314,-0.186660326063,0.184808179854
1588764821975466955,11937,1588764821975290649,,0.501530521495,-0.186752381845,0.184722481607
1588764821978338055,11938,1588764821978229813,,0.501526071259,-0.186852303792,0.184650424584
1588764821981392745,11939,1588764821981283885,,0.501522214671,-0.186962536871,0.184581712795
1588764821987319631,11940,1588764821987219127,,0.50151368889,-0.187089565637,0.184517342968
1588764821990337249,11941,1588764821990195834,,0.501506564656,-0.187211156056,0.184453301068
1588764821993349984,11942,1588764821993183292,,0.50149795344,-0.187356926576,0.184375387269
1588764821999314091,11943,1588764821999215229,,0.501487850644,-0.187504987215,0.184319818201
1588764822002424877,11944,1588764822002297967,,0.501474883276,-0.187619466214,0.184263513474
1588764822005374926,11945,1588764822005233753,,0.501465998162,-0.187748991882,0.184190608799
1588764822011727033,11946,1588764822011632615,,0.501458911773,-0.187871609221,0.184114324418
1588764822014531852,11947,1588764822014289349,,0.501453224555,-0.187968273257,0.184049730736
1588764822018452513,11948,1588764822018342363,,0.50145423702,-0.188045444123,0.183978248332
