%time,field.header.seq,field.header.stamp,field.header.frame_id,field.vector.x,field.vector.y,field.vector.z
1589275665332614795,1769,1589275665332557885,,0.00468203961512,-1.33786311926,1.12443419605
1589275665338894107,1770,1589275665338790450,,0.00513515645466,-1.36299780891,1.1290018483
1589275665344641538,1771,1589275665344552159,,0.00556048962159,-1.38818826206,1.13300064937
1589275665350833107,1772,1589275665350735263,,0.00585991514008,-1.41324532073,1.13871697008
1589275665356840448,1773,1589275665356750198,,0.00604241449886,-1.43814406389,1.14379367942
1589275665362728570,1774,1589275665362633092,,0.00657059416436,-1.46420188869,1.14846873169
1589275665368995859,1775,1589275665368815421,,0.00674524723945,-1.48972348061,1.15365780148
1589275665375248120,1776,1589275665375141089,,0.00728022077485,-1.50865512448,1.15673315886
1589275665381295092,1777,1589275665381140194,,0.00744787744213,-1.51617010384,1.15749396051
1589275665387666530,1778,1589275665387537379,,0.00783563409046,-1.54259221889,1.16204649138
1589275665390427734,1779,1589275665390364848,,0.00803302322734,-1.56865316121,1.16756505675
1589275665396147054,1780,1589275665396029146,,0.00835255320775,-1.59557733097,1.17184106734
1589275665402435648,1781,1589275665402346934,,0.00857511727648,-1.61455223528,1.17539009732
1589275665408356879,1782,1589275665408210584,,0.0088231600037,-1.62301826498,1.1753117233
1589275665414197293,1783,1589275665414050143,,0.00888621136843,-1.64957422899,1.18120135838
1589275665420123000,1784,1589275665420009055,,0.00923960343848,-1.67668462015,1.18655143111
1589275665426253125,1785,1589275665426053015,,0.00940596186323,-1.70341683307,1.19212091051
1589275665432355539,1786,1589275665432232819,,0.00955267997405,-1.73076935712,1.19826631176
1589275665438293312,1787,1589275665438144136,,0.00965003190374,-1.75838611213,1.20301141509
1589275665444158073,1788,1589275665444026775,,0.00991653315259,-1.78565648728,1.20895206467
1589275665450071245,1789,1589275665449962610,,0.0100040301364,-1.81327968395,1.21478169144
1589275665459033572,1790,1589275665458952714,,0.0104359548394,-1.84218004338,1.21830792164
1589275665465253165,1791,1589275665465142004,,0.0103981475596,-1.87022119322,1.22423813445
1589275665471090978,1792,1589275665471003641,,0.0106689853791,-1.89843049781,1.22986436305
1589275665477052519,1793,1589275665476961520,,0.0107166906655,-1.92645396154,1.2358578422
1589275665483023356,1794,1589275665482895213,,0.0107968887279,-1.95473211313,1.2413184698
1589275665489143021,1795,1589275665489024459,,0.0108277865664,-1.98316319119,1.24761606932
1589275665495295196,1796,1589275665495191330,,0.010876133761,-1.98331540727,1.2467206912
1589275665501040183,1797,1589275665500939289,,0.0109651506429,-2.01191909755,1.25218148046
1589275665507027613,1798,1589275665506911799,,0.0110733003543,-2.04045003586,1.25856470243
1589275665512966161,1799,1589275665512885340,,0.0112243820739,-2.06907053986,1.26417034927
1589275665518995047,1800,1589275665518906455,,0.0113701668099,-2.09803059281,1.27054889723
1589275665524979186,1801,1589275665524901984,,0.0114977461912,-2.12725751023,1.27615345454
1589275665531018850,1802,1589275665530940371,,0.0115657443502,-2.15663297966,1.28248068081
1589275665537015164,1803,1589275665536900709,,0.0116368477692,-2.18551752893,1.28876326926
1589275665542963261,1804,1589275665542887184,,0.0118518941704,-2.21516156879,1.29428516363
1589275665549115875,1805,1589275665549055637,,0.0120246949406,-2.24442845679,1.30093271379
1589275665554974069,1806,1589275665554916711,,0.0122924869495,-2.24442435692,1.29932210824
1589275665561099576,1807,1589275665561039966,,0.0122332799638,-2.27385652783,1.30570881377
1589275665567123834,1808,1589275665567053064,,0.0123826785423,-2.30326262616,1.31171484479
1589275665572964601,1809,1589275665572891336,,0.0125356347054,-2.33306061022,1.31867642673
1589275665579182755,1810,1589275665579093307,,0.0126626015656,-2.36222890367,1.32460721473
1589275665584976716,1811,1589275665584879185,,0.0127061594934,-2.39228779557,1.33135014856
1589275665591340261,1812,1589275665591208898,,0.0126229882665,-2.42250142314,1.33807134064
1589275665596894538,1813,1589275665596824241,,0.0128413041243,-2.45246841929,1.34482468624
1589275665602871697,1814,1589275665602793650,,0.0129586868294,-2.48238853712,1.35056263601
1589275665609002495,1815,1589275665608923542,,0.0130619549543,-2.50096506724,1.35427909838
1589275665614965299,1816,1589275665614883155,,0.0132477503562,-2.51144138998,1.35519221954
1589275665620987610,1817,1589275665620857350,,0.0133221511325,-2.54191553708,1.36177886468
1589275665626865814,1818,1589275665626783490,,0.0134566533016,-2.57152248915,1.36741954819
1589275665632846533,1819,1589275665632765808,,0.0136963695182,-2.60162526552,1.37418083263
1589275665638906110,1820,1589275665638746647,,0.0140355967595,-2.63011001523,1.37993447542
1589275665644930435,1821,1589275665644838383,,0.0141928746939,-2.65966144646,1.38632289879
1589275665650878585,1822,1589275665650787503,,0.0141605026999,-2.68789710487,1.39152336844
1589275665656964981,1823,1589275665656807882,,0.0138091716103,-2.71796322394,1.39773656191
1589275665662823689,1824,1589275665662730526,,0.0130251581383,-2.74706865167,1.40225983415
1589275665668902950,1825,1589275665668763370,,0.0126609593231,-2.74576977527,1.40039443793
1589275665674868780,1826,1589275665674770381,,0.0126362863152,-2.77604968646,1.40708079747
1589275665680934594,1827,1589275665680816793,,0.0124335156692,-2.80384840326,1.41149570769
1589275665687344424,1828,1589275665687260101,,0.0130189276039,-2.82662856717,1.41514049394
1589275665693072682,1829,1589275665692981070,,0.0129109371064,-2.85732237731,1.42152055976
1589275665698867298,1830,1589275665698782002,,0.0129248342958,-2.88819258128,1.42837267473
1589275665704877150,1831,1589275665704797352,,0.0129072383373,-2.91708738075,1.43424890043
1589275665711155443,1832,1589275665711060101,,0.0129652900993,-2.94770814041,1.44119857637
1589275665716793299,1833,1589275665716695252,,0.0130943452808,-2.977455555,1.4465947731
1589275665722925355,1834,1589275665722777093,,0.0131002030568,-3.00874814392,1.45351527264
1589275665728894777,1835,1589275665728824811,,0.0130037133186,-3.02495408724,1.45575763859
1589275665734942689,1836,1589275665734821154,,0.0126745664547,-3.03679271469,1.45626474751
1589275665740847235,1837,1589275665740749419,,0.0126032241908,-3.06818107998,1.4626824671
1589275665746917777,1838,1589275665746783739,,0.0125879343739,-3.10003093861,1.46924674842
1589275665752914156,1839,1589275665752770079,,0.0125377130449,-3.12963330957,1.47411478041
1589275665759318089,1840,1589275665759218192,,0.0127031603606,-3.16017659583,1.4806936807
1589275665765174703,1841,1589275665765090300,,0.0128098081842,-3.18809836919,1.48571233655
1589275665771066015,1842,1589275665770965451,,0.0129550063002,-3.21938731399,1.49275596002
1589275665777015487,1843,1589275665776907092,,0.0130889354711,-3.24947840626,1.4985062119
1589275665782945241,1844,1589275665782870367,,0.0130788659712,-3.28130443316,1.50567125836
1589275665795115512,1845,1589275665795033508,,0.0135289519128,-3.31017365783,1.51043061179
1589275665801215036,1846,1589275665801135699,,0.0134778543772,-3.34098694947,1.51609254471
1589275665806979860,1847,1589275665806894714,,0.0134119279156,-3.37295810492,1.52343989858
1589275665813274755,1848,1589275665813174936,,0.0132967068505,-3.40439277023,1.52904341616
1589275665819137107,1849,1589275665819040576,,0.0132786185964,-3.43675180656,1.53627197028
1589275665825097007,1850,1589275665825004009,,0.0131457090369,-3.4680347176,1.54179530957
1589275665831277730,1851,1589275665831164360,,0.0131664958682,-3.50032827822,1.54886388001
1589275665837228063,1852,1589275665837146700,,0.013107268842,-3.53238263564,1.55571224815
1589275665843012069,1853,1589275665842923820,,0.0132252000987,-3.56463462361,1.56276123946
1589275665855243777,1854,1589275665855149526,,0.013786864885,-3.59013662009,1.56587855198
1589275665861272465,1855,1589275665861163971,,0.0139453310682,-3.62235645963,1.57303888411
1589275665867165047,1856,1589275665867012967,,0.0141892197449,-3.65328128767,1.57898908235
1589275665873249203,1857,1589275665873091847,,0.0144052541414,-3.68583984574,1.58644030663
1589275665879449433,1858,1589275665879272770,,0.0146095722524,-3.7169476485,1.59227064299
1589275665885132406,1859,1589275665885014557,,0.0148646122563,-3.74965716904,1.59973516785
1589275665891589155,1860,1589275665891424697,,0.0150681600748,-3.78128024475,1.60545073473
1589275665897229430,1861,1589275665897122458,,0.0150814150117,-3.81372411951,1.61273564695
1589275665903226467,1862,1589275665903123252,,0.0153674971982,-3.84617379693,1.61990556407
1589275665909436288,1863,1589275665909365311,,0.015550052303,-3.87898196485,1.6272595238
1589275665915430588,1864,1589275665915208035,,0.0159535553875,-3.87554044235,1.62453252145
1589275665921121463,1865,1589275665921007286,,0.0161749885404,-3.90817002359,1.63185433475
1589275665927127142,1866,1589275665927013070,,0.0163733182943,-3.93939471472,1.63770770518
1589275665933159748,1867,1589275665933041395,,0.0166292322279,-3.97219548119,1.64535204054
1589275665939012936,1868,1589275665938921155,,0.01686633027,-4.00161097889,1.65084674398
1589275665945180547,1869,1589275665945095776,,0.0170894900313,-4.03433506306,1.65858875905
1589275665951200729,1870,1589275665951059015,,0.0171398126338,-4.06633110904,1.66473032318
1589275665957072121,1871,1589275665956943351,,0.0172308142307,-4.09952537871,1.67228603127
1589275665963027634,1872,1589275665962902713,,0.0169780143218,-4.13181966042,1.67817753916
1589275665969286101,1873,1589275665969162272,,0.0170075105761,-4.16490215513,1.68528535214
1589275665975345770,1874,1589275665975156161,,0.0166518792496,-4.16260331579,1.6824972655
1589275665981205908,1875,1589275665981122476,,0.0164527628921,-4.19558786225,1.68928077989
1589275665987643363,1876,1589275665987550451,,0.0162679076141,-4.22886290805,1.69668931843
1589275665993108906,1877,1589275665993019124,,0.0161987149397,-4.26052100896,1.70275552909
1589275665999163219,1878,1589275665999053397,,0.0162492158509,-4.29359836475,1.71007914579
1589275666005072695,1879,1589275666004982051,,0.0164755112686,-4.32465299631,1.71630000673
1589275666010997425,1880,1589275666010863677,,0.0165927796579,-4.35749897624,1.72356339062
1589275666017061405,1881,1589275666016997624,,0.0166984607741,-4.38879137718,1.72967313623
1589275666022990454,1882,1589275666022875874,,0.0166902298423,-4.42163415727,1.73719522447
1589275666029081688,1883,1589275666028989032,,0.0167688601411,-4.43356454662,1.73881857673
1589275666034989628,1884,1589275666034907689,,0.0169389249432,-4.45063187286,1.74267993535
1589275666041046102,1885,1589275666040966247,,0.0169587528229,-4.48139627265,1.74858366388
1589275666047027185,1886,1589275666046972588,,0.0168755250718,-4.51368248269,1.75592327759
1589275666053070692,1887,1589275666053005210,,0.0166959216429,-4.54370118599,1.76145038037
1589275666059115480,1888,1589275666058972087,,0.0166584633117,-4.57644914505,1.76875498844
1589275666064926757,1889,1589275666064849333,,0.0164628674527,-4.60655787061,1.7744406894
1589275666070998528,1890,1589275666070880634,,0.0163806520624,-4.6386236263,1.78148175696
1589275666077443191,1891,1589275666077300486,,0.0159046317425,-4.66872060351,1.78678901478
1589275666083027014,1892,1589275666082942766,,0.0158291820689,-4.70088015228,1.79386913688
1589275666092071938,1893,1589275666091960746,,0.0156808907139,-4.72814036897,1.7983089413
1589275666098039079,1894,1589275666097948265,,0.0157157659292,-4.75758572846,1.80413565009
1589275666104140091,1895,1589275666104054635,,0.0155782493524,-4.78974895907,1.81140347678
1589275666110122982,1896,1589275666110025920,,0.0151081361354,-4.81957314667,1.81698390444
1589275666119125083,1897,1589275666119044453,,0.014747975228,-4.84695257064,1.8217089634
1589275666125005765,1898,1589275666124905933,,0.0146609270741,-4.87862121059,1.82904814516
1589275666131023808,1899,1589275666130945430,,0.0140766915518,-4.90786434777,1.83472515566
1589275666137042884,1900,1589275666136971536,,0.0137194664066,-4.93986675514,1.84192408055
1589275666143097826,1901,1589275666142906845,,0.0133550743177,-4.96888554685,1.8479761929
1589275666150049174,1902,1589275666149962458,,0.0131910587072,-5.00068880268,1.85576109474
1589275666155062518,1903,1589275666154971864,,0.0124889220518,-4.99586505643,1.85407384058
1589275666161382537,1904,1589275666161261605,,0.0120332315382,-5.02752906633,1.86193083722
1589275666167458856,1905,1589275666167287774,,0.0114836481859,-5.0573814749,1.87010904478
1589275666173393230,1906,1589275666173216472,,0.0113181428248,-5.0894203913,1.87828030986
1589275666179272915,1907,1589275666179152716,,0.0109727256353,-5.12168149278,1.88579760139
1589275666185305896,1908,1589275666185137009,,0.0107029551419,-5.15101872858,1.89310101664
1589275666191617000,1909,1589275666191521196,,0.00990090336306,-5.18079447178,1.8999185104
1589275666197309468,1910,1589275666197113679,,0.00949156543903,-5.21226733886,1.90788804581
1589275666203219944,1911,1589275666203125234,,0.00834839767434,-5.24120188927,1.91419349687
1589275666212421664,1912,1589275666212236781,,0.00721142562743,-5.26581805473,1.91931579583
1589275666218280400,1913,1589275666218174891,,0.00682395637019,-5.29702118475,1.92658372931
1589275666224182545,1914,1589275666224091751,,0.00604703945315,-5.32439633419,1.93305034361
1589275666230237882,1915,1589275666230119736,,0.0054636582175,-5.35556529832,1.94072740082
1589275666239211345,1916,1589275666239108347,,0.00438639206795,-5.37959390162,1.94681935334
1589275666245347599,1917,1589275666245206483,,0.00404519906492,-5.41001782388,1.95447772628
1589275666251332760,1918,1589275666251238181,,0.00377106306226,-5.43761073212,1.96205338056
1589275666257521872,1919,1589275666257396302,,0.0032082797863,-5.46862007941,1.96949934111
1589275666263525486,1920,1589275666263383260,,0.00263853217513,-5.4957780697,1.97626985684
1589275666272462515,1921,1589275666272313384,,0.00123012648181,-5.520705145,1.98148113185
1589275666278275543,1922,1589275666278180436,,0.000680271308839,-5.55156823803,1.98866832016
1589275666284190941,1923,1589275666284089364,,-0.000133428897442,-5.58005007283,1.99533276222
1589275666290572501,1924,1589275666290456018,,-0.000532463847724,-5.61075159782,2.00300624907
1589275666296759285,1925,1589275666296644046,,-0.00130097949669,-5.63849629289,2.00999225198
1589275666302517883,1926,1589275666302335715,,-0.00160721159909,-5.63533021806,2.00954119347
1589275666308307635,1927,1589275666308181966,,-0.00242536953426,-5.66309065992,2.01637986604
1589275666314241477,1928,1589275666314140441,,-0.00262601844615,-5.69357898468,2.02443786219
1589275666320337645,1929,1589275666320212595,,-0.00333853855289,-5.71991231191,2.03090754684
1589275666326515882,1930,1589275666326416712,,-0.00353508965304,-5.74980223353,2.03891036589
1589275666332265734,1931,1589275666332159129,,-0.00457360226395,-5.77473626539,2.04504449386
1589275666338224823,1932,1589275666338147780,,-0.00490541695239,-5.8036183303,2.05252146198
1589275666344330375,1933,1589275666344185049,,-0.00582333472828,-5.82951844811,2.05904416739
1589275666350217075,1934,1589275666350097965,,-0.00647092898493,-5.85871911522,2.06596557234
1589275666356518583,1935,1589275666356418370,,-0.00744503700705,-5.8843345153,2.07184291336
1589275666362787694,1936,1589275666362662827,,-0.00780613769202,-5.912984203,2.07884259976
1589275666368292387,1937,1589275666368134968,,-0.00871275368998,-5.90494349659,2.07696013477
1589275666374287283,1938,1589275666374195001,,-0.00893183676914,-5.93325521461,2.08456208454
1589275666380324463,1939,1589275666380224513,,-0.0101689899105,-5.95638963612,2.09046798217
1589275666386196429,1940,1589275666386106632,,-0.0107290723983,-5.98422108731,2.09786183509
1589275666392357540,1941,1589275666392150752,,-0.0110926024148,-6.0117993864,2.10515740494
1589275666398300321,1942,1589275666398164114,,-0.0121306220534,-6.0344606974,2.11117171902
1589275666404418366,1943,1589275666404324445,,-0.0131276440108,-6.05520481812,2.11595568391
1589275666410238695,1944,1589275666410135582,,-0.0136170698581,-6.08139247288,2.12297500324
1589275666416511105,1945,1589275666416364995,,-0.0148907881374,-6.10265864913,2.1280159649
1589275666422595707,1946,1589275666422482087,,-0.0151994986742,-6.09694712385,2.12655661352
1589275666428382446,1947,1589275666428280564,,-0.0158980504311,-6.11744315177,2.13227533458
1589275666434249374,1948,1589275666434152496,,-0.016346411575,-6.14331224369,2.13828048643
1589275666440346387,1949,1589275666440216091,,-0.0170592307816,-6.16986610708,2.14469690008
1589275666446354264,1950,1589275666446257888,,-0.0182063590012,-6.19219532758,2.15140366686
1589275666452465706,1951,1589275666452338526,,-0.0200573863418,-6.21459804638,2.15627437489
1589275666458241542,1952,1589275666458157387,,-0.0206178934025,-6.24148288341,2.16352527573
1589275666464246275,1953,1589275666464137063,,-0.0212799879572,-6.26802270549,2.17039250465
1589275666470481038,1954,1589275666470382813,,-0.0225879548922,-6.29055128474,2.17588560064
1589275666479697953,1955,1589275666479571661,,-0.0246690325257,-6.30585048812,2.17938599532
1589275666485517622,1956,1589275666485426776,,-0.0253420107029,-6.33048353231,2.18546460588
1589275666491869266,1957,1589275666491751832,,-0.0267507993148,-6.34815049775,2.18993375774
1589275666497190590,1958,1589275666497093206,,-0.0274319941078,-6.37198019956,2.19585423509
1589275666503486445,1959,1589275666503375410,,-0.0281659000639,-6.38830919792,2.19999056725
1589275666509604916,1960,1589275666509473151,,-0.0284534911555,-6.41072791368,2.20616789638
1589275666515597981,1961,1589275666515303251,,-0.0294296183869,-6.39565337254,2.20264589203
1589275666521081060,1962,1589275666521001031,,-0.0298897999215,-6.41854645978,2.20881376975
1589275666527020517,1963,1589275666526943634,,-0.0302230654298,-6.44075799937,2.21484635124
1589275666533191866,1964,1589275666533114188,,-0.0313216553378,-6.45636754178,2.21944402429
1589275666539154379,1965,1589275666539060648,,-0.0318273365754,-6.47818343137,2.22473608257
1589275666545094046,1966,1589275666545002057,,-0.0332799005073,-6.49470449771,2.22924684101
1589275666551034823,1967,1589275666550961606,,-0.033581204291,-6.51795694846,2.2353674667
1589275666557117383,1968,1589275666557021745,,-0.0340030852694,-6.54106211183,2.24101704715
1589275666563103749,1969,1589275666562988784,,-0.034834847509,-6.56341500887,2.24610036046
1589275666572127619,1970,1589275666572015083,,-0.0369440134702,-6.57563648003,2.24887870859
1589275666578155130,1971,1589275666578049631,,-0.0379279526274,-6.59368287971,2.25438078608
1589275666584102551,1972,1589275666583960559,,-0.0385288424535,-6.61611100006,2.26014507771
1589275666590485327,1973,1589275666590393073,,-0.0393000460158,-6.63477014098,2.26570693892
1589275666596379120,1974,1589275666596290774,,-0.0399716708401,-6.65660534592,2.27183748561
1589275666602464856,1975,1589275666602335722,,-0.0409175556312,-6.64496069929,2.26898991491
1589275666608406512,1976,1589275666608283465,,-0.041587958557,-6.66732502064,2.27532555582
1589275666614286697,1977,1589275666614211226,,-0.0425541447989,-6.68238005854,2.28030872455
1589275666620248517,1978,1589275666620129007,,-0.0433640228047,-6.70360821508,2.28575153427
1589275666626158657,1979,1589275666626098767,,-0.0448382845815,-6.7188335152,2.28996613446
1589275666631893556,1980,1589275666631804947,,-0.0456227608427,-6.73981905726,2.29554550393
1589275666637912267,1981,1589275666637799837,,-0.0467306012942,-6.75264414369,2.30086739827
1589275666640924915,1982,1589275666640793799,,-0.0474524325965,-6.74604115167,2.29929461698
1589275666643925404,1983,1589275666643860658,,-0.0482944559426,-6.76621454766,2.30451068448
1589275666650391752,1984,1589275666650286927,,-0.0490127252488,-6.78655258288,2.31072243644
1589275666656301201,1985,1589275666656227703,,-0.0501992130674,-6.79878262452,2.31524162449
1589275666662314233,1986,1589275666662186770,,-0.0508591257012,-6.79109835385,2.3136628066
1589275666667907974,1987,1589275666667834990,,-0.0517042070265,-6.80426464811,2.31795433045
1589275666673924005,1988,1589275666673838890,,-0.0523579062865,-6.82277261149,2.3224336729
1589275666679903352,1989,1589275666679780616,,-0.052743475373,-6.84304735911,2.32803043086
1589275666682854786,1990,1589275666682773505,,-0.054067520001,-6.85416147489,2.33136367268
1589275666685855477,1991,1589275666685757341,,-0.0548068486283,-6.84687862022,2.32984651267
1589275666692013184,1992,1589275666691926825,,-0.055478066099,-6.86059943367,2.33479791618
1589275666698044093,1993,1589275666697964228,,-0.0560226865116,-6.88005574032,2.33991375143
1589275666703877310,1994,1589275666703803663,,-0.0562196937123,-6.90062309249,2.34568824669
1589275666706916676,1995,1589275666706810655,,-0.0567634969191,-6.89352257756,2.34445278083
1589275666713287135,1996,1589275666713147584,,-0.0581106453694,-6.90738245578,2.34910031554
1589275666719399071,1997,1589275666719290884,,-0.0584863031169,-6.92682268572,2.35477139226
1589275666725300140,1998,1589275666725213840,,-0.0595720768126,-6.94237734348,2.35956073044
1589275666731265629,1999,1589275666731119196,,-0.0601403249771,-6.96101341386,2.36419894832
1589275666737130361,2000,1589275666737024708,,-0.0612400601689,-6.97566987456,2.36853960787
1589275666743163912,2001,1589275666743054437,,-0.0617420339297,-6.99321591831,2.37299691104
1589275666752228069,2002,1589275666752083363,,-0.0639957125419,-6.9973984129,2.37508452417
1589275666758268283,2003,1589275666758190095,,-0.0646967045176,-7.00777256317,2.3783545817
1589275666764171954,2004,1589275666764002749,,-0.0654534982423,-7.0246616064,2.38233028205
1589275666770094156,2005,1589275666770005347,,-0.0660080936549,-7.03181480224,2.38508505519
1589275666776480495,2006,1589275666776385732,,-0.0666501388569,-7.04870457834,2.38945253807
1589275666782291078,2007,1589275666782200394,,-0.0671489887032,-7.02995544223,2.38726118356
1589275666788626961,2008,1589275666788435864,,-0.0682564807336,-7.04575935047,2.39109439185
1589275666794315503,2009,1589275666794205950,,-0.0688110542352,-7.05237539721,2.39483100686
1589275666800234388,2010,1589275666800158025,,-0.0693258728863,-7.06690195893,2.3997247136
1589275666806100922,2011,1589275666806027630,,-0.0706586785662,-7.07403726513,2.40227236692
1589275666812119295,2012,1589275666812039315,,-0.0712318102714,-7.0887860126,2.40686707365
1589275666818208353,2013,1589275666818073070,,-0.0717804495596,-7.10378631924,2.41102755643
1589275666824115017,2014,1589275666824033962,,-0.0736490965994,-7.11071864208,2.41359213
1589275666830325739,2015,1589275666830249599,,-0.0749251174016,-7.11548800772,2.4156346143
1589275666836295734,2016,1589275666836207231,,-0.0755749019664,-7.1296689445,2.41929011172
1589275666842544640,2017,1589275666842412542,,-0.0767539045297,-7.11217400964,2.41578749086
1589275666848116086,2018,1589275666848034641,,-0.0771183090339,-7.12583548849,2.42020419535
1589275666854228461,2019,1589275666854133820,,-0.0782835251716,-7.12993143277,2.42216032532
1589275666860205256,2020,1589275666860117678,,-0.0787713298854,-7.14298250922,2.42661885153
1589275666866129491,2021,1589275666866040709,,-0.0794807596934,-7.15651730504,2.43083643957
1589275666872316182,2022,1589275666872225565,,-0.0802952417131,-7.16009712924,2.43333055687
1589275666878103853,2023,1589275666877938791,,-0.0816489942846,-7.16381817745,2.43557025846
1589275666884256188,2024,1589275666884071951,,-0.0820995216942,-7.17599128099,2.44041455644
1589275666890562133,2025,1589275666890469981,,-0.0828224249634,-7.18895160151,2.44379074598
1589275666899158126,2026,1589275666899036355,,-0.084482022422,-7.18265176813,2.4443662123
1589275666905092834,2027,1589275666904964428,,-0.0853004269115,-7.19422163877,2.44810560818
1589275666911170859,2028,1589275666911044213,,-0.0862321660004,-7.19633429036,2.44950983773
1589275666914148829,2029,1589275666914018178,,-0.08713570276,-7.18687221528,2.4481189984
1589275666920140677,2030,1589275666919996890,,-0.0880275497254,-7.18804088352,2.45060544801
1589275666926204669,2031,1589275666926114582,,-0.0884479416085,-7.200479255,2.45424426993
1589275666932161324,2032,1589275666932048493,,-0.0895363294967,-7.19987250391,2.45501598976
1589275666938155148,2033,1589275666938086738,,-0.0899943626189,-7.21179969403,2.45921896714
1589275666944245870,2034,1589275666944137537,,-0.0909831294487,-7.21134209309,2.45994717682
1589275666950078534,2035,1589275666949987467,,-0.0917482182276,-7.22128729717,2.46313913065
1589275666959159362,2036,1589275666959029213,,-0.0931464465872,-7.21367082067,2.46337897946
1589275666965153646,2037,1589275666965044863,,-0.0945112415549,-7.21469796321,2.46339470217
1589275666971143550,2038,1589275666971057600,,-0.0947557748225,-7.22382508845,2.46636280788
1589275666977059701,2039,1589275666976936524,,-0.0961158008072,-7.2247922762,2.46750207769
1589275666983079349,2040,1589275666982986026,,-0.0968691557888,-7.23371168711,2.4707681707
1589275666992099138,2041,1589275666992007579,,-0.0982982629145,-7.23243997725,2.47114070672
1589275666998197526,2042,1589275666997994545,,-0.0991118863583,-7.23120679223,2.47374239582
1589275667004139320,2043,1589275667004069610,,-0.0998409552549,-7.23966022252,2.47551142799
1589275667010165859,2044,1589275667010046987,,-0.100788412842,-7.23727943907,2.47679593668
1589275667016152979,2045,1589275667016082086,,-0.101238837197,-7.24724529407,2.4799729146
1589275667022532097,2046,1589275667022165302,,-0.102215987718,-7.2245925227,2.47542264524
1589275667028091460,2047,1589275667027995214,,-0.102433769061,-7.2335244589,2.47830318516
1589275667034095175,2048,1589275667034018087,,-0.103399980186,-7.22813993235,2.47785216952
1589275667040082111,2049,1589275667039992350,,-0.103661016359,-7.23453139694,2.48002119024
1589275667046313621,2050,1589275667046170312,,-0.104389152875,-7.23219467031,2.48067174082
1589275667052194599,2051,1589275667052019995,,-0.104486463815,-7.2385569821,2.48315161841
1589275667058096252,2052,1589275667058009162,,-0.104962418787,-7.23639753933,2.48317004654
1589275667064093232,2053,1589275667064007828,,-0.105147552344,-7.24292231222,2.48575591908
1589275667070165420,2054,1589275667070051759,,-0.105592410134,-7.24983926123,2.48810497828
1589275667076091478,2055,1589275667076008153,,-0.105848340005,-7.25590801421,2.49009650977
1589275667082612223,2056,1589275667082339619,,-0.106300316579,-7.2460959998,2.48884377743
1589275667088398077,2057,1589275667088258921,,-0.107265298193,-7.24272726897,2.48947909788
1589275667094237425,2058,1589275667094122949,,-0.107348440218,-7.24760602619,2.49224745709
1589275667100323024,2059,1589275667100241576,,-0.107885022376,-7.25239558488,2.49327539954
1589275667106273706,2060,1589275667106155221,,-0.108683957459,-7.24649329878,2.49369839349
1589275667112157926,2061,1589275667112073647,,-0.108811257171,-7.24952097352,2.49468501423
1589275667115100900,2062,1589275667115011935,,-0.109198766683,-7.23859622573,2.49274246053
1589275667121075680,2063,1589275667120965026,,-0.109495682278,-7.24133614735,2.49459304301
1589275667127187931,2064,1589275667127087965,,-0.109903667757,-7.24424462154,2.49584610589
1589275667133319633,2065,1589275667133199156,,-0.11021240351,-7.23387573922,2.49543016499
1589275667139175455,2066,1589275667139077538,,-0.110282055571,-7.23524851911,2.4970070763
1589275667145165980,2067,1589275667145044011,,-0.110412949353,-7.23680357496,2.49835361692
1589275667152254382,2068,1589275667151709047,,-0.110627015106,-7.22650996225,2.49824509959
1589275667157112299,2069,1589275667157032702,,-0.11077183337,-7.22833321067,2.50006288469
1589275667163307668,2070,1589275667163246156,,-0.111158747598,-7.21915597666,2.49972182989
1589275667169707070,2071,1589275667169635971,,-0.111538614936,-7.22084989529,2.50143446406
1589275667175180834,2072,1589275667175044369,,-0.112444437704,-7.20023354416,2.49764741761
1589275667181130120,2073,1589275667181035329,,-0.113083530021,-7.20295460949,2.4984462494
1589275667187506011,2074,1589275667187410919,,-0.113544328614,-7.20532011547,2.49969000644
1589275667193168982,2075,1589275667193060444,,-0.113863230671,-7.2067100501,2.501064195
1589275667199122298,2076,1589275667199025954,,-0.114838096731,-7.19827685945,2.49892864892
1589275667205225116,2077,1589275667205122135,,-0.115144689776,-7.19960693005,2.5004669277
1589275667211062994,2078,1589275667210979395,,-0.115502998846,-7.19254632479,2.49921713227
1589275667214014779,2079,1589275667213936395,,-0.115388101689,-7.18023292557,2.49696991271
1589275667220088792,2080,1589275667220016124,,-0.115298019531,-7.17146455243,2.4966591351
1589275667226142131,2081,1589275667226005938,,-0.115407307048,-7.1706028773,2.49668119072
1589275667232504701,2082,1589275667232359346,,-0.115343963191,-7.15989828953,2.49669528506
1589275667238664857,2083,1589275667238570850,,-0.115677469002,-7.16026119388,2.49619098313
1589275667244692110,2084,1589275667244564236,,-0.115682846712,-7.14965155952,2.49408205182
1589275667250632606,2085,1589275667250543132,,-0.115550516213,-7.14998345069,2.49476320742
1589275667256811519,2086,1589275667256646779,,-0.115779560319,-7.13923224705,2.49308806759
1589275667262695967,2087,1589275667262476676,,-0.116132776024,-7.12968681557,2.49117005299
1589275667268168937,2088,1589275667268057034,,-0.116972943482,-7.11965115689,2.49015325902
1589275667274090314,2089,1589275667273995144,,-0.116927808596,-7.11898618367,2.49111313574
1589275667280103952,2090,1589275667280020354,,-0.118145252696,-7.10918553221,2.48978412452
1589275667286260537,2091,1589275667286137207,,-0.118318222145,-7.10841407691,2.49091708948
1589275667292271040,2092,1589275667292198905,,-0.119298989836,-7.09646899815,2.48976910229
1589275667298374514,2093,1589275667298295795,,-0.119579970734,-7.09450488747,2.49050754535
1589275667304281587,2094,1589275667304207097,,-0.11988872588,-7.0790114476,2.48830492905
1589275667310507473,2095,1589275667310386410,,-0.120086923593,-7.07543333243,2.4882878972
1589275667316817230,2096,1589275667316665006,,-0.120014852153,-7.05704351535,2.48600156962
1589275667322625582,2097,1589275667322419967,,-0.120239808039,-7.04347337187,2.4846957066
1589275667328360239,2098,1589275667328281548,,-0.120403597473,-7.03776305254,2.48458307193
1589275667334293911,2099,1589275667334218341,,-0.12016384867,-7.03185208589,2.48412143763
1589275667340401769,2100,1589275667340298639,,-0.120498991779,-7.01264593172,2.48189349115
1589275667346458113,2101,1589275667346359353,,-0.120425012916,-7.00665010054,2.48250726974
1589275667352625846,2102,1589275667352495591,,-0.120888893882,-7.00231443881,2.48192328134
1589275667358213407,2103,1589275667358043523,,-0.121340974192,-6.98977173134,2.48150121065
1589275667364309632,2104,1589275667364232750,,-0.121899695727,-6.98691944502,2.48149675812
1589275667370374844,2105,1589275667370306193,,-0.122648612177,-6.98163087384,2.48051659363
1589275667379388179,2106,1589275667379300407,,-0.125267936468,-6.95374810177,2.47681080786
1589275667385388298,2107,1589275667385291247,,-0.125986139896,-6.95110952997,2.47650545281
1589275667391563630,2108,1589275667391387490,,-0.126837603543,-6.94856474697,2.47591499827
1589275667397646278,2109,1589275667397497525,,-0.127332317423,-6.94520152643,2.47519747072
1589275667403568200,2110,1589275667403378397,,-0.128005359995,-6.93007272778,2.47144877691
1589275667412558904,2111,1589275667412442513,,-0.129244627396,-6.89999653472,2.46587319047
1589275667418382832,2112,1589275667418275157,,-0.129084458771,-6.89441935826,2.46538335981
1589275667424394783,2113,1589275667424268670,,-0.128906547779,-6.87105774783,2.46219158112
1589275667430385224,2114,1589275667430274909,,-0.128743983254,-6.86375606338,2.46213858416
1589275667436784937,2115,1589275667436687892,,-0.128616939033,-6.85449780637,2.46117754249
1589275667442752336,2116,1589275667442644842,,-0.128727725925,-6.82427223829,2.45457315002
1589275667448506325,2117,1589275667448426131,,-0.129178596441,-6.8199867017,2.45654095366
1589275667454483307,2118,1589275667454387954,,-0.129436987524,-6.81498161718,2.45629427277
1589275667460387842,2119,1589275667460284282,,-0.129860299926,-6.79669992686,2.4528339662
1589275667466458846,2120,1589275667466342104,,-0.130187521534,-6.79361941985,2.45242890696
1589275667472380925,2121,1589275667472271473,,-0.131607485312,-6.77858430866,2.44979346605
1589275667478350720,2122,1589275667478262460,,-0.132171007137,-6.77320158859,2.44950933635
1589275667484422255,2123,1589275667484342043,,-0.133671355649,-6.76070956157,2.4483028145
1589275667490698828,2124,1589275667490625346,,-0.134377496542,-6.75568313631,2.4476479829
1589275667496863166,2125,1589275667496767085,,-0.135300658418,-6.74098692578,2.44452923627
1589275667502898176,2126,1589275667502546133,,-0.135476053713,-6.73119031179,2.44286465767
1589275667508451511,2127,1589275667508346348,,-0.136146360135,-6.71217526202,2.44033133823
1589275667514351579,2128,1589275667514255187,,-0.136519050144,-6.70210388319,2.43864126764
1589275667520367278,2129,1589275667520264309,,-0.137043384789,-6.67854831208,2.43475215144
1589275667526394585,2130,1589275667526285481,,-0.136661174308,-6.6658373317,2.43333259028
1589275667532341526,2131,1589275667532232867,,-0.136685923435,-6.63987303183,2.42871719728
1589275667538151150,2132,1589275667538036142,,-0.136792956852,-6.62698471233,2.42589582004
1589275667544521889,2133,1589275667544341230,,-0.136411222239,-6.59997392206,2.42113457501
1589275667550365086,2134,1589275667550274573,,-0.136647633871,-6.58781594372,2.41891515719
1589275667559440627,2135,1589275667559331216,,-0.136978967875,-6.56211546744,2.41419687727
1589275667565461393,2136,1589275667565351252,,-0.138079010341,-6.54182327435,2.41011081289
1589275667571569830,2137,1589275667571417554,,-0.138420086009,-6.53147834556,2.40851791617
1589275667577425128,2138,1589275667577343113,,-0.139900087452,-6.51454078572,2.40492563045
1589275667583264079,2139,1589275667583180934,,-0.140443538876,-6.505145541,2.40318052466
1589275667590092041,2140,1589275667589970285,,-0.141619917647,-6.48860774777,2.40104556839
1589275667595637826,2141,1589275667595539644,,-0.142531412968,-6.47975975706,2.39914316486
1589275667601418431,2142,1589275667601335250,,-0.143264166885,-6.46139840003,2.39561068865
1589275667607465478,2143,1589275667607385652,,-0.143558962867,-6.45075597094,2.39437810619
1589275667613408108,2144,1589275667613343128,,-0.144017665353,-6.42881438571,2.39097586289
1589275667619416468,2145,1589275667619285800,,-0.144207092207,-6.41559896184,2.38868025759
1589275667625463700,2146,1589275667625368750,,-0.144371339228,-6.39034114461,2.38524206535
1589275667631457674,2147,1589275667631329837,,-0.144117662053,-6.37609521938,2.38247340583
1589275667637457405,2148,1589275667637374288,,-0.143739657231,-6.34837359413,2.37858540871
1589275667643514017,2149,1589275667643430535,,-0.143934143265,-6.33358495022,2.37585699277
1589275667649925357,2150,1589275667649801540,,-0.143580760908,-6.30604681375,2.37178694738
1589275667655751895,2151,1589275667655535498,,-0.143689162407,-6.29356046628,2.36941087021
1589275667661775692,2152,1589275667661644876,,-0.143805537254,-6.27980132528,2.36714637289
1589275667667477612,2153,1589275667667322973,,-0.144024240587,-6.26617820943,2.36492782874
1589275667673394401,2154,1589275667673326189,,-0.144663941723,-6.24341394519,2.36162276011
1589275667679409221,2155,1589275667679308657,,-0.145001166816,-6.23170634158,2.35973124786
1589275667685552280,2156,1589275667685439483,,-0.146240208628,-6.21225684688,2.35708795265
1589275667691922675,2157,1589275667691796271,,-0.147755659932,-6.19433499294,2.35359297618
1589275667697415872,2158,1589275667697317966,,-0.148505423191,-6.18301069266,2.3517964331
1589275667703373193,2159,1589275667703276407,,-0.149059357855,-6.17125676216,2.34961605178
1589275667712649225,2160,1589275667712539295,,-0.150419620668,-6.14137679336,2.34331894516
1589275667718488513,2161,1589275667718399909,,-0.150756989852,-6.1157432811,2.33920680941
1589275667724402142,2162,1589275667724310558,,-0.15069286841,-6.10112637811,2.33638967059
1589275667730403148,2163,1589275667730281642,,-0.151019629252,-6.07310897026,2.33143908862
1589275667739377434,2164,1589275667739269975,,-0.150465820995,-6.02970391875,2.32455619614
1589275667745377576,2165,1589275667745263166,,-0.150417143715,-6.01228552757,2.32153858445
1589275667751274924,2166,1589275667751172581,,-0.150458967061,-5.9828798875,2.31650161382
1589275667757312952,2167,1589275667757191520,,-0.150699940319,-5.96699347203,2.31394609831
1589275667763278584,2168,1589275667763190499,,-0.151438880975,-5.94190300158,2.31003016323
1589275667769875510,2169,1589275667769804539,,-0.152240668391,-5.9287074944,2.30723953899
1589275667775336386,2170,1589275667775238774,,-0.153246212153,-5.9128375761,2.30559496847
1589275667781374516,2171,1589275667781282888,,-0.153900885455,-5.90113386201,2.30370232638
1589275667787804732,2172,1589275667787695506,,-0.155738856935,-5.88305330744,2.30044318239
1589275667793435428,2173,1589275667793264208,,-0.156293611622,-5.86973913616,2.29814304575
1589275667799443014,2174,1589275667799321790,,-0.157729396382,-5.84970437367,2.29520172306
1589275667805734907,2175,1589275667805565109,,-0.158193170331,-5.83506040549,2.29221715964
1589275667811667120,2176,1589275667811568728,,-0.158674771043,-5.82029912573,2.28887410535
1589275667817577036,2177,1589275667817445303,,-0.15868342759,-5.80346690039,2.2866672515
1589275667823766347,2178,1589275667823665510,,-0.159404239569,-5.77681114812,2.28131352381
1589275667832536524,2179,1589275667832365872,,-0.159577110399,-5.73582805748,2.27436138167
1589275667838450641,2180,1589275667838358803,,-0.159383532509,-5.71944518005,2.27160449949
1589275667844470554,2181,1589275667844347040,,-0.159267896039,-5.68715413601,2.26596427044
1589275667850530528,2182,1589275667850393483,,-0.159092025002,-5.67072929812,2.26276195975
1589275667856985275,2183,1589275667856859794,,-0.159099630993,-5.65161158265,2.25938516206
1589275667862864960,2184,1589275667862630124,,-0.159852621497,-5.6300017417,2.25502470966
1589275667868509298,2185,1589275667868422807,,-0.159982572991,-5.61402928467,2.25251641185
1589275667874544221,2186,1589275667874433689,,-0.160709156672,-5.59369139652,2.24799210479
1589275667880450834,2187,1589275667880373029,,-0.161320666832,-5.57917319807,2.24437163303
1589275667886480702,2188,1589275667886403284,,-0.162245781456,-5.56189271035,2.24084245566
1589275667892595091,2189,1589275667892445742,,-0.163219226128,-5.54863781315,2.23754035717
1589275667898498469,2190,1589275667898418474,,-0.164450577945,-5.53101287074,2.2344231271
1589275667904692417,2191,1589275667904489701,,-0.16521821816,-5.51758588391,2.23097543893
1589275667910608106,2192,1589275667910486713,,-0.165730699682,-5.49803058529,2.22696720351
1589275667917048107,2193,1589275667916960851,,-0.165991911661,-5.48290589592,2.22384888113
1589275667922898174,2194,1589275667922671983,,-0.165916977438,-5.46781303367,2.22122284741
1589275667928551204,2195,1589275667928435580,,-0.165965333436,-5.45093814178,2.21780992177
1589275667934611399,2196,1589275667934471463,,-0.165904414923,-5.42357950168,2.21287976872
1589275667940412285,2197,1589275667940338619,,-0.165844044245,-5.4058532079,2.20969740031
1589275667946530935,2198,1589275667946412105,,-0.165248168373,-5.37606710244,2.20423510354
1589275667952581885,2199,1589275667952482232,,-0.165249555049,-5.35687756251,2.20032296194
1589275667958620937,2200,1589275667958523199,,-0.164830574914,-5.33761660969,2.19675943314
1589275667964514639,2201,1589275667964431244,,-0.164361433077,-5.30648853371,2.19063260433
1589275667970650421,2202,1589275667970536107,,-0.164258279655,-5.28669864796,2.18639515123
1589275667979630202,2203,1589275667979462920,,-0.16409000718,-5.24849723175,2.17971820651
1589275667985549293,2204,1589275667985429951,,-0.164850424933,-5.22409993481,2.17455405987
1589275667991914127,2205,1589275667991803125,,-0.165171695527,-5.20803117831,2.17146078041
1589275667997794627,2206,1589275667997536949,,-0.165508583965,-5.19217674626,2.16854472119
1589275668004036994,2207,1589275668003860749,,-0.166390300149,-5.17201430345,2.1650136913
1589275668012701131,2208,1589275668012527470,,-0.167474781215,-5.15225567403,2.16118265802
1589275668018682261,2209,1589275668018508278,,-0.168094359342,-5.13080059442,2.1570840881
1589275668024678463,2210,1589275668024567002,,-0.168676393645,-5.10796191338,2.15288037174
1589275668030686528,2211,1589275668030521755,,-0.168800300098,-5.09064220633,2.14915718375
1589275668036954368,2212,1589275668036787898,,-0.168888793868,-5.07348276042,2.14553299629
1589275668042899316,2213,1589275668042700488,,-0.168719318864,-5.05704526314,2.14378999677
1589275668048575574,2214,1589275668048479675,,-0.168604210667,-5.03060842312,2.13868397636
1589275668054451555,2215,1589275668054354056,,-0.168525827104,-5.01212172905,2.13493660227
1589275668060631079,2216,1589275668060503172,,-0.168143044066,-4.9924809108,2.13148481101
1589275668066500622,2217,1589275668066403484,,-0.167960934655,-4.96440610113,2.12552048134
1589275668072538394,2218,1589275668072435212,,-0.167606342519,-4.94552525616,2.12230507111
1589275668078493747,2219,1589275668078394089,,-0.167425869036,-4.91838047813,2.11715871394
1589275668084473316,2220,1589275668084378512,,-0.167598405003,-4.89998528414,2.11316313636
1589275668090806586,2221,1589275668090716231,,-0.167591517934,-4.87423712428,2.10829541697
1589275668099591850,2222,1589275668099466613,,-0.167901681588,-4.84595035463,2.10329496694
1589275668105709552,2223,1589275668105529417,,-0.168402700867,-4.83005354426,2.09961123706
1589275668111711088,2224,1589275668111597884,,-0.16916526191,-4.81035288208,2.09575798703
1589275668117674487,2225,1589275668117557339,,-0.169386871957,-4.79474441615,2.0926248221
1589275668123691725,2226,1589275668123572878,,-0.170184944648,-4.77471542289,2.08887446927
1589275668132659301,2227,1589275668132530017,,-0.170855146107,-4.74838783732,2.08397125432
1589275668138632791,2228,1589275668138516644,,-0.170863541741,-4.7309348717,2.08064424933
1589275668144606510,2229,1589275668144486891,,-0.171165348674,-4.71409455619,2.07670553471
1589275668150645198,2230,1589275668150520604,,-0.171400169532,-4.69754039412,2.07286691128
1589275668156638422,2231,1589275668156558393,,-0.17174621935,-4.67415250091,2.06827912799
1589275668162103336,2232,1589275668162008684,,-0.171847978403,-4.66793021315,2.06746287649
1589275668165046889,2233,1589275668164964657,,-0.172223014631,-4.64372637047,2.06244207491
1589275668168504345,2234,1589275668168384445,,-0.1721308052,-4.63766299085,2.06160378739
1589275668174591310,2235,1589275668174505506,,-0.172570310166,-4.61976259088,2.05759541853
1589275668180735388,2236,1589275668180596043,,-0.172624094936,-4.59621285476,2.05343985783
1589275668186430942,2237,1589275668186331742,,-0.17294241724,-4.57897930692,2.04963401331
1589275668192624533,2238,1589275668192540902,,-0.17357588157,-4.55809510355,2.04495408144
1589275668198448420,2239,1589275668198371902,,-0.173686550433,-4.54109767165,2.04148048983
1589275668204401624,2240,1589275668204282277,,-0.174123930586,-4.52148905483,2.03757341368
1589275668210657141,2241,1589275668210566865,,-0.174673457458,-4.50504091246,2.0335447238
1589275668219496008,2242,1589275668219371282,,-0.175761618557,-4.48096384613,2.02863022358
1589275668225459631,2243,1589275668225364493,,-0.176724759516,-4.46237762408,2.02440083438
1589275668231305504,2244,1589275668231182562,,-0.177077458218,-4.44782626951,2.0210447382
1589275668237594645,2245,1589275668237452533,,-0.177788398794,-4.42891861138,2.01725892585
1589275668243618021,2246,1589275668243524555,,-0.178048110678,-4.41392951681,2.01430795846
1589275668252632314,2247,1589275668252513904,,-0.179190453299,-4.3915885139,2.01043855802
1589275668258442369,2248,1589275668258288082,,-0.179500734458,-4.37633250671,2.00727712363
1589275668264254863,2249,1589275668264174163,,-0.179669468998,-4.36045821389,2.00428879217
1589275668267595346,2250,1589275668267493856,,-0.180476723402,-4.35313171516,2.00284710894
1589275668273584274,2251,1589275668273469117,,-0.180812480639,-4.33783029331,1.99947797034
1589275668279559637,2252,1589275668279450632,,-0.181221166871,-4.31983586823,1.99569726841
1589275668285618405,2253,1589275668285505148,,-0.181525601597,-4.3044300317,1.99200899578
1589275668291977068,2254,1589275668291880190,,-0.181958504086,-4.28688821738,1.98796940486
1589275668297621169,2255,1589275668297472786,,-0.182263820935,-4.27183285632,1.98457908121
1589275668303581189,2256,1589275668303467907,,-0.182417662053,-4.25327365021,1.98107966282
1589275668310515608,2257,1589275668310410616,,-0.182413423415,-4.238828707,1.97783963185
1589275668315630223,2258,1589275668315507334,,-0.182555458984,-4.23261837035,1.97722152273
1589275668321450832,2259,1589275668321369947,,-0.182606169148,-4.21823460092,1.97427328024
1589275668327721511,2260,1589275668327579849,,-0.183002744704,-4.20057603963,1.97130494575
1589275668333624842,2261,1589275668333515863,,-0.183270031701,-4.1858412936,1.96831950248
1589275668339855617,2262,1589275668339385940,,-0.183497363673,-4.16772581954,1.96496254228
1589275668345546551,2263,1589275668345433977,,-0.183546444119,-4.15327795056,1.96181418455
1589275668351516536,2264,1589275668351399539,,-0.183904741528,-4.13594898694,1.957448884
1589275668357347188,2265,1589275668357248517,,-0.184007175447,-4.12191827012,1.95424216042
1589275668363332226,2266,1589275668363259847,,-0.184131370151,-4.10802006911,1.95079421178
1589275668372407550,2267,1589275668372298350,,-0.185091186738,-4.08405745417,1.9474928907
1589275668378445721,2268,1589275668378325990,,-0.185384839557,-4.07036092298,1.94453482305
1589275668384433550,2269,1589275668384352650,,-0.185594095132,-4.05667441392,1.94141421332
1589275668390792579,2270,1589275668390670816,,-0.185650348304,-4.03996152653,1.93819453876
1589275668396882292,2271,1589275668396792496,,-0.185660032844,-4.02712425045,1.9354447535
1589275668402916228,2272,1589275668402578448,,-0.185763517403,-4.02454994942,1.93530850562
1589275668408443375,2273,1589275668408351706,,-0.185853854578,-4.00880558274,1.93232617272
1589275668414505396,2274,1589275668414384796,,-0.18615870589,-3.99614433998,1.92935599729
1589275668420358942,2275,1589275668420260330,,-0.18655634901,-3.9808747842,1.92634125085
1589275668426470145,2276,1589275668426354279,,-0.1868185376,-3.96912986169,1.9235663047
1589275668432500006,2277,1589275668432395000,,-0.186880991412,-3.95679552133,1.92076393126
1589275668438486937,2278,1589275668438398276,,-0.187253904775,-3.9445954663,1.91749433034
1589275668444457345,2279,1589275668444365755,,-0.187281055231,-3.93067978273,1.91473126052
1589275668450492758,2280,1589275668450390745,,-0.187566113452,-3.91661191411,1.91193722234
1589275668459700740,2281,1589275668459580608,,-0.187703986718,-3.90372481498,1.90972137194
1589275668465824702,2282,1589275668465662881,,-0.187964221515,-3.89113505019,1.90741531841
1589275668471837569,2283,1589275668471705449,,-0.18803445161,-3.87867538237,1.90537707938
1589275668477713777,2284,1589275668477588838,,-0.188023974002,-3.8675973071,1.90325418308
1589275668483933430,2285,1589275668483762315,,-0.188155681156,-3.85662470207,1.90070847543
1589275668492716207,2286,1589275668492591238,,-0.188346628055,-3.84329025655,1.89807449855
1589275668498570571,2287,1589275668498480640,,-0.188518268119,-3.83171311884,1.89522348843
1589275668504620675,2288,1589275668504517723,,-0.188469979461,-3.82163224162,1.89286405006
1589275668510496082,2289,1589275668510395076,,-0.188471105641,-3.81055277547,1.8905638311
1589275668516699771,2290,1589275668516546953,,-0.188481771181,-3.80107635731,1.8882146646
1589275668523015900,2291,1589275668522683342,,-0.188593948539,-3.79994298616,1.88803515825
1589275668528561402,2292,1589275668528460297,,-0.188515431348,-3.79042468873,1.88621801839
1589275668534556762,2293,1589275668534444257,,-0.188704501365,-3.77972520868,1.88434506407
1589275668540577888,2294,1589275668540426975,,-0.188540098597,-3.77010829718,1.88293213292
1589275668546609999,2295,1589275668546498683,,-0.188497782879,-3.76139511811,1.8811722298
1589275668552613732,2296,1589275668552431778,,-0.188646844601,-3.75265125619,1.87920407464
1589275668558544685,2297,1589275668558450271,,-0.188726454896,-3.74468631888,1.8770618296
1589275668564615749,2298,1589275668564528731,,-0.188780436833,-3.73542917797,1.87532881715
1589275668570577142,2299,1589275668570413152,,-0.188808275429,-3.72712745774,1.87353015299
1589275668576871593,2300,1589275668576714264,,-0.188933793128,-3.71822659613,1.87225054985
1589275668583028372,2301,1589275668582697142,,-0.189039417341,-3.7174408479,1.87255960115
1589275668588814029,2302,1589275668588713226,,-0.189103819955,-3.70876247555,1.87142230485
1589275668594633329,2303,1589275668594525060,,-0.189112760251,-3.70135472406,1.8700869269
1589275668597705158,2304,1589275668597592995,,-0.189199801718,-3.69422059611,1.86907535194
1589275668604009081,2305,1589275668603894257,,-0.189284286628,-3.68736571589,1.8676841935
1589275668612778677,2306,1589275668612626256,,-0.189598340131,-3.67836686579,1.8665849464
1589275668618798153,2307,1589275668618657704,,-0.189595319608,-3.67172473806,1.86547060603
1589275668624700054,2308,1589275668624562702,,-0.189676445699,-3.66459042225,1.8642808976
1589275668630669874,2309,1589275668630596713,,-0.189609185321,-3.65851931738,1.86325426064
1589275668637163759,2310,1589275668637042683,,-0.189589971197,-3.65158054528,1.8622833433
1589275668644027235,2311,1589275668643891749,,-0.189709349707,-3.64612937905,1.86128024821
1589275668649111550,2312,1589275668649008722,,-0.189677763495,-3.64536029183,1.86140855915
1589275668655154579,2313,1589275668655057729,,-0.189588962263,-3.64006880849,1.86061322249
1589275668661289463,2314,1589275668661145245,,-0.189386198686,-3.63371097474,1.86022389118
1589275668666922726,2315,1589275668666822644,,-0.189179163059,-3.62924736568,1.85968224361
1589275668672949502,2316,1589275668672810527,,-0.189054027577,-3.62409892776,1.85932181476
1589275668678847383,2317,1589275668678732611,,-0.188928720125,-3.61996956712,1.85869578939
1589275668684970635,2318,1589275668684827093,,-0.188710972941,-3.61618011975,1.85836091425
1589275668691330990,2319,1589275668691191976,,-0.188796638102,-3.61291181488,1.8575799841
1589275668697320681,2320,1589275668697170503,,-0.188348803887,-3.6085882248,1.85789694788
1589275668703593013,2321,1589275668703526560,,-0.188134509528,-3.60576623171,1.85761077371
1589275668708449709,2322,1589275668708376570,,-0.187976945122,-3.60521703261,1.85773465768
1589275668714783223,2323,1589275668714673077,,-0.18746283433,-3.60160993202,1.85793386834
1589275668720729380,2324,1589275668720635251,,-0.187300729304,-3.59958009047,1.85757557633
1589275668726735646,2325,1589275668726609474,,-0.18685762077,-3.59692996586,1.8578835803
1589275668732479481,2326,1589275668732319099,,-0.18667646723,-3.59545357528,1.85803930956
1589275668738452008,2327,1589275668738379370,,-0.186535815574,-3.5944652232,1.85815342793
1589275668744709864,2328,1589275668744620140,,-0.186059970385,-3.59263005308,1.85858058268
1589275668750706863,2329,1589275668750610984,,-0.185693768455,-3.59090457937,1.85916244132
1589275668756417860,2330,1589275668756319284,,-0.185481543729,-3.58968150369,1.85962263271
1589275668759602632,2331,1589275668759526821,,-0.184982898486,-3.58822238417,1.86006175794
1589275668765559730,2332,1589275668765307630,,-0.184594536376,-3.58652071027,1.86071866897
1589275668768573929,2333,1589275668768483190,,-0.184050868172,-3.58505011066,1.86145381765
1589275668774445138,2334,1589275668774332577,,-0.183911361741,-3.5833580092,1.86183419121
1589275668780452926,2335,1589275668780352161,,-0.183729420069,-3.58140272885,1.86218339389
1589275668786414634,2336,1589275668786307383,,-0.183114120295,-3.57775105815,1.86335928616
1589275668789751858,2337,1589275668789676437,,-0.182699183837,-3.57498391613,1.86424960269
1589275668795799568,2338,1589275668795710004,,-0.182295011073,-3.57108808995,1.86518211027
1589275668801485627,2339,1589275668801386252,,-0.181918444572,-3.57009953546,1.86577143573
1589275668807478536,2340,1589275668807302224,,-0.18157510326,-3.56658549361,1.86684538352
1589275668810303783,2341,1589275668810231126,,-0.180823541288,-3.56141136915,1.86842535861
1589275668813316994,2342,1589275668813255492,,-0.180511916357,-3.56036492403,1.86918156301
1589275668819340824,2343,1589275668819230127,,-0.179572172658,-3.55366006769,1.87157247912
1589275668825648112,2344,1589275668825528832,,-0.178456886781,-3.54623674033,1.87441669916
1589275668831556329,2345,1589275668831432504,,-0.177678263548,-3.5397199787,1.87643931503
1589275668837572458,2346,1589275668837487134,,-0.177490166886,-3.53437110221,1.87791163681
1589275668843518684,2347,1589275668843426663,,-0.176821797,-3.52732509911,1.88014176711
1589275668849686842,2348,1589275668849590499,,-0.176529885659,-3.52098831449,1.88173489709
1589275668855331966,2349,1589275668855247557,,-0.17600282717,-3.51931818882,1.88284208571
1589275668861687365,2350,1589275668861347551,,-0.175564668026,-3.51275460834,1.88493030925
1589275668867461983,2351,1589275668867368928,,-0.175366542811,-3.50608836765,1.88683950251
1589275668870457962,2352,1589275668870356047,,-0.175126062359,-3.49918884151,1.88918981252
1589275668873366964,2353,1589275668873271946,,-0.174580065553,-3.49725630949,1.89069024445
1589275668876351327,2354,1589275668876266589,,-0.174294254929,-3.48992991193,1.8927091345
1589275668879396521,2355,1589275668879285615,,-0.173847277248,-3.48863693532,1.89372085487
1589275668883612119,2356,1589275668883532735,,-0.173596372754,-3.48100509559,1.8957224692
1589275668888650381,2357,1589275668888574534,,-0.173259208888,-3.47983779863,1.89661484645
1589275668894546892,2358,1589275668894477078,,-0.1730960913,-3.47216435674,1.89871086258
1589275668900491023,2359,1589275668900423738,,-0.172872928623,-3.46422351166,1.90098915394
1589275668906429761,2360,1589275668906359775,,-0.172747007184,-3.45614621418,1.90315676591
1589275668909750767,2361,1589275668909678324,,-0.172485232164,-3.44681807105,1.90605029477
1589275668915571860,2362,1589275668915349868,,-0.172312653843,-3.44632729923,1.90627163616
1589275668921669906,2363,1589275668921568241,,-0.172108919261,-3.4371151808,1.90919675423
1589275668927823345,2364,1589275668927699381,,-0.171932058629,-3.42786134983,1.91215371682
1589275668933806586,2365,1589275668933659227,,-0.171834750318,-3.41844317566,1.91474757484
1589275668939681352,2366,1589275668939597578,,-0.171552443302,-3.40878518444,1.917776494
1589275668945556094,2367,1589275668945474866,,-0.171501051835,-3.39849941818,1.92071149437
1589275668951511947,2368,1589275668951408265,,-0.171174894983,-3.3881621208,1.92366564764
1589275668957510957,2369,1589275668957418943,,-0.171035652242,-3.37697736713,1.92701918101
1589275668963281023,2370,1589275668963188186,,-0.170871770716,-3.36592118153,1.93018031044
1589275668966310342,2371,1589275668966223455,,-0.170293576128,-3.36426978831,1.93167795654
1589275668970809189,2372,1589275668970671377,,-0.170094510081,-3.35296561201,1.93506441324
1589275668975804254,2373,1589275668975507259,,-0.169509987247,-3.35062614387,1.93653080709
1589275668981820868,2374,1589275668981709608,,-0.169016451889,-3.33739792305,1.94016081261
1589275668988154277,2375,1589275668988039863,,-0.168621581687,-3.32466770904,1.94339449029
1589275668993766386,2376,1589275668993620622,,-0.16825411462,-3.31172253033,1.94690599749
1589275668999851061,2377,1589275668999700649,,-0.167829536381,-3.29847936825,1.9503259033
1589275669005848320,2378,1589275669005696718,,-0.167222652053,-3.28482235731,1.95406942368
1589275669011573158,2379,1589275669011490943,,-0.166870317712,-3.27053814963,1.95758985279
1589275669014572079,2380,1589275669014446661,,-0.165969669488,-3.26670253225,1.95865078591
1589275669020493844,2381,1589275669020380899,,-0.165604780032,-3.25241225822,1.96246432873
1589275669023723174,2382,1589275669023630367,,-0.164769299562,-3.23597613518,1.96718978075
1589275669032492106,2383,1589275669032406126,,-0.163594513706,-3.21730239854,1.97314993582
1589275669038472335,2384,1589275669038406540,,-0.163327774019,-3.20241437534,1.97688599664
1589275669041482980,2385,1589275669041383535,,-0.16259832261,-3.19862852484,1.97799928012
1589275669044477012,2386,1589275669044396172,,-0.162199369386,-3.18368771791,1.98186013075
1589275669047586603,2387,1589275669047454797,,-0.161391109178,-3.18026838366,1.9826725273
1589275669053734674,2388,1589275669053638977,,-0.161120885901,-3.16496846265,1.98639981009
1589275669059504159,2389,1589275669059389255,,-0.160468675498,-3.14780811581,1.99084689396
1589275669065459999,2390,1589275669065375360,,-0.159875250124,-3.12882171239,1.99580301831
1589275669068580761,2391,1589275669068421575,,-0.159817776136,-3.12739977766,1.99606947756
1589275669074481042,2392,1589275669074353994,,-0.159266947934,-3.10912354254,2.00060143912
1589275669077552105,2393,1589275669077450666,,-0.158991850359,-3.09219868041,2.00469480814
1589275669083551627,2394,1589275669083452659,,-0.158515922565,-3.07302596345,2.00923234151
1589275669092474890,2395,1589275669092397051,,-0.157998350582,-3.05215371479,2.01381684126
1589275669095952805,2396,1589275669095482069,,-0.157724000106,-3.05029210015,2.01403384488
1589275669101510358,2397,1589275669101415779,,-0.157416203658,-3.03248450008,2.01831821233
1589275669107668839,2398,1589275669107544287,,-0.156928917932,-3.01297669377,2.02287927384
1589275669113634898,2399,1589275669113531509,,-0.156470563447,-2.9926075535,2.02719330347
1589275669119641294,2400,1589275669119567995,,-0.156200103742,-2.97447327998,2.03166452707
1589275669125609824,2401,1589275669125532123,,-0.155762221219,-2.95594060726,2.03622119804
1589275669131595946,2402,1589275669131479915,,-0.155520194242,-2.93749193417,2.04068681836
1589275669137451792,2403,1589275669137366528,,-0.155286646435,-2.91861102636,2.04532250548
1589275669140931812,2404,1589275669140780419,,-0.154926288883,-2.9171162892,2.04587526253
1589275669146714400,2405,1589275669146583609,,-0.154198829076,-2.89684338409,2.05098125905
1589275669152588382,2406,1589275669152448774,,-0.153807726959,-2.87769185568,2.05582526582
1589275669158552679,2407,1589275669158440940,,-0.153391236755,-2.85799530397,2.06098455034
1589275669161551248,2408,1589275669161354060,,-0.15246555832,-2.8551848233,2.06236495714
1589275669164529556,2409,1589275669164424139,,-0.152184765212,-2.83538166845,2.06701883457
1589275669167421111,2410,1589275669167318205,,-0.151349966385,-2.83311934049,2.06804850333
1589275669170657744,2411,1589275669170581637,,-0.150979749874,-2.8132015526,2.07310484969
1589275669176474015,2412,1589275669176411025,,-0.150673229164,-2.79349450546,2.07817777885
1589275669179729142,2413,1589275669179613698,,-0.15025811809,-2.79251131137,2.07894955564
1589275669185601864,2414,1589275669185514293,,-0.149949280551,-2.77250864894,2.084043919
1589275669191835041,2415,1589275669191713831,,-0.14947200046,-2.75197433323,2.08961432196
1589275669197410928,2416,1589275669197321065,,-0.149251653815,-2.73188276197,2.09493345726
1589275669200378584,2417,1589275669200307771,,-0.149019035415,-2.73080822321,2.09547782182
1589275669203391785,2418,1589275669203307717,,-0.148672964291,-2.71038666553,2.10103372903
1589275669206410923,2419,1589275669206340172,,-0.148454997136,-2.70953814787,2.10152646059
1589275669209877930,2420,1589275669209809976,,-0.148211314729,-2.68898659744,2.1071459043
1589275669215637729,2421,1589275669215536353,,-0.14771504645,-2.68751395548,2.10840566204
1589275669221602942,2422,1589275669221514668,,-0.147566338972,-2.66671015579,2.11387529746
1589275669227346710,2423,1589275669227262518,,-0.147354422896,-2.64542471732,2.11975980045
1589275669230418717,2424,1589275669230331969,,-0.147139795776,-2.62424064437,2.12550356584
1589275669233472732,2425,1589275669233382841,,-0.147011280347,-2.62370089609,2.12603456432
1589275669236495513,2426,1589275669236420934,,-0.146905191366,-2.60235846806,2.1316628805
