%time,field.header.seq,field.header.stamp,field.header.frame_id,field.vector.x,field.vector.y,field.vector.z
1588857079993431803,4400,1588857079993325838,,0.50019337032,-0.200852129124,0.213448183275
1588857079999405706,4401,1588857079999243475,,0.50019436332,-0.200854471878,0.213434176439
1588857080002372503,4402,1588857080002268855,,0.500195020393,-0.200857931875,0.21341954171
1588857080005345317,4403,1588857080005245420,,0.500195381606,-0.200859140226,0.213408885896
1588857080008364254,4404,1588857080008236856,,0.5001960211,-0.200861332273,0.213395924816
1588857080014483822,4405,1588857080014305773,,0.500197310541,-0.200862874968,0.213382436315
1588857080017315043,4406,1588857080017232394,,0.500197605207,-0.200865436722,0.213371105091
1588857080023416111,4407,1588857080023237526,,0.500198411504,-0.200867427839,0.213359629083
1588857080026341477,4408,1588857080026246014,,0.500199160213,-0.200869275674,0.213347051055
1588857080029370750,4409,1588857080029276267,,0.500199972227,-0.200871469831,0.213332339353
1588857080032445907,4410,1588857080032315400,,0.500200565042,-0.200872790346,0.213321469001
1588857080038527174,4411,1588857080038314826,,0.500200604522,-0.200875064889,0.213307343475
1588857080041473425,4412,1588857080041349652,,0.500201519715,-0.200878135417,0.213295257902
1588857080047444494,4413,1588857080047304842,,0.500201639491,-0.200878805912,0.213282110037
1588857080050483754,4414,1588857080050335822,,0.500201947973,-0.200881487371,0.21327018829
1588857080053489674,4415,1588857080053310244,,0.500202393638,-0.200885335922,0.213257812363
1588857080059908594,4416,1588857080059719495,,0.50020308481,-0.200886766146,0.213244151484
1588857080062759670,4417,1588857080062658589,,0.500203787725,-0.200888547432,0.21323200747
1588857080065443255,4418,1588857080065321828,,0.500204237508,-0.200891302635,0.213219757035
1588857080071433862,4419,1588857080071315564,,0.500205064967,-0.200893854708,0.213206236987
1588857080074374661,4420,1588857080074280437,,0.50020527177,-0.200896646517,0.213193789377
1588857080077368532,4421,1588857080077269481,,0.500206161221,-0.200898247735,0.213182614409
1588857080083508351,4422,1588857080083318872,,0.500207216564,-0.200900176468,0.213171104105
1588857080086379510,4423,1588857080086284890,,0.500207759157,-0.200902985398,0.213159255643
1588857080089450735,4424,1588857080089295251,,0.500208412572,-0.200904652836,0.21314438264
1588857080095402278,4425,1588857080095280538,,0.500208980537,-0.20090602407,0.21313527598
1588857080098460406,4426,1588857080098292297,,0.50020982438,-0.200907217859,0.213125322202
1588857080101443522,4427,1588857080101333007,,0.500210369246,-0.200906862501,0.213113799549
1588857080107436723,4428,1588857080107298170,,0.500211176371,-0.200907997828,0.213101966695
1588857080110435127,4429,1588857080110357569,,0.500212275177,-0.20090922037,0.21308707567
1588857080113447588,4430,1588857080113315615,,0.500213494906,-0.200907933592,0.213073784885
1588857080119579650,4431,1588857080119398432,,0.500214275461,-0.200907838349,0.213062023089
1588857080122482382,4432,1588857080122317565,,0.500215011229,-0.200908015329,0.213049669289
1588857080125430899,4433,1588857080125288895,,0.500216002673,-0.200906801968,0.213037671891
1588857080131489253,4434,1588857080131329028,,0.500216715361,-0.200904527115,0.213022774352
1588857080134378435,4435,1588857080134285197,,0.500216720396,-0.200903531125,0.213008959025
1588857080137423794,4436,1588857080137316137,,0.500217503789,-0.200899238257,0.21299749926
1588857080143488637,4437,1588857080143378367,,0.500217546591,-0.200895173485,0.212982792366
1588857080146412697,4438,1588857080146306890,,0.500216938223,-0.200890852072,0.212966895252
1588857080149437178,4439,1588857080149299335,,0.50021667401,-0.200884071902,0.21295152516
1588857080155486371,4440,1588857080155338102,,0.500216593514,-0.20087741315,0.212936294525
1588857080158519878,4441,1588857080158367009,,0.500215749081,-0.200867034943,0.212919422189
1588857080161550921,4442,1588857080161455951,,0.500215934295,-0.200854378349,0.212903342414
1588857080167448950,4443,1588857080167315738,,0.500214640237,-0.2008419741,0.212884553388
1588857080170407203,4444,1588857080170269745,,0.500214736728,-0.200827947383,0.212867843793
1588857080176371155,4445,1588857080176239993,,0.500214028949,-0.200816150622,0.212848082934
1588857080179337434,4446,1588857080179250088,,0.500214366554,-0.200802972925,0.212830732618
1588857080182556529,4447,1588857080182385094,,0.500214701136,-0.200787815713,0.2128125498
1588857080185432415,4448,1588857080185317010,,0.500213963185,-0.200772490348,0.212794101583
1588857080191473237,4449,1588857080191286421,,0.500214736029,-0.200756562014,0.212775527607
1588857080194447581,4450,1588857080194330077,,0.500214337856,-0.200739726194,0.212755283063
1588857080197398363,4451,1588857080197318248,,0.500213787955,-0.200723162952,0.212735229436
1588857080203550470,4452,1588857080203429023,,0.500214142039,-0.200705011092,0.212714789743
1588857080206415735,4453,1588857080206316482,,0.500213613972,-0.200688112328,0.212694665508
1588857080212490038,4454,1588857080212336871,,0.500214525792,-0.200670418845,0.212674652989
1588857080215434858,4455,1588857080215329926,,0.500215576936,-0.200652873396,0.212657560399
1588857080218493610,4456,1588857080218334004,,0.500217272121,-0.200635797108,0.21263828227
1588857080221523173,4457,1588857080221357484,,0.500217792155,-0.200619131779,0.212617813126
1588857080227469869,4458,1588857080227293586,,0.500218384039,-0.200601128608,0.212597106134
1588857080230481521,4459,1588857080230326916,,0.500218359862,-0.200584628282,0.212577253468
1588857080236454566,4460,1588857080236327934,,0.500219517181,-0.200567550066,0.212557347486
1588857080239448758,4461,1588857080239316812,,0.500220626495,-0.200552007115,0.212538781264
1588857080242382248,4462,1588857080242288048,,0.500221310121,-0.200530372837,0.212516235527
1588857080248467710,4463,1588857080248351121,,0.5002225851,-0.200511661559,0.212494902139
1588857080251538947,4464,1588857080251393567,,0.500222939615,-0.200491125974,0.212472279073
1588857080254493020,4465,1588857080254334614,,0.500222168541,-0.20046910617,0.212448545351
1588857080260826455,4466,1588857080260682934,,0.500222268824,-0.200444551575,0.212424670098
1588857080263765806,4467,1588857080263629530,,0.500222832169,-0.200417321845,0.212399215862
1588857080266401312,4468,1588857080266299585,,0.500222951038,-0.20039343217,0.212376314801
1588857080272516847,4469,1588857080272325667,,0.500224404271,-0.20036581319,0.212351349094
1588857080275569422,4470,1588857080275409619,,0.500224604311,-0.200336033678,0.212324482341
1588857080281480391,4471,1588857080281331520,,0.500224586147,-0.200305718566,0.21229828019
1588857080284389008,4472,1588857080284261779,,0.500225717932,-0.200272004254,0.212270979409
1588857080287589879,4473,1588857080287366950,,0.500225953733,-0.200239410938,0.212246438014
1588857080290472699,4474,1588857080290359642,,0.500225628629,-0.200204415439,0.21221810901
1588857080296524960,4475,1588857080296368997,,0.500226190794,-0.200168045792,0.212189889573
1588857080299543082,4476,1588857080299407697,,0.500226461322,-0.20013010538,0.212162302473
1588857080302443371,4477,1588857080302346583,,0.500227591542,-0.200092286573,0.212135276697
1588857080308529360,4478,1588857080308371328,,0.500228927277,-0.200053522346,0.212108921454
1588857080311476148,4479,1588857080311368662,,0.500228072602,-0.200017299347,0.212080115915
1588857080317419783,4480,1588857080317325439,,0.500228837862,-0.199979464073,0.212052527314
1588857080320500272,4481,1588857080320373996,,0.500230360392,-0.199939971244,0.212025574172
1588857080323610041,4482,1588857080323342325,,0.500230368619,-0.199900964896,0.211995370223
1588857080326438528,4483,1588857080326298007,,0.500230743907,-0.199862451047,0.211966760774
1588857080332466249,4484,1588857080332372369,,0.500230495832,-0.199822145711,0.211935198631
1588857080335489530,4485,1588857080335347641,,0.50023157542,-0.199778687814,0.211906167731
1588857080341640648,4486,1588857080341420611,,0.500231692508,-0.199738670116,0.211875392542
1588857080344565811,4487,1588857080344410192,,0.5002310916,-0.199700844076,0.211845335061
1588857080347589961,4488,1588857080347403133,,0.500231414514,-0.199656771205,0.211811282176
1588857080353526285,4489,1588857080353357347,,0.500232004052,-0.199610446706,0.21177883213
1588857080356475524,4490,1588857080356308236,,0.500233099887,-0.19956801554,0.211746393069
1588857080359443943,4491,1588857080359303490,,0.500232949773,-0.199522153639,0.211712280776
1588857080365426632,4492,1588857080365333414,,0.500231884683,-0.199474409735,0.211676383793
1588857080368479881,4493,1588857080368335575,,0.500233586491,-0.199424042775,0.211641795195
1588857080371533682,4494,1588857080371384806,,0.500232598468,-0.199377269046,0.211606430849
1588857080377497352,4495,1588857080377343315,,0.50023199573,-0.199324631704,0.211569954773
1588857080380534002,4496,1588857080380392422,,0.500232489965,-0.199273493099,0.21153504498
1588857080386483454,4497,1588857080386298861,,0.500231767879,-0.199219265174,0.211497835689
1588857080389483022,4498,1588857080389290217,,0.500231835046,-0.199162171622,0.211460373685
1588857080392435221,4499,1588857080392288017,,0.500231268938,-0.199106746975,0.211421535963
1588857080395453421,4500,1588857080395320719,,0.500232229128,-0.199045424805,0.211384742835
1588857080401544157,4501,1588857080401367663,,0.500233184168,-0.198983387636,0.211347639821
1588857080404457302,4502,1588857080404334371,,0.500231767981,-0.198926720471,0.211307379728
1588857080410528185,4503,1588857080410368534,,0.500231918802,-0.19886229924,0.211269102996
1588857080413522541,4504,1588857080413375520,,0.500233808232,-0.198797764191,0.211232107371
1588857080416497518,4505,1588857080416364724,,0.50023339806,-0.198733879495,0.211194573273
1588857080419572678,4506,1588857080419362669,,0.50023277804,-0.198666773239,0.211154737277
1588857080425487941,4507,1588857080425312019,,0.500233061273,-0.198605874549,0.211118492786
1588857080428476273,4508,1588857080428353376,,0.500232089857,-0.198542612832,0.211079789139
1588857080434478582,4509,1588857080434343829,,0.50023223957,-0.198476063498,0.211040874964
1588857080437505267,4510,1588857080437378209,,0.500232436368,-0.19841373287,0.211004486034
1588857080440482756,4511,1588857080440342756,,0.500232564191,-0.198350767901,0.210965191917
1588857080446469551,4512,1588857080446349566,,0.500233638902,-0.198285973641,0.210927367974
1588857080449526698,4513,1588857080449367743,,0.500233094109,-0.198220260751,0.210886529071
1588857080452444045,4514,1588857080452323117,,0.50023446746,-0.198152419233,0.210847279639
1588857080458520792,4515,1588857080458359185,,0.500233487224,-0.198087633011,0.210805607243
1588857080461642230,4516,1588857080461546037,,0.500232805795,-0.198016872503,0.210761881143
1588857080464827905,4517,1588857080464630410,,0.500231001972,-0.197948454826,0.210716344627
1588857080470536364,4518,1588857080470375020,,0.500232083144,-0.197877133425,0.21067410899
1588857080473438983,4519,1588857080473316365,,0.500231031002,-0.197804590234,0.2106274761
1588857080476528681,4520,1588857080476377052,,0.500229855091,-0.197730722273,0.210579416324
1588857080482460779,4521,1588857080482352857,,0.500231296844,-0.197654960471,0.21053298745
1588857080485523350,4522,1588857080485405228,,0.500230830681,-0.197580760397,0.210484893749
1588857080488450169,4523,1588857080488339053,,0.500231147857,-0.19750515127,0.210440374407
1588857080494473469,4524,1588857080494352012,,0.500230008534,-0.197428456312,0.210392689807
1588857080500586368,4525,1588857080500404504,,0.500233063484,-0.197270280573,0.210307952039
1588857080506498955,4526,1588857080506351569,,0.500235166566,-0.197197742172,0.210267335827
1588857080509602269,4527,1588857080509388946,,0.500235482354,-0.197122713686,0.210226532482
1588857080512515986,4528,1588857080512337325,,0.500235092617,-0.197052273076,0.210185984932
1588857080518507110,4529,1588857080518363207,,0.500237049066,-0.196982797788,0.210149490914
1588857080521488654,4530,1588857080521322163,,0.500237192905,-0.196910986823,0.210109308208
1588857080524434263,4531,1588857080524342234,,0.500239615975,-0.196844317074,0.210072333043
1588857080530558942,4532,1588857080530362014,,0.500240345927,-0.196793838146,0.210042289467
1588857080533575540,4533,1588857080533426694,,0.500240256478,-0.19672717826,0.210003440633
1588857080539674806,4534,1588857080539467198,,0.500239662469,-0.196652344844,0.209963240795
1588857080542571196,4535,1588857080542452823,,0.500240260098,-0.196600779558,0.20993385902
1588857080545456648,4536,1588857080545362410,,0.500238854708,-0.196539397304,0.209898242606
1588857080548585081,4537,1588857080548439492,,0.500238669444,-0.196463696096,0.209859136672
1588857080554486373,4538,1588857080554371973,,0.500239324807,-0.196398612634,0.209825157783
1588857080557537763,4539,1588857080557448232,,0.500238561374,-0.196337979809,0.209792712612
1588857080560885832,4540,1588857080560720058,,0.500238788352,-0.196273028328,0.209761130377
1588857080566523699,4541,1588857080566392152,,0.500237534768,-0.196206550481,0.20972924499
1588857080569518519,4542,1588857080569389017,,0.500238306032,-0.196140842528,0.209702156564
1588857080572654887,4543,1588857080572424077,,0.500239474888,-0.19606948722,0.209674122327
1588857080578488137,4544,1588857080578359875,,0.500239494601,-0.195996110224,0.20964513079
1588857080581526789,4545,1588857080581394492,,0.500240604619,-0.195924929775,0.209618901119
1588857080584466985,4546,1588857080584378435,,0.500241494182,-0.19585138916,0.209592392397
1588857080590556960,4547,1588857080590417830,,0.500242182545,-0.195774635513,0.209566753245
1588857080593468792,4548,1588857080593353032,,0.500244611883,-0.195701185953,0.209541879494
1588857080599499863,4549,1588857080599347432,,0.500246932178,-0.195625396296,0.209514874734
1588857080602467686,4550,1588857080602344372,,0.500248637602,-0.195551084074,0.209487157987
1588857080605520273,4551,1588857080605364804,,0.500250699963,-0.195478345154,0.209458312332
1588857080611552724,4552,1588857080611381349,,0.500252219557,-0.195402576435,0.209427406273
1588857080614544192,4553,1588857080614399846,,0.500253081829,-0.195331239889,0.20939833629
1588857080617531207,4554,1588857080617435673,,0.500254730077,-0.195261562535,0.209370025757
1588857080620533461,4555,1588857080620387899,,0.500254743099,-0.195190888717,0.209336790711
1588857080626487340,4556,1588857080626360918,,0.500256458512,-0.195119012152,0.209308285924
1588857080629530799,4557,1588857080629385772,,0.500257119048,-0.195049889034,0.209277110277
1588857080635524346,4558,1588857080635363122,,0.50025907647,-0.194979097983,0.209246749749
1588857080638522192,4559,1588857080638403154,,0.500259478248,-0.194909980229,0.209213946455
1588857080641560916,4560,1588857080641417005,,0.500261394509,-0.194839297679,0.209186118396
1588857080647452587,4561,1588857080647333319,,0.500263786733,-0.194765349897,0.209154364987
1588857080650449310,4562,1588857080650376471,,0.500265740023,-0.194695543581,0.209123981062
1588857080653491333,4563,1588857080653361377,,0.500269539369,-0.194621404006,0.209096187477
1588857080659554918,4564,1588857080659445365,,0.500272642773,-0.194544898143,0.209066194101
1588857080662641236,4565,1588857080662518169,,0.50027595317,-0.194469921605,0.209036007412
1588857080665537657,4566,1588857080665408167,,0.500281311655,-0.194388467858,0.209008921987
1588857080671519026,4567,1588857080671415093,,0.500285649078,-0.194307307172,0.208977226177
1588857080674544925,4568,1588857080674432029,,0.500289312698,-0.194225231704,0.20894625661
1588857080677597731,4569,1588857080677498599,,0.50029696301,-0.194139166085,0.208917062963
1588857080683575221,4570,1588857080683456738,,0.500301881399,-0.194052283416,0.208882910864
1588857080686499981,4571,1588857080686390220,,0.500309135294,-0.193970012422,0.208853405447
1588857080689534937,4572,1588857080689403559,,0.50031520325,-0.193882934609,0.208820024939
1588857080695536280,4573,1588857080695397103,,0.500322519295,-0.193796026827,0.208788317492
1588857080698553064,4574,1588857080698382167,,0.500328223475,-0.193712659285,0.208754581723
1588857080704423719,4575,1588857080704348394,,0.500335620561,-0.193630113902,0.208724617818
1588857080707541426,4576,1588857080707407211,,0.500342056394,-0.193545364117,0.208691695045
1588857080710557589,4577,1588857080710369540,,0.500347766993,-0.193462502851,0.208658372243
1588857080713489137,4578,1588857080713349618,,0.50035589202,-0.193382421235,0.208629338481
1588857080719506920,4579,1588857080719391463,,0.500363586209,-0.193302461625,0.208598850747
1588857080722556043,4580,1588857080722424526,,0.5003714919,-0.193225448631,0.208569093831
1588857080728614973,4581,1588857080728472997,,0.500378083976,-0.193146677348,0.208534931528
1588857080731608487,4582,1588857080731488417,,0.500388091203,-0.193062899743,0.20850433946
1588857080734512361,4583,1588857080734389788,,0.500396756003,-0.192987298426,0.208473901277
1588857080740581724,4584,1588857080740379390,,0.500403962776,-0.192903177348,0.208439854584
1588857080743606750,4585,1588857080743420246,,0.500414555682,-0.192818281832,0.20840841095
1588857080749580060,4586,1588857080749411828,,0.500422312432,-0.192732874075,0.208374103279
1588857080752497786,4587,1588857080752388707,,0.500431174003,-0.192644637043,0.208340071498
1588857080755569537,4588,1588857080755400781,,0.500442194146,-0.192557946851,0.208308998507
1588857080758553762,4589,1588857080758396884,,0.500452306473,-0.192467908072,0.208276384392
1588857080764788783,4590,1588857080764690024,,0.500462067231,-0.192373031925,0.208241183312
1588857080767561217,4591,1588857080767374978,,0.50047381046,-0.192280459636,0.208209751931
1588857080773550590,4592,1588857080773406264,,0.500485143538,-0.192188136192,0.208177076788
1588857080776540351,4593,1588857080776385072,,0.500497955264,-0.192091482725,0.208147629702
1588857080779566912,4594,1588857080779433845,,0.500508440832,-0.191998346145,0.208113979889
1588857080782565786,4595,1588857080782458446,,0.500522127826,-0.191902797972,0.208085891711
1588857080788563256,4596,1588857080788417853,,0.500534354893,-0.191809566506,0.208057248634
1588857080791605498,4597,1588857080791412726,,0.500545205404,-0.19171924109,0.208026332769
1588857080800666380,4598,1588857080800449618,,0.500568993953,-0.191541374319,0.207966592867
1588857080803517964,4599,1588857080803395614,,0.500581620118,-0.191459838524,0.207941047475
1588857080806425278,4600,1588857080806344677,,0.500592553239,-0.191377329555,0.207911141225
1588857080812607561,4601,1588857080812420420,,0.500604371159,-0.191295843184,0.207882723573
1588857080815538001,4602,1588857080815426971,,0.500616226785,-0.191218041416,0.207855376948
1588857080821661044,4603,1588857080821464665,,0.500628016317,-0.191141253133,0.207827068887
1588857080824563673,4604,1588857080824454086,,0.500638906709,-0.191069164728,0.207800373994
1588857080827593480,4605,1588857080827463981,,0.500648257616,-0.191008732611,0.20777509771
1588857080830487245,4606,1588857080830367888,,0.500660480929,-0.190931142151,0.207748429837
1588857080836651539,4607,1588857080836398586,,0.500675010593,-0.190843927722,0.20771829619
1588857080839527010,4608,1588857080839343901,,0.500686053777,-0.190785641592,0.207689900271
1588857080845614376,4609,1588857080845412759,,0.500700569497,-0.190707258315,0.207654298334
1588857080848625194,4610,1588857080848437979,,0.500717531273,-0.190618393652,0.207620806382
1588857080851568433,4611,1588857080851425097,,0.500731962364,-0.190540677118,0.207592258567
1588857080857662326,4612,1588857080857554878,,0.500746721128,-0.190466489491,0.207560178464
1588857080860960315,4613,1588857080860814522,,0.500760405572,-0.190386217499,0.20752705762
1588857080863942888,4614,1588857080863748115,,0.500773819007,-0.190309950802,0.20749474782
1588857080869600814,4615,1588857080869437379,,0.500787842678,-0.190223521362,0.207460043951
1588857080872492075,4616,1588857080872378232,,0.500801873833,-0.190141185415,0.207425171782
1588857080875584274,4617,1588857080875426285,,0.500817989241,-0.190056344938,0.207390501527
1588857080881523891,4618,1588857080881417944,,0.500832916695,-0.18997035785,0.207355215407
1588857080884517762,4619,1588857080884426798,,0.500849282339,-0.189885245031,0.207318998565
1588857080887623181,4620,1588857080887473967,,0.500866052467,-0.18979528456,0.207283363995
1588857080893613639,4621,1588857080893437784,,0.500882668495,-0.189710390999,0.207249533769
1588857080896638176,4622,1588857080896456453,,0.500899924202,-0.189622212966,0.207217947652
1588857080899605830,4623,1588857080899420460,,0.50091626737,-0.189531977311,0.207183996307
1588857080905498247,4624,1588857080905386630,,0.50093225957,-0.189443865687,0.207149723708
1588857080908549177,4625,1588857080908382898,,0.500948990303,-0.189359198672,0.207116677453
1588857080911694670,4626,1588857080911443307,,0.500964970496,-0.18927742812,0.207082925003
1588857080920617485,4627,1588857080920449843,,0.500997921686,-0.189111636623,0.207012748891
1588857080923648199,4628,1588857080923423497,,0.501014293929,-0.189033348291,0.20697805256
1588857080929689556,4629,1588857080929456011,,0.501031557144,-0.188944264537,0.206945484892
1588857080932620718,4630,1588857080932427218,,0.501047647605,-0.188858352366,0.206912842134
1588857080935602451,4631,1588857080935461114,,0.501064927499,-0.188767713457,0.206881487911
1588857080941630778,4632,1588857080941364193,,0.501080686919,-0.188676455521,0.206848416362
1588857080944455881,4633,1588857080944346940,,0.501095949093,-0.188586068878,0.206815833724
1588857080947462507,4634,1588857080947335770,,0.501110020691,-0.188512353525,0.206785566605
1588857080953555756,4635,1588857080953446008,,0.501127187255,-0.188418071245,0.206751080122
1588857080956573736,4636,1588857080956439504,,0.501147004573,-0.188308810651,0.20671788742
1588857080959556579,4637,1588857080959457066,,0.501161446698,-0.188237830138,0.206691622625
1588857080965607608,4638,1588857080965445883,,0.501179931851,-0.188141683415,0.206661261527
1588857080968551887,4639,1588857080968446487,,0.50119970427,-0.188039587948,0.206632688261
1588857080971563601,4640,1588857080971389294,,0.501215770372,-0.187951562521,0.206602841902
1588857080977693019,4641,1588857080977593028,,0.501230759872,-0.187867243294,0.206573900034
1588857080980570987,4642,1588857080980431439,,0.50124632135,-0.187782996233,0.206544203831
1588857080986606428,4643,1588857080986444252,,0.501263465342,-0.187700754693,0.206518307058
1588857080989624412,4644,1588857080989432386,,0.501279549593,-0.187619439712,0.206490242182
1588857080992511256,4645,1588857080992410259,,0.501296775504,-0.187538236471,0.206459396908
1588857080995611988,4646,1588857080995437359,,0.501313579308,-0.187458471149,0.20642896153
1588857081001630906,4647,1588857081001456640,,0.50133124403,-0.187375900347,0.206400397573
1588857081004596295,4648,1588857081004494721,,0.501348984678,-0.187294707671,0.206372919658
1588857081010575891,4649,1588857081010453782,,0.501367622262,-0.187212489349,0.206346753782
1588857081013532740,4650,1588857081013417795,,0.501386041258,-0.187130051548,0.206316075121
1588857081016636428,4651,1588857081016404252,,0.501403300279,-0.187047008182,0.206283374104
1588857081019512786,4652,1588857081019420075,,0.501422123811,-0.186959811776,0.206255370682
1588857081025610575,4653,1588857081025408261,,0.501440574195,-0.186872453926,0.206229673129
1588857081028540108,4654,1588857081028428758,,0.501458843349,-0.186778598756,0.206200200048
1588857081034584869,4655,1588857081034379007,,0.501476824105,-0.186689117692,0.206172701779
1588857081040531179,4656,1588857081040365734,,0.501511364675,-0.186497627806,0.20611103911
1588857081046518001,4657,1588857081046402444,,0.501529784406,-0.186404117383,0.206084616716
1588857081049603500,4658,1588857081049467599,,0.501548353526,-0.186305702375,0.206055948591
1588857081052612265,4659,1588857081052487104,,0.501565524689,-0.186209960314,0.206026798582
1588857081058629832,4660,1588857081058474903,,0.501582732418,-0.18611690272,0.205998865836
1588857081061805175,4661,1588857081061697838,,0.501599549379,-0.186025014905,0.205971179551
1588857081064901384,4662,1588857081064775077,,0.501617703372,-0.185933804417,0.205946765214
1588857081073628914,4663,1588857081073473979,,0.501649177685,-0.185757988491,0.205895050316
1588857081076628804,4664,1588857081076486503,,0.501664890959,-0.185672721548,0.205871956154
1588857081082636062,4665,1588857081082478782,,0.501679889067,-0.185590044939,0.20584580556
1588857081085553662,4666,1588857081085466775,,0.501693743378,-0.185511793864,0.205820550779
1588857081091524423,4667,1588857081091436170,,0.50170657248,-0.185434262257,0.205794131713
1588857081094614349,4668,1588857081094466933,,0.501720637886,-0.185358742988,0.205769890129
1588857081100709962,4669,1588857081100518450,,0.501743279423,-0.185227799003,0.205724420178
1588857081106612646,4670,1588857081106490523,,0.501757413936,-0.185151106729,0.205700386128
1588857081109563865,4671,1588857081109399958,,0.501770759217,-0.185065177823,0.205674741999
1588857081115650515,4672,1588857081115477033,,0.501780925117,-0.185007193079,0.205652535878
1588857081118573318,4673,1588857081118461875,,0.501794607166,-0.184926716124,0.205630979272
1588857081121574005,4674,1588857081121453494,,0.501808467986,-0.184838299964,0.205607212868
1588857081124534720,4675,1588857081124460004,,0.501818957306,-0.184778811498,0.205588600689
1588857081130617814,4676,1588857081130424517,,0.501832662942,-0.184698757261,0.205568504074
1588857081133581836,4677,1588857081133439705,,0.50184537219,-0.184609340718,0.205545123825
1588857081139634415,4678,1588857081139468929,,0.501855717508,-0.18454951797,0.205528770093
1588857081142591839,4679,1588857081142475067,,0.501868863743,-0.184470177659,0.205510207958
1588857081145546269,4680,1588857081145428859,,0.501883545701,-0.18438187455,0.205491636891
1588857081151774556,4681,1588857081151474273,,0.501897370616,-0.184305482744,0.205473598438
1588857081154631213,4682,1588857081154492118,,0.501909174243,-0.184231343185,0.205454904179
1588857081160969174,4683,1588857081160822436,,0.501920512096,-0.184159820225,0.205434730996
1588857081164044607,4684,1588857081163851376,,0.501931570871,-0.184091625296,0.205414656108
1588857081166568652,4685,1588857081166409025,,0.501944189431,-0.184020327123,0.20539627795
1588857081169521427,4686,1588857081169402239,,0.501954910884,-0.183957185132,0.205376110729
1588857081175659269,4687,1588857081175493343,,0.501966730372,-0.183890635628,0.205356240771
1588857081178606321,4688,1588857081178442529,,0.501977636324,-0.183828364531,0.205332565423
1588857081184637776,4689,1588857081184500186,,0.501990526147,-0.183767231572,0.20531328895
1588857081187604489,4690,1588857081187501691,,0.502001496709,-0.183708599403,0.20529021885
1588857081190728296,4691,1588857081190487929,,0.502013814087,-0.183645855736,0.205268358294
1588857081193657691,4692,1588857081193519156,,0.502024132629,-0.18358577523,0.205246537884
1588857081199654131,4693,1588857081199475186,,0.502035586086,-0.183524198622,0.205224411105
1588857081202589279,4694,1588857081202450331,,0.502046829553,-0.18345708768,0.205204396396
1588857081208627055,4695,1588857081208502691,,0.502060678538,-0.18339288838,0.205186690688
1588857081211712863,4696,1588857081211516625,,0.502073121581,-0.183321966596,0.205166799442
1588857081214634513,4697,1588857081214472117,,0.50208665563,-0.183250681815,0.20514726824
1588857081217744194,4698,1588857081217634641,,0.502101202287,-0.183178210727,0.20513067282
1588857081223610668,4699,1588857081223506803,,0.502114772257,-0.18310497359,0.20510936555
1588857081226580392,4700,1588857081226461272,,0.502128565851,-0.18302489405,0.205087831277
1588857081232658136,4701,1588857081232495427,,0.502142010531,-0.182951086119,0.205067428235
1588857081235610718,4702,1588857081235493427,,0.502157498403,-0.182873171284,0.205049392902
1588857081238522087,4703,1588857081238450316,,0.502171346358,-0.182794805135,0.205029369345
1588857081244578726,4704,1588857081244506713,,0.502186146115,-0.182715661232,0.205010194176
1588857081247677176,4705,1588857081247523348,,0.502199316515,-0.182639585111,0.204990938169
1588857081256656590,4706,1588857081256516864,,0.502226886453,-0.182490005975,0.204955762598
1588857081261274050,4707,1588857081261068613,,0.502238410224,-0.182420697564,0.204935811054
1588857081265906247,4708,1588857081265793216,,0.50225067071,-0.182352560925,0.204918744217
1588857081268624052,4709,1588857081268458829,,0.502261949257,-0.182292435038,0.20490156152
1588857081271675998,4710,1588857081271517393,,0.502273410211,-0.18223055332,0.204884762703
1588857081274623391,4711,1588857081274462528,,0.502283932744,-0.182175370993,0.204869169223
1588857081280617971,4712,1588857081280453105,,0.502291075572,-0.182136976654,0.204856318725
1588857081283606228,4713,1588857081283458436,,0.502298383843,-0.182102403034,0.204842153563
1588857081286554319,4714,1588857081286439095,,0.502310279556,-0.182045111521,0.204829590742
1588857081292754519,4715,1588857081292498170,,0.502316142195,-0.182006377041,0.204815792133
1588857081295661292,4716,1588857081295487889,,0.502323882055,-0.18196993921,0.204805853617
1588857081298550075,4717,1588857081298425876,,0.502333378384,-0.181920146439,0.204794155219
1588857081304528887,4718,1588857081304436959,,0.502340946194,-0.181872426827,0.20478017854
1588857081307628319,4719,1588857081307530771,,0.502350956771,-0.18182681646,0.204772760767
1588857081310559296,4720,1588857081310456538,,0.502359188686,-0.181783694346,0.204762279502
1588857081316574447,4721,1588857081316480739,,0.50236779845,-0.181741346668,0.204753052256
1588857081319561979,4722,1588857081319421235,,0.502376756206,-0.181691559726,0.204741954651
1588857081322640744,4723,1588857081322504766,,0.502385823233,-0.181637102416,0.204730617925
1588857081328589674,4724,1588857081328465734,,0.50239507646,-0.181582299414,0.204719691276
1588857081331615453,4725,1588857081331498635,,0.502404703539,-0.18152456064,0.204707867967
1588857081334550223,4726,1588857081334413882,,0.502412654448,-0.181466976691,0.204694596211
1588857081340657660,4727,1588857081340548523,,0.5024220462,-0.181408199349,0.204681563573
1588857081343693562,4728,1588857081343493812,,0.502430704941,-0.181351246263,0.204668988558
1588857081346603669,4729,1588857081346484790,,0.502439480619,-0.181294814098,0.204656829343
1588857081352636454,4730,1588857081352504774,,0.50244732152,-0.181238158554,0.204644147263
1588857081355619482,4731,1588857081355484119,,0.502454181395,-0.181186433915,0.204631780664
1588857081358717697,4732,1588857081358562618,,0.502462654879,-0.1811332436,0.204619556656
1588857081364743784,4733,1588857081364624957,,0.502469732582,-0.181083155622,0.204609260643
1588857081367740461,4734,1588857081367546658,,0.502476632139,-0.181036355192,0.204598180041
1588857081370582206,4735,1588857081370483138,,0.50248297332,-0.180993279047,0.204587622484
1588857081376620766,4736,1588857081376441684,,0.50248987965,-0.180951127897,0.20457903693
1588857081379588632,4737,1588857081379454788,,0.502495461382,-0.180913767538,0.204569891256
1588857081382597686,4738,1588857081382468745,,0.502501367685,-0.180879952091,0.204562469845
1588857081388577815,4739,1588857081388459523,,0.502507382703,-0.18084587736,0.204556460857
1588857081391601003,4740,1588857081391486106,,0.50251331355,-0.180814565066,0.204550640769
1588857081397699624,4741,1588857081397591788,,0.502517832475,-0.180785385522,0.204543620174
1588857081400690139,4742,1588857081400463977,,0.502523243949,-0.180758913094,0.204538833115
1588857081403658789,4743,1588857081403558354,,0.502528518675,-0.180733808804,0.204533705199
1588857081409661150,4744,1588857081409476382,,0.502533975543,-0.180705347169,0.204528094303
1588857081412656141,4745,1588857081412465621,,0.502538328,-0.180678305228,0.204522007478
1588857081415567115,4746,1588857081415449972,,0.502543384867,-0.180653253302,0.204518775512
1588857081421600805,4747,1588857081421486185,,0.502547960804,-0.180626546393,0.204512892212
1588857081424583494,4748,1588857081424472529,,0.502552562464,-0.18059941549,0.204508030365
1588857081427599045,4749,1588857081427489241,,0.502557182519,-0.180572960592,0.204504360083
1588857081433754019,4750,1588857081433559057,,0.502562453311,-0.180541992252,0.204500800512
1588857081436659390,4751,1588857081436549971,,0.502567067865,-0.180511854376,0.204497233637
1588857081439659690,4752,1588857081439487828,,0.502570762824,-0.180484221951,0.204493886515
1588857081445664049,4753,1588857081445444854,,0.502575507111,-0.180456273286,0.204491284187
1588857081448611228,4754,1588857081448476595,,0.502579145468,-0.180429492394,0.204486380888
1588857081451562122,4755,1588857081451441349,,0.502583173713,-0.1804004084,0.204485125827
1588857081457870708,4756,1588857081457769663,,0.502586540426,-0.180377997795,0.204484388131
1588857081460633629,4757,1588857081460521397,,0.502589473179,-0.180354078204,0.204483513826
1588857081463827001,4758,1588857081463656450,,0.502592176394,-0.180332410623,0.204481522645
1588857081469700459,4759,1588857081469571473,,0.502594427357,-0.180310657352,0.204478641401
1588857081472567102,4760,1588857081472476032,,0.502597624796,-0.180288866952,0.204477192708
1588857081475625268,4761,1588857081475471287,,0.502600415475,-0.180269651767,0.204474652267
1588857081481587071,4762,1588857081481442597,,0.502602396759,-0.180251938515,0.204472115917
1588857081484536009,4763,1588857081484435192,,0.502604720905,-0.180235142804,0.204469691288
1588857081487672620,4764,1588857081487503909,,0.502606020976,-0.180219250139,0.204468520705
1588857081493604814,4765,1588857081493462566,,0.502607687594,-0.180204080309,0.204467135081
1588857081496572549,4766,1588857081496428863,,0.502608301047,-0.180193331294,0.204464889
1588857081502745802,4767,1588857081502552908,,0.502608879642,-0.180181151053,0.204463173363
1588857081505634320,4768,1588857081505470456,,0.502609017805,-0.180171968267,0.204462193777
1588857081508639108,4769,1588857081508475920,,0.502610060085,-0.180162391057,0.204462016043
1588857081511620855,4770,1588857081511499507,,0.502610314208,-0.180153694494,0.204461923855
1588857081517747381,4771,1588857081517655454,,0.50261054165,-0.180146038512,0.204461731573
1588857081520663364,4772,1588857081520479551,,0.502610502877,-0.180139311652,0.204461201741
1588857081523634079,4773,1588857081523461204,,0.502611255821,-0.180132023018,0.204464635721
1588857081529595690,4774,1588857081529459506,,0.502611664161,-0.180125130365,0.204466448791
1588857081532691104,4775,1588857081532555815,,0.502611939999,-0.180118758949,0.204468972559
1588857081538620400,4776,1588857081538464422,,0.502612250606,-0.180112796337,0.204471296975
1588857081541570984,4777,1588857081541450884,,0.502613273653,-0.180107656311,0.204475526537
1588857081547555314,4778,1588857081547450312,,0.50261334515,-0.18010274452,0.204477277054
1588857081553727694,4779,1588857081553536674,,0.502614224068,-0.180095800529,0.204482707977
1588857081556652475,4780,1588857081556507129,,0.502614538904,-0.180093201421,0.204484169781
1588857081563024019,4781,1588857081562875013,,0.502614438195,-0.180090063518,0.204485890642
1588857081566046263,4782,1588857081565890704,,0.502614458921,-0.180088325483,0.204488239846
1588857081571599877,4783,1588857081571495153,,0.502615232563,-0.180086523998,0.204489347327
1588857081574600061,4784,1588857081574505225,,0.502614975951,-0.180083916174,0.204491433769
1588857081577782923,4785,1588857081577626522,,0.502615295623,-0.180082443394,0.204493530763
1588857081580619734,4786,1588857081580459233,,0.502615295517,-0.180082027217,0.204495591934
1588857081586575572,4787,1588857081586463851,,0.50261516332,-0.180080773553,0.204498157953
1588857081589661430,4788,1588857081589494402,,0.502614374802,-0.180079164364,0.204501194317
1588857081595743118,4789,1588857081595515434,,0.502614927042,-0.180079403887,0.204504381816
1588857081598689899,4790,1588857081598488201,,0.502615063628,-0.180077076173,0.204509259888
1588857081601616747,4791,1588857081601490560,,0.502614291376,-0.180076603477,0.204513110934
1588857081604551672,4792,1588857081604457418,,0.502614367603,-0.180076135209,0.204519261206
1588857081610584254,4793,1588857081610494456,,0.502614388532,-0.180074126986,0.204525458843
1588857081613595959,4794,1588857081613479387,,0.502614221643,-0.180073005012,0.204530488162
1588857081619642675,4795,1588857081619567977,,0.502613130413,-0.180072271653,0.204535699459
1588857081622584990,4796,1588857081622475402,,0.502613606609,-0.180072087643,0.204541229797
1588857081625613116,4797,1588857081625530943,,0.502613374653,-0.18007024313,0.204546496193
1588857081628681214,4798,1588857081628521106,,0.502613254943,-0.180069200792,0.20455175979
1588857081634628060,4799,1588857081634503099,,0.502612053676,-0.180069500418,0.204556656744
1588857081637673904,4800,1588857081637575857,,0.502612486389,-0.180068398596,0.204563408433
1588857081643562222,4801,1588857081643462056,,0.50261235253,-0.180067294724,0.204568947693
1588857081646632145,4802,1588857081646484034,,0.502611481112,-0.180066431915,0.204574367672
1588857081649604409,4803,1588857081649459370,,0.502611721123,-0.180065611277,0.204580538258
1588857081655610351,4804,1588857081655501394,,0.502611296552,-0.180065803605,0.204586083782
1588857081658625375,4805,1588857081658505142,,0.502611114331,-0.180064772906,0.204591178935
1588857081661781861,4806,1588857081661596425,,0.502610984043,-0.180065408466,0.204597792192
1588857081667606855,4807,1588857081667504237,,0.502611149842,-0.180066579521,0.204603277214
1588857081670601973,4808,1588857081670504473,,0.502610467471,-0.180066435547,0.204608940918
1588857081673627738,4809,1588857081673494854,,0.502610328082,-0.180065514627,0.204613894257
1588857081679604625,4810,1588857081679467003,,0.502610227388,-0.180066709531,0.204618871546
1588857081682607675,4811,1588857081682491981,,0.502610766921,-0.180067131097,0.204625034991
1588857081685578314,4812,1588857081685493243,,0.502610772949,-0.180068160157,0.204629954599
1588857081691636111,4813,1588857081691524328,,0.502610373695,-0.180070222252,0.204634973419
1588857081694673769,4814,1588857081694513711,,0.502610609796,-0.180071269252,0.204641910614
1588857081697685031,4815,1588857081697567942,,0.502610862062,-0.180072629326,0.204649093995
1588857081703628508,4816,1588857081703499518,,0.502610674921,-0.18007411284,0.204656072218
1588857081706660776,4817,1588857081706543490,,0.502611521972,-0.180074686741,0.204665271001
1588857081709656366,4818,1588857081709527434,,0.50261151825,-0.180076625051,0.204673280441
1588857081715610567,4819,1588857081715481216,,0.50261206225,-0.180078305677,0.204682198894
1588857081718663230,4820,1588857081718500961,,0.502613896196,-0.180079886055,0.204693312733
1588857081721715979,4821,1588857081721556254,,0.50261491821,-0.180082475173,0.20470268341
1588857081727717972,4822,1588857081727567809,,0.502618146946,-0.180083819203,0.204715320505
1588857081733725777,4823,1588857081733508359,,0.502624614048,-0.180086257998,0.204739638974
1588857081739668742,4824,1588857081739532389,,0.502628558918,-0.18008905522,0.204752549293
1588857081742811390,4825,1588857081742624172,,0.502632946656,-0.180090436852,0.204768183982
1588857081745669130,4826,1588857081745553416,,0.50263706467,-0.180092446705,0.204782082727
1588857081751738810,4827,1588857081751649428,,0.502640141324,-0.180093199349,0.204795523753
1588857081754712947,4828,1588857081754548905,,0.502644884612,-0.180093082666,0.20481115229
1588857081760639803,4829,1588857081760503678,,0.502647506706,-0.180095034888,0.204822387029
1588857081763826370,4830,1588857081763747440,,0.50265138949,-0.180094191624,0.20483706404
1588857081766950227,4831,1588857081766839032,,0.50265585473,-0.180092927308,0.204851436692
1588857081769683916,4832,1588857081769517481,,0.50266017754,-0.180093413411,0.204864373282
1588857081775722151,4833,1588857081775593014,,0.502663061641,-0.180093259164,0.204873579105
1588857081778616809,4834,1588857081778515034,,0.502666982409,-0.180090848332,0.204887284217
1588857081784684695,4835,1588857081784531313,,0.502671107323,-0.180090091337,0.204898395816
1588857081787743985,4836,1588857081787573256,,0.502674444807,-0.180088274907,0.204907856851
1588857081791202456,4837,1588857081791102475,,0.502677807553,-0.180086724919,0.204917046332
1588857081796681001,4838,1588857081796547369,,0.502680997617,-0.180082853291,0.204925223097
1588857081799742486,4839,1588857081799537332,,0.502684846773,-0.18007898423,0.204934738958
1588857081802702280,4840,1588857081802534512,,0.50268825684,-0.18007502971,0.204946350713
1588857081808627878,4841,1588857081808532114,,0.502691610467,-0.180071204859,0.204955743151
1588857081811768358,4842,1588857081811550781,,0.502696452881,-0.180063504364,0.2049676441
1588857081814709011,4843,1588857081814534814,,0.502700606046,-0.180054691815,0.204977501057
1588857081820620787,4844,1588857081820496083,,0.502706534748,-0.180043486083,0.204989600797
1588857081823580488,4845,1588857081823477586,,0.502712933778,-0.18003018626,0.205000427791
1588857081826645654,4846,1588857081826532193,,0.50271987168,-0.18001409858,0.205011280397
1588857081832735820,4847,1588857081832553387,,0.502727189284,-0.17999639889,0.205021092406
1588857081835776609,4848,1588857081835566415,,0.502736637569,-0.179971465721,0.205029606537
1588857081838624152,4849,1588857081838536257,,0.502744806303,-0.17994884241,0.205035182052
1588857081844645500,4850,1588857081844540561,,0.50275360211,-0.17992022773,0.205042563152
1588857081847791557,4851,1588857081847586065,,0.502762945608,-0.179889150413,0.205053334487
1588857081856746272,4852,1588857081856575326,,0.502781695241,-0.179813878024,0.205073005799
1588857081859634953,4853,1588857081859513530,,0.502791062462,-0.179774626248,0.205083860476
1588857081863063138,4854,1588857081862901729,,0.502800408901,-0.179732403205,0.205092341863
1588857081868757739,4855,1588857081868636475,,0.502810773988,-0.179687635764,0.205102392714
1588857081871726297,4856,1588857081871601650,,0.502819227949,-0.179648024113,0.205109652636
1588857081874760837,4857,1588857081874613248,,0.502828949089,-0.179604481202,0.205119931147
1588857081880730250,4858,1588857081880606464,,0.502836576482,-0.179570992508,0.205131573728
1588857081883706445,4859,1588857081883600899,,0.50284360796,-0.17953621735,0.205141042469
1588857081886722637,4860,1588857081886608880,,0.50285232855,-0.179489541876,0.205152508482
1588857081892729427,4861,1588857081892551019,,0.502859471856,-0.179450419879,0.205161362881
1588857081895760835,4862,1588857081895588006,,0.502863755843,-0.179418203415,0.205168427614
1588857081898639499,4863,1588857081898566171,,0.502870133397,-0.179374981132,0.205177020766
1588857081904645697,4864,1588857081904548271,,0.502874739695,-0.179334391374,0.205182349694
1588857081907707570,4865,1588857081907573658,,0.502876732826,-0.179298985758,0.205189185771
1588857081913697113,4866,1588857081913583996,,0.502875767744,-0.179263779337,0.205195304605
1588857081916818547,4867,1588857081916607281,,0.502873767531,-0.179233463781,0.205189186285
1588857081919660328,4868,1588857081919574392,,0.502870539609,-0.179201850677,0.205193013407
1588857081922664189,4869,1588857081922558482,,0.502867595759,-0.179173899484,0.205193438772
1588857081928802805,4870,1588857081928643815,,0.502864339808,-0.179139280327,0.205188743395
1588857081931645720,4871,1588857081931563962,,0.5028605359,-0.179103760653,0.205186614724
1588857081938002579,4872,1588857081937922135,,0.502856349185,-0.179073029535,0.20518366291
1588857081940669594,4873,1588857081940571498,,0.502849815043,-0.179042216393,0.20518054234
1588857081943706698,4874,1588857081943572026,,0.502845333413,-0.179011226398,0.205179745649
1588857081949728061,4875,1588857081949579871,,0.50284095397,-0.178979556638,0.20518127327
1588857081952721980,4876,1588857081952615568,,0.502835057405,-0.178952710782,0.205178764306
1588857081958769483,4877,1588857081958623673,,0.502829959049,-0.178926885699,0.205178167469
1588857081961857148,4878,1588857081961699909,,0.502825179374,-0.178900835413,0.205179452587
1588857081964801619,4879,1588857081964709623,,0.502819058981,-0.1788765527,0.205177037689
1588857081967743720,4880,1588857081967623253,,0.502814640773,-0.178854397645,0.205178082354
1588857081973806282,4881,1588857081973675657,,0.502809842521,-0.178833045911,0.205181795426
1588857081976683128,4882,1588857081976537678,,0.502803866108,-0.178815119439,0.205180896752
1588857081982718750,4883,1588857081982598112,,0.502798682354,-0.178794503675,0.205180189584
1588857081985689204,4884,1588857081985574000,,0.502794775824,-0.178774986656,0.205183240442
1588857081988714036,4885,1588857081988617220,,0.502789355062,-0.178758089674,0.205185073471
1588857081991705728,4886,1588857081991604565,,0.502783897451,-0.178742822827,0.205181546211
1588857082000782093,4887,1588857082000595526,,0.502775529018,-0.178713967328,0.205183159386
1588857082006725638,4888,1588857082006591104,,0.502771015354,-0.178700264861,0.205184835886
1588857082009875941,4889,1588857082009653997,,0.502766273226,-0.17868427728,0.205182410599
1588857082012760045,4890,1588857082012633509,,0.502762208639,-0.178671401391,0.205183169662
1588857082015712897,4891,1588857082015567203,,0.502758260296,-0.178657003611,0.205183767453
1588857082021733805,4892,1588857082021632620,,0.502754198314,-0.178639865259,0.205184827064
1588857082024691851,4893,1588857082024590389,,0.502750949917,-0.178624327575,0.205186292409
1588857082031381595,4894,1588857082031266531,,0.502748790767,-0.178612987383,0.205187258541
1588857082033719046,4895,1588857082033572325,,0.502746162689,-0.178599999684,0.205187655242
1588857082036779863,4896,1588857082036588798,,0.502743703023,-0.178584699197,0.205187932551
1588857082042751832,4897,1588857082042631608,,0.502741672355,-0.178575848803,0.205188976185
1588857082045811795,4898,1588857082045667459,,0.502739343354,-0.178565030629,0.205189231249
1588857082048821163,4899,1588857082048620121,,0.502736427018,-0.178554887999,0.205189048964
1588857082054742270,4900,1588857082054643004,,0.502735102682,-0.178543416021,0.205190577449
1588857082058011095,4901,1588857082057873211,,0.502733939144,-0.17853379831,0.205191502406
1588857082060826816,4902,1588857082060671057,,0.502731679969,-0.178525059333,0.205190812018
1588857082066981009,4903,1588857082066888773,,0.502729322291,-0.178518761242,0.205190156247
1588857082069694677,4904,1588857082069546452,,0.502728437114,-0.178512641872,0.205191077078
1588857082072768292,4905,1588857082072620616,,0.502727370242,-0.178505655515,0.205191756221
1588857082078871405,4906,1588857082078648024,,0.502726328224,-0.178500641335,0.205191200303
1588857082081741640,4907,1588857082081608489,,0.502725301039,-0.178496631117,0.2051921677
1588857082084766607,4908,1588857082084587599,,0.502724713587,-0.178491335365,0.205192620064
1588857082093827313,4909,1588857082093684599,,0.502722075547,-0.178485487835,0.20519196326
1588857082096839089,4910,1588857082096616865,,0.502722311464,-0.178482382206,0.205193100183
1588857082102890799,4911,1588857082102687078,,0.502721448583,-0.178478496751,0.205192289529
1588857082105769586,4912,1588857082105677026,,0.502720510392,-0.178478124947,0.205191902444
1588857082108802351,4913,1588857082108619365,,0.502720100713,-0.178475587355,0.205192133022
1588857082114740525,4914,1588857082114618418,,0.502719453734,-0.178474519929,0.205190875085
1588857082117939847,4915,1588857082117853049,,0.50271865356,-0.178472634774,0.205191201669
1588857082120702700,4916,1588857082120600676,,0.502717921612,-0.178470844413,0.205190819445
1588857082126783059,4917,1588857082126619921,,0.502717373618,-0.17847079981,0.205189832125
1588857082129736457,4918,1588857082129640819,,0.502717232121,-0.178469364886,0.205189167875
1588857082132712994,4919,1588857082132580477,,0.502716358336,-0.178469794895,0.205188889152
1588857082138941885,4920,1588857082138702220,,0.502715930197,-0.17847034968,0.205188400682
1588857082141922255,4921,1588857082141682302,,0.502715971057,-0.178470533658,0.205187589771
1588857082144670907,4922,1588857082144584913,,0.502715006282,-0.178470466508,0.205185390593
1588857082153723009,4923,1588857082153572160,,0.502714204228,-0.178471263521,0.205183549749
1588857082156726399,4924,1588857082156591238,,0.502713472586,-0.17847265345,0.205181767166
1588857082163088062,4925,1588857082162967651,,0.502713308679,-0.178473687503,0.205180289829
1588857082166118641,4926,1588857082165998874,,0.502712210678,-0.178475868828,0.205177836323
1588857082171753630,4927,1588857082171627127,,0.502712368213,-0.178477378158,0.20517702336
1588857082174723585,4928,1588857082174627873,,0.502711209764,-0.178480663074,0.205173392353
1588857082178054078,4929,1588857082177956056,,0.502711038458,-0.17848413717,0.205171932032
1588857082183775359,4930,1588857082183674380,,0.502709613188,-0.178487213672,0.205167610497
1588857082186700720,4931,1588857082186590069,,0.502708537453,-0.178490602022,0.20516324765
1588857082189768075,4932,1588857082189628648,,0.502707390522,-0.178497100252,0.205158023582
1588857082195745324,4933,1588857082195594282,,0.502706637399,-0.178500553602,0.205151295556
1588857082198746874,4934,1588857082198593595,,0.502705925769,-0.178507585141,0.20514427861
1588857082204687417,4935,1588857082204605550,,0.502703982513,-0.178514458447,0.205134091561
1588857082207836724,4936,1588857082207629194,,0.502701630085,-0.178523691066,0.205123666067
1588857082211300679,4937,1588857082211200698,,0.502698812143,-0.178534568449,0.205112118163
1588857082213743232,4938,1588857082213622168,,0.50269662213,-0.178546471838,0.205100366437
1588857082219762557,4939,1588857082219605126,,0.50269300676,-0.178563748712,0.20508874468
1588857082222769681,4940,1588857082222622194,,0.502689657512,-0.178579655408,0.205077831012
1588857082225675704,4941,1588857082225549725,,0.502686132672,-0.178597009656,0.20506461226
1588857082231753416,4942,1588857082231619974,,0.502682680377,-0.178616108764,0.205051505462
1588857082234749316,4943,1588857082234674806,,0.502678869035,-0.178635115115,0.205036807655
1588857082237976137,4944,1588857082237891206,,0.502675784996,-0.178655490794,0.205024429495
1588857082243860124,4945,1588857082243683525,,0.502672585084,-0.178676984688,0.205008660815
1588857082246777946,4946,1588857082246623907,,0.502668449264,-0.178700951217,0.204994749564
1588857082249755357,4947,1588857082249617400,,0.502665554004,-0.178723801203,0.204983836
1588857082255794329,4948,1588857082255622904,,0.502662676836,-0.17874839636,0.204968672096
1588857082258749948,4949,1588857082258655400,,0.50265931519,-0.178774871212,0.204951713711
1588857082262795129,4950,1588857082262667266,,0.502656542501,-0.178800016157,0.20493889036
1588857082268125327,4951,1588857082268021110,,0.502655010632,-0.178823859885,0.204923912007
1588857082273789515,4952,1588857082273667848,,0.502652239821,-0.178871122758,0.204897423393
1588857082279774966,4953,1588857082279613390,,0.502651558734,-0.178896349687,0.204882055566
1588857082282805557,4954,1588857082282598024,,0.502653084171,-0.178921829154,0.204872515314
1588857082285716377,4955,1588857082285596030,,0.502657076429,-0.17894602655,0.204864838492
1588857082291781130,4956,1588857082291681347,,0.502660599461,-0.178971617948,0.204854211485
1588857082294737210,4957,1588857082294587788,,0.502663541967,-0.178994663714,0.204843169733
1588857082300740732,4958,1588857082300564725,,0.502665870039,-0.179017349991,0.204833637783
1588857082303934473,4959,1588857082303677375,,0.502669820005,-0.179039321093,0.204824888347
1588857082306848358,4960,1588857082306668879,,0.502672011165,-0.179064469522,0.204817476254
1588857082312812454,4961,1588857082312704214,,0.502675877526,-0.179081985787,0.204809408238
1588857082315792019,4962,1588857082315672161,,0.502679315119,-0.179101508961,0.204801437412
1588857082321829740,4963,1588857082321670634,,0.502684766274,-0.179122070359,0.204784589899
1588857082324822812,4964,1588857082324667780,,0.502689942047,-0.17913836667,0.204773913276
1588857082327842841,4965,1588857082327712379,,0.502695034277,-0.179154948385,0.204760723883
1588857082331101370,4966,1588857082330997662,,0.502699538386,-0.179171073433,0.204746558971
1588857082336781846,4967,1588857082336580118,,0.502703438845,-0.179188355763,0.204729931488
1588857082339667189,4968,1588857082339572738,,0.502708196591,-0.179201708218,0.204716778011
1588857082345854518,4969,1588857082345630482,,0.502713021664,-0.179216832904,0.204704364476
1588857082348819219,4970,1588857082348632781,,0.502718738896,-0.179229977893,0.204688218906
1588857082351749705,4971,1588857082351645619,,0.502723628044,-0.179241802288,0.204671373026
1588857082354921956,4972,1588857082354717041,,0.502730342793,-0.179253249786,0.204654752311
1588857082360770070,4973,1588857082360638602,,0.502735881418,-0.179264715218,0.204643200389
1588857082369825021,4974,1588857082369686237,,0.502749763612,-0.17929134376,0.204610088392
1588857082372866944,4975,1588857082372668490,,0.50275566578,-0.179302125399,0.20459713169
1588857082375765262,4976,1588857082375651304,,0.502761428322,-0.179315358079,0.204578505212
1588857082378757638,4977,1588857082378650431,,0.502767923415,-0.179327268343,0.20456220404
1588857082384995326,4978,1588857082384823037,,0.5027739494,-0.179338695964,0.204544026486
1588857082387752229,4979,1588857082387655794,,0.50277907914,-0.179348734469,0.2045237897
1588857082393803842,4980,1588857082393683403,,0.502784224606,-0.179358335455,0.204507122969
1588857082396875121,4981,1588857082396728109,,0.5027882888,-0.179368064677,0.204488488058
1588857082399764919,4982,1588857082399676491,,0.502793546473,-0.179377397043,0.204468850029
1588857082402706864,4983,1588857082402605123,,0.502798554274,-0.179387516076,0.204452680628
1588857082408851989,4984,1588857082408672071,,0.502802635396,-0.179395346031,0.204434228084
1588857082411862957,4985,1588857082411671192,,0.502807133637,-0.179402801817,0.204417364509
1588857082418049534,4986,1588857082417935510,,0.502811435629,-0.179413069861,0.204396786603
1588857082420796895,4987,1588857082420635913,,0.502816113174,-0.179420362408,0.204380671312
1588857082423776598,4988,1588857082423637484,,0.502820866749,-0.179430141142,0.204363839049
1588857082429784252,4989,1588857082429673875,,0.502824832831,-0.179439014378,0.204344406757
1588857082432789398,4990,1588857082432631785,,0.502828575219,-0.179446690426,0.204332255867
1588857082435719078,4991,1588857082435615880,,0.502833014065,-0.179455271542,0.204314145445
1588857082441738348,4992,1588857082441634910,,0.502837070333,-0.179465087777,0.204299865168
1588857082444655736,4993,1588857082444564032,,0.502840846275,-0.179473546436,0.204284987055
1588857082447809348,4994,1588857082447665436,,0.502844465072,-0.179485094961,0.204265489575
1588857082453836728,4995,1588857082453722315,,0.502848445225,-0.179494256302,0.204247922788
1588857082456875797,4996,1588857082456738788,,0.502852000284,-0.179506425283,0.204229873392
1588857082459903868,4997,1588857082459722690,,0.502855768422,-0.179516959634,0.204211926894
1588857082465942666,4998,1588857082465834101,,0.502858663205,-0.179531269386,0.204191908779
1588857082468794845,4999,1588857082468669568,,0.502862333479,-0.17954292367,0.204174684792
1588857082471844719,5000,1588857082471625171,,0.502864871716,-0.179556298559,0.204156980378
1588857082478115377,5001,1588857082478007013,,0.502867137674,-0.17957157251,0.20413832799
1588857082480822816,5002,1588857082480688241,,0.502869655104,-0.179586138507,0.204118261005
1588857082483754724,5003,1588857082483678159,,0.502872013387,-0.179604151408,0.204100305359
1588857082489930675,5004,1588857082489734584,,0.502873177554,-0.179621837928,0.204079125056
1588857082492758381,5005,1588857082492638553,,0.502874114473,-0.179642272735,0.204056866934
1588857082495768905,5006,1588857082495603352,,0.502876081386,-0.179662197602,0.2040404313
1588857082501821877,5007,1588857082501673568,,0.502876776794,-0.179683450899,0.204017045149
1588857082504837235,5008,1588857082504668575,,0.502877227029,-0.179706134627,0.203998666463
1588857082507805576,5009,1588857082507678718,,0.502878914566,-0.179730209552,0.203979449326
1588857082513808148,5010,1588857082513678417,,0.502878617688,-0.179754980775,0.203960718993
1588857082516955810,5011,1588857082516733223,,0.50287842941,-0.179779844499,0.203939509807
1588857082519749790,5012,1588857082519623796,,0.502878160542,-0.179804778395,0.20392195928
1588857082525818270,5013,1588857082525666088,,0.502878481134,-0.179829424091,0.203901241562
1588857082528830064,5014,1588857082528661191,,0.502878751765,-0.179852618784,0.20388032799
1588857082531759583,5015,1588857082531640554,,0.502879556989,-0.179879745834,0.203861191393
1588857082540799769,5016,1588857082540660616,,0.502882660035,-0.179932065491,0.203822376459
1588857082543720507,5017,1588857082543616953,,0.502884203207,-0.179959115789,0.203800872846
1588857082549828015,5018,1588857082549659947,,0.502886135748,-0.179983901756,0.203784249852
1588857082552788247,5019,1588857082552627792,,0.502887638175,-0.180008266639,0.203762813166
1588857082555879087,5020,1588857082555708194,,0.502889799388,-0.180033092172,0.203742346863
1588857082561802920,5021,1588857082561653568,,0.502892154517,-0.180055204546,0.203720544472
1588857082564975480,5022,1588857082564848013,,0.502896252563,-0.180079882325,0.203701658145
1588857082573830890,5023,1588857082573684450,,0.502903141128,-0.180125561451,0.203653669617
1588857082576871723,5024,1588857082576716774,,0.502906379468,-0.180147755536,0.203636267816
1588857082582811547,5025,1588857082582695697,,0.50290854087,-0.180169598931,0.203614117197
1588857082585785985,5026,1588857082585665895,,0.502911486979,-0.180188344792,0.203590176986
1588857082588860904,5027,1588857082588694725,,0.502914553204,-0.180205955889,0.203571954284
1588857082594883346,5028,1588857082594778807,,0.502919113419,-0.180224932022,0.203550528272
1588857082598246227,5029,1588857082598143291,,0.502923224716,-0.180243303099,0.20353091043
1588857082600920101,5030,1588857082600728573,,0.502927490262,-0.180259847441,0.203510453827
1588857082606888851,5031,1588857082606712839,,0.502932319761,-0.180277979295,0.203488805364
1588857082609950329,5032,1588857082609750626,,0.502937504851,-0.180294135446,0.203466131307
1588857082612815274,5033,1588857082612718397,,0.50294056694,-0.180309234786,0.203447482742
1588857082618841133,5034,1588857082618720389,,0.502945822397,-0.18032648601,0.20342607162
1588857082621803364,5035,1588857082621666031,,0.502950843736,-0.180342083689,0.203406733299
1588857082624827512,5036,1588857082624681915,,0.502955389145,-0.180356606846,0.203386626845
1588857082631621465,5037,1588857082631494940,,0.502959842416,-0.180372259739,0.203367093482
1588857082633931932,5038,1588857082633698823,,0.502965133757,-0.180386632523,0.203346827041
1588857082636786563,5039,1588857082636692127,,0.502969770612,-0.180399077989,0.203325518142
1588857082642797241,5040,1588857082642661190,,0.502975182453,-0.180414439399,0.203306031077
1588857082645860264,5041,1588857082645681721,,0.502980504047,-0.180427448303,0.203287609072
1588857082648877226,5042,1588857082648722999,,0.502986126172,-0.180441947268,0.203268991932
1588857082654868493,5043,1588857082654718053,,0.502991061576,-0.180456575007,0.20324478926
1588857082657953774,5044,1588857082657859027,,0.502996822477,-0.180468751838,0.20322689236
1588857082667189013,5045,1588857082667053136,,0.503009148389,-0.180500086952,0.203187761218
1588857082669900891,5046,1588857082669760446,,0.503014619796,-0.180515493697,0.203170511092
1588857082672863938,5047,1588857082672746951,,0.503019744015,-0.180532784395,0.203146556972
1588857082678855873,5048,1588857082678681859,,0.503025085833,-0.180550164645,0.203127204507
1588857082681804649,5049,1588857082681699058,,0.503030737111,-0.180566891093,0.203108307682
1588857082687880796,5050,1588857082687703521,,0.503036474018,-0.18058616447,0.203089077364
1588857082693785763,5051,1588857082693670792,,0.503045217977,-0.180622361839,0.203049564305
1588857082696783039,5052,1588857082696672112,,0.503050956899,-0.180641061062,0.20303279081
