%time,field.header.seq,field.header.stamp,field.header.frame_id,field.wrench.force.x,field.wrench.force.y,field.wrench.force.z,field.wrench.torque.x,field.wrench.torque.y,field.wrench.torque.z
1589275286982355434,749,1589275286982266528,,0.0935154023995,-0.508477727106,0.960740296286,0.212346052045,-0.00368944321103,-0.0271706605018
1589275286985366452,750,1589275286985271643,,0.0935140694888,-0.508481844031,0.960738247108,0.214174225162,-0.00369525461612,-0.0271491546895
1589275286988684801,751,1589275286988576085,,0.0710403155642,-0.508396393691,0.960241774382,0.214156079928,-0.00369376475151,-0.026406567761
1589275286991579469,752,1589275286991474420,,0.0710414711819,-0.508412361406,0.960233234669,0.215096698829,-0.00369766236263,-0.0272768398685
1589275286994545933,753,1589275286994450843,,0.0712999401974,-0.636583787196,0.939650642446,0.216177278881,-0.00435427872633,-0.0281579245823
1589275286997544945,754,1589275286997441570,,0.0713029685415,-0.636601111088,0.939638676024,0.216176803804,-0.00435734005412,-0.0281610981554
1589275287000652682,755,1589275287000547034,,0.0710602355129,-0.508456465677,0.960208493121,0.217885506777,-0.00436297243112,-0.0290240579481
1589275287003677531,756,1589275287003542269,,0.0710636023947,-0.508462168717,0.960205224012,0.216966386915,-0.00435982334272,-0.0290354288903
1589275287006565371,757,1589275287006456408,,0.0710717735046,-0.508461187068,0.96020513906,0.216966149282,-0.00435974800515,-0.0290372158498
1589275287009426343,758,1589275287009351947,,0.0935565706326,-0.508553385982,0.960696241303,0.217006420722,-0.00435926091022,-0.0306626193217
1589275287012550853,759,1589275287012423796,,0.0935641422062,-0.508548686558,0.960697991593,0.217926051471,-0.00371256950492,-0.0306540134541
1589275287015470424,760,1589275287015390532,,0.11595902376,-0.508654766133,0.961201829497,0.217944312073,-0.00371209490958,-0.0313958407841
1589275287018519580,761,1589275287018400910,,0.115963409164,-0.637271438168,0.963589472403,0.217966431464,-0.00371427250028,-0.0322777092028
1589275287021483297,762,1589275287021403130,,0.115634913779,-0.637720325294,0.986587290639,0.217859782748,-0.00436494488716,-0.034051297676
1589275287024419734,763,1589275287024347851,,0.115633068119,-0.6377288875,0.986581972384,0.21785957743,-0.00436691204284,-0.0340523590601
1589275287027525005,764,1589275287027398381,,0.115625325711,-0.637732989685,0.986580228136,0.217837172594,-0.00436753432963,-0.0331700315144
1589275287030494340,765,1589275287030416897,,0.115300208217,-0.638161174243,1.00959779966,0.219546351512,-0.00437267443274,-0.0340334885997
1589275287033402940,766,1589275287033317744,,0.11529746198,-0.638165353803,1.0095954714,0.219546540851,-0.00437169826913,-0.0340323925814
1589275287036351088,767,1589275287036267983,,0.115304543236,-0.638161051214,1.00959738234,0.22050093365,-0.00437240067198,-0.0357955684725
1589275287039478393,768,1589275287039318347,,0.115641361062,-0.63773319196,0.986578217939,0.2206288118,-0.00437037984221,-0.0349032861433
1589275287042879222,769,1589275287042811273,,0.115316403049,-0.638166197698,1.00959277469,0.222328545625,-0.00437293541834,-0.035775864889
1589275287045951897,770,1589275287045859534,,0.138215039844,-0.637849821643,0.987080116297,0.223430041424,-0.0043721904275,-0.0373915605292
1589275287048432469,771,1589275287048344565,,0.138217879635,-0.63785773962,0.987074602021,0.223430055967,-0.00437091186674,-0.0373916231092
1589275287054468557,772,1589275287054342341,,0.115338455029,-0.638175089111,1.0095846353,0.223340339121,-0.00371652125683,-0.0393046358438
1589275287057449920,773,1589275287057327728,,0.115345310943,-0.638176008818,1.00958327067,0.22608491484,-0.00437489403888,-0.0392779276132
1589275287063568101,774,1589275287063421340,,0.137920171577,-0.638293000156,1.01008215259,0.227012768314,-0.00437701403976,-0.0400139354179
1589275287066490909,775,1589275287066366354,,0.137283927253,-0.63912383392,1.05624596298,0.229470112,-0.00438409383199,-0.0399884584708
1589275287069425481,776,1589275287069318214,,0.114694171869,-0.639024110168,1.05574241104,0.230382129728,-0.00438599514311,-0.0401190441706
1589275287075702316,777,1589275287075565090,,0.114698143089,-0.639033433385,1.05573633635,0.230382067,-0.00438491881867,-0.0401195220346
1589275287078448343,778,1589275287078356109,,0.114702419972,-0.639034166359,1.05573542803,0.231323499374,-0.00438714282709,-0.040994315548
1589275287081411331,779,1589275287081342562,,0.092201905886,-0.638930599899,1.05525670952,0.232212172573,-0.00503239878868,-0.0402421702416
1589275287087578314,780,1589275287087493315,,0.0921967183839,-0.638924939466,1.05526058998,0.23310820271,-0.00503588247612,-0.0393477808324
1589275287090519899,781,1589275287090343385,,0.114691334082,-0.639017410225,1.05574677467,0.234955681515,-0.00439791584732,-0.040069234935
1589275287093509285,782,1589275287093409081,,0.114351175452,-0.639415227962,1.07880222297,0.236641303967,-0.00504720150691,-0.0400508571828
1589275287099472890,783,1589275287099344441,,0.114350751059,-0.639416014711,1.07880180164,0.236641262398,-0.0050476520034,-0.0400510460199
1589275287102591521,784,1589275287102531370,,0.114355970693,-0.639421141557,1.07879820961,0.239310085754,-0.00505601243616,-0.0373593375637
1589275287105415752,785,1589275287105327426,,0.114355218984,-0.639423117479,1.07879711813,0.239310020976,-0.00505675619614,-0.0373596518447
1589275287111565702,786,1589275287111453281,,0.0914967511923,-0.639724824734,1.10137896976,0.241919974336,-0.00442335103437,-0.0374733399968
1589275287114444298,787,1589275287114370165,,0.0914937018184,-0.639724421528,1.10137945728,0.241919700735,-0.00442689507472,-0.0374746877788
1589275287117432470,788,1589275287117346781,,0.091498239807,-0.639726912934,1.10137763318,0.241896455381,-0.00507192059767,-0.0365920509704
1589275287123504907,789,1589275287123417903,,0.113598224881,-0.769536337261,1.12710952543,0.244514042257,-0.00508192415184,-0.0373041287369
1589275287126448645,790,1589275287126364419,,0.113608359282,-0.769536335012,1.1271085055,0.244513820553,-0.00508100006748,-0.0373057077644
1589275287129524084,791,1589275287129448064,,0.113959431612,-0.769141705277,1.10398455852,0.244651499053,-0.00508078388326,-0.0373039439552
1589275287135640160,792,1589275287135562472,,0.0910384160134,-0.769449590909,1.12663484656,0.246324499836,-0.00443998456713,-0.0365411268843
1589275287138580991,793,1589275287138487449,,0.0683566265911,-0.76936571283,1.12617463641,0.248113026276,-0.00444678705064,-0.0348861117455
1589275287141466834,794,1589275287141404881,,0.091028461957,-0.769455430113,1.12663166288,0.249071650955,-0.00444905966711,-0.0365074573912
1589275287147599311,795,1589275287147488572,,0.0682071307179,-0.899211646799,1.12828146927,0.249031808469,-0.00444956635093,-0.034877037196
1589275287150473720,796,1589275287150353640,,0.113189556968,-0.899766383392,1.15219543765,0.250745896886,-0.00380015306947,-0.0363483013024
1589275287153509439,797,1589275287153409764,,0.0906797930344,-0.7698344579,1.14967295346,0.25166724054,-0.00445809908813,-0.0364800146028
1589275287159464746,798,1589275287159392946,,0.0901933594724,-0.900051392231,1.1747450708,0.25334436526,-0.00446178885045,-0.0364601660182
1589275287162439545,799,1589275287162357046,,0.0900684015833,-1.03031664859,1.17674395438,0.253301501375,-0.00446247873276,-0.0346897557907
1589275287168461516,800,1589275287168383083,,0.0900709669702,-1.03031940208,1.17674134716,0.255129658532,-0.00446778467956,-0.0346679622209
1589275287171461318,801,1589275287171387666,,0.0670897828397,-0.900353392972,1.19730252583,0.255902429,-0.00381439521206,-0.0347963203667
1589275287174451530,802,1589275287174332969,,0.0670843859433,-0.900357896403,1.19729944171,0.257729518684,-0.00447603782219,-0.0347743024241
1589275287177455525,803,1589275287177387185,,0.06652913675,-1.03098143312,1.22236219371,0.259420089517,-0.00447957210945,-0.0347539236383
1589275287183732472,804,1589275287183650007,,0.0665255120677,-1.03097586554,1.22236708685,0.261227335481,-0.00448768785724,-0.0338453980359
1589275287186480281,805,1589275287186378364,,0.0669112484426,-1.03062628221,1.19926128579,0.262303797251,-0.00513711690358,-0.0347206761565
1589275287192630454,806,1589275287192549488,,0.0665227936932,-1.03099346463,1.22235239105,0.263952625155,-0.00514460166126,-0.0329164557659
1589275287195559109,807,1589275287195464351,,0.0438328597069,-1.03092329471,1.22191354579,0.263976653037,-0.00514610132607,-0.0339571169588
1589275287198508724,808,1589275287198444990,,0.0665349598769,-1.03099782913,1.22234804763,0.265801416078,-0.00515144805879,-0.0337941052401
1589275287201501226,809,1589275287201416914,,0.0665379488008,-1.03098383612,1.22235968729,0.267629711082,-0.0051580849147,-0.0337719439795
1589275287207508300,810,1589275287207438323,,0.0667433460207,-1.16126414607,1.20115718628,0.267777148469,-0.00515867972857,-0.0337719326364
1589275287210492053,811,1589275287210411374,,0.0663565432352,-1.1616156125,1.22422544668,0.269478339181,-0.00516442087577,-0.0346396638594
1589275287216405873,812,1589275287216346141,,0.0891834175983,-1.16169933813,1.22466184504,0.270394202964,-0.00516720708419,-0.0344894521122
1589275287219386596,813,1589275287219308893,,0.0888059833283,-1.16203859636,1.24764658393,0.272970327047,-0.00517429769726,-0.033558029735
1589275287222426700,814,1589275287222353905,,0.0657875637771,-1.29287430946,1.24898377676,0.272993951445,-0.00517397701593,-0.0345975445192
1589275287228544176,815,1589275287228452878,,0.0430192730747,-1.29280055544,1.24855706219,0.274783990109,-0.00583642970487,-0.0329395535631
1589275287231580202,816,1589275287231498185,,0.0426239154492,-1.2931313947,1.27152423131,0.27557257029,-0.00583843795451,-0.0338182980792
1589275287234477003,817,1589275287234383308,,0.0419788783389,-1.42461661842,1.29625076277,0.277243444301,-0.00584291881763,-0.0329056662226
1589275287240466015,818,1589275287240351329,,0.0419716045497,-1.42462858301,1.29623784877,0.277243803288,-0.0058414599574,-0.0329029005069
1589275287243651693,819,1589275287243591313,,0.042611334663,-1.29314156156,1.27151431328,0.278341700602,-0.00584224124836,-0.0346643569957
1589275287246846086,820,1589275287246766734,,0.0870961605729,-1.5564281437,1.32163140718,0.280785929216,-0.00519135573607,-0.0343464122641
1589275287252446809,821,1589275287252390502,,0.0641439226248,-1.55634691412,1.32121003841,0.282628124785,-0.00519695406611,-0.0344584093002
1589275287255439128,822,1589275287255385086,,0.0641416597922,-1.55633340452,1.32122606202,0.282628272602,-0.00519675501394,-0.034457226908
1589275287258566809,823,1589275287258492820,,0.0413129260915,-1.55626215856,1.32080338401,0.282610257574,-0.00585207738716,-0.0337108935298
1589275287264401315,824,1589275287264340168,,0.0641630872052,-1.55633027774,1.32122870478,0.28262856938,-0.00519152344656,-0.0344555812254
1589275287267501651,825,1589275287267436767,,0.0413170129181,-1.55625665106,1.32080974546,0.283519733902,-0.00585336636538,-0.0336977981302
1589275287273379164,826,1589275287273312210,,0.0409013812605,-1.55654040466,1.34378671316,0.285248114948,-0.0058585258389,-0.0354520996628
1589275287276410126,827,1589275287276298458,,0.0637442025165,-1.55660556486,1.34421576328,0.286195322469,-0.0058594646226,-0.037084817363
1589275287279436727,828,1589275287279364850,,0.0406584012529,-1.68808258339,1.3452351553,0.288026082765,-0.00652137513912,-0.0372041305066
1589275287285483256,829,1589275287285344499,,0.0406497114206,-1.68807883697,1.34524011914,0.288026404984,-0.00652103365612,-0.0372016957311
1589275287288478951,830,1589275287288399922,,0.0866851132638,-1.55667328713,1.3446534137,0.290808560498,-0.00652803314224,-0.038663262461
1589275287291594483,831,1589275287291472121,,0.0866781705988,-1.55666906286,1.34465875157,0.290808691901,-0.00652854473215,-0.0386621877079
1589275287297477328,832,1589275287297355273,,0.0631159091214,-1.68840539476,1.36865012612,0.292499360744,-0.00653366529608,-0.0387802010994
1589275287303599174,833,1589275287303479336,,0.0631249759329,-1.6884035988,1.36865192351,0.2952572553,-0.00654178068047,-0.0396370032731
1589275287309459392,834,1589275287309389840,,0.0623141063288,-1.68894356132,1.41471301598,0.299565568519,-0.00655448017503,-0.0404803245774
1589275287312625101,835,1589275287312519419,,0.062315682394,-1.68893349336,1.41472496602,0.299565630108,-0.00655418244623,-0.0404799170049
1589275287315770428,836,1589275287315613468,,0.0627290086944,-1.68866092308,1.39174474879,0.299756894567,-0.00720925079653,-0.0422590948208
1589275287321364631,837,1589275287321303893,,0.0853236444891,-1.68900909498,1.41514688617,0.301410560388,-0.00721106083784,-0.0412066105426
1589275287324474501,838,1589275287324390934,,0.0855149475339,-1.82042032287,1.39350194264,0.301603879846,-0.00655178084632,-0.0429855358942
1589275287327490400,839,1589275287327383417,,0.0621163395782,-1.82059650837,1.4160642399,0.303305497023,-0.00655596006952,-0.0440041996014
1589275287333490397,840,1589275287333401944,,0.0850903387198,-1.8206575109,1.41650447583,0.303322048896,-0.00721757746584,-0.0447546418988
1589275287336370462,841,1589275287336317414,,0.0848596692869,-1.95245731917,1.41776690157,0.304241460844,-0.00722154971229,-0.0447407166839
1589275287339540247,842,1589275287339365390,,0.0850600153621,-1.8206574871,1.41650632762,0.306090468065,-0.00722877141574,-0.0456086234835
1589275287345797986,843,1589275287345693442,,0.106959239553,-1.95299656726,1.46418016556,0.310434073089,-0.00723928680919,-0.0480920762285
1589275287348407835,844,1589275287348338214,,0.106961114728,-1.95300128574,1.4641737348,0.310434020874,-0.00723909058633,-0.0480924428084
1589275287351419404,845,1589275287351325365,,0.129818451911,-2.08497713677,1.46576873014,0.311424154085,-0.00723775549515,-0.0515193063492
1589275287357491424,846,1589275287357358786,,0.12999793554,-1.95308624404,1.46459242879,0.312343192615,-0.0072407045452,-0.0515074874816
1589275287363715577,847,1589275287363603153,,0.10657899945,-1.95324654588,1.48725614,0.315863978461,-0.00789888660072,-0.0516034134112
1589275287369630371,848,1589275287369560400,,0.106592138039,-1.9532398953,1.48726393272,0.319562131124,-0.00790731471163,-0.0533432601171
1589275287372416614,849,1589275287372341738,,0.106605604043,-1.95324169458,1.48726060453,0.319562163268,-0.00790511346018,-0.0533433938123
1589275287375630276,850,1589275287375482902,,0.12964865563,-1.95331273955,1.48769628817,0.321408011712,-0.00790784040207,-0.0540730153237
1589275287381565523,851,1589275287381496823,,0.106632218853,-1.95324464532,1.4872548213,0.322341856547,-0.0079071271501,-0.0551040759526
1589275287384511831,852,1589275287384430285,,0.106243816211,-1.95347597077,1.51026086293,0.32308805623,-0.0085669323661,-0.0542004213572
1589275287387480638,853,1589275287387334366,,0.129465930581,-1.82181481163,1.50943719312,0.324046873649,-0.00790646831906,-0.0558355545701
1589275287393441367,854,1589275287393338305,,0.129469716043,-1.82180830459,1.50944472207,0.32589619431,-0.00790993724617,-0.0567049617487
1589275287396695361,855,1589275287396562077,,0.129475774592,-1.82179016949,1.50946609011,0.327723658826,-0.00791688841592,-0.0566844074404
1589275287399669894,856,1589275287399583973,,0.106462809613,-1.82170122871,1.50904908873,0.328645957811,-0.00792010911428,-0.0568130145483
1589275287405600064,857,1589275287405507055,,0.106452868818,-1.82169932589,1.50905208707,0.328645893983,-0.00792208559118,-0.0568131082062
1589275287408661476,858,1589275287408571262,,0.12944296315,-1.82177503113,1.50948717459,0.329572855209,-0.0079271082218,-0.0575536494636
1589275287411687775,859,1589275287411563980,,0.128898347417,-1.95375553039,1.53373469788,0.330341057663,-0.00792395755393,-0.0575437140242
1589275287417483954,860,1589275287417405364,,0.12889883132,-1.95374589236,1.53374693458,0.330341057567,-0.00792424463596,-0.0575436750408
1589275287423526273,861,1589275287423457814,,0.128666569316,-2.08561605915,1.53490220174,0.332221359774,-0.00793590339575,-0.0593180995806
1589275287429728255,862,1589275287429549151,,0.128648277348,-2.08560952401,1.53491261487,0.332221455173,-0.00793848487333,-0.0593172198533
1589275287432624854,863,1589275287432552128,,0.151600192907,-2.08568528627,1.53534370539,0.334044969315,-0.00860449608617,-0.0591505108885
1589275287435672902,864,1589275287435570170,,0.151187867189,-2.08591171382,1.55834728167,0.335721643996,-0.00861250208261,-0.0591306204869
1589275287441711308,865,1589275287441628163,,0.127828644003,-2.08604749167,1.58104336441,0.336474759401,-0.00861763942777,-0.0583729056952
1589275287444742596,866,1589275287444662498,,0.127814476027,-2.08604869973,1.58104291591,0.336474582469,-0.00862038383975,-0.0583735203446
1589275287447547851,867,1589275287447447634,,0.173730335707,-2.0862122847,1.58189447169,0.339277680916,-0.00862848474271,-0.0607358370205
1589275287453622068,868,1589275287453512969,,0.150750808586,-2.08612246055,1.58147815073,0.34200711913,-0.00863932296444,-0.0599484373997
1589275287456629821,869,1589275287456531613,,0.150776877587,-2.08611205339,1.58148939352,0.342007079897,-0.00863595560572,-0.0599491464038
1589275287459672819,870,1589275287459587833,,0.127415123662,-2.0862586336,1.6040753258,0.341838099619,-0.00929466604809,-0.0591973387182
1589275287465593269,871,1589275287465511530,,0.127799792635,-2.08602892375,1.5810701952,0.342918682937,-0.00930134121181,-0.0600797564187
1589275287468684714,872,1589275287468583714,,0.127396281616,-2.08625204728,1.60408538846,0.344626312832,-0.00995619461932,-0.0609611526197
1589275287474716986,873,1589275287474581134,,0.126995661369,-2.08648609167,1.62709041267,0.345394224775,-0.00995851893566,-0.0609520541198
1589275287477702649,874,1589275287477505776,,0.149996831605,-2.08657134817,1.62750463699,0.347261872779,-0.00930552365605,-0.0625753927205
1589275287486725075,875,1589275287486615672,,0.126632228605,-2.08673829951,1.65007396053,0.349860984628,-0.00931311323478,-0.0626872804599
1589275287489654894,876,1589275287489536496,,0.14962158486,-2.08681257586,1.65050266642,0.350817434915,-0.00996389606719,-0.0643242703288
1589275287492735543,877,1589275287492637926,,0.149241306175,-2.08703262616,1.67363198067,0.35339703277,-0.00931567158081,-0.0633937687268
1589275287498713033,878,1589275287498547888,,0.126263269126,-2.08697052165,1.67318770844,0.353379430573,-0.00931720024644,-0.0626421015353
1589275287501709570,879,1589275287501562497,,0.126262838462,-2.08696673012,1.67319247011,0.354329277252,-0.00997206535387,-0.0644330029735
1589275287504631434,880,1589275287504548302,,0.14903360563,-2.21892283667,1.67472812517,0.355265872906,-0.00997623887552,-0.0651726785461
1589275287510749717,881,1589275287510629130,,0.149024234591,-2.21892319979,1.67472847796,0.356175040137,-0.00997946257249,-0.0651598044159
1589275287513767751,882,1589275287513666416,,0.14901114102,-2.21891640331,1.67473864795,0.357115127307,-0.00998342775257,-0.0660429278296
1589275287516642131,883,1589275287516551933,,0.149019000273,-2.21892541002,1.67472601529,0.357114623144,-0.00998379576245,-0.0660455983146
1589275287522710407,884,1589275287522600033,,0.148995161806,-2.2189174432,1.67473869184,0.358054476596,-0.00999031859401,-0.0669297905599
1589275287525671476,885,1589275287525598110,,0.171385614517,-2.35118077435,1.69923174416,0.361575851533,-0.0106641803615,-0.0676374951378
1589275287528644881,886,1589275287528506750,,0.148384344698,-2.35112058468,1.69878245708,0.362499556998,-0.0100036737104,-0.0677784653976
1589275287534653147,887,1589275287534557775,,0.171398845858,-2.35118760579,1.69922095706,0.362517256373,-0.0100016081604,-0.0685307575488
1589275287537534080,888,1589275287537443698,,0.194095895788,-2.35147032815,1.72268036451,0.364211773226,-0.0100070273301,-0.0692655210806
1589275287540780914,889,1589275287540669013,,0.194084754857,-2.3514806461,1.72266753559,0.365150801779,-0.0106722984657,-0.0701500255738
1589275287547039798,890,1589275287546854655,,0.193543828891,-2.4837111949,1.74678529835,0.366863881174,-0.00935799097505,-0.0710261813447
1589275287549630829,891,1589275287549509259,,0.193554575962,-2.48371503753,1.74677864378,0.366863985896,-0.00935599511573,-0.0710259033721
1589275287552598757,892,1589275287552498442,,0.170819260378,-2.48344907698,1.72321275306,0.367004797138,-0.0100088255819,-0.0711606630326
1589275287558684113,893,1589275287558596599,,0.193927977008,-2.48352563262,1.72364372345,0.367940829284,-0.0100141985561,-0.0719076860341
1589275287561668929,894,1589275287561590778,,0.170404436751,-2.48363022654,1.7463640227,0.370520824846,-0.0106862578324,-0.0711200308232
1589275287564591578,895,1589275287564494950,,0.170402996717,-2.48362757054,1.74636794049,0.370520431233,-0.0106878924649,-0.0711218358078
1589275287570596451,896,1589275287570510404,,0.17002231359,-2.48382119231,1.76940156656,0.372218461919,-0.0106896321406,-0.0720079791429
1589275287573573555,897,1589275287573478940,,0.170031505518,-2.4838275526,1.76939175491,0.372218319556,-0.0106885873018,-0.0720088701303
1589275287579628142,898,1589275287579543695,,0.169678623395,-2.48400046794,1.79245511086,0.373925688762,-0.010688722172,-0.0728876212219
1589275287582611882,899,1589275287582531834,,0.192822565659,-2.48409139949,1.7928610214,0.378538671884,-0.0106979064362,-0.074484107006
1589275287585679040,900,1589275287585555856,,0.192798918336,-2.48409306734,1.79286125365,0.378538730134,-0.0107009735487,-0.0744833703851
1589275287588644606,901,1589275287588558775,,0.215822763265,-2.4841699028,1.7932915624,0.380384654571,-0.0107039849261,-0.0752108705054
1589275287594617889,902,1589275287594529061,,0.215444497435,-2.4843485425,1.81635164443,0.381194640805,-0.0107038056202,-0.0770075272389
1589275287597644495,903,1589275287597532050,,0.215468017244,-2.48434989708,1.81634700174,0.381193927242,-0.0107027940941,-0.0770111999467
1589275287603713408,904,1589275287603608987,,0.215468699349,-2.48434831305,1.81634908742,0.383000718645,-0.0107073459609,-0.0760790684665
1589275287606707629,905,1589275287606515637,,0.192430531388,-2.48426013142,1.81593657958,0.38394379294,-0.0107133162204,-0.077120448995
1589275287609625864,906,1589275287609507215,,0.192234358282,-2.61634882012,1.81685883092,0.383943885186,-0.0107144405099,-0.0771198335553
1589275287615591062,907,1589275287615511206,,0.192202312798,-2.61636110429,1.81684453145,0.385792746845,-0.010722785803,-0.0779932370589
1589275287618630237,908,1589275287618478639,,0.192203753926,-2.61633222321,1.81688596871,0.385792918351,-0.0107232781742,-0.0779923210055
1589275287621625310,909,1589275287621540600,,0.168850061364,-2.74844288663,1.81729321041,0.386683170349,-0.0113898090449,-0.0772235361362
1589275287627676012,910,1589275287627572664,,0.191992232867,-2.74851629921,1.81772075859,0.387641023858,-0.010732073307,-0.0788803675866
1589275287630505462,911,1589275287630432232,,0.168846747057,-2.74844576338,1.81728916759,0.389428853985,-0.0114011473239,-0.0771926415039
1589275287633635838,912,1589275287633473398,,0.168826635779,-2.74845229865,1.81728115216,0.390389456378,-0.0114065525171,-0.0789880575492
1589275287639779404,913,1589275287639599579,,0.191742716875,-2.61652959649,1.84001865621,0.392087231368,-0.0114151488793,-0.0797231076132
1589275287642753920,914,1589275287642583413,,0.167966362455,-2.74876833739,1.863534375,0.392837500965,-0.0114216681008,-0.0789556801094
1589275287645765611,915,1589275287645667360,,0.167942496602,-2.7487326371,1.86358918379,0.392838051296,-0.0114246218098,-0.0789525145813
1589275287651638887,916,1589275287651544826,,0.191522228152,-2.74864845131,1.84093887991,0.392088058009,-0.0114168821265,-0.0797187937821
1589275287654579707,917,1589275287654487649,,0.191547280863,-2.74864036557,1.8409483459,0.393915643963,-0.0114196944315,-0.079696422978
1589275287663543883,918,1589275287663464741,,0.168019280786,-2.74875596712,1.86354785098,0.396493836645,-0.0120740133844,-0.0789016458204
1589275287666509272,919,1589275287666435995,,0.168005115154,-2.74876394436,1.86353736154,0.397434918935,-0.0114231306126,-0.0797862878552
1589275287669534786,920,1589275287669448036,,0.167625087428,-2.7489373039,1.88659086014,0.399121058091,-0.0120775753652,-0.079763901747
1589275287675686955,921,1589275287675585339,,0.190154834789,-2.88138116498,1.91089077672,0.402622601753,-0.0120888771015,-0.0795766109139
1589275287678573386,922,1589275287678461171,,0.190142148711,-2.88140638746,1.91085400626,0.40262304553,-0.0120880894506,-0.0795744852234
1589275287684573306,923,1589275287684508099,,0.19034377411,-2.74921067272,1.91004036572,0.403542407449,-0.012090016683,-0.0795603669582
1589275287687658907,924,1589275287687582558,,0.213206689482,-2.8814647565,1.91130248263,0.405430009416,-0.0120920222543,-0.0820854532439
1589275287690662773,925,1589275287690577398,,0.213385953345,-2.74925838135,1.91050709457,0.405449666973,-0.0127594796428,-0.0829959222472
1589275287696774409,926,1589275287696581866,,0.212975410498,-2.74943641675,1.93366227412,0.408049296694,-0.0127657854642,-0.0829593528163
1589275287699602171,927,1589275287699468374,,0.189980977704,-2.74937118684,1.93321630247,0.411708170386,-0.0127680274614,-0.0830576906053
1589275287702691950,928,1589275287702577044,,0.189551839115,-2.74952141076,1.95631576378,0.413416658217,-0.0127742848902,-0.083930527961
1589275287708522653,929,1589275287708458637,,0.189524577861,-2.74952771455,1.95630954525,0.413416201148,-0.0127792593342,-0.0839320220702
1589275287711584081,930,1589275287711473526,,0.212414291411,-2.88177138325,1.95756390663,0.414352164383,-0.0127790532821,-0.0846771209979
1589275287714575938,931,1589275287714491813,,0.212197999759,-2.74977459418,1.97980194747,0.415141086385,-0.0127813402488,-0.0855657127205
1589275287723713432,932,1589275287723626468,,0.235810060113,-2.74965075337,1.95719634284,0.415299922738,-0.0127739709253,-0.0863214924201
1589275287726691055,933,1589275287726575925,,0.235839677719,-2.74962843986,1.95722412194,0.415299955881,-0.0127707012977,-0.0863218167465
1589275287732692042,934,1589275287732590987,,0.236028197199,-2.61752802662,1.95634053564,0.416219536154,-0.0127685605489,-0.0863071035623
1589275287735520367,935,1589275287735447841,,0.235873966859,-2.74963198871,1.95721500424,0.416198482378,-0.0121061774375,-0.0854131659259
1589275287738469841,936,1589275287738397594,,0.235939939516,-2.74964068361,1.9571948371,0.416198020715,-0.0120979930111,-0.0854165750728
1589275287744679653,937,1589275287744613031,,0.235708584684,-2.61772135207,1.97938111763,0.417854325664,-0.0121025699727,-0.0844944225497
1589275287747912923,938,1589275287747826394,,0.236064629284,-2.61755372004,1.95630176222,0.417127913912,-0.0127663669519,-0.0862983915631
1589275287750676790,939,1589275287750599996,,0.236069402486,-2.61752931617,1.95633383847,0.417127393845,-0.0127684753878,-0.0863005933747
1589275287756616147,940,1589275287756512238,,0.212739161932,-2.74954139872,1.95680428726,0.416221824157,-0.0127677696194,-0.08646410482
1589275287759744000,941,1589275287759536786,,0.212778636858,-2.7495646186,1.95676736808,0.416221605498,-0.0127619071376,-0.0864660228696
1589275287762596082,942,1589275287762530074,,0.212549915074,-2.61759913541,1.97901272453,0.416969334275,-0.012764685294,-0.0855428055428
1589275287768607609,943,1589275287768522577,,0.212348533623,-2.74970877995,1.9798772151,0.416949914255,-0.0127628858606,-0.0846370128815
1589275287771534924,944,1589275287771459012,,0.258947642592,-2.74969508786,1.95766160975,0.416196531586,-0.0127610252203,-0.0852586581616
1589275287774398599,945,1589275287774351614,,0.235897630964,-2.74961563339,1.95723512914,0.416178579893,-0.0127621463001,-0.0845060552833
1589275287783628987,946,1589275287783499258,,0.23568103641,-2.88180303277,1.95804450492,0.416157768702,-0.0127674171498,-0.083606190504
1589275287786601477,947,1589275287786496084,,0.235658691295,-2.88177917462,1.95808230772,0.416157406488,-0.012772566685,-0.0836072069149
1589275287792575286,948,1589275287792479745,,0.212479498204,-2.88170507313,1.9576544433,0.416139413474,-0.0127764203625,-0.0828512074677
1589275287795584434,949,1589275287795470171,,0.211824080013,-3.01406833714,1.98155181592,0.419602963963,-0.012794895058,-0.0809944689216
1589275287798481046,950,1589275287798368709,,0.211994045286,-2.88184908377,1.98076084533,0.420522010294,-0.0128012091514,-0.0809813311854
1589275287804603525,951,1589275287804510998,,0.188484261348,-2.88193889191,2.00341134091,0.42127196252,-0.0128117127305,-0.0802194694684
1589275287807530281,952,1589275287807414178,,0.165052488062,-3.01408958712,2.00377272279,0.422123253634,-0.0128194948286,-0.0776476911964
1589275287810589766,953,1589275287810517755,,0.211214176892,-3.01419503883,2.00469031309,0.423097614875,-0.0121719177721,-0.0800480958927
1589275287816554855,954,1589275287816474148,,0.211197967357,-3.01419977084,2.00468490595,0.423097473737,-0.0121742958788,-0.0800484802397
1589275287819594180,955,1589275287819510122,,0.210600318914,-3.14660424689,2.02862855038,0.42296908326,-0.012835694986,-0.0809513384776
1589275287822596047,956,1589275287822472223,,0.210585999711,-3.14657800102,2.02867074622,0.422969992134,-0.0128356902945,-0.0809465902257
1589275287828470059,957,1589275287828404202,,0.210582588942,-3.14653253599,2.02874161724,0.422969467024,-0.0128395654417,-0.0809487194778
1589275287831435628,958,1589275287831359618,,0.233862893901,-3.14665221509,2.02908716957,0.422099632219,-0.0121576268745,-0.0826194773554
1589275287834500581,959,1589275287834414746,,0.233875287467,-3.1466690636,2.02905961264,0.422100244361,-0.0121535046614,-0.082616956395
1589275287843863192,960,1589275287843789487,,0.210743803701,-3.1466095804,2.02860537663,0.421183489587,-0.012808290997,-0.082782517144
1589275287847094256,961,1589275287846806713,,0.233778731938,-3.27899426639,2.02973049444,0.421222068335,-0.0121381495209,-0.0844434392375
1589275287852602018,962,1589275287852492501,,0.233867383845,-3.27900712853,2.02969950298,0.422160935207,-0.0121312902175,-0.085335927602
1589275287855528889,963,1589275287855415332,,0.233705609548,-3.41138796212,2.03031424273,0.424908060433,-0.0121317324944,-0.0852991120131
1589275287861536093,964,1589275287861395654,,0.257016062458,-3.27908827531,2.03010389992,0.425834232927,-0.0121341314146,-0.0860428126016
1589275287864495937,965,1589275287864421768,,0.210137238351,-3.41146668277,2.05294750961,0.427505927636,-0.0121369997987,-0.0854127903634
1589275287867471910,966,1589275287867393615,,0.210714557966,-3.27896511484,2.02922201142,0.4285650857,-0.0128095331643,-0.0853967882253
1589275287873634072,967,1589275287873415460,,0.21043075865,-3.41131014501,2.02990949179,0.42949486493,-0.0128202840579,-0.0862931006711
1589275287876492090,968,1589275287876406778,,0.210037439431,-3.4114584092,2.05297147085,0.430242879787,-0.0128185285834,-0.0853698718436
1589275287879666001,969,1589275287879538452,,0.233278480919,-3.41153197198,2.05338715125,0.431178860831,-0.0128173379236,-0.0861183336593
1589275287885571239,970,1589275287885494699,,0.233592803216,-3.41137992016,2.03034073664,0.430411772399,-0.0128241148419,-0.0861225232395
1589275287888536190,971,1589275287888465014,,0.232917101749,-3.54390965812,2.05404741885,0.431161381724,-0.012164858638,-0.0852061498755
1589275287891612511,972,1589275287891529163,,0.232759400012,-3.41168154101,2.07646382738,0.432847794426,-0.0121665168198,-0.0851871352158
1589275287897478659,973,1589275287897373130,,0.232725483552,-3.41169522615,2.0764451438,0.432847358958,-0.0121712678675,-0.0851886691926
1589275287900494619,974,1589275287900408975,,0.255534551717,-3.54414819503,2.07750694721,0.433753442556,-0.0121831430948,-0.085028641962
1589275287903482959,975,1589275287903406556,,0.255138654252,-3.5442776881,2.10059770628,0.434501788381,-0.0121823958869,-0.0841148387574
1589275287909638971,976,1589275287909465534,,0.254948903293,-3.67666764892,2.1012250256,0.434500847422,-0.0121827951798,-0.0841196413828
1589275287912557351,977,1589275287912472828,,0.232041983641,-3.54419934191,2.1001833416,0.436310222589,-0.0128550106477,-0.083341880923
1589275287915730615,978,1589275287915627707,,0.208837960195,-3.54411307572,2.09978441592,0.438121621777,-0.0128587036653,-0.0825562174137
1589275287921730522,979,1589275287921599421,,0.208847495622,-3.54410948253,2.09978953228,0.438120619454,-0.0128606847787,-0.082561227933
1589275287924838747,980,1589275287924650572,,0.20886740429,-3.54411743575,2.09977412821,0.437251429517,-0.0128570529965,-0.0843783543453
1589275287927748687,981,1589275287927676946,,0.209541022917,-3.41161208262,2.07603781732,0.435625908547,-0.0128462154777,-0.0871124062515
1589275287933682714,982,1589275287933586630,,0.209560158835,-3.41155671917,2.07612686347,0.43562567521,-0.012846915785,-0.0871134698216
1589275287936788036,983,1589275287936654480,,0.233219301979,-3.41146613879,2.05350324554,0.433066246414,-0.0135002518745,-0.088809591922
1589275287939696542,984,1589275287939603996,,0.233470962499,-3.27911396025,2.05283615434,0.432158666793,-0.0134889159137,-0.0888163632401
1589275287945903041,985,1589275287945789573,,0.257068586301,-3.27899713226,2.03024445982,0.425936288995,-0.0134594131847,-0.0905630335064
1589275287948695174,986,1589275287948620572,,0.280321806689,-3.27908533333,2.03064062173,0.423249805257,-0.0127797258585,-0.0931598839686
1589275287951709144,987,1589275287951632203,,0.280419688978,-3.27910398865,2.03059698187,0.423249761107,-0.0127669886546,-0.0931618309607
1589275287957722388,988,1589275287957662198,,0.257891166633,-3.14660894135,2.00622087347,0.420675517828,-0.0127479159834,-0.09424818505
1589275287966729675,989,1589275287966642321,,0.234874567545,-3.14652267968,2.0058103984,0.420657334577,-0.0127412755251,-0.0934961451218
1589275287969697695,990,1589275287969607739,,0.257708011438,-3.01452294315,2.02860794457,0.420558657105,-0.0127406607299,-0.095152188379
1589275287972717911,991,1589275287972609051,,0.234647349269,-3.0144595511,2.02816659581,0.420540474008,-0.0127394013287,-0.0943992417007
1589275287975645501,992,1589275287975578933,,0.234622655143,-3.01450206688,2.02810626018,0.420540717184,-0.0127399771549,-0.0943980806511
1589275287981778715,993,1589275287981653808,,0.257890317617,-3.14669979339,2.00607848079,0.420674708571,-0.0127459363102,-0.0942520648225
1589275287984763969,994,1589275287984657661,,0.257798317772,-3.14672802182,2.00604602659,0.420674416976,-0.012757044529,-0.0942518634494
1589275287990819420,995,1589275287990653033,,0.257322920526,-3.14688187957,2.02922600835,0.421446067286,-0.0127665673992,-0.0942387634299
1589275287993997607,996,1589275287993782044,,0.280749154377,-3.14675016282,2.00658870258,0.422519461918,-0.0134568188159,-0.0949796870665
1589275287996728098,997,1589275287996624273,,0.280690539781,-3.14676941455,2.00656671177,0.422518938684,-0.0134647565244,-0.0949808897236
1589275287999714069,998,1589275287999591267,,0.280299758461,-3.14695219546,2.02968973864,0.423290629995,-0.0134622146782,-0.0949692572337
1589275288005814688,999,1589275288005691166,,0.280012385449,-3.27922144356,2.03046350897,0.424231105523,-0.0134769381008,-0.0958528033294
1589275288008695065,1000,1589275288008570019,,0.279933921403,-3.27919749582,2.03051300322,0.42423267644,-0.013483613414,-0.0958449115452
1589275288014791414,1001,1589275288014691859,,0.279536633213,-3.27935741043,2.05356500145,0.425021356264,-0.0134844619295,-0.0967364776913
1589275288017765996,1002,1589275288017660117,,0.279528070394,-3.27936986035,2.05354628552,0.425021090337,-0.0134856215072,-0.0967374844196
1589275288026696351,1003,1589275288026544330,,0.279341324667,-3.41170864077,2.05421820135,0.426870321249,-0.0134883539358,-0.0976224512984
1589275288029666915,1004,1589275288029577212,,0.302727675856,-3.27943667496,2.0539744339,0.426929825153,-0.0134779775494,-0.1001824086
1589275288032681952,1005,1589275288032568405,,0.326165141963,-3.14722745732,2.05367522534,0.427865201059,-0.0134741620241,-0.100935440805
1589275288038675889,1006,1589275288038552104,,0.32664029677,-3.1470578813,2.03061589618,0.428048348281,-0.0134663904941,-0.10274710403
1589275288041653433,1007,1589275288041568571,,0.303097327624,-3.14712446214,2.05326373029,0.428861081301,-0.0141264619341,-0.104680700266
1589275288044968139,1008,1589275288044799233,,0.303165164691,-3.14713806598,2.05323286378,0.428860196129,-0.0141192186818,-0.104685303792
1589275288050715329,1009,1589275288050624697,,0.326035348034,-3.14733150584,2.07678251131,0.427059318516,-0.014759167984,-0.111797015305
1589275288054090954,1010,1589275288053807075,,0.326012518003,-3.147316163,2.07680934688,0.427059756546,-0.0147619031713,-0.111794980905
1589275288056814721,1011,1589275288056648806,,0.326265066466,-3.01504674381,2.07608863837,0.427967689061,-0.0147540970518,-0.111787192615
1589275288062821697,1012,1589275288062706040,,0.327150762131,-3.01474099277,2.02990930498,0.426433894036,-0.0140814461808,-0.11180559565
1589275288065726439,1013,1589275288065627027,,0.327106017117,-3.01469912766,2.02997869061,0.426433047416,-0.0140919217171,-0.111807504853
1589275288071781293,1014,1589275288071690634,,0.327111313517,-3.0147213727,2.02994480088,0.426432746675,-0.014743562265,-0.111805923758
1589275288074744272,1015,1589275288074645780,,0.32711047596,-3.01477255943,2.0298689151,0.426433309719,-0.0147394721931,-0.111804315543
1589275288077751204,1016,1589275288077588028,,0.327087112017,-3.01477406371,2.02987044586,0.426433545237,-0.0147419739215,-0.111803087407
1589275288083764065,1017,1589275288083653516,,0.303807812359,-3.01470119411,2.02944663308,0.426393693376,-0.0147558757501,-0.110141729308
1589275288086768739,1018,1589275288086671942,,0.303754615823,-3.01475027341,2.02938168798,0.426392814323,-0.014762562847,-0.110144236287
1589275288089797302,1019,1589275288089631763,,0.326673283562,-3.14708719345,2.03056516078,0.428215431968,-0.0147839349071,-0.109981813669
1589275288095802415,1020,1589275288095682407,,0.303430346482,-3.14699784924,2.03015995143,0.429981642693,-0.014144154785,-0.1073897267
1589275288101723478,1021,1589275288101608856,,0.278411878637,-3.27980035341,2.1228868558,0.436617665925,-0.0141806256431,-0.102933011458
1589275288104641290,1022,1589275288104538490,,0.278316100968,-3.27982168763,2.1228664537,0.436616765413,-0.0141939989567,-0.102934987945
1589275288107699561,1023,1589275288107609830,,0.301294634941,-3.27992386685,2.12327105431,0.438461737462,-0.0142137938235,-0.103666154465
1589275288110658838,1024,1589275288110572138,,0.277513935414,-3.41229847873,2.14663023768,0.441917057929,-0.0142312191393,-0.101058127064
1589275288113873219,1025,1589275288113691534,,0.277444978989,-3.41230826057,2.14662360186,0.441916621419,-0.0142403401562,-0.101058751023
1589275288119784089,1026,1589275288119705303,,0.300176337493,-3.41251254501,2.17015530991,0.443608826503,-0.0149004496741,-0.101797421962
1589275288122780204,1027,1589275288122653494,,0.299713412721,-3.41268197745,2.19330847364,0.444402781457,-0.0149030945523,-0.102680203917
1589275288125800287,1028,1589275288125634608,,0.299749246294,-3.41267724051,2.19331094718,0.444403763256,-0.0148963363916,-0.102676935267
1589275288131660328,1029,1589275288131531808,,0.277309018338,-3.28012723557,2.16904487357,0.443636477137,-0.0148871606497,-0.10283056367
1589275288134570999,1030,1589275288134490868,,0.300441889629,-3.28016476874,2.16952818304,0.444615856904,-0.0148851090659,-0.105384231243
1589275288137614379,1031,1589275288137501990,,0.300569113888,-3.28014581368,2.16953921948,0.444658030711,-0.0148690522523,-0.107188674895
1589275288144027509,1032,1589275288143935154,,0.301079106634,-3.28002325391,2.14640155072,0.443014998435,-0.0148466741831,-0.109021340374
1589275288147094019,1033,1589275288146928921,,0.301175574861,-3.28003302232,2.146373089,0.442148948,-0.0148303446303,-0.110836767758
1589275288149708129,1034,1589275288149609692,,0.324232459754,-3.14797749912,2.16918868819,0.441121172599,-0.0141578439494,-0.112517967785
1589275288155513320,1035,1589275288155431923,,0.348639106632,-3.14760666175,2.10023813576,0.439814819906,-0.014141148897,-0.116011261089
1589275288158737545,1036,1589275288158647817,,0.325649511474,-3.14753407861,2.09978372609,0.439839039793,-0.0147814919571,-0.117058774922
1589275288161592791,1037,1589275288161515986,,0.325705747661,-3.14754021746,2.09976580172,0.439839504783,-0.0147724830326,-0.117058165004
1589275288167717670,1038,1589275288167650319,,0.348442902738,-3.14778895701,2.12334160757,0.445244549775,-0.0141237893843,-0.119562970508
1589275288170610293,1039,1589275288170543776,,0.348482373463,-3.14776731989,2.12336720611,0.445242298829,-0.0141250765977,-0.119571200513
1589275288173731463,1040,1589275288173568224,,0.324927620635,-3.14784176022,2.14603360988,0.445992967284,-0.0147861951027,-0.118797251954
1589275288179664185,1041,1589275288179583717,,0.324830264819,-3.14786461153,2.14601482924,0.445993067845,-0.014144548126,-0.118798410333
1589275288182744407,1042,1589275288182633398,,0.347261988303,-3.2803433881,2.17027525672,0.449480572592,-0.0141705881695,-0.117698151838
1589275288185533539,1043,1589275288185461214,,0.346713798292,-3.28047523924,2.1935093827,0.451139021386,-0.0141947373445,-0.116771885978
1589275288191759357,1044,1589275288191641192,,0.323481898483,-3.28037803803,2.19312893121,0.452060287758,-0.0142167228434,-0.116905452703
1589275288194700571,1045,1589275288194534008,,0.32277769926,-3.41280956064,2.21693360807,0.455499867223,-0.0142427929456,-0.114144026703
1589275288197779248,1046,1589275288197680441,,0.322209039156,-3.41290925083,2.24011338942,0.457186305989,-0.0142705503061,-0.114119269083
1589275288203743665,1047,1589275288203632546,,0.298205355025,-3.54530140518,2.26345340983,0.458804308843,-0.0142939373734,-0.11152573595
1589275288206658130,1048,1589275288206567512,,0.273900931447,-3.67781997407,2.31001774223,0.463030065009,-0.0143242489626,-0.108895888097
1589275288209685329,1049,1589275288209576412,,0.273808285345,-3.67788039752,2.3099325219,0.46302983581,-0.0143330555297,-0.108895703883
1589275288215861853,1050,1589275288215756140,,0.295820385148,-3.81054174293,2.35725912598,0.467329702072,-0.0143550534224,-0.109593720132
1589275288218695098,1051,1589275288218624126,,0.295796158964,-3.81057343859,2.3572109289,0.467330131734,-0.0143553298244,-0.109591851745
1589275288221533406,1052,1589275288221413448,,0.272691897538,-3.81046509396,2.35683504825,0.468180157404,-0.0136929399057,-0.107022892278
1589275288227601292,1053,1589275288227518958,,0.319073986138,-3.81062427536,2.35767523558,0.470983416769,-0.0136963112875,-0.109401360062
1589275288230552092,1054,1589275288230457067,,0.319182549407,-3.81060886051,2.35768545515,0.47194204146,-0.0143537597844,-0.111197284082
1589275288233862533,1055,1589275288233610626,,0.319523733585,-3.67820783407,2.35710633874,0.471065730939,-0.0143362864069,-0.113023131832
1589275288239734789,1056,1589275288239659720,,0.344429671702,-3.41321820625,2.28692182617,0.46611665688,-0.0149588719112,-0.117468222451
1589275288242915448,1057,1589275288242675979,,0.344616323276,-3.41314821721,2.28699816316,0.466116589693,-0.0149382588666,-0.117471112156
1589275288248753659,1058,1589275288248650415,,0.368766366719,-3.41289511148,2.24117925698,0.46107019454,-0.0148931146042,-0.123727481909
1589275288251618895,1059,1589275288251541234,,0.368945815785,-3.41289419886,2.2411511126,0.461069529417,-0.0148712794378,-0.123732586763
1589275288254756622,1060,1589275288254603559,,0.368911998357,-3.28074108645,2.26353561682,0.460009489549,-0.0148428127124,-0.123751604007
1589275288257692794,1061,1589275288257614911,,0.36988721326,-3.28048408147,2.21727194912,0.456688805121,-0.0154753876508,-0.125602913551
1589275288263530496,1062,1589275288263434536,,0.369976973772,-3.28052040476,2.21720323119,0.456689712101,-0.0154591128846,-0.125601619925
1589275288266775261,1063,1589275288266691295,,0.370048146932,-3.28050921436,2.21720791066,0.452203850787,-0.0161021465016,-0.129276850558
1589275288272760761,1064,1589275288272654855,,0.370110474078,-3.28053906677,2.21715333795,0.452202996522,-0.0160940548554,-0.129280846275
1589275288275739053,1065,1589275288275555269,,0.369817663465,-3.14847115189,2.2394933299,0.452041979216,-0.0154286235421,-0.128377964477
1589275288278606614,1066,1589275288278546538,,0.369760796889,-3.14848980424,2.23947649661,0.451122428912,-0.0160996056352,-0.128389888299
1589275288284644385,1067,1589275288284570158,,0.346172447227,-3.14859883925,2.26210887697,0.451873320221,-0.0154446364404,-0.127619556288
1589275288287625835,1068,1589275288287546805,,0.345886540017,-3.2808399811,2.26283952,0.453637084473,-0.0148001066919,-0.124875052448
1589275288290534060,1069,1589275288290469529,,0.322612753859,-3.28075870805,2.26244464301,0.45359690744,-0.0148245729504,-0.123215411515
1589275288296569527,1070,1589275288296504192,,0.322346220371,-3.28080969442,2.26240869766,0.454472978121,-0.014858515073,-0.121383687337
1589275288299874438,1071,1589275288299733750,,0.321599805904,-3.41320661843,2.2863531272,0.457007090282,-0.014887816111,-0.118641686041
1589275288302731573,1072,1589275288302650292,,0.321018044777,-3.41331345081,2.30952741105,0.457752746638,-0.0149159514141,-0.117719008219
1589275288308756116,1073,1589275288308663687,,0.320931001981,-3.41331813377,2.30953258705,0.459537523785,-0.0149327867762,-0.115890361388
1589275288311734023,1074,1589275288311661249,,0.296706162665,-3.67806827196,2.3334679678,0.462993382284,-0.0143038467787,-0.113263703088
1589275288314643040,1075,1589275288314571411,,0.295553683714,-3.81068322379,2.38042299884,0.467203635418,-0.0143350410312,-0.110497258041
1589275288323763155,1076,1589275288323686492,,0.271696399502,-3.9431735583,2.40362758238,0.474335979755,-0.0136965725086,-0.108742471445
1589275288326652218,1077,1589275288326571662,,0.271466189109,-4.07558192789,2.40420908721,0.475274911947,-0.0136991859249,-0.109634962382
1589275288332608995,1078,1589275288332526379,,0.271598918949,-4.07557651632,2.40420327025,0.475274905505,-0.013684656581,-0.109636804809
1589275288335575171,1079,1589275288335514560,,0.294651528312,-3.9433508566,2.4271673184,0.476991386429,-0.0136767547204,-0.111279271845
1589275288338616021,1080,1589275288338511577,,0.317660263118,-3.94350123871,2.4507584782,0.478737408972,-0.0136619097027,-0.113823141571
1589275288344831758,1081,1589275288344739424,,0.341590329999,-3.81104524617,2.42749575021,0.478132182262,-0.0143063677522,-0.120932321573
1589275288347956334,1082,1589275288347836828,,0.341783774393,-3.8110434665,2.42747131542,0.478133199984,-0.0142806141903,-0.120931341698
1589275288353928864,1083,1589275288353622184,,0.365629919486,-3.67858063276,2.40424040749,0.476551416387,-0.0135941413852,-0.125327803545
1589275288356824057,1084,1589275288356700113,,0.367218319882,-3.54586113176,2.33414020549,0.47067281147,-0.0148778474579,-0.129032600814
1589275288359525586,1085,1589275288359448000,,0.367464049084,-3.54584458484,2.33412667005,0.470672984131,-0.0148467330486,-0.129035554798
1589275288362615530,1086,1589275288362492158,,0.367702664963,-3.41350484478,2.33350627941,0.4688885812,-0.015498016862,-0.13087352135
1589275288368746588,1087,1589275288368663627,,0.367779525513,-3.41354740818,2.33343190258,0.466186997298,-0.0154762039391,-0.13271261034
1589275288371728366,1088,1589275288371661314,,0.367925717564,-3.41360858565,2.33331935696,0.466186891921,-0.0154536470954,-0.132715609005
1589275288377757430,1089,1589275288377681027,,0.36791204703,-3.41362427885,2.3332985535,0.465297213613,-0.0161231468478,-0.133646670566
1589275288383677128,1090,1589275288383582368,,0.36689988415,-3.54631835269,2.38009533556,0.466794175736,-0.0154594895328,-0.131808866943
1589275288389742902,1091,1589275288389656950,,0.366752444115,-3.54629493042,2.38015295752,0.467701963871,-0.0154833584679,-0.131797150824
1589275288392606167,1092,1589275288392517524,,0.366625572607,-3.54629793027,2.38016803383,0.468598959958,-0.0155020666734,-0.1308809464
1589275288395661921,1093,1589275288395515101,,0.366067764396,-3.54641933571,2.40332193992,0.469364995847,-0.0155281383326,-0.130873963998
1589275288401546479,1094,1589275288401460242,,0.366270435193,-3.54627020028,2.38026402419,0.469439920203,-0.0162235635073,-0.128153549248
1589275288404563068,1095,1589275288404490235,,0.365500412016,-3.67869054264,2.40409192567,0.472890492838,-0.0155920244612,-0.125386473174
1589275288407610872,1096,1589275288407522612,,0.364894797748,-3.67882737315,2.4272230509,0.47455644039,-0.0156194538566,-0.124456081048
1589275288413777267,1097,1589275288413569962,,0.364055397707,-3.81125838666,2.45105545772,0.476231813791,-0.0156570182858,-0.124433889806
1589275288416577007,1098,1589275288416504193,,0.340185434718,-3.94369378412,2.47443268819,0.479731422888,-0.0156777071457,-0.123627537108
1589275288419506394,1099,1589275288419440733,,0.363350287912,-3.94378148595,2.4748377808,0.480647677457,-0.0150118397878,-0.123471164116
1589275288425581964,1100,1589275288425468877,,0.362193629756,-4.07638875681,2.52170966144,0.483049557105,-0.0150352615647,-0.121622451859
1589275288428556575,1101,1589275288428477760,,0.338628255342,-4.07647795469,2.54432839662,0.485649362971,-0.0150376133414,-0.121728982766
1589275288434545038,1102,1589275288434465641,,0.361901455968,-4.07657623313,2.54470083556,0.487494204528,-0.0150283726602,-0.122464912047
1589275288437771637,1103,1589275288437677084,,0.361705352924,-4.20899015192,2.54525037881,0.490301896153,-0.0156996418165,-0.125148767329
1589275288440860712,1104,1589275288440760569,,0.361772100667,-4.20902359274,2.54518559147,0.490303466591,-0.0156869242499,-0.125144209396
1589275288443921796,1105,1589275288443836059,,0.361478035559,-4.20914344279,2.56838301302,0.492014853649,-0.0156769230214,-0.126034829276
1589275288449761652,1106,1589275288449677863,,0.362016762426,-4.20899907778,2.5451913443,0.491263263522,-0.0163291334463,-0.126951305681
1589275288452851782,1107,1589275288452759294,,0.361937453734,-4.07668268465,2.56787816374,0.493007989191,-0.0156514204351,-0.129647485372
1589275288458691432,1108,1589275288458609623,,0.362541960183,-4.07654554159,2.54465883084,0.49225674826,-0.0162945349216,-0.130564356873
1589275288461821597,1109,1589275288461620501,,0.386499047804,-3.94406108754,2.52145477686,0.490639527907,-0.0162812651903,-0.13315841381
1589275288464670801,1110,1589275288464582638,,0.387007082518,-3.94394208258,2.49831666572,0.489915454118,-0.0162639674112,-0.134982778374
1589275288470844718,1111,1589275288470684337,,0.410662348001,-3.94385527641,2.47567191041,0.490074988137,-0.0162523350847,-0.135737468249
1589275288473856711,1112,1589275288473776311,,0.387199545167,-3.94389464961,2.49836172318,0.489937851093,-0.0155758362837,-0.13588767598
1589275288476732678,1113,1589275288476663010,,0.387643243439,-3.94382751201,2.47515269285,0.488251570051,-0.0155643534219,-0.135910717726
1589275288482738623,1114,1589275288482673792,,0.387641082188,-3.94381447545,2.47517380324,0.488251559237,-0.0155653535026,-0.135910642044
1589275288485781882,1115,1589275288485643329,,0.387264131973,-3.94393860481,2.49828232362,0.489017654461,-0.0155670280069,-0.135906357693
1589275288488695661,1116,1589275288488615710,,0.387188200297,-3.94394556428,2.49828310615,0.490803318812,-0.0155790021273,-0.134071774324
1589275288494788083,1117,1589275288494593881,,0.387115727865,-3.9439500694,2.49828722492,0.490802584246,-0.0155891699674,-0.134073281499
1589275288497785264,1118,1589275288497707643,,0.363293304899,-3.94398144186,2.52103056332,0.492427201485,-0.0162832956781,-0.131472594327
1589275288506755750,1119,1589275288506699972,,0.362653220142,-4.20876931817,2.52223004455,0.495978255458,-0.0149919551918,-0.126896410215
1589275288509697516,1120,1589275288509615992,,0.362436052019,-4.20876406299,2.52227002908,0.495979313383,-0.0150145978641,-0.126889597998
1589275288512760498,1121,1589275288512663500,,0.362251314249,-4.20877352139,2.52228078537,0.495957994719,-0.0150364731641,-0.125985492615
1589275288518775706,1122,1589275288518710512,,0.338369858921,-4.34126864068,2.5454992804,0.49762532122,-0.0150540757893,-0.125210204561
1589275288521689742,1123,1589275288521615566,,0.338064187026,-4.47368849355,2.54610097362,0.496665594412,-0.0144058791476,-0.123406075758
1589275288524764530,1124,1589275288524645034,,0.337508095092,-4.47384708675,2.56925225442,0.496539660584,-0.0144161215226,-0.124306499653
1589275288530791587,1125,1589275288530688423,,0.337788843469,-4.4736707412,2.54616870932,0.493961999504,-0.0144263876612,-0.125252635955
1589275288534046195,1126,1589275288533774951,,0.337755476282,-4.47356018351,2.54636737775,0.493960988028,-0.0144376023097,-0.125255332722
1589275288536765790,1127,1589275288536687812,,0.337495610514,-4.4736972618,2.56951476729,0.493823344568,-0.0144193378812,-0.125259364562
1589275288542826971,1128,1589275288542713461,,0.33768291539,-4.47376386963,2.5693741853,0.4938221595,-0.0143986512426,-0.125266416029
1589275288546083885,1129,1589275288545875805,,0.361275255743,-4.47373265485,2.54656940381,0.493088385966,-0.0150518825993,-0.126937881535
1589275288548831259,1130,1589275288548753250,,0.361033776403,-4.47384265666,2.56976197862,0.492984008222,-0.0150296801212,-0.128743689289
1589275288554602232,1131,1589275288554523322,,0.361691238174,-4.47378768622,2.54641367274,0.494082195144,-0.0150036504642,-0.130550402306
1589275288557585202,1132,1589275288557508610,,0.361681753851,-4.34142628245,2.56911113619,0.492160535979,-0.0149753215104,-0.132381248963
1589275288560861745,1133,1589275288560751885,,0.362493602385,-4.20889274298,2.54529931804,0.490534939185,-0.014946345922,-0.135124423295
1589275288566852486,1134,1589275288566709038,,0.36260945668,-4.20886670783,2.54532586709,0.490534832583,-0.0149348031803,-0.135126086543
1589275288569877721,1135,1589275288569783912,,0.386845240768,-4.2087228093,2.4994660137,0.487253779415,-0.0155723027524,-0.138651808436
1589275288572811151,1136,1589275288572706377,,0.387001861698,-4.20873087306,2.49942818993,0.487253632487,-0.0155544075478,-0.138654333447
1589275288578890102,1137,1589275288578801804,,0.387407348332,-4.20864799053,2.4762577365,0.486529936569,-0.0155484887664,-0.140477702018
1589275288581839115,1138,1589275288581751632,,0.38809371473,-4.07606613352,2.4525425364,0.483033197104,-0.0161987107922,-0.141430766166
1589275288584714822,1139,1589275288584628111,,0.410842217301,-4.07629690903,2.4761132405,0.481997113271,-0.0155246244047,-0.142199637815
1589275288590827798,1140,1589275288590714917,,0.410811122327,-4.07632218385,2.47607679063,0.48289405104,-0.0155293128904,-0.141284294795
1589275288593611786,1141,1589275288593527377,,0.387544799279,-4.07624668153,2.47567677946,0.482853490908,-0.0155449678899,-0.139614423798
1589275288596633576,1142,1589275288596524683,,0.387510634063,-4.07628264428,2.47562291332,0.482852429008,-0.0155490856963,-0.13961763777
1589275288602689227,1143,1589275288602596772,,0.387147364028,-4.20876132466,2.47610576711,0.483738982759,-0.0155704522435,-0.138702421278
1589275288605876231,1144,1589275288605686156,,0.364375056691,-4.07612517708,2.45197082102,0.483803568015,-0.0155880326017,-0.135220707369
1589275288608707300,1145,1589275288608639513,,0.363176227681,-4.20877752402,2.49888895367,0.485319413436,-0.0156168093414,-0.1343002997
1589275288614837035,1146,1589275288614706602,,0.361974390817,-4.34147662394,2.54563123444,0.48863851326,-0.0156461017567,-0.132441186173
1589275288617646786,1147,1589275288617538355,,0.361844311089,-4.34148842293,2.54562960497,0.488637473196,-0.0156618924289,-0.132443157054
1589275288620712774,1148,1589275288620565652,,0.362183667087,-4.34134968272,2.52256513489,0.489674981055,-0.0156760379293,-0.131528067711
1589275288626726067,1149,1589275288626561296,,0.361765132947,-4.47384905798,2.52304182187,0.489696550947,-0.015694030849,-0.132427312761
1589275288629709326,1150,1589275288629573910,,0.337411855965,-4.60649144671,2.56943789383,0.492115800322,-0.015712212432,-0.130730176898
1589275288632720830,1151,1589275288632565994,,0.359774782422,-4.60673655593,2.61617813549,0.493669322724,-0.0157165728588,-0.131466722988
1589275288638850362,1152,1589275288638577999,,0.3597378183,-4.60675655765,2.61614799793,0.493668647096,-0.015720811433,-0.131468753233
1589275288641694911,1153,1589275288641587028,,0.35826244447,-4.73953836121,2.68614382857,0.497847526234,-0.0150625810589,-0.13322493018
1589275288645032820,1154,1589275288644944211,,0.358359075091,-4.73954237819,2.68612385099,0.497847899203,-0.0150517332779,-0.133224762457
1589275288650687536,1155,1589275288650565485,,0.35839856897,-4.73951303518,2.68617035561,0.497866708131,-0.0157179343998,-0.134132366782
1589275288653620597,1156,1589275288653520409,,0.381590967199,-4.87211301176,2.68698758197,0.50068712555,-0.0143820382909,-0.137575971371
1589275288659671534,1157,1589275288659563662,,0.358190657109,-4.73959939739,2.70930372706,0.501457083134,-0.015036653138,-0.137708237209
1589275288662821992,1158,1589275288662684639,,0.358445235616,-4.87202009026,2.68658444281,0.504437626935,-0.0157007271417,-0.141294497252
1589275288665755651,1159,1589275288665645600,,0.358620935263,-4.8720280564,2.68654654855,0.504437937377,-0.0156819281912,-0.141295476634
1589275288671707581,1160,1589275288671629814,,0.405816331524,-4.7395445879,2.66382468424,0.508384207848,-0.0156820509969,-0.14730853597
1589275288674596317,1161,1589275288674525861,,0.405903257849,-4.7395345461,2.66382930676,0.508384702668,-0.0156724744237,-0.147307847453
1589275288677789341,1162,1589275288677683404,,0.40605315314,-4.73956653231,2.66374955027,0.509313737882,-0.015658123934,-0.14820412609
1589275288683834311,1163,1589275288683745579,,0.405695404147,-4.73968532368,2.68684455335,0.51104212531,-0.0163208337945,-0.149988421733
1589275288686780512,1164,1589275288686679668,,0.429525434485,-4.73964107036,2.66413640886,0.512139974301,-0.0163105325248,-0.151655036519
1589275288689798431,1165,1589275288689695160,,0.42958514932,-4.73964676637,2.66411664707,0.5130704665,-0.0163042991797,-0.15254573035
1589275288695928498,1166,1589275288695811386,,0.452334728714,-4.73982024439,2.68767393813,0.515735500798,-0.0163123949932,-0.155089268833
1589275288698757322,1167,1589275288698668975,,0.451854171127,-4.73988550527,2.71088433364,0.51650224632,-0.0169814666638,-0.155077939208
1589275288701949987,1168,1589275288701736139,,0.451822171824,-4.73987065855,2.71091562589,0.516502137765,-0.0169859659344,-0.155077808014
1589275288707940944,1169,1589275288707829990,,0.452356326655,-4.87222455872,2.66502047324,0.516815014023,-0.0169929716249,-0.155978035946
1589275288710640394,1170,1589275288710560565,,0.452325822236,-4.87219211699,2.66508496024,0.516816006792,-0.0169962953978,-0.155974384331
1589275288719677934,1171,1589275288719596381,,0.428300029663,-4.73981844684,2.7105141553,0.51924384245,-0.0163670202988,-0.155177476554
1589275288722599464,1172,1589275288722522482,,0.428235031224,-4.73980840773,2.71054198023,0.519242842836,-0.0163765166325,-0.155179819474
1589275288725706642,1173,1589275288725600513,,0.4284042902,-4.87223009284,2.68783003668,0.519394453842,-0.0163775883878,-0.155175214169
1589275288731675478,1174,1589275288731568424,,0.427927936717,-4.87231525728,2.7109994796,0.520140415773,-0.0157228574927,-0.154264582581
1589275288734608883,1175,1589275288734527213,,0.427287427657,-5.00491878647,2.73469419917,0.521734668229,-0.0157305593402,-0.150605418497
1589275288737716056,1176,1589275288737617931,,0.427204675985,-5.00493987386,2.73466853417,0.521712470164,-0.0157403633184,-0.149703904628
1589275288743818553,1177,1589275288743708113,,0.427125840169,-5.00490634465,2.73474221195,0.522630633579,-0.0157534821431,-0.149691986897
1589275288747237465,1178,1589275288746960571,,0.426694406323,-5.00497164336,2.75793833018,0.523421810292,-0.0150888895334,-0.150581538513
1589275288752823894,1179,1589275288752733371,,0.426544861982,-5.13750798167,2.75833914373,0.52248322298,-0.0150768011564,-0.149686673994
1589275288755823519,1180,1589275288755706055,,0.426645055724,-5.13749570585,2.75834651227,0.52248381242,-0.0150662774686,-0.149685676142
1589275288758868479,1181,1589275288758771312,,0.426727207496,-5.13743372327,2.75844924591,0.523401730241,-0.015064918315,-0.149676117981
