%time,field.header.seq,field.header.stamp,field.header.frame_id,field.wrench.force.x,field.wrench.force.y,field.wrench.force.z,field.wrench.torque.x,field.wrench.torque.y,field.wrench.torque.z
1589275921021889002,14618,1589275921021798978,,0.07657997804,-0.758178005399,0.600102999701,0.152464958152,-0.000959137469614,-0.0261551133042
1589275921027785976,14619,1589275921027706663,,0.0543052758565,-0.628216466869,0.596317109066,0.153326023056,-0.000961229295157,-0.0245567016022
1589275921030730327,14620,1589275921030635318,,0.0546478148099,-0.627569140241,0.573613225329,0.151621432397,-0.000957465934497,-0.0236943889182
1589275921036848407,14621,1589275921036748381,,0.0767599244911,-0.6277065305,0.574089787758,0.152552097146,-0.00033066047339,-0.0244146320682
1589275921039802050,14622,1589275921039709624,,0.0767585295515,-0.627707020752,0.574089438231,0.152552001983,-0.000331530298269,-0.0244152148787
1589275921042858898,14623,1589275921042774374,,0.0989731277536,-0.627867726821,0.574591652937,0.152573420458,-0.000331212671985,-0.0251448750133
1589275921048868476,14624,1589275921048735992,,0.0986798285364,-0.628502852748,0.597295158046,0.153344061709,-0.00033164558849,-0.0251396665945
1589275921051888537,14625,1589275921051740401,,0.0767646795378,-0.62770430556,0.574091584685,0.152550611641,-0.000959778181403,-0.0244159223283
1589275921054773667,14626,1589275921054699214,,0.0767654788208,-0.627704951841,0.574090771172,0.151642333917,-0.000957189487026,-0.0244225709954
1589275921060887843,14627,1589275921060767715,,0.0765355811675,-0.498897793103,0.570314516693,0.152576295765,-0.000958387214359,-0.0252911407685
1589275921063955239,14628,1589275921063817415,,0.0986843338178,-0.62850462019,0.59729255391,0.153368524136,-0.000960125802042,-0.0260158011583
1589275921066794041,14629,1589275921066705175,,0.120606660019,-0.499268490199,0.571414773469,0.152645918992,-0.000956690683052,-0.0276136166691
1589275921072787690,14630,1589275921072718131,,0.0986889511964,-0.628506432278,0.597289884223,0.153420603242,-0.000957943725635,-0.0277477782388
1589275921075831571,14631,1589275921075743599,,0.0983519482682,-0.499773041535,0.593625380511,0.153447111782,-0.000956880237807,-0.028613697429
1589275921078819910,14632,1589275921078725844,,0.0986852052299,-0.628511274684,0.597285407624,0.153501354294,-0.000955686380986,-0.0303548693141
1589275921084789347,14633,1589275921084676780,,0.0986854701107,-0.628512881503,0.597283673033,0.153501400033,-0.000955319456977,-0.0303546495623
1589275921087800415,14634,1589275921087714657,,0.120560785401,-0.629309430218,0.620441135488,0.155235599742,-0.000958783382127,-0.0319415769083
1589275921090869893,14635,1589275921090767923,,0.120562916719,-0.62930924735,0.620440906821,0.156171654096,-0.000330156796359,-0.0328048533301
1589275921096929713,14636,1589275921096802357,,0.143305709726,-0.759225024683,0.624159487558,0.15902037139,-0.000335118358437,-0.0361392384182
1589275921099867494,14637,1589275921099783703,,0.143304625633,-0.75922480957,0.624159998125,0.15902050594,-0.000334859668925,-0.0361386487643
1589275921102986801,14638,1589275921102823169,,0.120907489091,-0.759054086864,0.62364717663,0.158116922889,-0.000964900234623,-0.0362888230844
1589275921108930620,14639,1589275921108819418,,0.120553086209,-0.62931842225,0.620433510834,0.158145112457,-0.000964916821886,-0.0371587978338
1589275921111933044,14640,1589275921111842426,,0.120269654683,-0.629927965091,0.643106142593,0.158939786125,-0.000966651809349,-0.0380255617027
1589275921114987541,14641,1589275921114832328,,0.12026904833,-0.629929335445,0.643104913713,0.160791882915,-0.000970769330596,-0.0388882887169
1589275921120914282,14642,1589275921120830617,,0.120264048187,-0.629928448218,0.643106717832,0.160791854293,-0.000972246976933,-0.0388883701442
1589275921123833415,14643,1589275921123757641,,0.143287853405,-0.759233347749,0.624153462849,0.161929926248,-0.00161618687612,-0.0413700445663
1589275921126981269,14644,1589275921126903391,,0.142821730355,-0.62951216318,0.620975013601,0.162807483548,-0.00162051855892,-0.0404959180785
1589275921132849027,14645,1589275921132757291,,0.165017993318,-0.629724973036,0.621532417178,0.162831766733,-0.00162089111977,-0.0412267410345
1589275921135902062,14646,1589275921135770422,,0.165014148198,-0.629727549677,0.621530827441,0.163778184893,-0.000982648150886,-0.0420953580322
1589275921138833129,14647,1589275921138737170,,0.165009617859,-0.62972566799,0.621533936704,0.163776994149,-0.00162581069354,-0.0420954682505
1589275921144851999,14648,1589275921144755348,,0.165004316406,-0.629727931952,0.621533050347,0.163777058629,-0.00162682134129,-0.0420951783367
1589275921147859413,14649,1589275921147764296,,0.142793987071,-0.629512579685,0.620980971565,0.164698779595,-0.00162949832578,-0.0422294161934
1589275921151002365,14650,1589275921150876761,,0.164997283035,-0.62972641137,0.621536458142,0.164722742787,-0.00162981918787,-0.0429627353084
1589275921156843147,14651,1589275921156741915,,0.142046399118,-0.501490803689,0.640228248943,0.165437205165,-0.0009891333401,-0.0413545080628
1589275921159809279,14652,1589275921159732178,,0.164159811305,-0.501700315649,0.640835100043,0.166366747416,-0.00163283280254,-0.0420826817473
1589275921162853561,14653,1589275921162767427,,0.164359782665,-0.50106879009,0.618091717705,0.165600433368,-0.00162976159499,-0.0420869237983
1589275921168781269,14654,1589275921168710949,,0.164765300187,-0.630314305939,0.64420811565,0.16633778917,-0.00163205578032,-0.0412121796243
1589275921171770919,14655,1589275921171702842,,0.142542237416,-0.630111378817,0.643652425144,0.166314280658,-0.00163203015228,-0.0404790671817
1589275921177901082,14656,1589275921177832889,,0.164763268287,-0.630311842156,0.644211045968,0.166308448711,-0.0022738959978,-0.0403294172758
1589275921180937889,14657,1589275921180764114,,0.164764348244,-0.630309909926,0.644212660293,0.166308497917,-0.00227352257561,-0.0403292354152
1589275921184032707,14658,1589275921183909038,,0.14227802192,-0.630698034856,0.666359350393,0.166145402116,-0.00163065604781,-0.0395975115685
1589275921190014362,14659,1589275921189822957,,0.142280973582,-0.630699619182,0.666357220618,0.166145362206,-0.00162995701705,-0.0395977078076
1589275921193040087,14660,1589275921192953303,,0.142552650946,-0.630106163704,0.643655224267,0.166259145863,-0.000987803012764,-0.0387255391244
1589275921196254332,14661,1589275921196063918,,0.14255467067,-0.630106948325,0.643654008843,0.166259057133,-0.000987608435008,-0.0387259250257
1589275921201836153,14662,1589275921201745309,,0.142286308164,-0.630699311261,0.666356372997,0.166146542334,-0.000986407671059,-0.0395976318452
1589275921204829665,14663,1589275921204698847,,0.142551704123,-0.630105941344,0.643655651643,0.166259329295,-0.000987247947558,-0.0387247657462
1589275921207869392,14664,1589275921207697492,,0.142970623471,-0.759764637304,0.646803238639,0.166230686487,-0.0016303942294,-0.0378520795957
1589275921213961301,14665,1589275921213841338,,0.143281460879,-0.759222702902,0.624167878717,0.165463772766,-0.00162766672166,-0.0378578693034
1589275921216799648,14666,1589275921216714093,,0.142817305957,-0.629504976194,0.620983316875,0.164556720812,-0.00162532259802,-0.0378621254074
1589275921219754191,14667,1589275921219681449,,0.165017433586,-0.629714465825,0.621543211313,0.164580163396,-0.00162534252215,-0.0385933106276
1589275921225899390,14668,1589275921225803425,,0.120251445412,-0.629922364894,0.643115033074,0.165327676631,-0.00162696133648,-0.0379945714037
1589275921228877200,14669,1589275921228768854,,0.120251553686,-0.629924447656,0.643112972784,0.16532762816,-0.00162702506886,-0.0379947795893
1589275921234858930,14670,1589275921234753874,,0.143276515725,-0.759227237334,0.624163498281,0.164612823556,-0.00162515753366,-0.0396046321447
1589275921237942451,14671,1589275921237786903,,0.142815292996,-0.629506311755,0.620982425933,0.166463917885,-0.00227208597106,-0.0404782220934
1589275921240916162,14672,1589275921240816173,,0.142546049727,-0.630113455663,0.643649547701,0.16540774124,-0.00162734518468,-0.0404820488867
1589275921243805434,14673,1589275921243705084,,0.142812191627,-0.629509669617,0.620979735218,0.166464932831,-0.00163054936735,-0.0404781496277
1589275921249949429,14674,1589275921249791488,,0.142971986352,-0.759774386533,0.646791485313,0.166341511205,-0.00227273596215,-0.0413517117709
1589275921252972344,14675,1589275921252868360,,0.164772734901,-0.630317385909,0.644203200505,0.167282913442,-0.00163192401124,-0.0420807782603
1589275921258962108,14676,1589275921258777581,,0.164770962337,-0.630320586186,0.644200522576,0.167282974049,-0.0016319444814,-0.0420805365363
1589275921261852297,14677,1589275921261762048,,0.164769520981,-0.630321344709,0.644200149057,0.168189591609,-0.00163498477398,-0.0420769516181
1589275921264818862,14678,1589275921264739603,,0.164767666109,-0.630318891385,0.644203023941,0.168189635992,-0.00163546595897,-0.042076755508
1589275921267985350,14679,1589275921267862924,,0.164768397844,-0.630320919982,0.644200851902,0.168218154352,-0.00163465391677,-0.0429495119371
1589275921273890837,14680,1589275921273807869,,0.164765860405,-0.630321029928,0.644201393324,0.168189659485,-0.0016357211272,-0.0420766516843
1589275921276957448,14681,1589275921276842315,,0.164771119001,-0.630319868157,0.644201185062,0.168189463683,-0.00163517966112,-0.0420774553846
1589275921282954488,14682,1589275921282871433,,0.164769501815,-0.630322479017,0.644199044088,0.168189634039,-0.00163473853265,-0.0420767915816
1589275921285965144,14683,1589275921285866036,,0.164770596778,-0.630320378916,0.644200818881,0.168189583258,-0.00163478900597,-0.0420769926024
1589275921288804325,14684,1589275921288700056,,0.164767703938,-0.630319973152,0.644201955811,0.168189675144,-0.00163522129337,-0.0420766085177
1589275921292324740,14685,1589275921292173343,,0.164770724531,-0.630318264056,0.644202855489,0.169078103814,-0.00163768290477,-0.0412001215992
1589275921300994405,14686,1589275921300924124,,0.142551929289,-0.630112192858,0.643649481802,0.168138968311,-0.000992544280736,-0.0404715514764
1589275921306858312,14687,1589275921306772658,,0.142977390854,-0.759769019559,0.646796595082,0.168110727322,-0.000993044165066,-0.0395897967323
1589275921309912029,14688,1589275921309752529,,0.142551674721,-0.630103373623,0.643658171811,0.168055651085,-0.000993770431671,-0.0378449891148
1589275921312976585,14689,1589275921312873666,,0.119875820152,-0.501284269948,0.639652794371,0.167098022446,-0.000992073310781,-0.0362438761413
1589275921315940307,14690,1589275921315831071,,0.119876198629,-0.50127572696,0.639659418335,0.167097895852,-0.00099317937281,-0.0362444294919
1589275921321955059,14691,1589275921321874391,,0.120259427481,-0.629900116871,0.643135331443,0.166180150181,-0.000991620992325,-0.0362513501653
1589275921324840214,14692,1589275921324762365,,0.0980732590693,-0.500431104018,0.616362103403,0.165336508912,-0.00099171884011,-0.0337739765769
1589275921330881443,14693,1589275921330759660,,0.0980737461262,-0.500423511527,0.616368190253,0.165336388002,-0.000992700964807,-0.0337745396198
1589275921333894006,14694,1589275921333763125,,0.119883214803,-0.501248041932,0.639679798156,0.165191197223,-0.000993629496852,-0.0336363790787
1589275921336820301,14695,1589275921336752298,,0.120261593293,-0.629876644095,0.643157915355,0.16516426146,-0.000993996221101,-0.0327571509768
1589275921342903026,14696,1589275921342823440,,0.0980700568095,-0.629708399545,0.642644469396,0.165141994845,-0.000995000025788,-0.0320276409341
1589275921346034647,14697,1589275921345938756,,0.0978077882852,-0.501066295823,0.639134035011,0.164172241282,-0.000993309292672,-0.0302930559416
1589275921348860632,14698,1589275921348787977,,0.0756461127431,-0.500909952695,0.638610060229,0.165070146056,-0.000363801438119,-0.0295521810686
1589275921355016988,14699,1589275921354921628,,0.0980673174848,-0.629699532785,0.642653575572,0.164147885383,-0.000361759403631,-0.0294232138491
1589275921360837794,14700,1589275921360719474,,0.0978068018808,-0.501056117151,0.639142165671,0.164173614318,-0.000361924188524,-0.0302927474983
1589275921366821748,14701,1589275921366744701,,0.0978045707125,-0.50105330463,0.639144711967,0.165040353174,-0.000365297936668,-0.0285370971649
1589275921369776246,14702,1589275921369700491,,0.0978013113498,-0.501052466854,0.639145867487,0.16504045124,-0.000365688952921,-0.0285365249998
1589275921373016031,14703,1589275921372921969,,0.0975259974156,-0.501688491463,0.661935698678,0.165808020662,-0.000366962346473,-0.0285296487751
1589275921378841400,14704,1589275921378767222,,0.0977956262756,-0.501049246725,0.639149261758,0.163179163266,-0.000361087384627,-0.0276790749133
1589275921381808265,14705,1589275921381730694,,0.0980508773222,-0.629682761185,0.642672517125,0.164122915062,-0.000362523787384,-0.0285397981666
1589275921387837710,14706,1589275921387760170,,0.0975171295972,-0.501684180139,0.661940272726,0.163946874225,-0.000362458628631,-0.0276714838326
1589275921390816618,14707,1589275921390724384,,0.098048797059,-0.629689815719,0.642665922482,0.164989913721,-0.000995905252111,-0.0267924422733
1589275921393966808,14708,1589275921393879909,,0.0977808268816,-0.501056772747,0.639145626087,0.165016595534,-0.000362730368195,-0.0276593122459
1589275921399804357,14709,1589275921399723310,,0.0977299918347,-0.630304084099,0.66536228642,0.164891214322,-0.000361648851337,-0.0285286724627
1589275921402810996,14710,1589275921402711385,,0.0980356120847,-0.629704891998,0.642653161745,0.164123932886,-0.00035951864966,-0.0285339824003
1589275921405915782,14711,1589275921405749216,,0.0977687968228,-0.501062658011,0.639142852641,0.165017263694,-0.000361342542547,-0.0276553438446
1589275921408802196,14712,1589275921408746525,,0.0980320992365,-0.500403063272,0.616391416481,0.164275364962,-0.000359687343249,-0.0285291951852
1589275921414921626,14713,1589275921414804627,,0.120078398455,-0.500582852554,0.616950786954,0.16429565666,-0.000991439294344,-0.0292579505279
1589275921417966631,14714,1589275921417873320,,0.0977516349104,-0.501057793533,0.639149291152,0.165043201373,-0.000361479917418,-0.0285206687457
1589275921423897523,14715,1589275921423753953,,0.0977441253039,-0.501057356825,0.639150781982,0.16504343721,-0.000362239471989,-0.0285192943364
1589275921426836979,14716,1589275921426737276,,0.0977445964265,-0.501058337123,0.639149941436,0.165043593756,-0.000360871679084,-0.0285184057187
1589275921429805761,14717,1589275921429728088,,0.0975013357226,-0.501689417718,0.661938629712,0.166717832482,-0.000987386621028,-0.0285061585086
1589275921435915968,14718,1589275921435810904,,0.119872257971,-0.501218936335,0.639704657267,0.165971652159,-0.000979898319998,-0.0292428619339
1589275921438824889,14719,1589275921438755509,,0.141529437319,-0.374110717957,0.636774012447,0.166912642812,-0.000352814434083,-0.0299687204704
1589275921441819677,14720,1589275921441711262,,0.119449213457,-0.373924947215,0.636136618236,0.166891305082,-0.000353708369834,-0.0292343626423
1589275921447861210,14721,1589275921447784180,,0.0972560184797,-0.374386371436,0.658444267987,0.167637619116,-0.000353047003688,-0.0284973542751
1589275921450828310,14722,1589275921450746000,,0.0751867727321,-0.374249210348,0.657880081906,0.166673388214,-0.000350354058939,-0.0269010971564
1589275921454082164,14723,1589275921453973422,,0.0754577312786,-0.373622071778,0.634959630078,0.166847683013,-0.000983720657361,-0.0277706457868
1589275921459999021,14724,1589275921459905430,,0.0972481117258,-0.37440101904,0.658437107095,0.167636292339,-0.00098882443708,-0.0284976292026
1589275921463088809,14725,1589275921462980470,,0.0972544079565,-0.374401545125,0.658435877997,0.167637259145,-0.000356849296404,-0.0284994243943
1589275921465807165,14726,1589275921465733472,,0.119258254202,-0.37455961258,0.659028045277,0.167631602287,-0.000988419948284,-0.0283617269643
1589275921471719757,14727,1589275921471657444,,0.119268091188,-0.374560002794,0.659026043313,0.16763125623,-0.000987622534408,-0.0283638000261
1589275921474719853,14728,1589275921474664668,,0.119477847446,-0.373948149402,0.636117601811,0.166863414901,-0.000986027126761,-0.0283722214136
1589275921477794563,14729,1589275921477696144,,0.119635912906,-0.501891517597,0.662454924448,0.167630569524,-0.000989091725283,-0.0283678070037
1589275921483858378,14730,1589275921483722811,,0.0972510055512,-0.502357681513,0.68481769032,0.168380049704,-0.000994941857469,-0.0276334651892
1589275921486788509,14731,1589275921486714844,,0.119634433745,-0.501902915158,0.662446556363,0.169481336786,-0.000999222295261,-0.0292283288055
1589275921491173067,14732,1589275921491118936,,0.0975279697449,-0.50174079987,0.661895759683,0.170369745779,-0.00037191667344,-0.028491625181
1589275921496184044,14733,1589275921496098821,,0.0975243872151,-0.501739030208,0.661897629009,0.170369293137,-0.000376814157761,-0.0284942673454
1589275921498786416,14734,1589275921498696327,,0.120251110393,-0.629905933449,0.643131189679,0.171457427144,-0.00101420961305,-0.0292195593439
1589275921501851619,14735,1589275921501742546,,0.120252969195,-0.629909116256,0.643127724748,0.17150885461,-0.000381245619526,-0.0309736391126
1589275921507902721,14736,1589275921507851458,,0.0977585643544,-0.630352253083,0.665312454455,0.172254780919,-0.000384108904413,-0.0302379878737
1589275921510795321,14737,1589275921510730303,,0.0979439956654,-0.759986289134,0.668466333018,0.173136594286,-0.00102024573745,-0.0293605518493
1589275921513772384,14738,1589275921513702669,,0.0979536428421,-0.759988281609,0.668462654161,0.17313645718,-0.00101867978452,-0.0293614147091
1589275921519793410,14739,1589275921519676600,,0.0976328167183,-0.760528464289,0.691251140214,0.17393148381,-0.00102040702974,-0.0302299761279
1589275921523032299,14740,1589275921522940573,,0.119971219382,-0.76067999569,0.691730369767,0.175803666004,-0.00102272825248,-0.0318209183899
1589275921525905692,14741,1589275921525846392,,0.119969759408,-0.760679953555,0.691730669313,0.175830041237,-0.000389039242549,-0.0326943167498
1589275921531981946,14742,1589275921531911365,,0.119973626508,-0.760683644172,0.691725940103,0.175829882761,-0.000388743429966,-0.032695172542
1589275921534998670,14743,1589275921534890988,,0.119978923761,-0.760685271417,0.691723231852,0.177654658791,-0.0010266177507,-0.0326817419455
1589275921537725351,14744,1589275921537672688,,0.119980996491,-0.760688251506,0.691719595126,0.177654644448,-0.00102606242606,-0.0326818373516
1589275921543757509,14745,1589275921543676952,,0.0973236036597,-0.761080840821,0.713944648215,0.180311378418,-0.00167567417316,-0.0345598979428
1589275921546767090,14746,1589275921546706785,,0.0973248105912,-0.761082581239,0.713942628358,0.180311381204,-0.0016752958927,-0.0345599017448
1589275921549764642,14747,1589275921549698279,,0.119351182301,-0.761750834865,0.737166309216,0.182007860802,-0.00167942464197,-0.0352810862195
1589275921555977128,14748,1589275921555867935,,0.119356151066,-0.761749963736,0.73716640491,0.181101227001,-0.00103052452819,-0.0352872353125
1589275921558984722,14749,1589275921558897524,,0.119043918845,-0.762263608532,0.759933116841,0.182801861242,-0.00103359987021,-0.0361598731719
1589275921562065606,14750,1589275921561936650,,0.11904067488,-0.762262532345,0.759934704488,0.18282649745,-0.00167737179951,-0.0370330985527
1589275921567968838,14751,1589275921567846565,,0.119043097273,-0.762260405421,0.759936458461,0.182826708904,-0.00167587450335,-0.0370321224152
1589275921570964604,14752,1589275921570835922,,0.119044708689,-0.762262779983,0.7599338242,0.183744824798,-0.00167647374225,-0.0370242436456
1589275921576844537,14753,1589275921576775795,,0.11904175306,-0.76226848905,0.759928560596,0.183745214155,-0.00167499736244,-0.0370223781052
1589275921579911694,14754,1589275921579810105,,0.119045586934,-0.762264557478,0.759931903675,0.184678845517,-0.00167539428232,-0.0378903180472
1589275921582954102,14755,1589275921582866037,,0.119364685779,-0.761747957246,0.737167096388,0.183913161984,-0.00102747217084,-0.037894951232
1589275921588975442,14756,1589275921588840933,,0.119362120493,-0.761745187188,0.737170374176,0.183913589172,-0.00102621786425,-0.0378929119211
1589275921591940747,14757,1589275921591853032,,0.119187964332,-0.892445598268,0.762636050067,0.185573256951,-0.0010302077101,-0.037003815723
1589275921595097683,14758,1589275921595010986,,0.11918222482,-0.892442614004,0.762640439243,0.185573381732,-0.00103101594929,-0.0370031674333
1589275921601045674,14759,1589275921600951156,,0.119171933579,-0.892442617866,0.762642042924,0.185573604192,-0.00103221080895,-0.03700201845
1589275921603898304,14760,1589275921603814700,,0.119166671877,-0.892444154506,0.762641066933,0.186405156198,-0.00168118224663,-0.0343578160798
1589275921606885902,14761,1589275921606811507,,0.119165882591,-0.89243951266,0.762646622126,0.18640507757,-0.00168191415341,-0.0343582068474
1589275921612987684,14762,1589275921612873172,,0.118822092293,-0.892902717399,0.785508194678,0.187177138137,-0.00103789053368,-0.0343509298195
1589275921615904397,14763,1589275921615816790,,0.119167074709,-0.892424508709,0.762663992943,0.186405107534,-0.00168220701808,-0.0343580299434
1589275921618853999,14764,1589275921618775538,,0.141716409766,-0.89256552645,0.763145862883,0.186426041036,-0.00168314337461,-0.0350959777456
1589275921624774364,14765,1589275921624697724,,0.141719861716,-0.892568011321,0.763142315562,0.187344186801,-0.00168459839215,-0.0350884983687
1589275921627748823,14766,1589275921627656337,,0.141729564137,-0.892572827124,0.763134881111,0.187319468574,-0.00168248632858,-0.0342127842492
1589275921631037091,14767,1589275921630916544,,0.119181290344,-0.892435875925,0.762648470112,0.186355824095,-0.00167870088674,-0.0325973326466
1589275921636961475,14768,1589275921636840176,,0.11918406398,-0.892435831219,0.762648088977,0.186355931212,-0.00167761788619,-0.0325967760206
1589275921639892522,14769,1589275921639781093,,0.119295761153,-1.02317474075,0.765099509043,0.186308584925,-0.00103313945896,-0.0308474212709
1589275921646042929,14770,1589275921645889655,,0.119285144398,-1.02317283871,0.765103707962,0.18630866583,-0.00103478509094,-0.0308468774664
1589275921649011207,14771,1589275921648897453,,0.0967196448557,-0.892298452715,0.762194465189,0.185356193465,-0.001034307689,-0.0292463356592
1589275921652020576,14772,1589275921651921759,,0.096362846737,-0.892770603338,0.785048967834,0.18612869453,-0.000399817862025,-0.0292380112588
1589275921654876292,14773,1589275921654780027,,0.0963660563229,-0.8927729294,0.785045928613,0.186128699609,-0.00039902863583,-0.0292379897015
1589275921661015992,14774,1589275921660895934,,0.0741494756131,-1.02295299064,0.764191350321,0.18626884116,-0.00103253026586,-0.0293733174929
1589275921663953868,14775,1589275921663877677,,0.0741659699258,-1.02295247104,0.764190445247,0.186268884937,-0.00102937357196,-0.029373150681
1589275921670121139,14776,1589275921669998142,,0.118852991247,-0.892908966552,0.785496416404,0.188907040497,-0.00103443512274,-0.0308208379536
1589275921672851725,14777,1589275921672751216,,0.118823173177,-0.892912719862,0.785496661027,0.188907207747,-0.0010396686298,-0.0308196367239
1589275921675830765,14778,1589275921675742257,,0.118817167393,-0.892913216661,0.785497004772,0.188907111379,-0.001041430624,-0.030820167909
1589275921678896909,14779,1589275921678777252,,0.118907888456,-1.02361575401,0.787922534066,0.189848333623,-0.00168952552084,-0.0316871065004
1589275921684847877,14780,1589275921684757484,,0.118897510029,-1.02362041752,0.787918041691,0.190790865308,-0.00169296747247,-0.032554202238
1589275921687849095,14781,1589275921687747191,,0.118893101133,-1.023622269,0.787916301633,0.190790792975,-0.00169402326638,-0.0325545712339
1589275921694116783,14782,1589275921694011838,,0.118792564567,-0.892925729278,0.785486502022,0.191724830588,-0.00105144974807,-0.0334320475583
1589275921697441735,14783,1589275921697352163,,0.118160101351,-1.02446910825,0.833449231405,0.195135184739,-0.00105970790159,-0.0351550096601
1589275921700023720,14784,1589275921699948046,,0.118163935371,-1.02447050458,0.833446971474,0.195135033467,-0.00105960176964,-0.0351558525163
1589275921703005972,14785,1589275921702924605,,0.0956017113858,-1.02435617838,0.832993388602,0.196032007117,-0.00171068766488,-0.0344104324959
1589275921709047426,14786,1589275921708896683,,0.0956002405392,-1.02435692848,0.832992634986,0.196032114686,-0.00171044404958,-0.0344098317907
1589275921712036493,14787,1589275921711937558,,0.11816812871,-1.15551807807,0.835622814895,0.196985322983,-0.00171383979959,-0.0360247161029
1589275921721189592,14788,1589275921721047002,,0.11816117253,-1.15550646097,0.835639862698,0.197927709066,-0.00171854449382,-0.0368956786765
1589275921724206979,14789,1589275921724000357,,0.118160825318,-1.15550205651,0.835646002154,0.197927625284,-0.00171912074236,-0.0368961012778
1589275921729957946,14790,1589275921729867635,,0.118137771492,-1.02445646744,0.833467934532,0.198822962472,-0.00107321988922,-0.036009593034
1589275921733006968,14791,1589275921732929915,,0.118142389578,-1.02446161505,0.833460952719,0.198821846731,-0.00171913186906,-0.0360088832387
1589275921736039462,14792,1589275921735870302,,0.140887354788,-1.15563322086,0.836081767447,0.197948575465,-0.00171438040556,-0.0376347302079
1589275921742020491,14793,1589275921741895037,,0.118188486288,-1.15551354356,0.83562620622,0.199730230482,-0.00171786420494,-0.0360007321752
1589275921744959951,14794,1589275921744867147,,0.118200548195,-1.15550571781,0.835635321585,0.19973038579,-0.00171551686141,-0.0359999824615
1589275921748004440,14795,1589275921747925539,,0.0956161809143,-1.0243375286,0.833014661521,0.199758775873,-0.00171468702226,-0.0370177766391
1589275921753843993,14796,1589275921753782813,,0.140920882448,-1.15561759881,0.836097709578,0.198891515792,-0.00171070474956,-0.0385044091235
1589275921756981810,14797,1589275921756862552,,0.118221101827,-1.15550485594,0.835633605801,0.198895357453,-0.00170871607218,-0.0386426122699
1589275921759892018,14798,1589275921759764954,,0.118228037426,-1.15550317828,0.835634944406,0.198870543809,-0.00170873081605,-0.0377655162943
1589275921766047067,14799,1589275921765873372,,0.118226480857,-1.15550935754,0.835626619989,0.198870634857,-0.00170837316739,-0.0377650530212
1589275921768947720,14800,1589275921768840062,,0.118232474525,-1.15551539835,0.835617418618,0.197009538838,-0.00170347622901,-0.036903902077
1589275921771964922,14801,1589275921771870284,,0.118236402229,-1.15551490455,0.835617545716,0.197009390349,-0.00170340226189,-0.0369046981788
1589275921780981707,14802,1589275921780860588,,0.118238987256,-1.15550821146,0.835626435257,0.195182934519,-0.00169880970009,-0.0369205080474
1589275921787059276,14803,1589275921786926259,,0.0959500801551,-1.28644688662,0.814375266915,0.194344635865,-0.00234688916337,-0.0344278726202
1589275921790117671,14804,1589275921790023200,,0.118596154196,-1.15510804127,0.812886392234,0.193459081146,-0.00105147288895,-0.0351715067659
1589275921793410652,14805,1589275921793345156,,0.118589757003,-1.15510567608,0.812890686443,0.193458984185,-0.00105302970901,-0.0351719935193
1589275921796307681,14806,1589275921796236672,,0.118588355709,-1.28653954682,0.814833159838,0.192542064788,-0.000414437944407,-0.0351797173704
1589275921801911229,14807,1589275921801823249,,0.11858565777,-1.28654705652,0.81482169531,0.192541776079,-0.000415544881734,-0.035181284406
1589275921804911607,14808,1589275921804839508,,0.118194808306,-1.28688292338,0.837605525948,0.191481510164,-0.00105218023052,-0.0351895531715
1589275921811131337,14809,1589275921810964533,,0.118930377395,-1.28620103055,0.792075416832,0.190864816894,-0.00105356513578,-0.0351951480271
1589275921814146833,14810,1589275921814030886,,0.118936867146,-1.28619642216,0.792081925605,0.190864756048,-0.00105300315849,-0.0351954948128
1589275921817194406,14811,1589275921817100681,,0.0962165023751,-1.41782303501,0.793376609431,0.189901530382,-0.0010505236585,-0.0335914657457
1589275921820022662,14812,1589275921819934775,,0.118903600557,-1.41791660793,0.79382205817,0.189003887155,-0.00104995380206,-0.0343338567495
1589275921825835142,14813,1589275921825768619,,0.118903961716,-1.4179243228,0.793808223699,0.189003989654,-0.00104925247498,-0.0343333139362
1589275921828809692,14814,1589275921828730853,,0.119242708032,-1.54959156884,0.772444664614,0.187323697955,-0.0016906147019,-0.0343479792738
1589275921834895255,14815,1589275921834811498,,0.119255170608,-1.54959736922,0.772431104449,0.187323843882,-0.0016884464814,-0.0343472900734
1589275921840915880,14816,1589275921840816520,,0.118890077487,-1.54986899275,0.795300790079,0.186267982876,-0.00168304874805,-0.0343569177199
1589275921846883109,14817,1589275921846762666,,0.0961545709053,-1.54978660751,0.794848009113,0.186271877089,-0.00168138442218,-0.0344981191054
1589275921849797531,14818,1589275921849702985,,0.118900325712,-1.54987932829,0.795279115906,0.187226442905,-0.00168260993621,-0.0361094496971
1589275921852813123,14819,1589275921852739357,,0.119282001633,-1.54961224633,0.772397115247,0.188281784293,-0.00168675743713,-0.0361021709443
1589275921859031725,14820,1589275921858915628,,0.118901049475,-1.54988498511,0.795267983315,0.187226215593,-0.00168287289419,-0.0361106160267
1589275921861931103,14821,1589275921861847422,,0.119292789861,-1.54961344487,0.77239304457,0.186481040047,-0.00168004384378,-0.0369917200023
1589275921864877743,14822,1589275921864793547,,0.0961527009055,-1.54979395775,0.794833903748,0.186347794804,-0.00167943686227,-0.0371326033753
1589275921870912310,14823,1589275921870816935,,0.118489858375,-1.55015803528,0.818057711554,0.188019252904,-0.00168556229664,-0.0369771553711
1589275921874049474,14824,1589275921873856807,,0.119273372943,-1.54961493756,0.772393048468,0.187424634501,-0.00168365876445,-0.0378591566867
1589275921876944221,14825,1589275921876723939,,0.119299484981,-1.54961061915,0.772397679592,0.187424767028,-0.00168035431314,-0.0378586474097
1589275921882812035,14826,1589275921882697485,,0.118506475693,-1.55015274116,0.818065336395,0.188962343158,-0.00168617668326,-0.037846990536
1589275921886167292,14827,1589275921886056168,,0.118493750495,-1.55015408336,0.818064636355,0.188987745179,-0.00168735668203,-0.0387233211086
1589275921888977936,14828,1589275921888887012,,0.142074962597,-1.68182689478,0.774156723199,0.190241210761,-0.00169035030641,-0.0403395685786
1589275921895224065,14829,1589275921895124051,,0.142066275104,-1.68182683426,0.774158448981,0.190241291185,-0.00169117712366,-0.0403391546453
1589275921897968834,14830,1589275921897881734,,0.142059840443,-1.68183519557,0.774141464947,0.189323801287,-0.00168859774409,-0.0403446875865
1589275921901007862,14831,1589275921900928351,,0.141596693687,-1.81427741908,0.798243830737,0.190119919455,-0.00169098768114,-0.0412159509287
1589275921906997464,14832,1589275921906824810,,0.141594477293,-1.81428353195,0.798230330186,0.19011991515,-0.00169091787435,-0.0412159736484
1589275921909841782,14833,1589275921909724428,,0.141597052197,-1.81428567772,0.79822499633,0.191064573122,-0.00104603880312,-0.0420872349587
1589275921912808623,14834,1589275921912731499,,0.141578199406,-1.81427925497,0.798242938453,0.191064695521,-0.00104816681659,-0.0420866263548
1589275921919108612,14835,1589275921919031091,,0.141192498862,-1.81450085824,0.821059649842,0.192737642078,-0.00169918171036,-0.0420766139817
1589275921922010257,14836,1589275921921894147,,0.141201345709,-1.81449854632,0.821063237688,0.192737726407,-0.00169816457891,-0.0420762687604
1589275921927934301,14837,1589275921927852916,,0.141203365718,-1.81449905566,0.821061764688,0.191855014434,-0.00234202215435,-0.0429599135896
1589275921931007225,14838,1589275921930917655,,0.141199014321,-1.81449974417,0.821060991444,0.191854849614,-0.00234279000046,-0.0429606077864
1589275921933998528,14839,1589275921933902417,,0.141202656008,-1.81450052406,0.821058641656,0.191881162752,-0.00234230786064,-0.0438483236217
1589275921936988321,14840,1589275921936902034,,0.140706978397,-1.94698334515,0.844990692052,0.1917569549,-0.0023418355673,-0.044726421067
1589275921943077917,14841,1589275921942972431,,0.163972852127,-1.94687726793,0.822564037745,0.193728031633,-0.00234647181752,-0.0445732359229
1589275921945969056,14842,1589275921945864949,,0.163977669846,-1.94688629363,0.822541714608,0.194689255988,-0.00169972233874,-0.0463236003701
1589275921952110311,14843,1589275921952018406,,0.163982362314,-1.94688181443,0.822551380936,0.194714870555,-0.00234678801012,-0.0472120564072
1589275921955006853,14844,1589275921954926756,,0.163974836505,-1.94688250757,0.822551240672,0.194715303688,-0.00234674611296,-0.0472102721001
1589275921961065456,14845,1589275921960962228,,0.186827798284,-1.94698471687,0.82297237028,0.197558741451,-0.0029914570644,-0.0505673315895
1589275921966922029,14846,1589275921966831136,,0.186815680873,-1.94697823436,0.822990457124,0.197558880806,-0.00299288705176,-0.0505667025322
1589275921970024514,14847,1589275921969836223,,0.16354690583,-1.94708614684,0.845398358075,0.199246793499,-0.00299900689774,-0.0507077714487
1589275921976005755,14848,1589275921975888941,,0.186361297774,-2.07951332852,0.846824651511,0.199296558661,-0.00299713850833,-0.0523255029083
1589275921978991894,14849,1589275921978885977,,0.186363780026,-2.07951065309,0.846830675137,0.200230498348,-0.00299941934982,-0.053200597181
1589275921981963405,14850,1589275921981886974,,0.186372095593,-2.07950634543,0.846839423084,0.201202758638,-0.00236206160519,-0.0549668800485
1589275921988090812,14851,1589275921987975713,,0.186358086812,-2.07950791093,0.846838661749,0.201202567604,-0.00236366886726,-0.0549675102207
1589275921991027659,14852,1589275921990886840,,0.186365776514,-2.07950767877,0.846837539591,0.20213683015,-0.00236468904147,-0.0558425683506
1589275921994350399,14853,1589275921994203315,,0.208582658565,-2.07998169303,0.893096643443,0.204666570012,-0.00236938917334,-0.0583460995929
1589275921999937070,14854,1589275921999840496,,0.208585912338,-2.07997928315,0.893101496008,0.204666669538,-0.00236905383548,-0.0583457640925
1589275922003007779,14855,1589275922002922940,,0.208981951179,-2.07979492764,0.870221285922,0.205778857569,-0.00237060114876,-0.0601037960795
1589275922008913658,14856,1589275922008835482,,0.231890726599,-2.07989939107,0.870643133017,0.206718476889,-0.00237111739779,-0.0608394303164
1589275922011939267,14857,1589275922011816312,,0.231897553381,-2.07989306266,0.870656432687,0.206717053027,-0.00301157405145,-0.0608408262637
1589275922014948923,14858,1589275922014856055,,0.23150227953,-2.08008162759,0.893526179364,0.207483140154,-0.00301371989017,-0.060836065384
1589275922024057755,14859,1589275922023911740,,0.208278909821,-1.94788342455,0.914961165793,0.209132424236,-0.00301676319409,-0.0600867759473
1589275922027036067,14860,1589275922026951907,,0.208679191841,-1.94766833037,0.892111325798,0.208395289256,-0.00237261420331,-0.0609722372726
1589275922032909466,14861,1589275922032834754,,0.20867191107,-1.94766963658,0.892110177114,0.208395203294,-0.00237348395518,-0.0609724972293
1589275922035980497,14862,1589275922035875126,,0.208276366992,-1.81569616665,0.913833547288,0.207364088831,-0.003662877527,-0.0618707922545
1589275922038983117,14863,1589275922038908681,,0.208275851191,-1.81569713671,0.91383173743,0.208253767281,-0.00301541241576,-0.0609727351171
1589275922041933464,14864,1589275922041866365,,0.208273765404,-1.94786967773,0.91499160218,0.208309182461,-0.00301442849323,-0.0627483573796
1589275922047946212,14865,1589275922047849448,,0.20827950343,-1.81568084144,0.913863281487,0.20736603864,-0.00301200553446,-0.0618674306865
1589275922050970988,14866,1589275922050840294,,0.208264195396,-1.81567454024,0.913879289411,0.207366451345,-0.00301352881841,-0.0618659731907
1589275922056925997,14867,1589275922056848240,,0.20828926207,-1.81567197682,0.913878669552,0.208282825069,-0.00301314562862,-0.0618611277897
1589275922059919725,14868,1589275922059852739,,0.208305892549,-1.81565922897,0.913900205789,0.209216303081,-0.00301521963082,-0.0627410562251
1589275922062977025,14869,1589275922062833483,,0.208707663699,-1.81543606666,0.891038435751,0.208450301848,-0.00301119190015,-0.0627458371374
1589275922068927404,14870,1589275922068824410,,0.208707512711,-1.81545765111,0.890994492791,0.208448694722,-0.00366078376116,-0.0627481383416
1589275922071970599,14871,1589275922071863410,,0.231949194474,-1.81535417099,0.868563747458,0.209556229228,-0.00366093681695,-0.0643681931865
1589275922074941904,14872,1589275922074865227,,0.231968638337,-1.81536186779,0.86854246767,0.209554813177,-0.00430909243219,-0.0643702608178
1589275922080924369,14873,1589275922080861827,,0.254978225407,-1.94769086941,0.870084182906,0.210494799586,-0.0036606102312,-0.0651117417403
1589275922084086438,14874,1589275922084011071,,0.231592816053,-2.0800749115,0.893518352468,0.209414874794,-0.0036602289335,-0.0643716661649
1589275922086902268,14875,1589275922086826098,,0.231200439089,-1.9479914733,0.91537793209,0.210152306583,-0.0036650330737,-0.0634861854499
1589275922089914596,14876,1589275922089831730,,0.231195458201,-1.94798912132,0.915384195278,0.210151996311,-0.00366626499187,-0.063487141375
1589275922096352594,14877,1589275922096193331,,0.208704325542,-1.9476676267,0.892106982523,0.208474286441,-0.00366310485823,-0.0636381665921
1589275922098901232,14878,1589275922098812498,,0.208669849253,-1.94766058123,0.89213042891,0.208473897515,-0.00366806878258,-0.0636391547543
1589275922105034754,14879,1589275922104862899,,0.231494582979,-2.08005093248,0.89359962647,0.20759204589,-0.00301942557365,-0.064384742912
1589275922107914202,14880,1589275922107848115,,0.23107710983,-2.08025095939,0.916457803021,0.208356615873,-0.0036737951613,-0.06438123987
1589275922111006344,14881,1589275922110896955,,0.231061092721,-2.08024905501,0.91646616413,0.208356854386,-0.00367525820884,-0.0643803844634
1589275922116884820,14882,1589275922116805898,,0.208171140733,-2.08013718089,0.916056200789,0.208333468394,-0.00367517194668,-0.0636391486802
1589275922119907721,14883,1589275922119823287,,0.254454699885,-2.08014866224,0.894065380944,0.208520704163,-0.00367645838666,-0.0651248332494
1589275922123020981,14884,1589275922122890208,,0.254441552116,-2.08014758573,0.894071627381,0.208521169389,-0.00367725728175,-0.0651232985343
1589275922128912837,14885,1589275922128822615,,0.231026286508,-2.08022658414,0.916525942371,0.209291345165,-0.00368279324155,-0.0652681257794
1589275922131852287,14886,1589275922131769029,,0.253661135093,-1.94827697724,0.938790400061,0.211959103954,-0.00368597822698,-0.0677663694736
1589275922134836132,14887,1589275922134769888,,0.253696158934,-1.94828118404,0.938772205392,0.211959864356,-0.00368042739042,-0.0677642927561
1589275922140901445,14888,1589275922140812053,,0.230714369803,-2.08042835423,0.939363745734,0.212851975169,-0.00368194225373,-0.0670156888353
1589275922143925650,14889,1589275922143825778,,0.253723547381,-1.94828546697,0.938755914731,0.213809064325,-0.00433255559231,-0.0686394812686
1589275922146893025,14890,1589275922146809463,,0.230372922666,-1.94839325576,0.961274589101,0.215526116673,-0.00433606567049,-0.0696654363154
1589275922152896873,14891,1589275922152789743,,0.253755756762,-1.94828641468,0.93874524183,0.214781189663,-0.0043313227632,-0.0704145123411
1589275922155903339,14892,1589275922155831230,,0.253727637788,-1.94829249297,0.938740227337,0.216659264477,-0.00433929071839,-0.0721855462375
1589275922158950592,14893,1589275922158877446,,0.253757088482,-1.94829589237,0.938725211434,0.216687296927,-0.00433559662245,-0.0730714926327
1589275922164977866,14894,1589275922164871157,,0.276669469558,-1.94841364418,0.939147302245,0.21671046572,-0.00433198887944,-0.0738165029147
1589275922168008173,14895,1589275922167936895,,0.276674632985,-1.94841487991,0.939143217362,0.21861645718,-0.00433669766994,-0.0764766428077
1589275922173859090,14896,1589275922173784615,,0.277056932024,-1.94820220849,0.916283392043,0.218738301299,-0.00433742592003,-0.0755799133924
1589275922177114601,14897,1589275922176974123,,0.276670779664,-1.94840801449,0.939158595907,0.220494464099,-0.00434218907585,-0.0782402804415
1589275922180091582,14898,1589275922179988198,,0.276690327981,-1.94840897133,0.939150851753,0.22049440193,-0.00433982038021,-0.0782405870654
1589275922182932435,14899,1589275922182866424,,0.299653084334,-1.94853720867,0.939579778085,0.219613630443,-0.00433735509665,-0.0789901420994
1589275922188932454,14900,1589275922188858654,,0.29965279315,-1.94853186597,0.939590950771,0.219613301347,-0.0043383190155,-0.078991004133
1589275922191962623,14901,1589275922191883754,,0.299266512717,-1.94875301281,0.962544205007,0.220381849029,-0.00433982665033,-0.0789869027353
1589275922200941561,14902,1589275922200887372,,0.276299305393,-2.0808557996,0.963157853459,0.219441490251,-0.00434117644105,-0.0782462027264
1589275922203830128,14903,1589275922203746799,,0.276283841521,-2.08085065815,0.963173397156,0.219441246806,-0.00434368631169,-0.0782467461753
1589275922206871541,14904,1589275922206800790,,0.276287725597,-2.08085141174,0.963170654934,0.218535003399,-0.00434178582901,-0.0782530441509
1589275922212913772,14905,1589275922212814370,,0.276299834904,-2.08085263131,0.963164546467,0.219440502549,-0.00434275170545,-0.0782488852705
1589275922215866523,14906,1589275922215749980,,0.276298735942,-2.08085007451,0.963170385495,0.217563420085,-0.00368689417556,-0.0764848793694
1589275922218851884,14907,1589275922218788931,,0.276304438921,-2.2131667434,0.964095785854,0.217505734015,-0.00368685113229,-0.0747053540751
1589275922224835664,14908,1589275922224780518,,0.276296229558,-2.21316726566,0.964096939691,0.217505824932,-0.0036875542318,-0.0747050546663
1589275922227810609,14909,1589275922227728950,,0.299710049255,-2.21308825361,0.941557848777,0.216790807169,-0.0030346966306,-0.0763406220403
1589275922233834706,14910,1589275922233759737,,0.253422142107,-2.08074820157,0.962713720617,0.216605117696,-0.00368123851687,-0.0748506103256
1589275922236838815,14911,1589275922236778549,,0.253479554448,-2.08073747598,0.962721787337,0.215632470533,-0.00367418247967,-0.0730852337322
1589275922239997177,14912,1589275922239947006,,0.253858835752,-2.21286357973,0.940691399507,0.214807356968,-0.00367231081457,-0.0713083194859
1589275922242861240,14913,1589275922242812532,,0.2538993106,-2.21285875258,0.940691831191,0.213920465728,-0.00366541714035,-0.0722065292552
1589275922248950771,14914,1589275922248868030,,0.276873340562,-2.08062632517,0.940196792399,0.212124517121,-0.00300335455195,-0.0729562641762
1589275922252041500,14915,1589275922251967741,,0.277254659981,-2.08045140359,0.917280980492,0.210424127108,-0.00364899726589,-0.0720687917659
1589275922261137901,14916,1589275922260987662,,0.277202006465,-1.9481997099,0.916244826019,0.208576500169,-0.00299189472599,-0.0711885506224
1589275922264249281,14917,1589275922264150100,,0.254361179496,-2.08035858761,0.916810689383,0.209457533987,-0.00364265557771,-0.0704415819531
1589275922270178031,14918,1589275922270074771,,0.254367713635,-2.08035947472,0.916806863544,0.209456793632,-0.00364292122195,-0.070443769619
1589275922272992556,14919,1589275922272926041,,0.231350560629,-2.08024901793,0.916393218523,0.209403536364,-0.00429618295787,-0.0688143796755
1589275922276060766,14920,1589275922275971529,,0.231326549174,-2.08024836084,0.916400771664,0.207611920247,-0.0036426815606,-0.0697047674282
1589275922282001981,14921,1589275922281929735,,0.231302337254,-2.08024293006,0.916419210932,0.207612061165,-0.00364546074934,-0.0697042024156
1589275922285070012,14922,1589275922284989046,,0.231244670938,-2.08025183835,0.916413542382,0.206668280752,-0.00364791364029,-0.0688226826014
1589275922288140865,14923,1589275922288039971,,0.231157228603,-2.08024320469,0.916455200471,0.206668250544,-0.00365780623054,-0.0688222482511
1589275922294268297,14924,1589275922294175546,,0.253742768044,-2.08054426994,0.939768297522,0.20745763345,-0.00366200969162,-0.0695637932263
1589275922297419268,14925,1589275922297324561,,0.25411950315,-2.21269769104,0.917809810815,0.204873144266,-0.00300339195186,-0.0695721210733
1589275922300099369,14926,1589275922300010882,,0.254094363846,-2.21268771382,0.917840823892,0.204873205088,-0.00300657005076,-0.0695718046957
1589275922306083783,14927,1589275922305968395,,0.231028955504,-2.21259153723,0.917407132613,0.205763091559,-0.00366345699212,-0.0688242041977
1589275922309059375,14928,1589275922308946165,,0.253692028566,-2.21288215968,0.940692692709,0.205636494863,-0.00365924768598,-0.0695713247652
1589275922312016266,14929,1589275922311953479,,0.276602243446,-2.21300717801,0.941081828047,0.205661856552,-0.00300913962651,-0.070312511248
1589275922321072876,14930,1589275922320980814,,0.254052139508,-2.21272751159,0.917756564939,0.205787793478,-0.00301140021387,-0.0695706072776
1589275922323994767,14931,1589275922323926535,,0.254010143477,-2.34513725112,0.918586346347,0.205759511287,-0.00301019533516,-0.0686750646962
1589275922330111441,14932,1589275922330029461,,0.23097929894,-2.34502621161,0.918187366198,0.20570512186,-0.00366105169513,-0.0670491335729
1589275922333033379,14933,1589275922332965089,,0.231057286721,-2.21261145373,0.917351961319,0.205791467422,-0.00365952063734,-0.0697092634173
1589275922335905138,14934,1589275922335827059,,0.231082641898,-2.21261392379,0.917339616909,0.205792133692,-0.00365596174395,-0.0697074832091
1589275922341929601,14935,1589275922341876303,,0.231111922516,-2.21260893899,0.917344263751,0.205792193804,-0.00365336951379,-0.0697074416521
1589275922345024927,14936,1589275922344931106,,0.253760025165,-2.21289055943,0.940654592128,0.207517064698,-0.00300504699031,-0.0713292375826
1589275922348076682,14937,1589275922347956932,,0.277041275348,-2.21282809017,0.918180999581,0.206805970031,-0.00300532200834,-0.0729675572772
1589275922353921155,14938,1589275922353871046,,0.253765847906,-2.21289530284,0.940641862331,0.207545115119,-0.00365442815241,-0.0722239245931
1589275922356904561,14939,1589275922356839126,,0.254201001464,-2.21271409712,0.917747687502,0.206779542899,-0.00364918994681,-0.0722287984554
1589275922363119423,14940,1589275922363017873,,0.253775906776,-2.21288005242,0.940675025085,0.208460298288,-0.00365733118234,-0.0722207099071
1589275922366059881,14941,1589275922365951814,,0.276738532906,-2.21297961775,0.941106568853,0.207569355041,-0.00365131820436,-0.0729666840197
1589275922369083220,14942,1589275922369000742,,0.299791132841,-2.21309829818,0.94150842467,0.20668986906,-0.00299464208013,-0.0737149481419
1589275922375079298,14943,1589275922374984818,,0.299793393062,-2.21310329848,0.941495951254,0.206690404168,-0.00299332079375,-0.0737135013964
1589275922381159772,14944,1589275922381071424,,0.276726210573,-2.21299649746,0.941070499333,0.207570541977,-0.00364970683454,-0.0729633880588
1589275922387027591,14945,1589275922386925371,,0.253389915936,-2.21307173551,0.963640566574,0.207408838035,-0.00365134842392,-0.0722222436003
1589275922390120984,14946,1589275922389937159,,0.2537844919,-2.21287953433,0.940673927725,0.206640332874,-0.00365053151611,-0.0722259194387
1589275922393549433,14947,1589275922393457537,,0.253346537147,-2.34543134811,0.964550050489,0.20737892191,-0.00365396603696,-0.0713302015906
1589275922399182198,14948,1589275922398992268,,0.276659147972,-2.34536970246,0.941970636738,0.207539677174,-0.00365786267165,-0.0720734300868
1589275922402139442,14949,1589275922402050813,,0.300075891009,-2.34531153984,0.919506093337,0.205924612269,-0.00300497748784,-0.0737184943834
1589275922405069075,14950,1589275922404978569,,0.300082133077,-2.34530253124,0.91952703348,0.206828345812,-0.0036583149218,-0.0737165808051
1589275922411046402,14951,1589275922410961157,,0.300003005248,-2.34528250638,0.919603924016,0.206828714277,-0.00366711718745,-0.0737151096256
1589275922414043551,14952,1589275922413919927,,0.276566988732,-2.34534283661,0.942064586617,0.207626860149,-0.00366881147882,-0.0747371667808
1589275922417119006,14953,1589275922417007307,,0.276637487948,-2.34533812569,0.942055615289,0.207626899251,-0.00366237049343,-0.0747373740589
1589275922423112587,14954,1589275922423025705,,0.253644258844,-2.34523287182,0.941651509096,0.20760288356,-0.00366654984039,-0.0739932545802
1589275922426024117,14955,1589275922425916866,,0.300056886643,-2.47771395059,0.920396691765,0.209622263251,-0.0036689860053,-0.0754752186433
1589275922428964007,14956,1589275922428866964,,0.300120574087,-2.47772743575,0.920339622926,0.209621975347,-0.00366229215094,-0.0754763433516
1589275922435163558,14957,1589275922435052208,,0.276667388402,-2.34534456397,0.94203080539,0.209485571856,-0.0043142964242,-0.0756152399642
1589275922438348711,14958,1589275922438275772,,0.276697682517,-2.34532846297,0.942061993245,0.209486210084,-0.00431189516793,-0.0756136087551
1589275922444123565,14959,1589275922444020538,,0.299741310098,-2.34544425373,0.942465315551,0.21044629462,-0.00366288939416,-0.0772512313155
1589275922447029842,14960,1589275922446932892,,0.276726436176,-2.34533193055,0.942044914472,0.21045003928,-0.00431117055675,-0.0773905033854
1589275922450011057,14961,1589275922449928952,,0.299800668735,-2.34541964126,0.942507685257,0.211419027654,-0.00431215863898,-0.0790191582086
1589275922453084943,14962,1589275922452985122,,0.300204880686,-2.3452465272,0.919629801172,0.210653313182,-0.00431131427976,-0.0790248212897
1589275922459067579,14963,1589275922458968753,,0.276737110065,-2.34530779213,0.942101872376,0.211421283156,-0.00431716178317,-0.0791642980121
1589275922462002775,14964,1589275922461871133,,0.299376582926,-2.21319646435,0.964697039635,0.213177076233,-0.0043244888508,-0.0816887189377
1589275922468149654,14965,1589275922468026971,,0.322270628028,-2.21332516249,0.965104061545,0.213202222451,-0.00432640010753,-0.0824315063495
1589275922471142457,14966,1589275922470930146,,0.321866565444,-2.21348899766,0.988043699278,0.213996113084,-0.00433142803943,-0.083315313385
1589275922474030770,14967,1589275922473932074,,0.299301684773,-2.21320953331,0.964690297267,0.213207527559,-0.00432994906678,-0.0825722703129
1589275922477000369,14968,1589275922476915908,,0.299281131956,-2.21322210916,0.964667821632,0.214120812001,-0.00497617952348,-0.0825705356003
1589275922483020144,14969,1589275922482892564,,0.299273475697,-2.21321808675,0.964679425371,0.214121328231,-0.00497669533978,-0.082569165819
1589275922485966119,14970,1589275922485883188,,0.322186252804,-2.2133259347,0.965130461393,0.215964430133,-0.00563636634791,-0.0833074705851
1589275922493180807,14971,1589275922493076150,,0.322143413426,-2.21333409369,0.965126050379,0.215964594522,-0.00564004135586,-0.083306795702
1589275922495171299,14972,1589275922495089724,,0.322090796339,-2.21333770816,0.965135322517,0.215995335804,-0.00499329291359,-0.0842022136884
1589275922498432031,14973,1589275922498337359,,0.298766298028,-2.34576839282,0.988456559588,0.214031851179,-0.0043431004561,-0.0843507054943
1589275922503987460,14974,1589275922503917149,,0.321272732437,-2.34605045726,1.01180618318,0.216611326013,-0.00435484874896,-0.0841974417097
1589275922506931927,14975,1589275922506851596,,0.321271944885,-2.3460701823,1.01176069605,0.216611109111,-0.00435355165221,-0.0841980668002
1589275922509996325,14976,1589275922509901634,,0.321276568317,-2.3460618016,1.0117786609,0.216610726121,-0.00499538989207,-0.0841969491924
1589275922516024919,14977,1589275922515887947,,0.321700556999,-2.21354400731,0.987974523826,0.216789666686,-0.00499266314402,-0.0850854160534
1589275922518960347,14978,1589275922518876604,,0.321742758194,-2.21354951901,0.98794843228,0.217704068327,-0.00564156485167,-0.0850811464361
1589275922522073243,14979,1589275922521996085,,0.298448444975,-2.21361401539,1.01042118,0.218504490032,-0.00498763375509,-0.0861054415341
1589275922528134428,14980,1589275922528034780,,0.298478359273,-2.21361099334,1.0104189644,0.218503864666,-0.00498546750925,-0.0861071539197
1589275922531252730,14981,1589275922531021718,,0.321818718481,-2.21355458733,0.987912335049,0.217794126102,-0.00563103959667,-0.0877504706978
1589275922534011596,14982,1589275922533919858,,0.32184625101,-2.21355658013,0.987898900541,0.219612821451,-0.00628503657115,-0.0877434282199
1589275922540065931,14983,1589275922539925704,,0.321877896773,-2.21355299536,0.987896622484,0.219612215021,-0.00628265837046,-0.0877451163518
1589275922543040882,14984,1589275922542946563,,0.344561350159,-2.21383581576,1.01125874619,0.221394682996,-0.00563227638516,-0.0911527022566
1589275922545997712,14985,1589275922545908395,,0.344574066569,-2.21383321777,1.01126010078,0.221395736122,-0.00562980447379,-0.0911502970581
1589275922552051493,14986,1589275922551978294,,0.344525839872,-2.08157074071,1.01029781784,0.222339486007,-0.00563092497462,-0.0920463709642
1589275922554924242,14987,1589275922554831506,,0.344570176865,-2.08156333481,1.01029795608,0.223302436238,-0.00628132054286,-0.0938208484553
1589275922563945845,14988,1589275922563837902,,0.344561371622,-2.08158021513,1.01026617919,0.224216341121,-0.00628387982757,-0.0938183503679
1589275922567068590,14989,1589275922566902967,,0.367541619619,-2.21396047099,1.01166675076,0.226088201962,-0.006293398626,-0.0954596586581
1589275922569959661,14990,1589275922569877632,,0.367130697194,-2.21415373542,1.03456424285,0.226852728782,-0.00629708600694,-0.0954557041043
1589275922576007809,14991,1589275922575891234,,0.367097286833,-2.21416062804,1.034561347,0.22685262273,-0.00630039786767,-0.0954557376042
1589275922579034007,14992,1589275922578944772,,0.367049760422,-2.21414555042,1.03461047761,0.227765579518,-0.00631159177018,-0.0954549189111
1589275922584994464,14993,1589275922584902852,,0.367054196701,-2.21415357523,1.03459172985,0.227764790997,-0.00696384630314,-0.0954554680172
1589275922587999515,14994,1589275922587916346,,0.366958282984,-2.21414521784,1.03464363833,0.22779548601,-0.00697389587641,-0.0963411418556
1589275922591068413,14995,1589275922590900791,,0.366516269782,-2.21432118321,1.05769475719,0.228562628089,-0.00698370233847,-0.0963382731636
1589275922594425002,14996,1589275922594361547,,0.343591353883,-2.21422282524,1.05720789676,0.229472213938,-0.00632950760729,-0.0964782799081
1589275922600143104,14997,1589275922600055106,,0.343583764776,-2.21420682779,1.05724386761,0.229472073429,-0.00633201014897,-0.0964784498944
1589275922603133211,14998,1589275922603059493,,0.389099848453,-2.34689165447,1.08200870618,0.229410488517,-0.00568470877767,-0.0988641331946
1589275922606165533,14999,1589275922606066769,,0.366214106891,-2.34680533996,1.08147915641,0.229386590644,-0.00632524460424,-0.0981143467628
1589275922612180004,15000,1589275922612104207,,0.366655527306,-2.34663828513,1.05852014017,0.230411384268,-0.00632269494245,-0.0972215479952
1589275922615025883,15001,1589275922614939147,,0.366664342179,-2.34663006468,1.0585353106,0.230411951443,-0.00632181104752,-0.0972202612815
1589275922624109473,15002,1589275922623995012,,0.366627989353,-2.21436647935,1.05756119934,0.230471083127,-0.00697017123601,-0.099008555339
1589275922626964205,15003,1589275922626906435,,0.366633161638,-2.21435351345,1.05758655439,0.230470362885,-0.00697167675098,-0.0990101258947
1589275922630081333,15004,1589275922629924836,,0.366673226196,-2.21435246437,1.05757486095,0.230498562864,-0.00696853260187,-0.0999033657652
1589275922636056882,15005,1589275922635965896,,0.366698685325,-2.21433469407,1.05760324064,0.230497678967,-0.00696834540538,-0.0999054181363
1589275922639039169,15006,1589275922638937844,,0.366303830596,-2.21452065422,1.08052703116,0.231261670347,-0.00697186858768,-0.0999024493893
1589275922645107089,15007,1589275922644963158,,0.36667482642,-2.21432586004,1.05763000856,0.232286899286,-0.00697738875496,-0.0990076818856
1589275922647953376,15008,1589275922647860690,,0.389165175795,-2.21461399206,1.08105232608,0.234037084962,-0.00699360235445,-0.10153150388
1589275922651206295,15009,1589275922650928398,,0.38873106714,-2.21479935709,1.10399676927,0.232983979117,-0.00699496395062,-0.101532436274
1589275922657164718,15010,1589275922657072017,,0.388790469484,-2.21482620531,1.10392198654,0.232984070295,-0.00698540981134,-0.10153288482
1589275922660059090,15011,1589275922659931688,,0.389149042924,-2.2146159171,1.08105419,0.234951662192,-0.00699762890567,-0.101526922543
1589275922663007340,15012,1589275922662941095,,0.366159491338,-2.21448057306,1.08065809014,0.23492773344,-0.00764735997956,-0.100776288464
1589275922669051518,15013,1589275922668917068,,0.366193028444,-2.21450807331,1.08059037035,0.234927899517,-0.0076406571674,-0.100776409725
1589275922672035023,15014,1589275922671964296,,0.389178018512,-2.21463615145,1.08100230628,0.234951676861,-0.00763607034313,-0.101526002577
1589275922675004018,15015,1589275922674923908,,0.389144805844,-2.21465424075,1.0809772031,0.234008040029,-0.00763577871563,-0.100639289351
1589275922681166339,15016,1589275922681076247,,0.365837956878,-2.34700924769,1.10434464563,0.235662611211,-0.00699623030739,-0.0998850409125
1589275922683942555,15017,1589275922683865581,,0.365799718621,-2.21474265801,1.10342241136,0.235689962088,-0.00764240212143,-0.100778181222
1589275922687000472,15018,1589275922686899077,,0.365769699355,-2.21473055501,1.10345665478,0.235690098918,-0.00764684669686,-0.100777524068
1589275922693022706,15019,1589275922692925853,,0.365847609478,-2.34697068223,1.10442340574,0.237564805357,-0.00765276790838,-0.102566973796
1589275922696090000,15020,1589275922696006975,,0.365833682127,-2.34693634839,1.10450097754,0.237564121702,-0.00765833590118,-0.10256814167
1589275922699125252,15021,1589275922699018062,,0.388815953298,-2.3470292578,1.10497998572,0.23853110554,-0.00766216507138,-0.104205039032
1589275922705084115,15022,1589275922704987496,,0.388794996179,-2.3470475536,1.10494849809,0.238531471275,-0.00701818393835,-0.104205570588
1589275922708010860,15023,1589275922707914622,,0.411830235076,-2.34717157324,1.10538997786,0.238555135752,-0.00766634848256,-0.104957169941
1589275922711438019,15024,1589275922711087369,,0.411085861465,-2.3475232762,1.15135285567,0.24196309439,-0.00767365630115,-0.106736854707
1589275922717143320,15025,1589275922717059144,,0.411084425637,-2.34751276367,1.15137480234,0.2419643015,-0.00767329572587,-0.106734144176
1589275922720100874,15026,1589275922719967215,,0.388419914904,-2.34721531387,1.1278950333,0.243875913841,-0.00833289335686,-0.105072395426
1589275922722994833,15027,1589275922722880498,,0.411492116804,-2.34730734157,1.1283888657,0.243929741878,-0.00767971784539,-0.106725709677
1589275922729112105,15028,1589275922728995201,,0.388493142112,-2.47951719498,1.12877534186,0.243905954726,-0.0083276272318,-0.105971996261
1589275922732132825,15029,1589275922731996356,,0.411588358764,-2.47964876026,1.1291684293,0.244920705329,-0.00832784640454,-0.109397299228
1589275922735082051,15030,1589275922734970850,,0.411166495566,-2.47980108557,1.15225296872,0.245689170052,-0.00833347867424,-0.109391146782
1589275922741080952,15031,1589275922740984315,,0.410785558299,-2.47998755387,1.17515717421,0.24824309114,-0.00833884282116,-0.108487728388
1589275922744150661,15032,1589275922744065459,,0.410804515152,-2.48000031068,1.17512362573,0.248242719991,-0.00833600214226,-0.10848879596
1589275922747206795,15033,1589275922747032393,,0.41082855674,-2.48000242443,1.17511075995,0.249186309704,-0.00833518884541,-0.109375952859
1589275922753098839,15034,1589275922753011079,,0.410820391012,-2.48000570143,1.1751066988,0.250175496377,-0.00899520533224,-0.11206152673
1589275922756034287,15035,1589275922755951965,,0.410861725731,-2.4800084242,1.17508650089,0.250174184401,-0.00899184596501,-0.112064725248
1589275922759075288,15036,1589275922758990838,,0.410853870843,-2.48001265869,1.17508031042,0.252002823261,-0.00899801226876,-0.112056119448
1589275922765102450,15037,1589275922765013289,,0.410470344606,-2.48017334206,1.19804878754,0.252794883142,-0.00900153447877,-0.112957328485
1589275922768094526,15038,1589275922767952168,,0.410847973113,-2.4800176089,1.17507192499,0.252964118916,-0.00964732951373,-0.113847857228
