%time,field.header.seq,field.header.stamp,field.header.frame_id,field.vector.x,field.vector.y,field.vector.z
1589275921021812007,14618,1589275921021592504,,0.500165728503,-0.201837283579,0.214233535208
1589275921027666614,14619,1589275921027531856,,0.500165466242,-0.201841526288,0.214226443702
1589275921030580703,14620,1589275921030469244,,0.50016683239,-0.201846476433,0.214223264695
1589275921036656210,14621,1589275921036546549,,0.500168047269,-0.201851416434,0.21421714819
1589275921039620050,14622,1589275921039504662,,0.500168725615,-0.20185692119,0.214211646316
1589275921042651884,14623,1589275921042526035,,0.500169152527,-0.201860411028,0.214207864138
1589275921048689324,14624,1589275921048523158,,0.500170600017,-0.201863687873,0.214203857591
1589275921051654874,14625,1589275921051545371,,0.500170678978,-0.20186908301,0.214198774603
1589275921054610440,14626,1589275921054493668,,0.500172516119,-0.201872235709,0.214195900104
1589275921060663327,14627,1589275921060553083,,0.500173492542,-0.20187598922,0.214191899044
1589275921063704444,14628,1589275921063570442,,0.50017439071,-0.201879319516,0.21418558577
1589275921066744533,14629,1589275921066534364,,0.500175636556,-0.20188356742,0.214182136522
1589275921072691867,14630,1589275921072526993,,0.500176675322,-0.201887053332,0.214176181782
1589275921075653129,14631,1589275921075545069,,0.50017769754,-0.201890796853,0.214172063443
1589275921078632184,14632,1589275921078499083,,0.500179663699,-0.201894869861,0.214169730319
1589275921084582645,14633,1589275921084501924,,0.5001804593,-0.201900216193,0.214165941159
1589275921087710117,14634,1589275921087532288,,0.500181235181,-0.201905146461,0.214160395955
1589275921090653393,14635,1589275921090552780,,0.500182140847,-0.201909960478,0.214154922577
1589275921096781367,14636,1589275921096571423,,0.500182887933,-0.201915360965,0.214149725747
1589275921099638072,14637,1589275921099552526,,0.500184320648,-0.201920114697,0.214145108777
1589275921102733614,14638,1589275921102586621,,0.500184680789,-0.20192648654,0.214139088487
1589275921108740896,14639,1589275921108610043,,0.500185685021,-0.201931823287,0.214132517767
1589275921111714879,14640,1589275921111571040,,0.500186687443,-0.201936523601,0.214127826619
1589275921114729798,14641,1589275921114568365,,0.50018698859,-0.201941481428,0.214122788737
1589275921120676244,14642,1589275921120574381,,0.500188377899,-0.201948156715,0.214118570478
1589275921123626385,14643,1589275921123521314,,0.500188950293,-0.201953546652,0.214112927371
1589275921126729152,14644,1589275921126576716,,0.500189788191,-0.201961399219,0.214107667232
1589275921132651979,14645,1589275921132536569,,0.500190923829,-0.201968274772,0.214103831027
1589275921135681361,14646,1589275921135533332,,0.500191824948,-0.201975833485,0.214098023598
1589275921138690313,14647,1589275921138536732,,0.500193337034,-0.201982136422,0.214094447329
1589275921144670767,14648,1589275921144534439,,0.500194196466,-0.201988657889,0.214090260023
1589275921147649240,14649,1589275921147537033,,0.500196191951,-0.201994064599,0.214088612052
1589275921150726803,14650,1589275921150560260,,0.500196661725,-0.201999609257,0.214081976574
1589275921156742157,14651,1589275921156554472,,0.500199697468,-0.202002611092,0.214079899269
1589275921159660181,14652,1589275921159539101,,0.500201866027,-0.202006011236,0.214076418975
1589275921162704400,14653,1589275921162565155,,0.500203049057,-0.202009967841,0.214070628781
1589275921168648910,14654,1589275921168518773,,0.500205326877,-0.202013946477,0.214065935859
1589275921171602874,14655,1589275921171514141,,0.500207760234,-0.202017720339,0.2140629559
1589275921177690191,14656,1589275921177569851,,0.500209921018,-0.202021124641,0.214059394399
1589275921180725790,14657,1589275921180569583,,0.50021184415,-0.202024509867,0.214054604193
1589275921183696226,14658,1589275921183602260,,0.50021350994,-0.202028446179,0.214050346269
1589275921189720643,14659,1589275921189576427,,0.50021591169,-0.202030519199,0.214044284017
1589275921192901511,14660,1589275921192766385,,0.500217599188,-0.202034239021,0.214038544062
1589275921195971495,14661,1589275921195871089,,0.500219836367,-0.202036912415,0.2140345683
1589275921201682249,14662,1589275921201548851,,0.500221918181,-0.202038967735,0.214031753801
1589275921204642375,14663,1589275921204529932,,0.500223693765,-0.202041835311,0.214028248331
1589275921207648945,14664,1589275921207530560,,0.500226176961,-0.202045683306,0.214025651146
1589275921213788486,14665,1589275921213587180,,0.500227468705,-0.202047190421,0.214019313268
1589275921216645546,14666,1589275921216544183,,0.500229895412,-0.202049105,0.214014908095
1589275921219623508,14667,1589275921219514634,,0.500232226073,-0.202051378065,0.214011527623
1589275921225704837,14668,1589275921225575277,,0.500235016833,-0.202052720831,0.214007200073
1589275921228661112,14669,1589275921228536232,,0.5002368124,-0.202054293707,0.214002863122
1589275921234630772,14670,1589275921234535221,,0.500238846868,-0.202056646342,0.213998288727
1589275921237729948,14671,1589275921237556335,,0.500240951586,-0.202058224415,0.213995776662
1589275921240821725,14672,1589275921240600269,,0.500242779369,-0.202060164549,0.213992861011
1589275921243672728,14673,1589275921243539098,,0.50024486132,-0.202061788437,0.213988596229
1589275921249756267,14674,1589275921249600610,,0.500246650415,-0.202063302125,0.213984767032
1589275921252764610,14675,1589275921252620470,,0.500248039113,-0.202064077515,0.213979417464
1589275921258719203,14676,1589275921258582106,,0.500250069318,-0.202065048953,0.213976084769
1589275921261750301,14677,1589275921261593086,,0.500251936549,-0.202067492946,0.213972610092
1589275921264666996,14678,1589275921264559592,,0.500253472694,-0.202069034865,0.213968731381
1589275921267730819,14679,1589275921267593884,,0.500255129886,-0.202069189325,0.213964845752
1589275921273758229,14680,1589275921273591814,,0.500256865548,-0.202071645461,0.213960706488
1589275921276733445,14681,1589275921276598574,,0.500257864132,-0.202071868104,0.213955327018
1589275921282762178,14682,1589275921282623253,,0.500259869689,-0.202072730004,0.213950797956
1589275921285763622,14683,1589275921285629859,,0.500261766595,-0.202074124965,0.213947200394
1589275921288676043,14684,1589275921288525110,,0.500263818791,-0.202075334216,0.213943887278
1589275921292053275,14685,1589275921291937269,,0.50026550471,-0.202074893389,0.213939660406
1589275921300856056,14686,1589275921300634002,,0.500268925165,-0.202076299646,0.213932099518
1589275921306671710,14687,1589275921306580153,,0.500270217201,-0.202076860239,0.213926126965
1589275921309730386,14688,1589275921309578225,,0.500271927646,-0.202078063038,0.213922427535
1589275921312804056,14689,1589275921312625442,,0.500273651759,-0.202076879093,0.213916894756
1589275921315656950,14690,1589275921315565954,,0.500275600561,-0.202077040701,0.213912157167
1589275921321811377,14691,1589275921321631030,,0.500276869212,-0.202077129771,0.213905505879
1589275921324716327,14692,1589275921324573053,,0.500278761389,-0.202077609115,0.213900951234
1589275921330716659,14693,1589275921330586340,,0.500279718099,-0.202076706821,0.213895743473
1589275921333700048,14694,1589275921333584570,,0.500281929888,-0.202076241768,0.213891199857
1589275921336742290,14695,1589275921336602787,,0.500283136787,-0.202075678939,0.213885765724
1589275921342755676,14696,1589275921342612204,,0.500283901923,-0.202075486603,0.213881114284
1589275921345752574,14697,1589275921345656324,,0.500285600282,-0.202073857537,0.213877797087
1589275921348740985,14698,1589275921348616326,,0.500287244606,-0.202073373652,0.213875595049
1589275921354816967,14699,1589275921354678831,,0.500288372834,-0.202071495518,0.213870729877
1589275921360664252,14700,1589275921360553828,,0.500290799898,-0.202067551302,0.213863016247
1589275921366671917,14701,1589275921366597275,,0.500291809666,-0.20206634714,0.213859816132
1589275921369676887,14702,1589275921369520978,,0.50029333463,-0.202063633983,0.213855848648
1589275921372760527,14703,1589275921372625578,,0.500295130159,-0.202058890453,0.213853035515
1589275921378721915,14704,1589275921378610096,,0.500297187016,-0.202054110959,0.213850516446
1589275921381695024,14705,1589275921381586976,,0.500299653234,-0.202047577419,0.213847936573
1589275921387634959,14706,1589275921387540068,,0.500302811387,-0.202040437272,0.213845058154
1589275921390676975,14707,1589275921390567048,,0.500306508222,-0.202031127685,0.213842535237
1589275921393841083,14708,1589275921393723135,,0.500309845531,-0.202020813933,0.213840240191
1589275921399699566,14709,1589275921399574639,,0.500312883716,-0.202012412071,0.213838163815
1589275921402658543,14710,1589275921402567613,,0.500315754947,-0.202003953389,0.213834961228
1589275921405768736,14711,1589275921405586764,,0.500318983549,-0.201994979034,0.213833332124
1589275921408664471,14712,1589275921408596432,,0.500321381657,-0.201987738355,0.213832001412
1589275921414736271,14713,1589275921414613722,,0.500323580749,-0.201978714138,0.213828495881
1589275921417774176,14714,1589275921417532473,,0.500326018,-0.201970566988,0.213827513496
1589275921423742172,14715,1589275921423571417,,0.500328305802,-0.201961471337,0.213824941456
1589275921426651734,14716,1589275921426536716,,0.500331890402,-0.201946407844,0.213821037128
1589275921429683594,14717,1589275921429542383,,0.500336546538,-0.201914493825,0.213815158473
1589275921435647930,14718,1589275921435554600,,0.500341235348,-0.201888588292,0.213809295218
1589275921438698567,14719,1589275921438581502,,0.500344410797,-0.201878110301,0.213806680189
1589275921441637054,14720,1589275921441538363,,0.500346769466,-0.201866297128,0.213803305022
1589275921447726191,14721,1589275921447587036,,0.500348167126,-0.20185484397,0.213798559108
1589275921450675823,14722,1589275921450562894,,0.500349466806,-0.201844153578,0.213794916569
1589275921453750296,14723,1589275921453606669,,0.500349832977,-0.201832368217,0.213788648716
1589275921459737348,14724,1589275921459598834,,0.500351579357,-0.201821158683,0.213783767734
1589275921462764498,14725,1589275921462640716,,0.5003514092,-0.20180821951,0.213774152468
1589275921465674928,14726,1589275921465590812,,0.500350903899,-0.201793507099,0.213765322653
1589275921471651588,14727,1589275921471541377,,0.500350082432,-0.20177997545,0.213755867155
1589275921474634035,14728,1589275921474540664,,0.500346782281,-0.201768489887,0.213744483107
1589275921477649269,14729,1589275921477525888,,0.500345353592,-0.201755741897,0.213734737723
1589275921483796793,14730,1589275921483568734,,0.500343728501,-0.201747187392,0.213725133794
1589275921486635674,14731,1589275921486540404,,0.500343042369,-0.201735159393,0.213715631694
1589275921491060605,14732,1589275921490999604,,0.500343395338,-0.201722446727,0.213706489755
1589275921496079092,14733,1589275921495965071,,0.500342055865,-0.201714212411,0.213696391699
1589275921498654508,14734,1589275921498558503,,0.500341036406,-0.201700753316,0.213687164281
1589275921501699748,14735,1589275921501617069,,0.500340809154,-0.201686910784,0.213678026057
1589275921507768204,14736,1589275921507622008,,0.500339898318,-0.201672442587,0.213668908007
1589275921510650523,14737,1589275921510563106,,0.500339328303,-0.201655994016,0.213660314016
1589275921513662839,14738,1589275921513578098,,0.500340980859,-0.201636059116,0.213653311978
1589275921519597965,14739,1589275921519534325,,0.500341716199,-0.201616934337,0.213644119797
1589275921522763326,14740,1589275921522650294,,0.500343774196,-0.201594542394,0.213637178618
1589275921525691016,14741,1589275921525626535,,0.500345691276,-0.201576833079,0.213630623165
1589275921531751882,14742,1589275921531667114,,0.500347300335,-0.201557720879,0.213624304058
1589275921534754368,14743,1589275921534632435,,0.500348240124,-0.201538626107,0.213617799396
1589275921537610698,14744,1589275921537550783,,0.500348677026,-0.201519261421,0.213611135852
1589275921543607953,14745,1589275921543550257,,0.500348597609,-0.201500035151,0.213604694795
1589275921546658426,14746,1589275921546585004,,0.500348982619,-0.201481640238,0.213599758607
1589275921549663566,14747,1589275921549563088,,0.500348907386,-0.201465241062,0.213594487928
1589275921555731801,14748,1589275921555620508,,0.500349508046,-0.201445780538,0.213588823068
1589275921558694122,14749,1589275921558630016,,0.500349602479,-0.201427990673,0.213583075833
1589275921561809463,14750,1589275921561687547,,0.500350165571,-0.201409864967,0.213578660424
1589275921567672760,14751,1589275921567601671,,0.500350618012,-0.201391186106,0.213574482783
1589275921570793236,14752,1589275921570607700,,0.500351592096,-0.201373159436,0.213570840088
1589275921576717573,14753,1589275921576593301,,0.500353124555,-0.20135419504,0.21356668546
1589275921579753320,14754,1589275921579635978,,0.500353921349,-0.201337340147,0.213562218467
1589275921582759476,14755,1589275921582670400,,0.500354129337,-0.201322015976,0.213557037193
1589275921588736660,14756,1589275921588621595,,0.50035506781,-0.201305508946,0.213553470305
1589275921591769417,14757,1589275921591659600,,0.500354917998,-0.20129006799,0.213548822975
1589275921594933448,14758,1589275921594776140,,0.500354503095,-0.201276364211,0.213544327813
1589275921600860049,14759,1589275921600691801,,0.500355977611,-0.201261984115,0.213540783181
1589275921603692982,14760,1589275921603612892,,0.500357652878,-0.201245027744,0.213537533418
1589275921606701439,14761,1589275921606599493,,0.500357765227,-0.201229492911,0.213532374949
1589275921612753171,14762,1589275921612655715,,0.500360144213,-0.201213358541,0.21352820315
1589275921615698309,14763,1589275921615617315,,0.50035897948,-0.201199354289,0.213522769091
1589275921618741411,14764,1589275921618642570,,0.500359064996,-0.201184715116,0.213518400535
1589275921624656409,14765,1589275921624571193,,0.500359080039,-0.201166961683,0.213512668444
1589275921627651275,14766,1589275921627531452,,0.500360413901,-0.201145911729,0.21350950017
1589275921630756120,14767,1589275921630646908,,0.500361954273,-0.201123682329,0.213504025673
1589275921636775070,14768,1589275921636609194,,0.500364891939,-0.201101871448,0.213500502547
1589275921639712457,14769,1589275921639621449,,0.500366052209,-0.2010839864,0.213494223263
1589275921645771541,14770,1589275921645634321,,0.500367121143,-0.201068860766,0.213490350767
1589275921648763130,14771,1589275921648621330,,0.500368186413,-0.201053186189,0.213486591362
1589275921651778844,14772,1589275921651682725,,0.500369135305,-0.201036582398,0.213482380355
1589275921654706804,14773,1589275921654603139,,0.500369745793,-0.201017183727,0.213477084152
1589275921660750558,14774,1589275921660649155,,0.50037123967,-0.200996122706,0.213473075597
1589275921663795976,14775,1589275921663654237,,0.500372516153,-0.200971191266,0.213467280918
1589275921669879599,14776,1589275921669673678,,0.500374693218,-0.200948457453,0.213463320274
1589275921672722009,14777,1589275921672598629,,0.500376138101,-0.200933117343,0.213459299876
1589275921675694889,14778,1589275921675563173,,0.500377124074,-0.200916074023,0.213453953476
1589275921678739944,14779,1589275921678605729,,0.500378371049,-0.200898059496,0.213448403156
1589275921684687844,14780,1589275921684567651,,0.500378568831,-0.200882049738,0.213443682965
1589275921687702104,14781,1589275921687594421,,0.500378484101,-0.200865397578,0.213437392766
1589275921693960515,14782,1589275921693844032,,0.500379294213,-0.200848025728,0.213431765643
1589275921697118301,14783,1589275921697000627,,0.50037963416,-0.200830205774,0.213427760619
1589275921699846527,14784,1589275921699703496,,0.500380378611,-0.200811267916,0.21342192792
1589275921702869644,14785,1589275921702701117,,0.500380796665,-0.200795012204,0.21341805781
1589275921708778821,14786,1589275921708669116,,0.50038189357,-0.200774429811,0.21341377916
1589275921711802891,14787,1589275921711657826,,0.500382761614,-0.20075585835,0.21340825005
1589275921720873120,14788,1589275921720744013,,0.500383967778,-0.200716362845,0.213395697369
1589275921723831007,14789,1589275921723704168,,0.500384289316,-0.200696830876,0.21339022405
1589275921729832107,14790,1589275921729644661,,0.500385325031,-0.200672772986,0.213384041793
1589275921732817358,14791,1589275921732680099,,0.500386608624,-0.200647791882,0.213379134362
1589275921735779562,14792,1589275921735651395,,0.500387797843,-0.200621724368,0.213373400823
1589275921741768144,14793,1589275921741673869,,0.500388473103,-0.200596991719,0.213367765798
1589275921744725775,14794,1589275921744644363,,0.500389884071,-0.200571512041,0.213363106738
1589275921747800848,14795,1589275921747697533,,0.500390694329,-0.200551726112,0.213360292768
1589275921753724163,14796,1589275921753645221,,0.500390737146,-0.200529514153,0.213353693757
1589275921756861608,14797,1589275921756725766,,0.500391628687,-0.200504812646,0.213347497974
1589275921759736644,14798,1589275921759625829,,0.500392007281,-0.20048288364,0.213340496072
1589275921765778811,14799,1589275921765665394,,0.500393951677,-0.200458891837,0.213335784635
1589275921768765038,14800,1589275921768644180,,0.500393685121,-0.200438866427,0.213330171875
1589275921771781353,14801,1589275921771637306,,0.500394754477,-0.200418882935,0.213324433894
1589275921780788674,14802,1589275921780636050,,0.500395008677,-0.200378261473,0.213314483861
1589275921786814490,14803,1589275921786680422,,0.500395953348,-0.20035842823,0.213310102694
1589275921789866383,14804,1589275921789719307,,0.500395854872,-0.20034067847,0.213304527805
1589275921793127261,14805,1589275921793047087,,0.500395884454,-0.20032046779,0.213299856427
1589275921796102384,14806,1589275921795969699,,0.500396011869,-0.200300232324,0.213294685806
1589275921801765006,14807,1589275921801635516,,0.500395920152,-0.200279047078,0.213287348406
1589275921804710945,14808,1589275921804637279,,0.50039671547,-0.200259599574,0.213283911125
1589275921810799700,14809,1589275921810690353,,0.500396654363,-0.200240956165,0.213277233684
1589275921813850470,14810,1589275921813746251,,0.500397380072,-0.200216099716,0.213271510916
1589275921816898076,14811,1589275921816783819,,0.5003984089,-0.200188726622,0.213265194847
1589275921819793858,14812,1589275921819673874,,0.500399262513,-0.200171439494,0.213262791708
1589275921825788063,14813,1589275921825646225,,0.500399423683,-0.200146018461,0.213256460926
1589275921828753774,14814,1589275921828615904,,0.500400042417,-0.200119141427,0.213249940425
1589275921834771622,14815,1589275921834620471,,0.500401361242,-0.200090343988,0.213244580815
1589275921840728688,14816,1589275921840639100,,0.500401956278,-0.200040038343,0.213232252232
1589275921846763562,14817,1589275921846610549,,0.500403247731,-0.20001222973,0.213224218567
1589275921849696219,14818,1589275921849590469,,0.500404604907,-0.199985400281,0.213219273417
1589275921852690596,14819,1589275921852610245,,0.500405670691,-0.199960961577,0.213212178754
1589275921858832167,14820,1589275921858715057,,0.500406617241,-0.199932125485,0.213204944384
1589275921861820687,14821,1589275921861675281,,0.500408389715,-0.199905175189,0.213198732797
1589275921864755681,14822,1589275921864632090,,0.500408312597,-0.199882365273,0.213191704399
1589275921870735810,14823,1589275921870633423,,0.50040953251,-0.199862278302,0.213188371468
1589275921873797885,14824,1589275921873682184,,0.500409670091,-0.199837422183,0.213179045957
1589275921876718733,14825,1589275921876607692,,0.500410708738,-0.199808848072,0.213172396412
1589275921882709268,14826,1589275921882587705,,0.500411239695,-0.199789225445,0.213166148354
1589275921885867133,14827,1589275921885712647,,0.50041231383,-0.199767464767,0.213159452859
1589275921888808602,14828,1589275921888654202,,0.500411878038,-0.199744247982,0.213151093705
1589275921895015408,14829,1589275921894843368,,0.500412423044,-0.199722758271,0.213145534556
1589275921897726569,14830,1589275921897652020,,0.500413261322,-0.199698696386,0.213138545838
1589275921900789385,14831,1589275921900700761,,0.500413397727,-0.199678130342,0.213131478387
1589275921906759056,14832,1589275921906649243,,0.500413522995,-0.19965574176,0.213123661956
1589275921909769227,14833,1589275921909610704,,0.500413287435,-0.199632779426,0.213113279178
1589275921912741328,14834,1589275921912623286,,0.50041382529,-0.199611116803,0.213106216597
1589275921918912631,14835,1589275921918718206,,0.500414675061,-0.199586453837,0.213097213774
1589275921921808106,14836,1589275921921676451,,0.500415159028,-0.199560786232,0.213088340609
1589275921927823768,14837,1589275921927634276,,0.500416628923,-0.199533624281,0.213080302734
1589275921930841016,14838,1589275921930713226,,0.500417452808,-0.199507370923,0.213070562623
1589275921933766571,14839,1589275921933667949,,0.500419215838,-0.199479581857,0.213061193494
1589275921936840577,14840,1589275921936701310,,0.500420463881,-0.199452511768,0.213053207074
1589275921942886182,14841,1589275921942721163,,0.500421917357,-0.199424446391,0.213043915724
1589275921945742829,14842,1589275921945645641,,0.500422893872,-0.199397160008,0.213034944184
1589275921951876327,14843,1589275921951705641,,0.500423054595,-0.199372508317,0.213026495225
1589275921954803613,14844,1589275921954707824,,0.500423834559,-0.199346345134,0.213019032899
1589275921960858435,14845,1589275921960698824,,0.50042574443,-0.199293030342,0.213003578713
1589275921966795355,14846,1589275921966641878,,0.500426565434,-0.199268128663,0.212995120389
1589275921969798748,14847,1589275921969645285,,0.500427560851,-0.199243021349,0.212984680169
1589275921975848742,14848,1589275921975686914,,0.500428696332,-0.199216806694,0.212977030851
1589275921978842018,14849,1589275921978691883,,0.500430626216,-0.199191854654,0.212968539534
1589275921981785873,14850,1589275921981665345,,0.500432162173,-0.199165786971,0.212959630547
1589275921987866125,14851,1589275921987735592,,0.500433668483,-0.199144150631,0.212950900483
1589275921990823867,14852,1589275921990695109,,0.500435893516,-0.199116437233,0.212942368157
1589275921994081616,14853,1589275921993962034,,0.500436762647,-0.199089364271,0.212932336052
1589275921999756119,14854,1589275921999631574,,0.500438530672,-0.19906384642,0.212923893079
1589275922002813555,14855,1589275922002690950,,0.500439168031,-0.199037343458,0.212913655767
1589275922008774125,14856,1589275922008656324,,0.500440865479,-0.199008326329,0.212904347386
1589275922011763923,14857,1589275922011640941,,0.500442588408,-0.198983121653,0.212895994882
1589275922014814537,14858,1589275922014666209,,0.500444142983,-0.198958362122,0.212888244889
1589275922023883733,14859,1589275922023684501,,0.500447400946,-0.198909094635,0.212871653729
1589275922026794808,14860,1589275922026699481,,0.500449811592,-0.198884227923,0.212864640064
1589275922032748241,14861,1589275922032654965,,0.500451863122,-0.198859057633,0.21285650316
1589275922035821188,14862,1589275922035695876,,0.500453517199,-0.198833703808,0.212846889539
1589275922038806761,14863,1589275922038712333,,0.500455353632,-0.198805555788,0.212839097271
1589275922041775105,14864,1589275922041682748,,0.500456859552,-0.198778675044,0.212830453387
1589275922047799958,14865,1589275922047672887,,0.500459020358,-0.198754995801,0.212826257765
1589275922050752580,14866,1589275922050680464,,0.50046023048,-0.198733390817,0.212819755009
1589275922056833587,14867,1589275922056685400,,0.500462628318,-0.198703056024,0.21281012642
1589275922059770686,14868,1589275922059666104,,0.500465266548,-0.198674525646,0.212799505148
1589275922062756631,14869,1589275922062652528,,0.500468325276,-0.198646724541,0.212791352289
1589275922068761546,14870,1589275922068661892,,0.500470376404,-0.198617068549,0.21278003745
1589275922071743335,14871,1589275922071676853,,0.500473675512,-0.198585584611,0.212771000886
1589275922074839368,14872,1589275922074706641,,0.500476171869,-0.198556086712,0.212761751847
1589275922080830513,14873,1589275922080701002,,0.500476775377,-0.198529791644,0.212752379442
1589275922083872422,14874,1589275922083709803,,0.500478671173,-0.198506302354,0.212745503844
1589275922086738135,14875,1589275922086661936,,0.50047989111,-0.19848129555,0.212736689572
1589275922089809111,14876,1589275922089668158,,0.500481103609,-0.198451384102,0.212727936259
1589275922096137497,14877,1589275922096019825,,0.500483598902,-0.198420357997,0.212721367787
1589275922098772871,14878,1589275922098663740,,0.500484666184,-0.198390972694,0.212712049372
1589275922104795400,14879,1589275922104690826,,0.500486147291,-0.198361022242,0.212704814853
1589275922107780651,14880,1589275922107697219,,0.500488595659,-0.198327970544,0.212697526253
1589275922110781131,14881,1589275922110714762,,0.500491307676,-0.198293429024,0.212690063885
1589275922116762949,14882,1589275922116624685,,0.500494708876,-0.198255628145,0.212681334351
1589275922119725161,14883,1589275922119635225,,0.500496559132,-0.198217438036,0.21267097517
1589275922122800057,14884,1589275922122677611,,0.500499084288,-0.198178556354,0.212663987888
1589275922128810419,14885,1589275922128661595,,0.500502167237,-0.198139098961,0.212654214111
1589275922131704067,14886,1589275922131622798,,0.500505429401,-0.198094076303,0.212645441567
1589275922134768219,14887,1589275922134640979,,0.500508131449,-0.198049011035,0.212636024788
1589275922140810129,14888,1589275922140680974,,0.500510856242,-0.198007850745,0.2126246817
1589275922143800895,14889,1589275922143679154,,0.500515244955,-0.197962986509,0.212615268347
1589275922146737635,14890,1589275922146661412,,0.500518062458,-0.197916983411,0.212602962759
1589275922152733872,14891,1589275922152648672,,0.500521630201,-0.197870798,0.212593239536
1589275922155789331,14892,1589275922155659383,,0.500525341429,-0.1978337474,0.212583665224
1589275922158803410,14893,1589275922158716936,,0.500528685782,-0.197788246553,0.212571939292
1589275922164801264,14894,1589275922164694219,,0.500531174241,-0.197742698333,0.212558520877
1589275922167809695,14895,1589275922167720766,,0.500534028166,-0.197699667579,0.212546012373
1589275922173780360,14896,1589275922173654016,,0.500536013184,-0.197661348386,0.21253616475
1589275922176882309,14897,1589275922176744173,,0.500538287724,-0.197622903203,0.212528100414
1589275922179903291,14898,1589275922179745458,,0.500540857571,-0.197578731965,0.212517019637
1589275922182828576,14899,1589275922182735957,,0.500541617101,-0.197539246183,0.212508063644
1589275922188823274,14900,1589275922188699205,,0.500543152032,-0.197500473311,0.212497714309
1589275922191806795,14901,1589275922191717395,,0.500546220971,-0.197460380014,0.21248925221
1589275922200833653,14902,1589275922200737974,,0.500550165487,-0.197381557715,0.212466395579
1589275922203745503,14903,1589275922203622078,,0.500551347256,-0.19734254311,0.212455881538
1589275922206788957,14904,1589275922206677607,,0.500554810012,-0.197295498601,0.212443294881
1589275922212788651,14905,1589275922212677856,,0.500556633869,-0.197251211257,0.212433731247
1589275922215748566,14906,1589275922215629188,,0.500559062498,-0.197207639192,0.212422255173
1589275922218742627,14907,1589275922218662598,,0.500561077678,-0.197160870136,0.212409479064
1589275922224728029,14908,1589275922224658466,,0.500564437776,-0.197115948714,0.212398758897
1589275922227711944,14909,1589275922227609211,,0.500566834329,-0.197076046818,0.212389414543
1589275922233718951,14910,1589275922233632520,,0.500571611663,-0.197023587282,0.212380550029
1589275922236708137,14911,1589275922236655633,,0.500576816646,-0.196968432246,0.212368339633
1589275922239971050,14912,1589275922239784856,,0.500579003069,-0.19692677517,0.212359980483
1589275922242748673,14913,1589275922242692722,,0.500581810586,-0.196877593928,0.21235005871
1589275922248809093,14914,1589275922248709184,,0.500585773403,-0.196822384907,0.21233913119
1589275922251809817,14915,1589275922251724345,,0.500590415523,-0.196771185689,0.212330794685
1589275922260818063,14916,1589275922260719466,,0.500596574594,-0.19668368776,0.212315155642
1589275922263950059,14917,1589275922263823059,,0.500600305796,-0.196637829581,0.21230640294
1589275922270003551,14918,1589275922269830557,,0.500602834597,-0.196593818681,0.212294332013
1589275922272817934,14919,1589275922272714705,,0.500606807661,-0.196550004195,0.212284642581
1589275922275854262,14920,1589275922275742148,,0.500609215664,-0.196508739,0.21227529389
1589275922281819544,14921,1589275922281699159,,0.500610608166,-0.196467916287,0.212266643381
1589275922284829154,14922,1589275922284719007,,0.500614104398,-0.196425678113,0.212258344705
1589275922287862138,14923,1589275922287756565,,0.500615936087,-0.196394619507,0.21224852192
1589275922294034696,14924,1589275922293933369,,0.500618570978,-0.196350203858,0.212238039498
1589275922297204690,14925,1589275922297075244,,0.500621820546,-0.196301876305,0.21222732312
1589275922299862098,14926,1589275922299760735,,0.50062251854,-0.196265192973,0.21221818737
1589275922305860168,14927,1589275922305729058,,0.500624654296,-0.196225522628,0.212208109873
1589275922308843858,14928,1589275922308740463,,0.500625646727,-0.196174165567,0.212193605495
1589275922311806325,14929,1589275922311747922,,0.500629348617,-0.19612436296,0.212184231702
1589275922320799199,14930,1589275922320705816,,0.50063173721,-0.196034364147,0.212161615068
1589275922323876267,14931,1589275922323712175,,0.500635655757,-0.195981690073,0.212153154711
1589275922329843993,14932,1589275922329764055,,0.500637120188,-0.195934141902,0.212139427748
1589275922332822357,14933,1589275922332743775,,0.500639639893,-0.195878847774,0.212127112731
1589275922335734011,14934,1589275922335684743,,0.50064259432,-0.195821077555,0.212114981311
1589275922341912375,14935,1589275922341732719,,0.500646579339,-0.195763283261,0.212103482601
1589275922344776913,14936,1589275922344713908,,0.50064881011,-0.195710626728,0.212092339187
1589275922347843562,14937,1589275922347736245,,0.500651806358,-0.195666472522,0.212083133405
1589275922353803951,14938,1589275922353736693,,0.500656246424,-0.1956069522,0.212069097467
1589275922356782581,14939,1589275922356666069,,0.500658058107,-0.195548307182,0.212054738706
1589275922362874212,14940,1589275922362763207,,0.500660542857,-0.1955026657,0.212044551054
1589275922365873341,14941,1589275922365715974,,0.500663504358,-0.195448379591,0.212032916908
1589275922368868940,14942,1589275922368750782,,0.500664577895,-0.195394602221,0.212020428202
1589275922374865818,14943,1589275922374742841,,0.500666486226,-0.195342602826,0.212009478702
1589275922380891912,14944,1589275922380748383,,0.5006695895,-0.195247703478,0.211986031829
1589275922386837223,14945,1589275922386735034,,0.500670086766,-0.195202668763,0.211972465622
1589275922389858231,14946,1589275922389747980,,0.500672956901,-0.195154883713,0.211959881328
1589275922393336286,14947,1589275922393195198,,0.500675340591,-0.195105895661,0.211946606505
1589275922398827183,14948,1589275922398726232,,0.500676463492,-0.195059216243,0.211932469534
1589275922401997140,14949,1589275922401806183,,0.500680024576,-0.195005765966,0.211920362533
1589275922404845360,14950,1589275922404758535,,0.500680231075,-0.194952513979,0.211906234073
1589275922410856844,14951,1589275922410737685,,0.500682746919,-0.19491271983,0.211897092249
1589275922413888144,14952,1589275922413756417,,0.500685223818,-0.194857469798,0.211883611796
1589275922416868255,14953,1589275922416774876,,0.50068752493,-0.19479251851,0.211867073646
1589275922422893490,14954,1589275922422794414,,0.500692235721,-0.194746192452,0.211859727166
1589275922425853476,14955,1589275922425713224,,0.500695145688,-0.194684615152,0.211844823139
1589275922428807962,14956,1589275922428688263,,0.500697679281,-0.194620580312,0.21182939342
1589275922434904189,14957,1589275922434760310,,0.500702146628,-0.194562792163,0.21181785587
1589275922438212007,14958,1589275922438049611,,0.500704237095,-0.194505098645,0.211806857671
1589275922443951103,14959,1589275922443769445,,0.50070682069,-0.19444925818,0.211793252115
1589275922446855208,14960,1589275922446751375,,0.500711188018,-0.194388748216,0.211782768764
1589275922449881850,14961,1589275922449738360,,0.500714364544,-0.194331718196,0.211769498823
1589275922452922049,14962,1589275922452757425,,0.500717605224,-0.194275052787,0.211754605669
1589275922458876516,14963,1589275922458768026,,0.500720220343,-0.194219178491,0.211738886468
1589275922461814652,14964,1589275922461721067,,0.500722409727,-0.194162934382,0.211723158251
1589275922467891894,14965,1589275922467781641,,0.500725784543,-0.194105811723,0.211711325173
1589275922470847114,14966,1589275922470741155,,0.500727266219,-0.194052900901,0.211697891551
1589275922473863330,14967,1589275922473743636,,0.500729868762,-0.193996732394,0.211685856168
1589275922476831104,14968,1589275922476720194,,0.500731088616,-0.193940752037,0.211668862875
1589275922482820920,14969,1589275922482703559,,0.500733911055,-0.193884952679,0.211656192922
1589275922485840865,14970,1589275922485725261,,0.500736656015,-0.193828113576,0.211642075821
1589275922492967953,14971,1589275922492848516,,0.500740044624,-0.193771794182,0.211628413665
1589275922495049546,14972,1589275922494921740,,0.500742273927,-0.193717545633,0.211615063983
1589275922498189009,14973,1589275922498113014,,0.500745439327,-0.193653484886,0.211600711019
1589275922503842411,14974,1589275922503743037,,0.500748160269,-0.193595453483,0.211588277805
1589275922506772066,14975,1589275922506692319,,0.500750323334,-0.193534310322,0.211574064654
1589275922509864414,14976,1589275922509717520,,0.500755113743,-0.193469591987,0.211562464768
1589275922515876993,14977,1589275922515723693,,0.500757343761,-0.19340329531,0.211546229264
1589275922518855531,14978,1589275922518736621,,0.500760321514,-0.193333548193,0.211534073848
1589275922521883328,14979,1589275922521779483,,0.50076547552,-0.193261516113,0.211522593456
1589275922527900935,14980,1589275922527794305,,0.50076842713,-0.193192116513,0.211506482439
1589275922530923603,14981,1589275922530785416,,0.500772711591,-0.193119575764,0.211493397198
1589275922533832280,14982,1589275922533717543,,0.50077690906,-0.193048558287,0.21148168674
1589275922539828082,14983,1589275922539714014,,0.500780660246,-0.192979107781,0.211465140281
1589275922542842022,14984,1589275922542750862,,0.500782922078,-0.192909015814,0.211449177869
1589275922545838820,14985,1589275922545710609,,0.500788253202,-0.192835870651,0.211437373214
1589275922551866806,14986,1589275922551755980,,0.500790658894,-0.192767737466,0.211422461163
1589275922554824911,14987,1589275922554717961,,0.500793033414,-0.192698973975,0.21140887749
1589275922563870834,14988,1589275922563712102,,0.500797774786,-0.192565755311,0.21138001884
1589275922566914045,14989,1589275922566748498,,0.50080052418,-0.192502409687,0.211363779436
1589275922569906386,14990,1589275922569715608,,0.500803639517,-0.192439316279,0.211351522442
1589275922575839113,14991,1589275922575726329,,0.500805022916,-0.192376045427,0.211336843917
1589275922578823358,14992,1589275922578746281,,0.500809382458,-0.192315030875,0.211322231154
1589275922584807158,14993,1589275922584733633,,0.50081056373,-0.192250728403,0.21130682556
1589275922587831780,14994,1589275922587739571,,0.500813424642,-0.192206294952,0.211300281084
1589275922590806429,14995,1589275922590737731,,0.50081484866,-0.192157525843,0.211289105369
1589275922594275843,14996,1589275922594198215,,0.50081706074,-0.192082460066,0.211273437092
1589275922599986156,14997,1589275922599825402,,0.500822331688,-0.192022674051,0.211261302577
1589275922602944666,14998,1589275922602813960,,0.500822897049,-0.19197382244,0.211248274867
1589275922605915264,14999,1589275922605828759,,0.500826851745,-0.191901440445,0.211237558653
1589275922611913043,15000,1589275922611819661,,0.500831451428,-0.191826967403,0.211223468848
1589275922614909244,15001,1589275922614766769,,0.500833862802,-0.191763526898,0.211212355381
1589275922623920862,15002,1589275922623794272,,0.500839829116,-0.191638099138,0.211191779004
1589275922626904896,15003,1589275922626742452,,0.500841440306,-0.191580072836,0.211179145442
1589275922629874299,15004,1589275922629760983,,0.500847088583,-0.191508698872,0.211162375278
1589275922635897308,15005,1589275922635790928,,0.500850583219,-0.191444693018,0.211149162913
1589275922638877500,15006,1589275922638777900,,0.500855478161,-0.191378259612,0.21113752992
1589275922645027087,15007,1589275922644859264,,0.500860677057,-0.191307859877,0.211124885435
1589275922647856145,15008,1589275922647758028,,0.50086359499,-0.191255459908,0.2111116291
1589275922650854125,15009,1589275922650772524,,0.500867460582,-0.191203365667,0.211104100385
1589275922656927070,15010,1589275922656826630,,0.500872817264,-0.191123940268,0.211089614373
1589275922659814910,15011,1589275922659720416,,0.50087469607,-0.191070162718,0.211075508434
1589275922662865671,15012,1589275922662792419,,0.500879393747,-0.19101180246,0.211067999473
1589275922668861390,15013,1589275922668744694,,0.500882842614,-0.190937957534,0.211054271935
1589275922671895208,15014,1589275922671810153,,0.500885450741,-0.190870994225,0.211039848463
1589275922674899441,15015,1589275922674774934,,0.500888149623,-0.190811291508,0.211027805493
1589275922681072664,15016,1589275922680851901,,0.500890502648,-0.190751698251,0.211016300755
1589275922683843065,15017,1589275922683715123,,0.500892471461,-0.190691982224,0.211002546654
1589275922686892028,15018,1589275922686750128,,0.50089633577,-0.190633328742,0.210991814003
1589275922692945329,15019,1589275922692785881,,0.500898294016,-0.190567389125,0.21097375163
1589275922695967951,15020,1589275922695873567,,0.500904251091,-0.190499537022,0.210960783933
1589275922698904068,15021,1589275922698780918,,0.500907308507,-0.190430186202,0.210948856001
1589275922704930637,15022,1589275922704829478,,0.500909967217,-0.190358667889,0.210933031085
1589275922707890625,15023,1589275922707772324,,0.500914623923,-0.190285520799,0.210920183303
1589275922711046526,15024,1589275922710853382,,0.500918194036,-0.190208926068,0.210907540938
1589275922716971324,15025,1589275922716827252,,0.500921019263,-0.190131961648,0.210897331896
1589275922719878517,15026,1589275922719753828,,0.500925784297,-0.190051133204,0.21088391654
1589275922722862862,15027,1589275922722734912,,0.500929678538,-0.189974922208,0.21087004773
1589275922728955492,15028,1589275922728825638,,0.500933315097,-0.189890739149,0.21085755108
1589275922731922084,15029,1589275922731807171,,0.500939145122,-0.189807263531,0.210843856779
1589275922734879759,15030,1589275922734786815,,0.500944181657,-0.18972875474,0.210833122199
1589275922741020981,15031,1589275922740803667,,0.500946666759,-0.189650425161,0.210817133685
1589275922743932532,15032,1589275922743829232,,0.500951286826,-0.189567676719,0.21080121562
1589275922746935822,15033,1589275922746802646,,0.500956371535,-0.189485601793,0.210787869727
1589275922752912332,15034,1589275922752826500,,0.500960554403,-0.189409521924,0.210774403941
1589275922755944008,15035,1589275922755779550,,0.500965084862,-0.189325373454,0.210756195469
1589275922758918907,15036,1589275922758805744,,0.50096932841,-0.189248387464,0.210742858071
1589275922764977956,15037,1589275922764872889,,0.500971832048,-0.189173781325,0.210726958488
1589275922767909811,15038,1589275922767782357,,0.500977739715,-0.189093689594,0.210716429338
1589275922773931499,15039,1589275922773794989,,0.500980706775,-0.189021817145,0.210702144676
1589275922777007522,15040,1589275922776861956,,0.500982275645,-0.18895028141,0.210685643267
1589275922779947149,15041,1589275922779816165,,0.500987558281,-0.188875997429,0.210676780186
1589275922785966196,15042,1589275922785812529,,0.500991736816,-0.188803061876,0.210664461457
1589275922788827574,15043,1589275922788714838,,0.500993115726,-0.188730503916,0.210650587385
1589275922791890960,15044,1589275922791772650,,0.500998428799,-0.188653995378,0.210641007889
1589275922798233891,15045,1589275922798123836,,0.501001770374,-0.188583651478,0.210629927791
1589275922800881744,15046,1589275922800763102,,0.501005798866,-0.188505973643,0.210617830686
1589275922806931129,15047,1589275922806800581,,0.501008287597,-0.188430259397,0.210604910114
1589275922810102189,15048,1589275922809945150,,0.50101404542,-0.188353695919,0.210595288346
1589275922812986328,15049,1589275922812815966,,0.501019502341,-0.18827390111,0.210583094999
1589275922815962549,15050,1589275922815835648,,0.501022543992,-0.188198570867,0.210567493686
1589275922822023978,15051,1589275922821860363,,0.501028835356,-0.188115809238,0.210554909101
1589275922827909256,15052,1589275922827799397,,0.501032796182,-0.188039195151,0.210539749081
1589275922830918019,15053,1589275922830799640,,0.501037112004,-0.187957584847,0.210525367736
1589275922833902825,15054,1589275922833777718,,0.501042363018,-0.187876483414,0.210514482054
1589275922836915209,15055,1589275922836775962,,0.5010473122,-0.187796542643,0.210500788532
1589275922839962345,15056,1589275922839799793,,0.501051187246,-0.187721608479,0.210489783044
1589275922845965860,15057,1589275922845842527,,0.501056654447,-0.187642640312,0.210476518204
1589275922848942895,15058,1589275922848818550,,0.501060457272,-0.187566436014,0.210464083658
1589275922855072546,15059,1589275922854815759,,0.501064954011,-0.187494662949,0.210450234261
1589275922860932679,15060,1589275922860824647,,0.501073930424,-0.187347780207,0.21042858798
1589275922863943668,15061,1589275922863773380,,0.501078373885,-0.187273483817,0.210414629254
1589275922870005478,15062,1589275922869872576,,0.501080657367,-0.187201792217,0.210402459783
1589275922873034335,15063,1589275922872877242,,0.501085352825,-0.187131713158,0.210393406536
1589275922878968143,15064,1589275922878849138,,0.501087690112,-0.187062490294,0.21037753389
1589275922881951172,15065,1589275922881825897,,0.501091928103,-0.186990792099,0.210365381076
1589275922884882780,15066,1589275922884810635,,0.501095347905,-0.186923995248,0.21035485022
1589275922887942865,15067,1589275922887837630,,0.501099822458,-0.186866850379,0.210346315991
1589275922894394504,15068,1589275922894232624,,0.50110353589,-0.186795602847,0.210331467448
1589275922897273830,15069,1589275922897144830,,0.501106990819,-0.186718217176,0.210311175339
1589275922902925384,15070,1589275922902803440,,0.501112274084,-0.186657990533,0.210303525064
1589275922906010892,15071,1589275922905862532,,0.50111498126,-0.186584893272,0.210292758544
1589275922908974678,15072,1589275922908861101,,0.501119951024,-0.186502335396,0.210276450813
1589275922914975321,15073,1589275922914860493,,0.501124777216,-0.186427657974,0.210266930871
1589275922920970049,15074,1589275922920797167,,0.501131924111,-0.18628304792,0.210244571752
1589275922926949143,15075,1589275922926820105,,0.50113632077,-0.186210263554,0.210231283521
1589275922932943859,15076,1589275922932834769,,0.5011432766,-0.186134167134,0.210222717114
1589275922935936552,15077,1589275922935815909,,0.501148430007,-0.186058895903,0.21021091864
1589275922938983394,15078,1589275922938842043,,0.501152520581,-0.185982820884,0.210195729181
1589275922941951064,15079,1589275922941856861,,0.501158046262,-0.185909668249,0.210187339661
1589275922945082133,15080,1589275922944986643,,0.501163388255,-0.185830903321,0.210179682268
1589275922950989876,15081,1589275922950888608,,0.501166022294,-0.185758438427,0.210162603153
1589275922953935681,15082,1589275922953790215,,0.501169641378,-0.185684932925,0.210152219126
1589275922957059433,15083,1589275922956886764,,0.501173693661,-0.185611157667,0.21014323302
1589275922962907337,15084,1589275922962767812,,0.501178417865,-0.18553804486,0.210128915101
1589275922965896818,15085,1589275922965791842,,0.501181922789,-0.185471380394,0.210115849337
1589275922968954497,15086,1589275922968820978,,0.501187167822,-0.185400523602,0.210106024105
1589275922974914001,15087,1589275922974825475,,0.501191864677,-0.185326747892,0.210091171012
1589275922980899176,15088,1589275922980809556,,0.501199799193,-0.185186949076,0.21006662971
1589275922986924699,15089,1589275922986801404,,0.501204377397,-0.185113130735,0.210051735445
1589275922989904487,15090,1589275922989784701,,0.501208862275,-0.185036971553,0.210039731517
1589275922992931909,15091,1589275922992780833,,0.501212864605,-0.184961704134,0.210026789951
1589275922998970185,15092,1589275922998827236,,0.501217167532,-0.184883946433,0.210011295145
1589275923001865978,15093,1589275923001766166,,0.501222191201,-0.184804075751,0.210001971087
1589275923005117171,15094,1589275923004917875,,0.501226930967,-0.184744125558,0.209994008541
1589275923010936836,15095,1589275923010863187,,0.501233318575,-0.184661615957,0.209983301674
1589275923014012060,15096,1589275923013843789,,0.501238563824,-0.184568484112,0.209966729309
1589275923020030787,15097,1589275923019826263,,0.50124451162,-0.184505281858,0.209959521923
1589275923022886474,15098,1589275923022792293,,0.501249937923,-0.184423603858,0.209951991975
1589275923025973197,15099,1589275923025858666,,0.501255444567,-0.184334164053,0.209942010895
1589275923028877814,15100,1589275923028746703,,0.501260818074,-0.184256784847,0.209932120962
1589275923034904048,15101,1589275923034754807,,0.501264491321,-0.184181195757,0.209926171587
1589275923038051004,15102,1589275923037947804,,0.501268866805,-0.184111977143,0.209918787591
1589275923043937642,15103,1589275923043770747,,0.501276137335,-0.184038800361,0.209912035432
1589275923046876152,15104,1589275923046781269,,0.501280251281,-0.183973669321,0.209904093409
1589275923049978707,15105,1589275923049813091,,0.501284183351,-0.183904370388,0.209892697481
1589275923055923827,15106,1589275923055792599,,0.50128951284,-0.183837948974,0.209883082088
1589275923058932393,15107,1589275923058787253,,0.501292367305,-0.183772402531,0.209874451852
1589275923061907072,15108,1589275923061754771,,0.501296852845,-0.18370642601,0.209866323196
1589275923067909712,15109,1589275923067761462,,0.501299080846,-0.183640439601,0.209855732926
1589275923071018662,15110,1589275923070902784,,0.501302813595,-0.183571650222,0.209846997201
1589275923073967221,15111,1589275923073806802,,0.501307225639,-0.183502608711,0.209837352398
1589275923079918151,15112,1589275923079802907,,0.501310150283,-0.183432843159,0.209826839533
1589275923083025698,15113,1589275923082865146,,0.501316414984,-0.183360489417,0.209815164627
1589275923085900424,15114,1589275923085803238,,0.501320233737,-0.183286178922,0.20980286097
1589275923091907036,15115,1589275923091804410,,0.501325204371,-0.183207746539,0.209789550677
1589275923095158406,15116,1589275923095060587,,0.501331033544,-0.183129012164,0.209779934661
1589275923098411859,15117,1589275923098251995,,0.501335509296,-0.183049524715,0.209767878451
1589275923103965248,15118,1589275923103813256,,0.501341878339,-0.182958543238,0.209756842693
1589275923106991520,15119,1589275923106850796,,0.501347431785,-0.182877701611,0.209747233269
1589275923109929970,15120,1589275923109828136,,0.501352435792,-0.182790467431,0.209734264545
1589275923115951345,15121,1589275923115813862,,0.501358962352,-0.182698882971,0.209723550102
1589275923118953566,15122,1589275923118863667,,0.501365099817,-0.182613395071,0.209714666627
1589275923121953956,15123,1589275923121847541,,0.501371712677,-0.182526314706,0.209703945563
1589275923130940127,15124,1589275923130856128,,0.501376870318,-0.182441833358,0.209692139555
1589275923133902665,15125,1589275923133789633,,0.501383752593,-0.182361456988,0.209680588702
1589275923136982471,15126,1589275923136804678,,0.50138888062,-0.182284826921,0.209669885457
1589275923139912039,15127,1589275923139790525,,0.501393636763,-0.182207285718,0.209659103544
1589275923143012819,15128,1589275923142838343,,0.501398865676,-0.182134265078,0.209649719674
1589275923148948507,15129,1589275923148839234,,0.501400961691,-0.182073128493,0.209639415149
1589275923151930381,15130,1589275923151849535,,0.501405571786,-0.182001004943,0.209629014902
1589275923154994355,15131,1589275923154881581,,0.501409455536,-0.181938403747,0.209619922409
1589275923160947257,15132,1589275923160811924,,0.501410564065,-0.181879029289,0.209609506374
1589275923163944957,15133,1589275923163848025,,0.501416088593,-0.181817624633,0.20959949493
1589275923166943726,15134,1589275923166835724,,0.501418278172,-0.181757281477,0.20959081808
1589275923172948005,15135,1589275923172810858,,0.501422423687,-0.18169379337,0.20957692186
1589275923175984456,15136,1589275923175859089,,0.501426139141,-0.18162898941,0.209569214983
1589275923178914335,15137,1589275923178818935,,0.501429799086,-0.181564828945,0.209559237611
1589275923185025832,15138,1589275923184910526,,0.501434781083,-0.181495196609,0.209547699034
1589275923187908002,15139,1589275923187810913,,0.501438927544,-0.181418678438,0.209542105654
1589275923191494671,15140,1589275923191307062,,0.501442673283,-0.181343833693,0.209529892624
1589275923197330015,15141,1589275923197205672,,0.501450608863,-0.18126339409,0.209520450727
1589275923199935335,15142,1589275923199850814,,0.501458545098,-0.18117818019,0.209510378152
1589275923202986232,15143,1589275923202859370,,0.501465770823,-0.181091973389,0.20950652138
1589275923208987990,15144,1589275923208863345,,0.501473416234,-0.181007529449,0.209496912219
1589275923211900827,15145,1589275923211816768,,0.501481846612,-0.180916810409,0.20948855238
1589275923221110309,15146,1589275923220932133,,0.50149621502,-0.180740991322,0.209474069883
1589275923224034698,15147,1589275923223907630,,0.501505271523,-0.180656228152,0.209467163346
1589275923230079764,15148,1589275923229907535,,0.501513055556,-0.180573258409,0.209460462806
1589275923232982169,15149,1589275923232875842,,0.501518623271,-0.180493872688,0.209452410508
1589275923236086009,15150,1589275923235872008,,0.501526131198,-0.180420373721,0.209441009698
1589275923242037405,15151,1589275923241919720,,0.501532317346,-0.180348600803,0.209434279214
1589275923245013085,15152,1589275923244866173,,0.501537572488,-0.180285805029,0.209425782701
1589275923247981005,15153,1589275923247884160,,0.501541038953,-0.180237966204,0.209419513638
1589275923250983461,15154,1589275923250886990,,0.50154495878,-0.180180458334,0.209410973608
1589275923256979660,15155,1589275923256852182,,0.501548326614,-0.180118836402,0.209398493134
1589275923260027334,15156,1589275923259887815,,0.50155154839,-0.180078967596,0.209395218654
1589275923266111658,15157,1589275923265860954,,0.501554363001,-0.180028328034,0.209389085876
1589275923269000463,15158,1589275923268863127,,0.501557976506,-0.179972246821,0.209381697459
1589275923272011664,15159,1589275923271903061,,0.501560635097,-0.179919932206,0.209371953094
1589275923275017838,15160,1589275923274908193,,0.501564994938,-0.179871615373,0.209365252221
1589275923281053799,15161,1589275923280910381,,0.50156884199,-0.179814519518,0.20935770124
1589275923284160885,15162,1589275923283912116,,0.501574652067,-0.179755273691,0.209351007271
1589275923289962979,15163,1589275923289826404,,0.501580159693,-0.179695777948,0.209343503284
1589275923293001597,15164,1589275923292876171,,0.501587683978,-0.179626705504,0.209337302228
1589275923296183913,15165,1589275923296012916,,0.501592959362,-0.179557126331,0.209329986361
1589275923302016820,15166,1589275923301861659,,0.501599810626,-0.179481189954,0.20932094711
1589275923308007994,15167,1589275923307899020,,0.501614222979,-0.179319662963,0.209304791201
1589275923314054791,15168,1589275923313889973,,0.501621535034,-0.179233572897,0.209296937432
1589275923317033288,15169,1589275923316911900,,0.501631545672,-0.179147467357,0.209291197462
1589275923319965726,15170,1589275923319852772,,0.501640157877,-0.179058880771,0.209281306433
1589275923326037200,15171,1589275923325907931,,0.501647810226,-0.178971123233,0.209270135318
1589275923331981799,15172,1589275923331870002,,0.501655248317,-0.178889875296,0.20926193651
1589275923334983805,15173,1589275923334871741,,0.501663261622,-0.178804863759,0.209250836879
1589275923341008282,15174,1589275923340851349,,0.501674473612,-0.178656509206,0.209232832974
1589275923344086705,15175,1589275923343904394,,0.50168057083,-0.17858350383,0.209222548641
1589275923350018460,15176,1589275923349891630,,0.501685510727,-0.178518371901,0.209212360941
1589275923352947291,15177,1589275923352856970,,0.501690040386,-0.178460306412,0.209206713599
1589275923356043558,15178,1589275923355852180,,0.501693495666,-0.178405691486,0.209196714082
1589275923361993675,15179,1589275923361869464,,0.501698275136,-0.178350671372,0.209192725447
1589275923365110204,15180,1589275923364911245,,0.501702501964,-0.178300273323,0.209189515912
1589275923367955150,15181,1589275923367874544,,0.501703831044,-0.178266457325,0.209184579777
1589275923374015441,15182,1589275923373873104,,0.501707293872,-0.178214663665,0.209177812764
1589275923377033193,15183,1589275923376924214,,0.501711285242,-0.178158378284,0.209169446603
1589275923379995089,15184,1589275923379866242,,0.501713746048,-0.178116013124,0.20916254535
1589275923386062743,15185,1589275923385905601,,0.501719672332,-0.178056299481,0.209159069276
1589275923388983741,15186,1589275923388865541,,0.501723965993,-0.177992116305,0.209151210405
1589275923395259179,15187,1589275923395123776,,0.501727648468,-0.17792539823,0.209140473587
1589275923398394980,15188,1589275923398291433,,0.501734404448,-0.177856202208,0.209134757983
1589275923400996173,15189,1589275923400875453,,0.501739577942,-0.177788272241,0.209130447998
1589275923407076667,15190,1589275923406925402,,0.50174603131,-0.177711939615,0.209119442294
1589275923410070285,15191,1589275923409913734,,0.50175344985,-0.177632571328,0.2091116618
1589275923413047208,15192,1589275923412908561,,0.501761074501,-0.177550139891,0.20910596327
1589275923416013153,15193,1589275923415899734,,0.501768456553,-0.177465016551,0.209094247064
1589275923425318109,15194,1589275923425123174,,0.501776674364,-0.177378475978,0.209086907624
1589275923431091992,15195,1589275923430937345,,0.501783841482,-0.177294033103,0.209079554724
1589275923433998633,15196,1589275923433866506,,0.501790312539,-0.177209430714,0.209069830652
1589275923437015108,15197,1589275923436908855,,0.501798020873,-0.177126959603,0.20906211389
1589275923440150674,15198,1589275923439902634,,0.501804467347,-0.177053214445,0.209054815942
1589275923443106386,15199,1589275923442938207,,0.501810056424,-0.176977461471,0.209043250222
1589275923446004660,15200,1589275923445892600,,0.501815919821,-0.17690922461,0.209035788518
1589275923449035624,15201,1589275923448906156,,0.501819460311,-0.17684740805,0.209026963673
1589275923455046056,15202,1589275923454911717,,0.501821227154,-0.176790510162,0.209018607728
1589275923461413413,15203,1589275923461315433,,0.50182881972,-0.17668462304,0.209008571014
1589275923467031924,15204,1589275923466886653,,0.501829514219,-0.176637215239,0.208998553831
1589275923470034713,15205,1589275923469891271,,0.501831545899,-0.176587889267,0.208990319957
1589275923473004669,15206,1589275923472885054,,0.501835777302,-0.176530129189,0.208983946533
1589275923479028474,15207,1589275923478908408,,0.501837628183,-0.176480152378,0.20897528477
1589275923482064336,15208,1589275923481920373,,0.501841031065,-0.176424390838,0.208967784118
1589275923491090637,15209,1589275923490973867,,0.501847700497,-0.176333085052,0.208951646436
1589275923494501825,15210,1589275923494388690,,0.501853271965,-0.176262092213,0.208943505958
1589275923497179716,15211,1589275923497068333,,0.501856923221,-0.176196564131,0.208935153009
1589275923503018085,15212,1589275923502900734,,0.501861541269,-0.176140644334,0.208929133995
1589275923505957096,15213,1589275923505867163,,0.501867199598,-0.176055803208,0.208920881702
1589275923509007343,15214,1589275923508901333,,0.501872314442,-0.175975918782,0.208911295874
1589275923515017136,15215,1589275923514878789,,0.501875986855,-0.175918056053,0.208907386072
1589275923520991285,15216,1589275923520892037,,0.501886516829,-0.175783131627,0.208891269687
1589275923530146263,15217,1589275923529954451,,0.501891859167,-0.175720440538,0.208883390882
1589275923532950357,15218,1589275923532866476,,0.501896470357,-0.175667149257,0.208875508863
1589275923535998495,15219,1589275923535902507,,0.501901120511,-0.175592384515,0.208865700825
1589275923538990414,15220,1589275923538884486,,0.501904214492,-0.175528617216,0.208857262583
1589275923542020656,15221,1589275923541931332,,0.501907544019,-0.175477790228,0.208852719635
1589275923545083830,15222,1589275923544993583,,0.501908211578,-0.1754400993,0.208846916322
1589275923551069513,15223,1589275923550930223,,0.501909048805,-0.175397433702,0.208841683425
1589275923554034180,15224,1589275923553903190,,0.501910766411,-0.175352921192,0.208834306193
1589275923557087386,15225,1589275923556929600,,0.501911338313,-0.175325002695,0.208828327231
1589275923562999213,15226,1589275923562892269,,0.501912337433,-0.175287553478,0.208821904344
1589275923566003456,15227,1589275923565884884,,0.5019137525,-0.175246508052,0.208815150397
1589275923572135375,15228,1589275923571934671,,0.501914477608,-0.175209116611,0.208808442032
1589275923574981723,15229,1589275923574872908,,0.501915899551,-0.175168425659,0.20880458378
1589275923581203889,15230,1589275923581020250,,0.501917353489,-0.175122290373,0.208797640482
1589275923584043627,15231,1589275923583939152,,0.501918949867,-0.175077874763,0.208789021599
1589275923590116466,15232,1589275923589962633,,0.501922650854,-0.175024546737,0.208780924541
1589275923593062770,15233,1589275923592920753,,0.501926770654,-0.174964336254,0.20877487612
1589275923596509311,15234,1589275923596315092,,0.501930534066,-0.174899894099,0.2087658757
1589275923599390567,15235,1589275923599275759,,0.501935511514,-0.174834670166,0.208761378412
1589275923602068984,15236,1589275923601931092,,0.501941652036,-0.17476219602,0.208757378883
1589275923611032826,15237,1589275923610939007,,0.501945669205,-0.174687854265,0.208749094563
1589275923614071707,15238,1589275923613897156,,0.501952539984,-0.174607875602,0.208744110417
1589275923620123591,15239,1589275923619929583,,0.501958672513,-0.174529388168,0.20873921021
1589275923623062336,15240,1589275923622952925,,0.501963842146,-0.174449406047,0.208729200405
1589275923626163111,15241,1589275923625966972,,0.501971126748,-0.174371666316,0.208725388411
1589275923632136166,15242,1589275923631972753,,0.501976420413,-0.17429503751,0.208717785318
1589275923644055190,15243,1589275923643888894,,0.501987545646,-0.174150096778,0.208702739916
1589275923650063719,15244,1589275923649907488,,0.501992801286,-0.174080234342,0.208697016298
1589275923653022389,15245,1589275923652897934,,0.501994850812,-0.174019466881,0.208686815723
1589275923655984763,15246,1589275923655889254,,0.501998535869,-0.173958334061,0.208677800872
1589275923659015235,15247,1589275923658898655,,0.502002566952,-0.173906471319,0.208674232883
1589275923665065368,15248,1589275923664950568,,0.502005325267,-0.173857819331,0.208670425595
1589275923671048090,15249,1589275923670924791,,0.502007924643,-0.173811879731,0.208665320437
1589275923677022290,15250,1589275923676915068,,0.502009031072,-0.173771153722,0.208658900401
1589275923680008280,15251,1589275923679884520,,0.502011777428,-0.173744815273,0.208655133832
1589275923686017873,15252,1589275923685913717,,0.502013215385,-0.173715825099,0.208651471286
1589275923689145490,15253,1589275923688982135,,0.502015418802,-0.173672938965,0.208645445603
1589275923692017673,15254,1589275923691921980,,0.502018972868,-0.173634820391,0.208640688277
1589275923695045629,15255,1589275923694943823,,0.502021580272,-0.173603914752,0.208639005007
1589275923698116684,15256,1589275923698014232,,0.502024669016,-0.173554191172,0.20863325169
1589275923704062498,15257,1589275923703923643,,0.502027913931,-0.173502785237,0.208624294911
1589275923710094879,15258,1589275923709989951,,0.502032513633,-0.173454925498,0.208621650861
1589275923716104420,15259,1589275923715962842,,0.502037526336,-0.173409382491,0.208619307134
1589275923722070510,15260,1589275923721953789,,0.502042366264,-0.173361451805,0.208612328768
1589275923725262312,15261,1589275923725159912,,0.502049045748,-0.173306075178,0.208608875829
1589275923731635997,15262,1589275923731546749,,0.50205474169,-0.173254249066,0.208602859024
1589275923737107438,15263,1589275923736965437,,0.502060651425,-0.173196484769,0.208596074678
