%time,field.header.seq,field.header.stamp,field.header.frame_id,field.vector.x,field.vector.y,field.vector.z
1589274713385348868,749,1589274713385262547,,-0.103128127846,-0.835586119674,5.04819455287
1589274713391620039,750,1589274713391479531,,-0.103115753818,-0.852888144992,5.04144547978
1589274713394312909,751,1589274713394178376,,-0.103926064133,-0.877624655525,5.03733780746
1589274713400449416,752,1589274713400293780,,-0.104008035966,-0.903171099765,5.03434567527
1589274713403305217,753,1589274713403222685,,-0.105498185727,-0.904352365164,5.02327072517
1589274713406453828,754,1589274713406366194,,-0.105551191377,-0.933132732828,5.02110892692
1589274713409426075,755,1589274713409339321,,-0.106271836866,-0.93464462051,5.00990679612
1589274713415047737,756,1589274713414956275,,-0.107311872365,-0.96874353108,5.00693256202
1589274713418040308,757,1589274713417961315,,-0.108095846781,-0.970043773279,4.99718851219
1589274713424246313,758,1589274713424141831,,-0.108960769664,-1.00641316373,4.99725994486
1589274713427273083,759,1589274713427176613,,-0.109785022323,-1.04827005846,5.000253716
1589274713430273683,760,1589274713430170860,,-0.110567552287,-1.04920496184,4.99195345242
1589274713433466854,761,1589274713433303349,,-0.109943999893,-1.09210598591,4.9957532517
1589274713439274930,762,1589274713439179479,,-0.110896987272,-1.09381763708,4.98803947885
1589274713442354515,763,1589274713442271917,,-0.110509887206,-1.14044313349,4.99347380414
1589274713448348258,764,1589274713448279047,,-0.110681548607,-1.19265119033,4.99715558473
1589274713451059283,765,1589274713450941329,,-0.110629554498,-1.19295790076,4.98903050805
1589274713454323680,766,1589274713454193721,,-0.111010879213,-1.24864302588,4.9938490368
1589274713457183872,767,1589274713457087680,,-0.111176466358,-1.25005612102,4.98426338719
1589274713463344791,768,1589274713463213008,,-0.111668413613,-1.30916349232,4.9901391867
1589274713466274970,769,1589274713466187578,,-0.112118874374,-1.36907693444,4.99511583856
1589274713472404983,770,1589274713472274670,,-0.112445632448,-1.37170727907,4.98577748822
1589274713475365275,771,1589274713475262920,,-0.112706667162,-1.43807037018,4.99259954153
1589274713478475867,772,1589274713478344991,,-0.113432062176,-1.43779919581,4.98187898763
1589274713481599405,773,1589274713481473882,,-0.113692128023,-1.50762388232,4.9897216799
1589274713487445716,774,1589274713487305060,,-0.114372480111,-1.57900316381,4.9980515811
1589274713490337088,775,1589274713490194301,,-0.115087466726,-1.57910807798,4.98958181667
1589274713496618318,776,1589274713496471533,,-0.115838120672,-1.65544528735,4.9995061347
1589274713499291809,777,1589274713499207669,,-0.116501858904,-1.65504701629,4.99048908816
1589274713502244298,778,1589274713502130627,,-0.11688820018,-1.73386806023,5.00383817595
1589274713505189437,779,1589274713505104726,,-0.11764359945,-1.73395355821,4.99447601271
1589274713511585014,780,1589274713511457566,,-0.117969574005,-1.81515483129,5.00762067126
1589274713514226020,781,1589274713514088794,,-0.118646913256,-1.90174184304,5.02076035244
1589274713520487631,782,1589274713520392760,,-0.119670609147,-1.98960888311,5.03457645261
1589274713523430926,783,1589274713523319408,,-0.12043884509,-1.98850791405,5.02539437161
1589274713526401481,784,1589274713526299411,,-0.120892517261,-2.08017888501,5.03837878655
1589274713532381317,785,1589274713532307765,,-0.122098001228,-2.08090562808,5.03033230388
1589274713535373060,786,1589274713535259955,,-0.123228918769,-2.17411029561,5.04232023288
1589274713538372924,787,1589274713538223830,,-0.12352617017,-2.17259806214,5.03466392238
1589274713544329559,788,1589274713544233027,,-0.123981028657,-2.27127448359,5.05023382796
1589274713547385817,789,1589274713547278464,,-0.12422174274,-2.3694129219,5.065571571
1589274713550003825,790,1589274713549930068,,-0.124937130601,-2.36619558449,5.05525892403
1589274713556131825,791,1589274713556061950,,-0.125378550882,-2.46804338165,5.07117908206
1589274713559173898,792,1589274713559073577,,-0.125787285332,-2.46371164071,5.0610552748
1589274713562241689,793,1589274713562163069,,-0.1263626886,-2.56506026417,5.07761668325
1589274713567952046,794,1589274713567880885,,-0.127110923378,-2.67105302895,5.09486510998
1589274713570986499,795,1589274713570910257,,-0.127690969304,-2.66814028126,5.08578334509
1589274713573985996,796,1589274713573914059,,-0.128614980149,-2.77909879209,5.10497034202
1589274713580413256,797,1589274713580355024,,-0.129307145252,-2.89330812735,5.12409387295
1589274713583563807,798,1589274713583389188,,-0.13034825548,-2.89150248474,5.11424094594
1589274713586132369,799,1589274713586048740,,-0.131761754001,-2.99619160449,5.12979664329
1589274713592002471,800,1589274713591853180,,-0.133487254647,-3.00653377862,5.12374581549
1589274713595029556,801,1589274713594908060,,-0.135127655924,-3.1285880166,5.14471778547
1589274713597992068,802,1589274713597900487,,-0.136688113755,-3.12632641009,5.13520561205
1589274713604010378,803,1589274713603888216,,-0.138652167659,-3.25101985348,5.15653714973
1589274713607186773,804,1589274713607097532,,-0.140119094085,-3.37644403956,5.17920018553
1589274713610092438,805,1589274713609998814,,-0.141004556544,-3.37377473529,5.17124791969
1589274713615998482,806,1589274713615912210,,-0.143781284886,-3.50361879645,5.19350763894
1589274713618963597,807,1589274713618872036,,-0.144173397817,-3.50107512444,5.18628960641
1589274713625030946,808,1589274713624923401,,-0.144800714283,-3.62940596887,5.21258616215
1589274713627984401,809,1589274713627906958,,-0.145440011951,-3.76281301561,5.24047709949
1589274713630978468,810,1589274713630895887,,-0.145958185567,-3.7560169449,5.23430942456
1589274713633955922,811,1589274713633860963,,-0.146088459011,-3.88920671749,5.26163153026
1589274713640344402,812,1589274713640244369,,-0.1456041769,-4.02350093443,5.29245882136
1589274713643389014,813,1589274713643260109,,-0.145112325824,-4.01457852674,5.28613173254
1589274713649484705,814,1589274713649393164,,-0.144074847321,-4.14902281665,5.31589241309
1589274713652431693,815,1589274713652315781,,-0.143557204773,-4.13994442302,5.30895473952
1589274713655382827,816,1589274713655259517,,-0.142354770453,-4.2755769359,5.33920886375
1589274713661457135,817,1589274713661325889,,-0.141691418714,-4.41558963088,5.36751175049
1589274713664357965,818,1589274713664236063,,-0.140864481873,-4.40417858256,5.35967592066
1589274713667332224,819,1589274713667233502,,-0.140145765783,-4.54516099946,5.38768890996
1589274713673383733,820,1589274713673273433,,-0.139613361512,-4.68768551535,5.41680762419
1589274713676328154,821,1589274713676246927,,-0.139361013055,-4.67626156728,5.40580962205
1589274713679659912,822,1589274713679570256,,-0.138289327074,-4.7984254347,5.42901662203
1589274713685265991,823,1589274713685149171,,-0.137910192709,-4.81184420739,5.42406586078
1589274713688370187,824,1589274713688269638,,-0.137796978195,-4.96200624177,5.45263042884
1589274713691502785,825,1589274713691411698,,-0.138464484093,-4.95126366994,5.44126845999
1589274713697238338,826,1589274713697070935,,-0.138135761462,-5.10353898368,5.47096423946
1589274713700250413,827,1589274713700153222,,-0.137963734477,-5.25963679578,5.50195603104
1589274713703188939,828,1589274713703114581,,-0.137891365993,-5.24785965798,5.49143143605
1589274713709447762,829,1589274713709343713,,-0.136753705391,-5.40126548564,5.52337635043
1589274713712261395,830,1589274713712184399,,-0.136754469357,-5.38915921422,5.51205679918
1589274713715334749,831,1589274713715233637,,-0.135852552614,-5.54760465988,5.54435403923
1589274713721255547,832,1589274713721174743,,-0.13511457882,-5.7080316065,5.57815667928
1589274713724292916,833,1589274713724203799,,-0.134411672015,-5.69481730217,5.56968398986
1589274713727341216,834,1589274713727234655,,-0.133957970569,-5.8562094989,5.60288492764
1589274713736367833,835,1589274713736243575,,-0.135023252279,-6.00862027602,5.62655573897
1589274713739260890,836,1589274713739181244,,-0.135310175249,-5.99561945506,5.61601816947
1589274713745260044,837,1589274713745176567,,-0.135387880309,-6.16273200331,5.65039601616
1589274713748239643,838,1589274713748145587,,-0.135155293181,-6.32902257744,5.68400197022
1589274713751462117,839,1589274713751378889,,-0.134923456784,-6.31243944049,5.6713557762
1589274713760455709,840,1589274713760354984,,-0.13535749611,-6.66811760039,5.75159199593
1589274713763205550,841,1589274713763129175,,-0.135966318758,-6.65334537632,5.73829432922
1589274713766270614,842,1589274713766184696,,-0.136118459483,-6.79339585513,5.76598862332
1589274713769217691,843,1589274713769091422,,-0.136950305958,-6.81719669354,5.76124671138
1589274713772211799,844,1589274713772131100,,-0.13873921929,-6.80190671283,5.74854195456
1589274713778225520,845,1589274713778137577,,-0.139440887988,-6.97921805871,5.78592530433
1589274713781373256,846,1589274713781269682,,-0.139745067412,-7.15436883066,5.8217886818
1589274713787165029,847,1589274713787068119,,-0.139187021034,-7.33240260364,5.8590868911
1589274713790223010,848,1589274713790111349,,-0.138700349642,-7.31540298096,5.84794904261
1589274713796069073,849,1589274713795987417,,-0.13875955255,-7.47870127124,5.87378801511
1589274713802040670,850,1589274713801943391,,-0.14009490701,-7.66498335021,5.91217619433
1589274713805152413,851,1589274713805067326,,-0.140089085969,-7.6486161924,5.902126167
1589274713811040057,852,1589274713810951558,,-0.140973297846,-7.83343028388,5.9421853671
1589274713814045898,853,1589274713813963702,,-0.140780430381,-8.02020601406,5.98235098686
1589274713817074798,854,1589274713816994568,,-0.140606578782,-8.00235112049,5.97120597964
1589274713820069502,855,1589274713819975912,,-0.141921565931,-8.18963942498,6.00760267291
1589274713826363761,856,1589274713826271568,,-0.141993052109,-8.33443537552,6.03763855339
1589274713829358366,857,1589274713829287132,,-0.14225208974,-8.3620667807,6.03514820894
1589274713835236879,858,1589274713835169217,,-0.142395233192,-8.5494508963,6.07477827878
1589274713838404407,859,1589274713838316932,,-0.142848531582,-8.53327316397,6.06361518727
1589274713841461518,860,1589274713841340943,,-0.144403004847,-8.7239525903,6.10219870092
1589274713844228002,861,1589274713844139117,,-0.144949967085,-8.7009877277,6.08750694402
1589274713850144177,862,1589274713850051300,,-0.146204976121,-8.89299991892,6.12604200962
1589274713856127237,863,1589274713856037900,,-0.146082212672,-9.08815997298,6.16806544708
1589274713859175291,864,1589274713859076887,,-0.147524787379,-9.06762988812,6.15378171803
1589274713862083581,865,1589274713862008409,,-0.146979673056,-9.2648305171,6.19824032977
1589274713865161319,866,1589274713865030455,,-0.148655039385,-9.24426955487,6.18370656193
1589274713868303222,867,1589274713868225948,,-0.147994568629,-9.43795459213,6.22725510038
1589274713874062637,868,1589274713873995741,,-0.147696753707,-9.63409275253,6.26973906853
1589274713877153638,869,1589274713877046974,,-0.146383512458,-9.61095436702,6.25909017122
1589274713883459319,870,1589274713883343595,,-0.146085477865,-9.810263189,6.30257025992
1589274713886187280,871,1589274713886095264,,-0.144925795737,-9.94916509848,6.33175295696
1589274713889136591,872,1589274713889072203,,-0.145614285813,-9.97947723788,6.33190838376
1589274713892133806,873,1589274713892058189,,-0.145903289324,-9.95552154313,6.31724286653
1589274713898110066,874,1589274713898035399,,-0.1457175262,-10.1562685992,6.36023793222
1589274713901133468,875,1589274713901031390,,-0.146821832921,-10.3563080576,6.40175619235
1589274713907132960,876,1589274713907052243,,-0.147223228564,-10.5568953125,6.44358147486
1589274713910139437,877,1589274713910049150,,-0.147561167489,-10.5301114862,6.42919585737
1589274713919176658,878,1589274713919090720,,-0.149228493526,-10.7027766252,6.45517385924
1589274713922487942,879,1589274713922378824,,-0.148898191097,-10.9036443076,6.49951817563
1589274713925562454,880,1589274713925405825,,-0.150616808953,-10.8755564225,6.48423668911
1589274713931555097,881,1589274713931432923,,-0.150365211122,-11.0738183632,6.53098964256
1589274713934457566,882,1589274713934375411,,-0.150973366261,-11.2777797406,6.57882260967
1589274713937442664,883,1589274713937288070,,-0.150152063332,-11.2459143933,6.57037343914
1589274713943519889,884,1589274713943382954,,-0.149996039556,-11.4509935099,6.61888811271
1589274713946587757,885,1589274713946485576,,-0.150601033536,-11.6621735992,6.66581304224
1589274713949428122,886,1589274713949351508,,-0.150648293151,-11.6310020044,6.65197672514
1589274713955489570,887,1589274713955388364,,-0.149726327174,-11.8361534185,6.69889086695
1589274713958539845,888,1589274713958444650,,-0.149125591825,-11.8075183141,6.68733389073
1589274713961431872,889,1589274713961344806,,-0.150198263232,-12.0190830819,6.73341207568
1589274713967439983,890,1589274713967297191,,-0.151671396827,-12.2273264641,6.77855488945
1589274713970425244,891,1589274713970330173,,-0.152093429361,-12.1947376321,6.76459043549
1589274713979925408,892,1589274713979825779,,-0.154197929557,-12.6153030086,6.85640820113
1589274713982619088,893,1589274713982533997,,-0.156688366251,-12.5878908489,6.84194353321
1589274713985468692,894,1589274713985363778,,-0.157083884901,-12.555577697,6.82696639298
1589274713991441182,895,1589274713991327843,,-0.157600234544,-12.7660623338,6.87300385422
1589274713994221626,896,1589274713994140972,,-0.157969524282,-12.9759342913,6.91971329749
1589274713997250291,897,1589274713997159777,,-0.158855360624,-12.9438220955,6.9041313327
1589274714003695113,898,1589274714003571942,,-0.158564189221,-13.1567714254,6.95398534324
1589274714006661257,899,1589274714006581072,,-0.158162711957,-13.3771897123,7.00500004564
1589274714009610546,900,1589274714009463960,,-0.158909445413,-13.3430178723,6.99088989157
1589274714015594289,901,1589274714015441635,,-0.159074697267,-13.5509923629,7.0375726356
1589274714018564244,902,1589274714018407204,,-0.157856109324,-13.5151739455,7.02784939396
1589274714021230339,903,1589274714021146882,,-0.158631245443,-13.7287050598,7.07469356252
1589274714027335437,904,1589274714027221956,,-0.160044120154,-13.9419845587,7.12133358369
1589274714030216129,905,1589274714030132431,,-0.159528281844,-13.8989035294,7.10725966109
1589274714039316205,906,1589274714039209047,,-0.16179293591,-14.0792989336,7.13823388651
1589274714042233607,907,1589274714042148404,,-0.162795152256,-14.2945772869,7.18502129548
1589274714048236147,908,1589274714048101612,,-0.162496571798,-14.5104293041,7.23271944206
1589274714051150763,909,1589274714051059183,,-0.162767612517,-14.4707256018,7.21725877096
1589274714057157918,910,1589274714057068136,,-0.164643710147,-14.6878177132,7.26217182726
1589274714060156493,911,1589274714060046905,,-0.165140470089,-14.9032613882,7.30958045556
1589274714063559356,912,1589274714063375462,,-0.166269956426,-14.8647859755,7.29588648494
1589274714066443173,913,1589274714066338083,,-0.166652528161,-15.0022803306,7.32741923511
1589274714072494442,914,1589274714072371812,,-0.169030930854,-15.0534486642,7.33327321749
1589274714075530966,915,1589274714075364924,,-0.169541026695,-15.2668887431,7.38287896372
1589274714078463683,916,1589274714078348782,,-0.168658636347,-15.2303188838,7.37242475495
1589274714084435135,917,1589274714084348454,,-0.170004268218,-15.4513548217,7.42231093418
1589274714087392750,918,1589274714087290442,,-0.169872390093,-15.6687194024,7.47078869918
1589274714090302252,919,1589274714090226508,,-0.17078898006,-15.6251555294,7.45635548729
1589274714096199338,920,1589274714096125069,,-0.171795959442,-15.8460210281,7.50772346012
1589274714099123431,921,1589274714099033660,,-0.171970905462,-15.8028571688,7.49285263876
1589274714102497051,922,1589274714102387866,,-0.174160112765,-16.0263889417,7.54113095655
1589274714108493876,923,1589274714108407828,,-0.173316466833,-16.2414615979,7.59111462072
1589274714111480629,924,1589274714111368978,,-0.174067521217,-16.1980891842,7.57329493346
1589274714114463450,925,1589274714114338876,,-0.175969650294,-16.4207766743,7.6203046991
1589274714120578145,926,1589274714120476292,,-0.175369017534,-16.6328138945,7.66715191537
1589274714126632675,927,1589274714126537786,,-0.17622286468,-16.8506901329,7.71635806035
1589274714129559894,928,1589274714129446626,,-0.176541391032,-16.805216249,7.6972982915
1589274714132476540,929,1589274714132335258,,-0.176218839072,-16.7627461086,7.68020886974
1589274714135491906,930,1589274714135381992,,-0.176385577684,-16.980000607,7.72597623339
1589274714138423604,931,1589274714138336577,,-0.176770640066,-16.9300163978,7.70529546322
1589274714144521812,932,1589274714144365331,,-0.178128492443,-17.1473100136,7.75193342198
1589274714147446021,933,1589274714147327503,,-0.17851596463,-17.3660901876,7.79953657301
1589274714150507820,934,1589274714150376822,,-0.179831850455,-17.3191522949,7.77743579267
1589274714159492845,935,1589274714159424743,,-0.1812871265,-17.5339805877,7.82077419331
1589274714162392759,936,1589274714162309350,,-0.18185569233,-17.7503284244,7.861737863
1589274714165436460,937,1589274714165341627,,-0.183727342823,-17.701285926,7.83557805166
1589274714168425365,938,1589274714168337951,,-0.185078920002,-17.8950314056,7.87842544486
1589274714171536315,939,1589274714171413414,,-0.182143677994,-17.8338382652,7.85285806254
1589274714177461400,940,1589274714177359462,,-0.184167696436,-18.0449876421,7.8924385722
1589274714180659169,941,1589274714180541916,,-0.190636263253,-18.2528193283,7.92969929322
1589274714183797050,942,1589274714183658580,,-0.19578023294,-18.198303098,7.91299964829
1589274714189611024,943,1589274714189521586,,-0.199009981882,-18.4089571131,7.96299908187
1589274714192300476,944,1589274714192205529,,-0.198722177894,-18.3536006101,7.94898654935
1589274714198305011,945,1589274714198216713,,-0.197629922374,-18.5634107316,8.00253189339
1589274714201308406,946,1589274714201182228,,-0.194751334332,-18.7803020546,8.06011624946
1589274714204290016,947,1589274714204195234,,-0.192935476084,-18.7340125734,8.05243553087
1589274714207241933,948,1589274714207166958,,-0.191763482315,-18.9509189799,8.1135580707
1589274714216288076,949,1589274714216189222,,-0.189857320896,-19.1257288704,8.16437103485
1589274714222478414,950,1589274714222349408,,-0.189666990165,-19.3420022589,8.21822440889
1589274714225349343,951,1589274714225268684,,-0.189771322549,-19.2863243646,8.19925108849
1589274714228401669,952,1589274714228267593,,-0.189864594989,-19.5013532764,8.2447027358
1589274714231506730,953,1589274714231412746,,-0.193066605983,-19.445514283,8.21385737171
1589274714237468114,954,1589274714237356275,,-0.193465690929,-19.6510893131,8.25243897989
1589274714240350158,955,1589274714240247412,,-0.194620873034,-19.8618286329,8.29018370015
1589274714246728466,956,1589274714246650339,,-0.195713512879,-20.0827568565,8.33318974532
1589274714249429617,957,1589274714249326466,,-0.193331539592,-20.0085993474,8.30411349554
1589274714255332130,958,1589274714255256157,,-0.191311084538,-20.2027532609,8.34231213462
1589274714258288636,959,1589274714258205294,,-0.189829931601,-20.1463086876,8.32148019018
1589274714261271422,960,1589274714261189783,,-0.187391731888,-20.344217174,8.36729629537
1589274714264236410,961,1589274714264161109,,-0.185488094155,-20.2751692246,8.34562828253
1589274714270366059,962,1589274714270243543,,-0.182613101027,-20.4800239927,8.39558798314
1589274714276321095,963,1589274714276163813,,-0.177617731991,-20.6311330571,8.44324328218
1589274714280029683,964,1589274714279902527,,-0.176682422413,-20.8469230073,8.49319545716
1589274714285392789,965,1589274714285317871,,-0.174175513412,-20.7947204628,8.4822107888
1589274714288257041,966,1589274714288173569,,-0.174391142859,-21.0099757094,8.53424722741
1589274714294225665,967,1589274714294132518,,-0.174070346451,-21.2254311495,8.58362308451
1589274714297245462,968,1589274714297119772,,-0.174661898814,-21.178474765,8.56724113663
1589274714300215914,969,1589274714300121975,,-0.177063663391,-21.3985803121,8.61354384654
1589274714303292957,970,1589274714303158552,,-0.176733091029,-21.3589361726,8.59677682658
1589274714309348689,971,1589274714309249136,,-0.179541657272,-21.575720322,8.63756228514
1589274714312273152,972,1589274714312165934,,-0.183224539335,-21.5157988407,8.60673214767
1589274714318336437,973,1589274714318219069,,-0.181823948528,-21.7316990464,8.65467671126
1589274714321242437,974,1589274714321164032,,-0.183611956007,-21.9375686763,8.69723354908
1589274714324253849,975,1589274714324163444,,-0.184751308095,-21.8712814648,8.67120383317
1589274714330267947,976,1589274714330170319,,-0.182365156077,-22.0692639387,8.7174919538
1589274714336262734,977,1589274714336184516,,-0.178680005023,-22.2022966374,8.74535074085
1589274714342315399,978,1589274714342221385,,-0.176373269761,-22.3957832925,8.78818973911
1589274714345352052,979,1589274714345238463,,-0.171827359355,-22.3220965989,8.77118896631
1589274714348309061,980,1589274714348234039,,-0.169823847349,-22.5128202572,8.816422894
1589274714354241837,981,1589274714354164047,,-0.166767322718,-22.7018047579,8.85990759756
1589274714360279085,982,1589274714360193688,,-0.164762504742,-22.888429653,8.90026937677
1589274714363403016,983,1589274714363308915,,-0.161701858683,-22.8084663033,8.87539290189
1589274714366550848,984,1589274714366482007,,-0.160069979726,-23.0112519366,8.91550253897
1589274714369476018,985,1589274714369406841,,-0.159302329949,-22.9359245073,8.88531355309
1589274714372469762,986,1589274714372362324,,-0.160631205295,-22.8546460213,8.85052648322
1589274714378460756,987,1589274714378348923,,-0.16200250686,-23.06495682,8.89035024649
1589274714381783455,988,1589274714381655364,,-0.162039058272,-23.2585861121,8.93021928347
1589274714384378134,989,1589274714384288703,,-0.165866090916,-23.1929219649,8.9000960422
1589274714390333142,990,1589274714390177646,,-0.168905007738,-23.3993343182,8.94012440862
1589274714396516363,991,1589274714396394652,,-0.171814379501,-23.5558079921,8.96871553877
1589274714402337184,992,1589274714402245775,,-0.171912592496,-23.7670115219,9.01767333218
1589274714405554521,993,1589274714405433938,,-0.171617048113,-23.7177420644,9.00713793988
1589274714408581449,994,1589274714408482072,,-0.172208942617,-23.9248305437,9.05506357687
1589274714414388113,995,1589274714414282143,,-0.17123922,-24.1274121672,9.10507555809
1589274714417478468,996,1589274714417327451,,-0.169286042407,-24.0668946263,9.09136925363
1589274714420415166,997,1589274714420305197,,-0.168671142718,-24.2622097028,9.14109970012
1589274714426449627,998,1589274714426373469,,-0.167838199358,-24.3242457371,9.15162232233
1589274714429378448,999,1589274714429301487,,-0.16622155465,-24.393474035,9.16263214138
1589274714432389486,1000,1589274714432306828,,-0.164490432204,-24.3084000933,9.13361098335
1589274714438392662,1001,1589274714438311944,,-0.162336214607,-24.5010344484,9.17688559399
1589274714441741572,1002,1589274714441621651,,-0.162579942733,-24.6771133656,9.20980222761
1589274714447531486,1003,1589274714447408844,,-0.161103175812,-24.8373850566,9.24082986148
1589274714450484905,1004,1589274714450372248,,-0.158985882717,-24.7572553235,9.21400033093
1589274714456529849,1005,1589274714456420595,,-0.157485073811,-24.9283116619,9.25061367426
1589274714459614622,1006,1589274714459443720,,-0.158505982525,-24.8457952028,9.21543416023
1589274714462493957,1007,1589274714462388979,,-0.153499593243,-25.0123043825,9.25709943516
1589274714465476954,1008,1589274714465370660,,-0.152075746203,-24.9262944855,9.22590433411
1589274714471372622,1009,1589274714471263338,,-0.148902551222,-25.0884371172,9.26020369652
1589274714474622283,1010,1589274714474518886,,-0.143636452892,-25.2509683183,9.29627083834
1589274714477380857,1011,1589274714477277661,,-0.142571038466,-25.1640715895,9.26480309297
1589274714483744457,1012,1589274714483662849,,-0.139825109814,-25.3323006043,9.3024089408
1589274714486450012,1013,1589274714486339532,,-0.141901610263,-25.2561012199,9.27448982513
1589274714489271167,1014,1589274714489156516,,-0.142137828383,-25.4265696115,9.31466893073
1589274714495550619,1015,1589274714495440236,,-0.145574204582,-25.6100737014,9.35538515578
1589274714498513022,1016,1589274714498384631,,-0.147531840153,-25.5461337139,9.33389393327
1589274714501413559,1017,1589274714501321193,,-0.149175450292,-25.7304491592,9.37455454268
1589274714507512110,1018,1589274714507398703,,-0.15154565672,-25.9197981047,9.41941797221
1589274714510393885,1019,1589274714510290904,,-0.151721149886,-25.8608595322,9.40374044536
1589274714519619502,1020,1589274714519436428,,-0.155222913006,-25.987092624,9.43365742325
1589274714525482797,1021,1589274714525364525,,-0.154782267161,-26.1679240419,9.47625568592
1589274714528447230,1022,1589274714528354830,,-0.156762507189,-26.3442713256,9.51709332625
1589274714534496972,1023,1589274714534384675,,-0.15677166634,-26.5140209902,9.5579627427
1589274714537408500,1024,1589274714537314041,,-0.157615685414,-26.4394834677,9.53232257629
1589274714543853647,1025,1589274714543696967,,-0.156239050357,-26.6013108666,9.57087749246
1589274714546821369,1026,1589274714546740148,,-0.155490026559,-26.7561891583,9.60374867875
1589274714549722484,1027,1589274714549644055,,-0.153728695261,-26.6893233713,9.58096265816
1589274714555583402,1028,1589274714555409410,,-0.150747245101,-26.8315251089,9.61348635294
1589274714558526520,1029,1589274714558399649,,-0.149554894382,-26.7364822837,9.58132275477
1589274714561437445,1030,1589274714561384150,,-0.146165375416,-26.8919979577,9.62061049033
1589274714567532755,1031,1589274714567448813,,-0.144525702814,-27.0318556318,9.65134750339
1589274714570546543,1032,1589274714570431244,,-0.140558733463,-26.9183303232,9.61725796857
1589274714576522311,1033,1589274714576426440,,-0.133793891959,-26.9480868711,9.61290154535
1589274714580115811,1034,1589274714579940708,,-0.131142027758,-27.0816671842,9.63635019088
1589274714582811847,1035,1589274714582690851,,-0.128115506295,-26.9849154133,9.60723514641
1589274714591715372,1036,1589274714591597149,,-0.128088301153,-27.1303219201,9.63662903971
1589274714594577248,1037,1589274714594448738,,-0.127523360278,-27.2713101807,9.66358887736
1589274714600410706,1038,1589274714600319415,,-0.127273156019,-27.4199850979,9.69637371683
1589274714603522939,1039,1589274714603461862,,-0.129448293783,-27.3451370213,9.67076235346
1589274714606743682,1040,1589274714606643677,,-0.129694118255,-27.3631133726,9.67234838863
1589274714609478730,1041,1589274714609371503,,-0.132067436805,-27.4585021383,9.69380513217
1589274714612426662,1042,1589274714612322543,,-0.134271444347,-27.3895262096,9.67632468466
1589274714615453630,1043,1589274714615333995,,-0.136733572837,-27.5749759888,9.72547740185
1589274714621440620,1044,1589274714621362388,,-0.138920230068,-27.7469616419,9.77030637808
1589274714624464891,1045,1589274714624360124,,-0.142307146677,-27.6840258223,9.75360567968
1589274714627490540,1046,1589274714627420470,,-0.144923825541,-27.8485291615,9.79204881796
1589274714633469981,1047,1589274714633398934,,-0.14723831173,-28.0128582728,9.82735883584
1589274714639561018,1048,1589274714639473026,,-0.148465875087,-28.0062284235,9.82059806366
1589274714642448690,1049,1589274714642350768,,-0.149528318831,-28.095013773,9.83571688476
1589274714645435373,1050,1589274714645309794,,-0.1482743284,-28.0146813368,9.80438834218
1589274714651499600,1051,1589274714651387649,,-0.150431355659,-28.1545440133,9.82716526432
1589274714657171152,1052,1589274714657103007,,-0.149116563844,-28.2798233619,9.8497802454
1589274714660148674,1053,1589274714660064336,,-0.145915675272,-28.4002911134,9.8750779049
1589274714666510451,1054,1589274714666430032,,-0.143744216986,-28.5138654195,9.90026546842
1589274714669545056,1055,1589274714669427025,,-0.139837322254,-28.4055816475,9.86321449919
1589274714675579858,1056,1589274714675448175,,-0.135325021306,-28.5084329549,9.89261080887
1589274714681555842,1057,1589274714681466617,,-0.134183589862,-28.6079284925,9.91376397732
1589274714687240797,1058,1589274714687186277,,-0.125700547731,-28.6990694437,9.93530616068
1589274714690374508,1059,1589274714690321792,,-0.123656967722,-28.5816827249,9.90499668595
1589274714696247927,1060,1589274714696169279,,-0.11727064206,-28.5610524122,9.89035282495
1589274714702298379,1061,1589274714702230656,,-0.117759642457,-28.6603753201,9.91008279942
1589274714708268696,1062,1589274714708210390,,-0.119136184392,-28.7650032973,9.92692234561
1589274714714337821,1063,1589274714714269032,,-0.119515755231,-28.8687709486,9.94702965334
1589274714720253800,1064,1589274714720196491,,-0.122967666175,-28.9824783117,9.96479087887
1589274714726667440,1065,1589274714726598639,,-0.125179460876,-29.0991556523,9.98583593421
1589274714732379101,1066,1589274714732281521,,-0.127393298868,-29.0205000709,9.96032436538
1589274714738682295,1067,1589274714738540359,,-0.13061073225,-29.1495707243,9.98565171048
1589274714741601200,1068,1589274714741505206,,-0.134314615126,-29.2816881339,10.0167218759
1589274714744576767,1069,1589274714744477575,,-0.135710943051,-29.2349270581,10.0073976696
1589274714750557202,1070,1589274714750451662,,-0.137454774893,-29.3651186374,10.0360120102
1589274714756372519,1071,1589274714756247528,,-0.140228776748,-29.4872737524,10.0653674881
1589274714762329387,1072,1589274714762267045,,-0.138097238401,-29.6215159972,10.1038776294
1589274714768568880,1073,1589274714768484710,,-0.139668861761,-29.7430586222,10.1333270767
1589274714774669835,1074,1589274714774531727,,-0.141970444222,-29.8465553039,10.1594549837
1589274714780826708,1075,1589274714780705220,,-0.14063692951,-29.9501901861,10.1835924723
1589274714783869138,1076,1589274714783771807,,-0.1415160442,-29.8674434345,10.1596582269
1589274714789843446,1077,1589274714789657405,,-0.14166667771,-29.9634795334,10.1788307248
1589274714795989433,1078,1589274714795889935,,-0.139755104508,-30.0554366221,10.1945179947
1589274714801588567,1079,1589274714801518255,,-0.138299379284,-30.1394608037,10.2075247961
1589274714807679120,1080,1589274714807518892,,-0.135526600469,-30.2139114536,10.2196844646
1589274714819542955,1081,1589274714819480318,,-0.131552318737,-30.167726269,10.1953043187
1589274714825598771,1082,1589274714825507907,,-0.127340745275,-30.2265772091,10.2061520876
1589274714831581797,1083,1589274714831514825,,-0.124000659826,-30.2798901256,10.2155251415
1589274714837560461,1084,1589274714837479516,,-0.121281000348,-30.3340738826,10.2231473256
1589274714843622657,1085,1589274714843508328,,-0.117933084972,-30.3898701105,10.232497963
1589274714850239697,1086,1589274714850150052,,-0.117308378238,-30.4427671234,10.2395623346
1589274714855187826,1087,1589274714855117968,,-0.118285269088,-30.5014689832,10.250170522
1589274714861464861,1088,1589274714861368302,,-0.117497361084,-30.5580885405,10.2585683757
1589274714867245890,1089,1589274714867191838,,-0.116512355753,-30.6197383633,10.2676541387
1589274714879794765,1090,1589274714879694629,,-0.121890016606,-30.7646834314,10.2980961475
1589274714882612827,1091,1589274714882531351,,-0.124872537214,-30.6921152975,10.2770052334
1589274714888275239,1092,1589274714888164130,,-0.125081167763,-30.7771685293,10.3003840483
1589274714894251616,1093,1589274714894188087,,-0.128278261739,-30.8679749263,10.3206767432
1589274714900249122,1094,1589274714900159403,,-0.130077960979,-30.953462076,10.3434599526
1589274714906566296,1095,1589274714906491188,,-0.130883484125,-31.0389946984,10.3692249979
1589274714912252397,1096,1589274714912196394,,-0.132474950345,-30.9715295243,10.3549164809
1589274714918302549,1097,1589274714918211347,,-0.135396374552,-30.9904416555,10.3625611825
1589274714924264321,1098,1589274714924196347,,-0.136469865181,-31.044074892,10.3689832768
1589274714930356623,1099,1589274714930286649,,-0.136274934076,-31.1210290138,10.3836420298
1589274714936333719,1100,1589274714936234929,,-0.136995773949,-31.1721617942,10.3899117307
1589274714942485476,1101,1589274714942374418,,-0.137913499233,-31.2051663747,10.3906242821
1589274714948576460,1102,1589274714948395864,,-0.13769292899,-31.2438151766,10.3978034832
1589274714954476637,1103,1589274714954407643,,-0.13722827665,-31.2801737113,10.406006896
1589274714960454221,1104,1589274714960371936,,-0.136651481651,-31.3077656642,10.406725832
1589274714966618609,1105,1589274714966533831,,-0.135768341215,-31.198566646,10.3752596723
1589274714972717366,1106,1589274714972598944,,-0.132777084405,-31.2152833483,10.3788561693
1589274714978607939,1107,1589274714978427380,,-0.128285083467,-31.2262495446,10.3808589361
1589274714981488465,1108,1589274714981405602,,-0.126511164317,-31.2352337279,10.3837316442
1589274714987449157,1109,1589274714987347858,,-0.122340607872,-31.2416649112,10.3851259202
1589274714993629456,1110,1589274714993566559,,-0.119740131061,-31.2697969845,10.3944130857
1589274714999688863,1111,1589274714999538028,,-0.117680831625,-31.1742769263,10.3742001496
1589274715005523341,1112,1589274715005398797,,-0.115623970097,-31.1745222066,10.3688331538
1589274715011503879,1113,1589274715011435570,,-0.115662998629,-31.1963490668,10.3732600994
1589274715017491651,1114,1589274715017419193,,-0.114554426058,-31.24195922,10.3827924419
1589274715023397341,1115,1589274715023309500,,-0.118303583664,-31.2574251993,10.381450824
1589274715029426859,1116,1589274715029338572,,-0.122031129184,-31.2848086449,10.383207284
1589274715035532927,1117,1589274715035452761,,-0.125341411348,-31.3344149344,10.3954297704
1589274715041459130,1118,1589274715041379110,,-0.132096197245,-31.3906667592,10.404819594
1589274715047949877,1119,1589274715047803493,,-0.136678334553,-31.44853858,10.4099498857
1589274715053728711,1120,1589274715053582553,,-0.140008560687,-31.5006972733,10.4212840183
1589274715059749830,1121,1589274715059655287,,-0.14398417487,-31.38984016,10.3834679183
1589274715065507270,1122,1589274715065433409,,-0.147936384946,-31.4944230372,10.3994240094
1589274715071582460,1123,1589274715071487362,,-0.149694213729,-31.5240575609,10.4068125804
1589274715077784281,1124,1589274715077650767,,-0.150841495822,-31.5467620203,10.4130010734
1589274715080710140,1125,1589274715080633799,,-0.154307152324,-31.5636228915,10.4131017562
1589274715083895851,1126,1589274715083828867,,-0.15371394683,-31.4755468388,10.3838760943
1589274715089449339,1127,1589274715089343823,,-0.152341603004,-31.4719652723,10.3890686815
1589274715095487143,1128,1589274715095410765,,-0.15124987294,-31.4624606241,10.3850488827
1589274715101407029,1129,1589274715101305218,,-0.150379250479,-31.4430812669,10.3730649207
1589274715107454611,1130,1589274715107366047,,-0.146805505575,-31.4143131209,10.3672371163
1589274715119471263,1131,1589274715119381313,,-0.143224756118,-31.2548531497,10.3225715632
1589274715125411925,1132,1589274715125355566,,-0.14072702776,-31.206877431,10.3048889418
1589274715131470642,1133,1589274715131411850,,-0.13792934178,-31.1577829228,10.2907762832
1589274715137394184,1134,1589274715137340290,,-0.137561417293,-31.1053057293,10.2723679916
1589274715143489470,1135,1589274715143321645,,-0.134900565535,-31.049798379,10.255170202
1589274715149510887,1136,1589274715149438198,,-0.133734874641,-30.99483408,10.2381832978
1589274715155534135,1137,1589274715155440303,,-0.135545339033,-30.9488352058,10.2218292683
1589274715161503952,1138,1589274715161397911,,-0.134727453161,-30.9032249994,10.2106487316
1589274715167447941,1139,1589274715167349111,,-0.137055085301,-30.8673642936,10.1996068705
1589274715174004457,1140,1589274715173878416,,-0.138709996134,-30.8352925303,10.1897833802
1589274715180066565,1141,1589274715179920808,,-0.140518020644,-30.7507586869,10.1680312785
1589274715182601350,1142,1589274715182532383,,-0.144268135296,-30.7355669614,10.1649569268
1589274715188365136,1143,1589274715188287780,,-0.14822573138,-30.7235681955,10.1624809484
1589274715194378515,1144,1589274715194301363,,-0.1516988829,-30.7154458223,10.1589565356
1589274715200420866,1145,1589274715200341442,,-0.155068559482,-30.7018244677,10.1608827859
1589274715206534194,1146,1589274715206413616,,-0.159754537819,-30.6371546446,10.1397871559
1589274715212540482,1147,1589274715212462240,,-0.163065280228,-30.6214111066,10.1376331688
1589274715218281701,1148,1589274715218217168,,-0.165428958513,-30.592596565,10.1270066755
1589274715224515906,1149,1589274715224441018,,-0.169129647032,-30.5605094442,10.1128598082
1589274715230348995,1150,1589274715230267361,,-0.171026376449,-30.5226818521,10.09875268
1589274715236512611,1151,1589274715236431821,,-0.174696590105,-30.4762358897,10.0765321487
1589274715242314616,1152,1589274715242259085,,-0.175268106318,-30.417989409,10.0598625042
1589274715248343264,1153,1589274715248285917,,-0.175764576731,-30.3543292633,10.0389626364
1589274715254365070,1154,1589274715254247980,,-0.177439215746,-30.2825603835,10.0120095776
1589274715260286767,1155,1589274715260206009,,-0.176868785463,-30.197336146,9.99310070253
1589274715266541577,1156,1589274715266212559,,-0.175782318008,-30.0823745513,9.96265786649
1589274715272389578,1157,1589274715272299709,,-0.174908844777,-29.990553416,9.93958292621
1589274715278713898,1158,1589274715278621778,,-0.173774359992,-29.8969004268,9.91918654008
1589274715284757961,1159,1589274715284618624,,-0.169978791636,-29.8005612262,9.89588662224
1589274715290667538,1160,1589274715290597204,,-0.168584980047,-29.6995386864,9.87377604414
1589274715296269621,1161,1589274715296222140,,-0.166556711203,-29.6034405317,9.85069596081
1589274715302347931,1162,1589274715302297313,,-0.164270409122,-29.5026852294,9.82697568564
1589274715308540651,1163,1589274715308479080,,-0.165154169468,-29.414070284,9.8063249664
1589274715314243300,1164,1589274715314185988,,-0.163880163687,-29.3203740677,9.78586464173
1589274715320383819,1165,1589274715320216910,,-0.165141625949,-29.2391075519,9.7648771071
1589274715326484931,1166,1589274715326367023,,-0.167894819568,-29.0236666593,9.70709313459
1589274715332271754,1167,1589274715332200687,,-0.167913655699,-29.0748960059,9.71838494281
1589274715338536049,1168,1589274715338438261,,-0.171996969601,-29.0127118853,9.69607504158
1589274715344584907,1169,1589274715344458631,,-0.175267651063,-28.9763668259,9.68122970925
1589274715350637441,1170,1589274715350540407,,-0.177796298756,-28.9306892018,9.66703583439
1589274715356488865,1171,1589274715356391732,,-0.180858615484,-28.8608623378,9.64624819266
1589274715362436987,1172,1589274715362315394,,-0.185640983134,-28.8124324239,9.62689659783
1589274715368568367,1173,1589274715368474823,,-0.189248929322,-28.7656564736,9.61571346896
1589274715374387743,1174,1589274715374307994,,-0.190085201603,-28.6814079505,9.59719866559
1589274715380741199,1175,1589274715380663394,,-0.194101922972,-28.5973299255,9.57622079561
1589274715383976517,1176,1589274715383871648,,-0.194803136201,-28.5316097547,9.56292873719
1589274715389684902,1177,1589274715389534810,,-0.196314180442,-28.4523195923,9.54525859047
1589274715395746596,1178,1589274715395602977,,-0.196885664159,-28.3673888816,9.52557180096
1589274715401706563,1179,1589274715401526450,,-0.195386815373,-28.2801693525,9.50586713654
1589274715407767962,1180,1589274715407638118,,-0.195764080015,-28.1776907457,9.47637835397
1589274715413554684,1181,1589274715413464459,,-0.195282976293,-28.0705440022,9.44995891614
1589274715419677386,1182,1589274715419565477,,-0.193871983261,-27.9768679973,9.43102265423
1589274715425367298,1183,1589274715425262270,,-0.195328537353,-27.8624470713,9.40331596611
1589274715431580201,1184,1589274715431507116,,-0.195510521277,-27.7378494939,9.37150385669
1589274715437746990,1185,1589274715437633631,,-0.196151145382,-27.6099717376,9.33984728106
1589274715443843736,1186,1589274715443712364,,-0.194031106306,-27.474919782,9.30573086967
1589274715449693271,1187,1589274715449589292,,-0.196467504903,-27.3338600479,9.26479308726
1589274715455827323,1188,1589274715455723428,,-0.197642545918,-27.1927351945,9.2303207583
1589274715461625727,1189,1589274715461541064,,-0.198700165456,-27.053758181,9.19749848891
1589274715467597280,1190,1589274715467485949,,-0.201353674315,-26.9213640787,9.16530599211
1589274715480182697,1191,1589274715480109782,,-0.201672693919,-26.6516115388,9.10263106651
1589274715482754923,1192,1589274715482669573,,-0.201222431123,-26.5610351613,9.07854379943
1589274715488616793,1193,1589274715488522758,,-0.202452374927,-26.4337156613,9.05184221615
1589274715494641810,1194,1589274715494530969,,-0.203823986168,-26.3126032005,9.03084552849
1589274715500840440,1195,1589274715500702362,,-0.205334035189,-26.1964541464,9.00748672921
1589274715506780717,1196,1589274715506694378,,-0.208493903502,-26.1275245563,8.99512970549
1589274715512823794,1197,1589274715512595980,,-0.209569729945,-26.0153630118,8.96672753027
1589274715518657684,1198,1589274715518562014,,-0.211351047555,-25.8981742032,8.93568979962
1589274715524515519,1199,1589274715524383904,,-0.215623102588,-25.7785499969,8.90007613018
1589274715530482503,1200,1589274715530368334,,-0.217088297163,-25.6589149769,8.86677819917
1589274715536590469,1201,1589274715536490096,,-0.22298181033,-25.5362161377,8.82871775548
1589274715542571562,1202,1589274715542494160,,-0.227500832528,-25.4060967108,8.78907564784
1589274715548674382,1203,1589274715548603010,,-0.23071940171,-25.2729874519,8.74987120753
1589274715554606169,1204,1589274715554518863,,-0.234229697666,-25.1314607977,8.70873935898
1589274715560846405,1205,1589274715560734970,,-0.235019553302,-24.9832119977,8.6668835118
1589274715567030210,1206,1589274715566927032,,-0.237195652928,-24.8352319036,8.62855750488
1589274715573099408,1207,1589274715572889820,,-0.237081730483,-24.7392466236,8.60857664468
1589274715578859601,1208,1589274715578710431,,-0.236996688395,-24.577365069,8.57375599265
1589274715584872263,1209,1589274715584748316,,-0.237327491539,-24.4128776864,8.53488729903
1589274715590829820,1210,1589274715590650648,,-0.236142583914,-24.2456628873,8.50242455696
1589274715596818730,1211,1589274715596713013,,-0.233445973556,-24.0683106288,8.46711489015
1589274715602767218,1212,1589274715602647134,,-0.233109632476,-23.8928607872,8.42542010685
1589274715608730958,1213,1589274715608607178,,-0.23183270793,-23.7115371375,8.38520665408
1589274715614849348,1214,1589274715614724238,,-0.230515204281,-23.5348919498,8.34301203738
1589274715620855868,1215,1589274715620728177,,-0.231797005687,-23.3538026374,8.30163078026
1589274715626920285,1216,1589274715626809175,,-0.231015674313,-23.2499313525,8.27824734839
1589274715633009892,1217,1589274715632727926,,-0.233594488736,-23.0792723865,8.23240539497
1589274715638721543,1218,1589274715638635495,,-0.237400701419,-22.9056364821,8.18654234278
1589274715644748138,1219,1589274715644649307,,-0.239266437676,-22.7437078996,8.14358355735
1589274715650781772,1220,1589274715650690926,,-0.243803776915,-22.5840727995,8.10252196731
1589274715656833918,1221,1589274715656688719,,-0.246500982423,-22.4332014822,8.06347126013
1589274715662705079,1222,1589274715662607807,,-0.251300046468,-22.2846443945,8.02302594284
1589274715668720185,1223,1589274715668584624,,-0.255074770692,-22.1462973636,7.99246597346
1589274715675047661,1224,1589274715674929848,,-0.257688275411,-22.0066606565,7.95793739818
1589274715681111332,1225,1589274715680967489,,-0.261898364555,-21.8646515633,7.92732609667
1589274715686969959,1226,1589274715686857210,,-0.264610268862,-21.814367308,7.91587443762
1589274715693095493,1227,1589274715692959443,,-0.268409163761,-21.6702977328,7.88494658841
1589274715698810181,1228,1589274715698649607,,-0.271486280624,-21.5206663136,7.85093144434
1589274715704652991,1229,1589274715704561511,,-0.272286849916,-21.3629374302,7.81823242434
1589274715710764039,1230,1589274715710617781,,-0.275264626899,-21.2072162769,7.77688283222
1589274715716653937,1231,1589274715716562094,,-0.276221912935,-21.0398376115,7.73739859512
1589274715722972189,1232,1589274715722880415,,-0.277740512602,-20.871331771,7.69385769607
1589274715728715942,1233,1589274715728599165,,-0.279787312043,-20.6982796414,7.65076644519
1589274715734873987,1234,1589274715734738368,,-0.280535881557,-20.5204041935,7.60749334489
1589274715740781910,1235,1589274715740706954,,-0.282433561159,-20.3395183901,7.55964437654
1589274715747091024,1236,1589274715747003925,,-0.282599844687,-20.0811327416,7.49984534005
1589274715752777534,1237,1589274715752672215,,-0.281833239948,-20.0654443828,7.50040314195
1589274715758668195,1238,1589274715758587646,,-0.282759751214,-19.8707997281,7.44870380559
1589274715764881115,1239,1589274715764776011,,-0.282103918895,-19.6734788321,7.40366343385
1589274715770648833,1240,1589274715770558734,,-0.280015104552,-19.4812643173,7.36030566257
1589274715776765222,1241,1589274715776656703,,-0.280888074713,-19.2796497979,7.30967916713
1589274715785762708,1242,1589274715785590171,,-0.279779881552,-18.9845342928,7.23997841029
1589274715791920407,1243,1589274715791744648,,-0.280623497409,-18.7897529969,7.19364193848
1589274715797907452,1244,1589274715797748052,,-0.281727096255,-18.5964619327,7.14692481964
1589274715803822722,1245,1589274715803718274,,-0.282881539314,-18.4089710961,7.10112259274
1589274715809763079,1246,1589274715809651254,,-0.285632568349,-18.2262347883,7.05444363635
1589274715815727758,1247,1589274715815642082,,-0.288151111387,-18.0538308045,7.01191107855
1589274715821683960,1248,1589274715821611671,,-0.291628985091,-17.8846193857,6.96788233282
1589274715827683389,1249,1589274715827584259,,-0.294775465887,-17.7196397788,6.92466714979
1589274715839808496,1250,1589274715839709244,,-0.301573837028,-17.5112120502,6.87376068204
1589274715845656482,1251,1589274715845551956,,-0.306737358126,-17.354628503,6.83509531827
1589274715852848854,1252,1589274715852739550,,-0.310217052564,-17.1934422451,6.79728968308
1589274715857659433,1253,1589274715857541372,,-0.310695189185,-17.0250209627,6.76232853242
1589274715863673412,1254,1589274715863592511,,-0.313503970928,-16.8601500806,6.72278440271
1589274715869686957,1255,1589274715869573828,,-0.313857233937,-16.7083700794,6.68515711191
1589274715875644690,1256,1589274715875559424,,-0.313020092628,-16.5513565276,6.65134651018
1589274715881828234,1257,1589274715881729468,,-0.314289910937,-16.3674181993,6.60736852243
1589274715887685778,1258,1589274715887599638,,-0.315199312701,-16.1950673321,6.56517091559
1589274715893924273,1259,1589274715893841950,,-0.314722377338,-16.0272636559,6.52593356475
1589274715900036050,1260,1589274715899857016,,-0.316785248222,-15.955562511,6.51107024199
1589274715905614276,1261,1589274715905538239,,-0.318970783619,-15.7655441435,6.4642844753
1589274715911728825,1262,1589274715911643444,,-0.318718186752,-15.585400955,6.42195705961
1589274715917794075,1263,1589274715917695276,,-0.32036536331,-15.4128815884,6.37989335358
1589274715923713985,1264,1589274715923636438,,-0.323026544664,-15.2353570447,6.33173547619
1589274715929729671,1265,1589274715929630897,,-0.321457954054,-15.0538119354,6.28900086132
1589274715935680657,1266,1589274715935569192,,-0.321434283005,-14.8803903757,6.24449169756
1589274715941696280,1267,1589274715941606972,,-0.322248623952,-14.7040890243,6.19924706281
1589274715947625888,1268,1589274715947528765,,-0.32277551281,-14.5259977895,6.15738960787
1589274715953873414,1269,1589274715953799389,,-0.323832024965,-14.3487575013,6.11754524027
1589274715959460522,1270,1589274715959383783,,-0.322819674128,-14.2906369194,6.10792544659
1589274715965447174,1271,1589274715965375093,,-0.324822143571,-14.1156277887,6.06658247149
1589274715971592389,1272,1589274715971514996,,-0.326202282339,-13.9403414442,6.02689899255
1589274715977642804,1273,1589274715977537784,,-0.327399796507,-13.7714355315,5.9871179908
1589274715984149702,1274,1589274715984060979,,-0.328274477664,-13.6005905475,5.94751109519
1589274715989409199,1275,1589274715989338669,,-0.329151338645,-13.434420528,5.90809036844
1589274715995531780,1276,1589274715995439750,,-0.331786399337,-13.2720400298,5.86796311987
1589274716001538281,1277,1589274716001444629,,-0.333051973965,-13.1044487465,5.82590434773
1589274716007579508,1278,1589274716007395852,,-0.33449640905,-12.9396606823,5.78786897421
1589274716019867856,1279,1589274716019741324,,-0.337738603832,-12.7206198887,5.736823107
1589274716025677271,1280,1589274716025576042,,-0.340285184642,-12.5553990724,5.69511417595
1589274716031661513,1281,1589274716031527127,,-0.34035868382,-12.3913782162,5.65645352573
1589274716037817066,1282,1589274716037660225,,-0.339952623289,-12.2226695218,5.6194204473
1589274716043646869,1283,1589274716043513175,,-0.340901844484,-12.0572576856,5.58051591481
1589274716049787313,1284,1589274716049683959,,-0.340470245392,-11.892200415,5.54049400922
1589274716055589636,1285,1589274716055505010,,-0.338734763966,-11.7237932104,5.50361552693
1589274716061701924,1286,1589274716061552096,,-0.339270672625,-11.5579623814,5.46468340695
1589274716067606642,1287,1589274716067505828,,-0.338892480686,-11.393715476,5.42647356921
1589274716076849201,1288,1589274716076756766,,-0.339199888141,-11.1665634462,5.37645405477
1589274716082932835,1289,1589274716082845182,,-0.338779933352,-11.000758912,5.33573964327
1589274716088670711,1290,1589274716088528207,,-0.33902924927,-10.7775743752,5.28195759417
1589274716094663554,1291,1589274716094583417,,-0.340251706554,-10.5613583057,5.22658960286
1589274716100705712,1292,1589274716100607145,,-0.339976403298,-10.4061473463,5.19110927517
1589274716112664657,1293,1589274716112570239,,-0.341887557065,-10.1564445895,5.1368868497
1589274716118701598,1294,1589274716118617677,,-0.34566827103,-9.9731273361,5.09084007117
1589274716124584990,1295,1589274716124499979,,-0.345736753173,-9.83509359928,5.06313183858
1589274716130603546,1296,1589274716130488473,,-0.345807937078,-9.70105888657,5.03304468898
1589274716136662756,1297,1589274716136575114,,-0.349495642505,-9.53097737436,4.99132432628
1589274716142897320,1298,1589274716142753734,,-0.350087987765,-9.39704192709,4.960358061
1589274716148877442,1299,1589274716148763293,,-0.351618307281,-9.22014373023,4.92062342772
1589274716154856257,1300,1589274716154744624,,-0.351959334099,-9.08741392233,4.88860989876
1589274716161117253,1301,1589274716161043482,,-0.353362624863,-8.91232526031,4.84708505646
1589274716167532791,1302,1589274716167383535,,-0.35266682334,-8.78551954002,4.81708115307
1589274716172646498,1303,1589274716172538052,,-0.353791295714,-8.69262384772,4.79828471509
1589274716178575537,1304,1589274716178467312,,-0.353380615339,-8.56382964226,4.76939244795
1589274716184731148,1305,1589274716184626790,,-0.355184234509,-8.39579472967,4.73032207678
1589274716190672200,1306,1589274716190564710,,-0.355598367209,-8.27313519611,4.7024267
1589274716196648910,1307,1589274716196580084,,-0.354720434754,-8.10757980127,4.66599802216
1589274716202644788,1308,1589274716202580396,,-0.356588687287,-7.99135794797,4.63430538558
1589274716208851956,1309,1589274716208680811,,-0.357177401438,-7.83882557623,4.59947415189
1589274716214893146,1310,1589274716214756902,,-0.357984714487,-7.7251743669,4.57094228797
1589274716220910917,1311,1589274716220800629,,-0.358181369835,-7.62269597598,4.54630041954
1589274716233239897,1312,1589274716232973449,,-0.360089660557,-7.44124318007,4.50284051313
1589274716238924754,1313,1589274716238807494,,-0.361383789759,-7.34590382942,4.47832682667
1589274716244716974,1314,1589274716244614678,,-0.361789457863,-7.22771127031,4.45141189908
1589274716250604675,1315,1589274716250491243,,-0.36173089312,-7.14795697694,4.43414514744
1589274716256643518,1316,1589274716256555549,,-0.360939721216,-7.03149043968,4.41157878004
1589274716262720342,1317,1589274716262548571,,-0.361768855706,-6.95992887134,4.39407286658
1589274716268756777,1318,1589274716268636349,,-0.363240104668,-6.85492464883,4.36948486638
1589274716274710514,1319,1589274716274543644,,-0.362829752837,-6.78516160727,4.35463009399
1589274716280856724,1320,1589274716280768043,,-0.364382653724,-6.69923243469,4.33661210779
1589274716292412182,1321,1589274716292354804,,-0.365415295121,-6.59353134922,4.30925359456
1589274716298784541,1322,1589274716298705382,,-0.366277241242,-6.53564755152,4.29291764997
1589274716304848435,1323,1589274716304697208,,-0.364986850846,-6.45787302147,4.27725217992
1589274716310968434,1324,1589274716310819748,,-0.364893428452,-6.40126977859,4.26375630225
1589274716316990175,1325,1589274716316864158,,-0.36512032213,-6.33210782932,4.24898801939
1589274716322937568,1326,1589274716322784540,,-0.364708222867,-6.28172191494,4.23604305777
1589274716329029418,1327,1589274716328844260,,-0.364124908066,-6.21224392263,4.22436887671
1589274716334958649,1328,1589274716334855803,,-0.364122528168,-6.17291139481,4.21589801251
1589274716341213586,1329,1589274716341042578,,-0.363515291038,-6.11674612293,4.2036281661
1589274716347457033,1330,1589274716347170859,,-0.363276953833,-6.09046740085,4.19667775926
1589274716353533734,1331,1589274716353048153,,-0.363226279939,-6.03458391313,4.1841978111
1589274716358757362,1332,1589274716358667405,,-0.362979231004,-6.00794340722,4.17977222743
1589274716364829218,1333,1589274716364727207,,-0.363106363773,-5.95225533787,4.16765360313
1589274716370762789,1334,1589274716370678396,,-0.363309410774,-5.92136825654,4.16323799642
1589274716376800999,1335,1589274716376684975,,-0.362365753373,-5.88614441789,4.16086582352
1589274716383116367,1336,1589274716383034044,,-0.362625681416,-5.82247369383,4.1525288347
1589274716388408388,1337,1589274716388337302,,-0.362220885967,-5.75350707487,4.1452041367
1589274716394422399,1338,1589274716394349246,,-0.361648467023,-5.7078406467,4.1463223505
1589274716400962806,1339,1589274716400891627,,-0.361251266646,-5.66130297988,4.1474139775
1589274716412477871,1340,1589274716412397495,,-0.360398244582,-5.54601849531,4.1352245618
1589274716418442948,1341,1589274716418371421,,-0.360424984593,-5.49220722564,4.14049324066
1589274716424453264,1342,1589274716424372359,,-0.359969838872,-5.43581275233,4.14707575905
1589274716430521130,1343,1589274716430446770,,-0.358999922521,-5.35906263325,4.14980632334
1589274716436737704,1344,1589274716436625197,,-0.358939371433,-5.27947399985,4.15186983593
1589274716442626660,1345,1589274716442528570,,-0.359245282016,-5.21435874223,4.1595761565
1589274716448631190,1346,1589274716448538992,,-0.359162268945,-5.14787385272,4.16917220949
1589274716454851266,1347,1589274716454701468,,-0.358904525634,-5.05868659889,4.17517746974
1589274716461188857,1348,1589274716461099127,,-0.357848190027,-4.97093499292,4.18273455217
1589274716472823516,1349,1589274716472711913,,-0.358026840656,-4.88253747819,4.19220978438
1589274716478712289,1350,1589274716478596145,,-0.357490550788,-4.794067619,4.2036214268
1589274716484883678,1351,1589274716484778569,,-0.356787797675,-4.71735606448,4.21952850816
1589274716490846636,1352,1589274716490737836,,-0.356395765347,-4.62042108806,4.23157511081
1589274716496813421,1353,1589274716496731694,,-0.356194278926,-4.53647400489,4.24936377891
1589274716502738633,1354,1589274716502596258,,-0.355988941175,-4.4327863138,4.26442588773
1589274716508756508,1355,1589274716508616413,,-0.356240737142,-4.33998903572,4.2821332051
1589274716514672101,1356,1589274716514591772,,-0.356190151881,-4.23753441704,4.29927621014
1589274716521035849,1357,1589274716520932745,,-0.356136555692,-4.1408286039,4.31873906046
1589274716527130999,1358,1589274716526812584,,-0.355975407198,-4.13306447524,4.31602200173
1589274716532744777,1359,1589274716532624906,,-0.355426761425,-4.02546202291,4.33478673305
1589274716538659868,1360,1589274716538577630,,-0.354810126298,-3.92304126578,4.35665664662
1589274716544681227,1361,1589274716544571416,,-0.354438180288,-3.80952188927,4.37877647499
1589274716550823546,1362,1589274716550731812,,-0.354240284077,-3.70118230187,4.40079099757
1589274716556635017,1363,1589274716556539359,,-0.352952080033,-3.58196015182,4.42476929422
1589274716562898544,1364,1589274716562756549,,-0.353470305775,-3.46703048734,4.44939180811
1589274716568687796,1365,1589274716568612399,,-0.352445588594,-3.34169565232,4.47355137699
1589274716574674555,1366,1589274716574587825,,-0.351233402205,-3.22380733896,4.50256770267
1589274716580909385,1367,1589274716580811383,,-0.350384069555,-3.09831278242,4.5295169156
1589274716592767341,1368,1589274716592663312,,-0.348989750204,-2.96528869399,4.55679849141
1589274716598726138,1369,1589274716598625917,,-0.349017428074,-2.83703725758,4.58685430684
1589274716604911206,1370,1589274716604751356,,-0.348321332597,-2.70257730825,4.61668184405
1589274716610780697,1371,1589274716610689546,,-0.347370790404,-2.57048206936,4.64905140375
1589274716616687186,1372,1589274716616603836,,-0.346801987284,-2.43306346849,4.68017087357
1589274716623048270,1373,1589274716622891188,,-0.346621075337,-2.29507736066,4.71267152005
1589274716628893985,1374,1589274716628777534,,-0.346318665723,-2.1550911913,4.74691947436
1589274716634850303,1375,1589274716634766301,,-0.345448273536,-2.00899040694,4.78086332858
1589274716640988919,1376,1589274716640882263,,-0.344788154555,-1.86216651368,4.81525046592
1589274716653257433,1377,1589274716652978863,,-0.343706661551,-1.70548278372,4.84920213187
1589274716658822581,1378,1589274716658723333,,-0.342241012146,-1.54941565286,4.8849710818
1589274716665051321,1379,1589274716664919331,,-0.342476659679,-1.39608231797,4.92111627046
1589274716670953713,1380,1589274716670840179,,-0.340370715542,-1.23478658426,4.96109194541
1589274716676890737,1381,1589274716676805754,,-0.339605708815,-1.07276485108,4.99814632978
1589274716683160861,1382,1589274716683043643,,-0.339502526382,-0.911096227936,5.03729140721
1589274716688727821,1383,1589274716688630905,,-0.339047896925,-0.748466680852,5.07738546794
1589274716694776971,1384,1589274716694688543,,-0.338251882203,-0.579297326151,5.11733871406
1589274716701158884,1385,1589274716701068739,,-0.338017582335,-0.413319896279,5.15907900122
1589274716709975576,1386,1589274716709832665,,-0.336740931362,-0.240879755753,5.20067326853
1589274716715856329,1387,1589274716715753275,,-0.336172683058,-0.06621728217,5.24325583925
1589274716722132204,1388,1589274716721971333,,-0.336650623481,0.107360263027,5.28479836968
1589274716728253985,1389,1589274716728109550,,-0.336348701366,0.283986877594,5.32895568333
1589274716736820778,1390,1589274716736723587,,-0.335301367993,0.463738160247,5.37396124418
1589274716742991480,1391,1589274716742876739,,-0.335386047141,0.644440932363,5.41910040425
1589274716748878450,1392,1589274716748775495,,-0.335069684278,0.827862760337,5.4638922249
1589274716754862348,1393,1589274716754776191,,-0.335049423449,1.01300818158,5.51007378159
1589274716760887829,1394,1589274716760773210,,-0.33505072399,1.20026560792,5.55618985567
1589274716767240478,1395,1589274716766895494,,-0.334337556051,1.2000579692,5.55617365904
1589274716773140544,1396,1589274716772868249,,-0.334255748858,1.3893846704,5.60219828491
1589274716779010932,1397,1589274716778890374,,-0.333564712224,1.58149103877,5.65100142274
1589274716785024442,1398,1589274716784902985,,-0.33378428946,1.77385207611,5.69817735983
1589274716791004402,1399,1589274716790877264,,-0.333449847609,1.96963927061,5.74715217915
1589274716796824973,1400,1589274716796678361,,-0.332293494348,2.16716733362,5.79750808222
1589274716802998315,1401,1589274716802856382,,-0.331566451362,2.36674473832,5.84755880591
1589274716808792711,1402,1589274716808677909,,-0.331589118558,2.5676800892,5.8966946198
1589274716814907514,1403,1589274716814769689,,-0.330608822791,2.77071760825,5.94833461187
1589274716821237617,1404,1589274716821071685,,-0.329702501548,2.97699458074,5.99955137675
1589274716833224461,1405,1589274716832845604,,-0.32834760653,3.18336511248,6.05090418711
1589274716838651312,1406,1589274716838571487,,-0.327350445961,3.39171161332,6.10418895109
1589274716844837538,1407,1589274716844750010,,-0.326719025647,3.60393270933,6.15639472294
1589274716850791908,1408,1589274716850662316,,-0.325625337116,3.81578648683,6.20967735523
1589274716855511930,1409,1589274716855379427,,-0.324455410316,4.02981358072,6.26415051134
1589274716860120655,1410,1589274716859797790,,-0.323183955301,4.02893835766,6.26292548236
1589274716866148334,1411,1589274716866015057,,-0.322405965827,4.24531680508,6.31572406565
