%time,field.header.seq,field.header.stamp,field.header.frame_id,field.wrench.force.x,field.wrench.force.y,field.wrench.force.z,field.wrench.torque.x,field.wrench.torque.y,field.wrench.torque.z
1589274713385003207,749,1589274713384891957,,-0.169533876079,-1.04648551546,2.86562711584,0.624398066785,-0.00538743763238,0.0178255396183
1589274713391146322,750,1589274713390990569,,-0.169498763438,-1.04650243216,2.86562301514,0.624398279395,-0.00538432955783,0.0178190301576
1589274713393978162,751,1589274713393826649,,-0.169830199798,-1.17746510283,2.86625978032,0.624381889047,-0.00538759611824,0.0187332583737
1589274713399973259,752,1589274713399876154,,-0.169845022133,-1.17747856062,2.86625337352,0.624381788689,-0.00538674327471,0.0187368482422
1589274713402921300,753,1589274713402808730,,-0.169074444058,-1.04638221149,2.84236669071,0.623611668553,-0.00604287583886,0.0187218624401
1589274713406050185,754,1589274713405920738,,-0.145943768816,-1.04645658203,2.84276336813,0.623626814072,-0.0053812376315,0.0179564829361
1589274713409077909,755,1589274713408949380,,-0.145907838474,-1.04645452576,2.84276596946,0.624520683774,-0.00538486179138,0.0188701839684
1589274713414867473,756,1589274713414717414,,-0.168988242617,-1.04640490402,2.84236346292,0.624507284723,-0.00538484476839,0.0196257362911
1589274713417822447,757,1589274713417712424,,-0.192427962028,-1.04650193272,2.86521081725,0.625245080901,-0.00604745436328,0.0213014119966
1589274713423912697,758,1589274713423804549,,-0.192411564473,-1.04651813105,2.86520600207,0.625245207618,-0.00604931998738,0.0212971624222
1589274713426963247,759,1589274713426861630,,-0.215547177044,-1.04646040891,2.8648094332,0.626151347302,-0.00605324528591,0.0220802724011
1589274713429942577,760,1589274713429850864,,-0.215541748158,-1.04644736901,2.86481460486,0.627964980798,-0.00605983525008,0.0230173891915
1589274713432967203,761,1589274713432867096,,-0.215557071198,-1.04642372266,2.86482208928,0.627964855276,-0.00605900206068,0.0230210327565
1589274713438957377,762,1589274713438867923,,-0.216013322924,-1.04651919248,2.88818535238,0.628736797524,-0.00606164422438,0.0230382800358
1589274713441968077,763,1589274713441884654,,-0.215686469124,-0.915615504257,2.88761566235,0.630548723994,-0.00673613618343,0.0239891367698
1589274713447980468,764,1589274713447905897,,-0.21568827997,-0.915587308084,2.88762446748,0.630548715207,-0.00674045969216,0.0239881532927
1589274713450863939,765,1589274713450735708,,-0.2387037437,-0.915531228435,2.88723291728,0.633286163541,-0.00607575683855,0.0247990493781
1589274713453942554,766,1589274713453850058,,-0.215680195598,-0.915563054582,2.88763276134,0.633283629431,-0.00607765657522,0.0249429178886
1589274713456916012,767,1589274713456789594,,-0.215661653254,-0.915535405301,2.88764291265,0.633283801564,-0.00608158214062,0.0249375901539
1589274713462921542,768,1589274713462816938,,-0.216109942776,-0.915643821287,2.9109062589,0.634962319076,-0.00608414832008,0.0249708524069
1589274713466038640,769,1589274713465864024,,-0.216443474034,-1.0465030092,2.91149071606,0.636769811337,-0.00609325099775,0.0268232824822
1589274713472019907,770,1589274713471900428,,-0.216459210997,-1.04649069296,2.91149397302,0.636769658028,-0.00609164113939,0.026827287307
1589274713474924415,771,1589274713474833629,,-0.216457666409,-1.04647045434,2.91150136223,0.638615556303,-0.00609790043587,0.0259442645634
1589274713478082401,772,1589274713477988609,,-0.216536495887,-0.915674751342,2.93419562639,0.642091802011,-0.00610840038674,0.027825252145
1589274713481166880,773,1589274713481061610,,-0.216527087944,-0.915659304763,2.93420114103,0.64209190045,-0.00611056329361,0.0278225055622
1589274713487017895,774,1589274713486929076,,-0.216858155421,-1.04654418518,2.93477627929,0.642091970261,-0.00610857026406,0.0278213320701
1589274713489971982,775,1589274713489887197,,-0.239879385301,-1.04650155917,2.93437969596,0.642998465982,-0.00611180522197,0.0285965875176
1589274713496173644,776,1589274713495972986,,-0.239435284203,-1.0463601655,2.91113252801,0.643123628064,-0.00611443521408,0.0295034588699
1589274713498994772,777,1589274713498834974,,-0.239420187802,-1.04636962058,2.91113037113,0.643107839454,-0.00611434992886,0.0304061087587
1589274713501887181,778,1589274713501792901,,-0.239873875198,-1.0464831686,2.93438670504,0.64298257703,-0.00611484914691,0.0295002028967
1589274713504882947,779,1589274713504798859,,-0.239867736478,-1.0464687849,2.93439233643,0.642968099246,-0.00545378748592,0.0304055333998
1589274713511087578,780,1589274713510970527,,-0.239883549133,-1.04646787779,2.9343913673,0.642967952843,-0.00545586837336,0.0304082558536
1589274713513890350,781,1589274713513810150,,-0.239878734299,-1.04645296458,2.93439707924,0.642968022331,-0.00545806163588,0.0304063929201
1589274713520047283,782,1589274713519949878,,-0.240770852273,-1.04669572101,2.98100630211,0.643603438896,-0.00612023350495,0.0295135350505
1589274713523027174,783,1589274713522933145,,-0.240757739013,-1.04669839954,2.98100642073,0.643603562301,-0.00611928283001,0.0295110409757
1589274713526141939,784,1589274713525869275,,-0.240309786408,-1.04656541075,2.95765584062,0.642833002997,-0.00546005339244,0.0294948679905
1589274713532032014,785,1589274713531943261,,-0.240310931252,-1.04655799648,2.95765837112,0.642833012752,-0.00546272522091,0.0294941606437
1589274713534928853,786,1589274713534842799,,-0.240273426047,-1.04654879533,2.95766467398,0.642833388139,-0.00546281936932,0.029485960406
1589274713537969394,787,1589274713537858024,,-0.239843207095,-1.04638795855,2.93442316463,0.640234856012,-0.0054538340607,0.0294410236809
1589274713543954623,788,1589274713543854492,,-0.239837810765,-1.04633451013,2.93444266435,0.639357016383,-0.00545575285178,0.0276098448377
1589274713547041986,789,1589274713546867263,,-0.216781823926,-1.04633642144,2.93485599895,0.637507672636,-0.00611090925454,0.028621361633
1589274713549870398,790,1589274713549706612,,-0.239345662415,-1.04611659882,2.91122743228,0.636757655775,-0.00610715174864,0.0275509369976
1589274713555851992,791,1589274713555772858,,-0.23932151393,-1.04609032676,2.91123885797,0.633992457047,-0.00610027209286,0.0284008889596
1589274713558868741,792,1589274713558780849,,-0.215850901178,-1.04597426207,2.88839488941,0.629563266181,-0.00542463455941,0.028465477808
1589274713561911740,793,1589274713561835651,,-0.215393227623,-1.04581873229,2.86505532201,0.627885996567,-0.00606980114619,0.027528168219
1589274713567808488,794,1589274713567701982,,-0.192575430548,-1.17682074613,2.86612212058,0.62515164927,-0.00539911741044,0.0267080312784
1589274713570822442,795,1589274713570698873,,-0.237822720291,-1.17642647658,2.81886163564,0.61536362857,-0.00603380060709,0.0271405533084
1589274713573818995,796,1589274713573740021,,-0.1916570989,-1.17643134199,2.81969075973,0.610812831351,-0.00536305777825,0.0255287572381
1589274713580251919,797,1589274713580182050,,-0.190411007951,-1.0451504169,2.77243709107,0.598277076938,-0.005995251353,0.0261950964909
1589274713583219714,798,1589274713583104221,,-0.190398623616,-1.04512857901,2.77244617392,0.598277204461,-0.00599667246682,0.0261918584719
1589274713585901396,799,1589274713585765516,,-0.189942770405,-1.04498250151,2.74920582302,0.593840710509,-0.00532659829565,0.0261060845743
1589274713591751612,800,1589274713591681730,,-0.189846374255,-1.17574591642,2.72669618961,0.589396903867,-0.00531884330084,0.0269266481196
1589274713594902652,801,1589274713594715188,,-0.166415562142,-1.17562250463,2.70386845525,0.582281652963,-0.00463450328206,0.0233141611537
1589274713597863905,802,1589274713597721363,,-0.212072173635,-1.17535943161,2.67975526691,0.578716193101,-0.00529691864034,0.0256798843601
1589274713603825585,803,1589274713603712563,,-0.188512269305,-1.17524787691,2.65692398556,0.57428730572,-0.00462087340267,0.0257345896816
1589274713607005729,804,1589274713606923511,,-0.210294981391,-1.17474780821,2.58674312501,0.562807658053,-0.00392635104748,0.0262843021943
1589274713609921247,805,1589274713609825778,,-0.210308880149,-1.17475198185,2.58674009962,0.562807533837,-0.00392759367288,0.0262867761809
1589274713615839498,806,1589274713615716099,,-0.1868633724,-1.04396267287,2.58632843255,0.561910991759,-0.00392758528479,0.0255075080354
1589274713618823279,807,1589274713618698201,,-0.163476337211,-1.0438756322,2.56347730191,0.557494413446,-0.00458734056227,0.0246733357947
1589274713624805149,808,1589274713624719686,,-0.186814434647,-1.17470589333,2.56387566292,0.555641481365,-0.00457928500548,0.0253995176643
1589274713627837580,809,1589274713627730925,,-0.209483553847,-1.17453652853,2.54024066585,0.553013895035,-0.00457390543795,0.0270206306987
1589274713630802884,810,1589274713630721145,,-0.186396730801,-1.17461901295,2.54061673712,0.553027083097,-0.00456917409947,0.0262610973376
1589274713633771374,811,1589274713633687831,,-0.209505482706,-1.17461901368,2.54020071688,0.553013565869,-0.00456806583288,0.0270283542932
1589274713640024592,812,1589274713639919520,,-0.209984886222,-1.17481834893,2.56340324265,0.553781798911,-0.00456403913414,0.0270542081308
1589274713642996952,813,1589274713642881397,,-0.209585696761,-1.17471171892,2.54015122971,0.552102762436,-0.00455822794048,0.0270327910733
1589274713649128515,814,1589274713649022488,,-0.209584435489,-1.17475302546,2.54013223085,0.552998183682,-0.00388723837715,0.0279558467878
1589274713652023483,815,1589274713651921835,,-0.209601671719,-1.17479899251,2.54010954941,0.552997964094,-0.00388590990993,0.0279603748027
1589274713654965302,816,1589274713654845699,,-0.186525769134,-1.17488743942,2.54048314576,0.553945217883,-0.00454812180024,0.0263177344632
1589274713661037733,817,1589274713660942645,,-0.187387979701,-1.17523295774,2.58692340662,0.557312419077,-0.00455050702724,0.0263802033307
1589274713663962920,818,1589274713663844351,,-0.18739235073,-1.17526545519,2.58690832623,0.55731232624,-0.00454720917003,0.0263827331587
1589274713666962838,819,1589274713666854187,,-0.187739299289,-1.30623748399,2.587723405,0.557296458724,-0.00454270615115,0.0272885910626
1589274713673017937,820,1589274713672900803,,-0.234288892919,-1.30634903687,2.61023349935,0.556229323576,-0.00386658824976,0.0278897781656
1589274713675992492,821,1589274713675890186,,-0.234286287158,-1.30634366982,2.61023641929,0.556229315179,-0.00386452472793,0.0278902316175
1589274713679322714,822,1589274713679229520,,-0.211276635514,-1.3063284927,2.61065830427,0.556241258379,-0.0045328716369,0.0271299702632
1589274713684939664,823,1589274713684851255,,-0.210825919955,-1.30616400117,2.58734268535,0.555469323991,-0.00453160416098,0.027113147282
1589274713688043872,824,1589274713687936901,,-0.1885110948,-1.43746470158,2.61189218206,0.557181776232,-0.00386957306164,0.0254778985658
1589274713691239195,825,1589274713691111181,,-0.188075411717,-1.43730846658,2.58857829398,0.556409763945,-0.00387056757611,0.0254622541545
1589274713696887257,826,1589274713696785472,,-0.210836753776,-1.30623242449,2.58730725937,0.557299050729,-0.00454819404556,0.0271434373739
1589274713699891715,827,1589274713699784053,,-0.211232211133,-1.43733330404,2.58813857748,0.55820289961,-0.00456103650339,0.0280664264309
1589274713702976088,828,1589274713702826340,,-0.211270506886,-1.43736640953,2.5881170661,0.559112447541,-0.00457062970004,0.0280876062668
1589274713709073427,829,1589274713708935128,,-0.211289048478,-1.43739305488,2.5881007542,0.560910234059,-0.00457794334797,0.0299419206487
1589274713711963942,830,1589274713711852040,,-0.211740064821,-1.43757076955,2.61140211305,0.563527597631,-0.00458653087426,0.0290875690608
1589274713714995130,831,1589274713714902726,,-0.211742002781,-1.43756088824,2.61140739553,0.563527608638,-0.00458803512046,0.0290871185932
1589274713720918484,832,1589274713720839875,,-0.212139308744,-1.56873957119,2.61226699707,0.564432882742,-0.00392857020964,0.0300116061965
1589274713724028274,833,1589274713723889650,,-0.21260026126,-1.5689208391,2.63545780041,0.566103980988,-0.00460119891365,0.0309520897948
1589274713726995234,834,1589274713726913786,,-0.21261560892,-1.56894748645,2.6354406986,0.567950639302,-0.0039377219617,0.030085531694
1589274713735990257,835,1589274713735848817,,-0.213064776493,-1.56913824314,2.65862794891,0.569596171471,-0.00461325097463,0.0319260201196
1589274713738998479,836,1589274713738883109,,-0.213514170898,-1.56931370653,2.68182516046,0.57036342207,-0.00528715639913,0.0319407263293
1589274713744985890,837,1589274713744882307,,-0.213973239388,-1.56948715034,2.70512380058,0.572964895512,-0.00529570195427,0.0319925693303
1589274713747959586,838,1589274713747875157,,-0.236926349134,-1.70055274614,2.6822772786,0.572163877458,-0.00529308811103,0.0336493283794
1589274713751115714,839,1589274713751008757,,-0.23691564564,-1.70051309077,2.68230336494,0.572164032335,-0.0052933295834,0.033646656804
1589274713760079546,840,1589274713759972932,,-0.213868464128,-1.70054182218,2.68271181558,0.572177256303,-0.0052893986942,0.0328875547661
1589274713762969737,841,1589274713762815885,,-0.213865297489,-1.70051718657,2.68272768411,0.572177382753,-0.00529233489646,0.0328848823117
1589274713765936796,842,1589274713765825175,,-0.236915428326,-1.70047229789,2.68232924536,0.572164151925,-0.00529700957725,0.033644043928
1589274713768917458,843,1589274713768827944,,-0.213872541916,-1.70051408755,2.68272907097,0.573098816373,-0.00463616823475,0.0328976365142
1589274713771970762,844,1589274713771900204,,-0.236880435377,-1.70048632695,2.68232344205,0.573988672214,-0.00530643087856,0.0345723769281
1589274713777967026,845,1589274713777834272,,-0.236872871105,-1.7005085303,2.68231003389,0.573084582494,-0.00530279920906,0.0336501437711
1589274713781059357,846,1589274713780953677,,-0.259896038894,-1.70046798697,2.68191467103,0.571243262113,-0.00462492865393,0.0343757281603
1589274713787049862,847,1589274713786772318,,-0.237283506237,-1.70063797811,2.70563207789,0.570183256727,-0.00461867579016,0.0345002232653
1589274713789939161,848,1589274713789857918,,-0.26031586504,-1.70055680582,2.70526144816,0.569297475846,-0.00461311457391,0.0325198828679
1589274713795819091,849,1589274713795749947,,-0.237629894095,-1.83199088533,2.70650918586,0.567449817132,-0.00461131019111,0.0335389364045
1589274713801860881,850,1589274713801746403,,-0.237631819818,-1.83199212121,2.70650818024,0.567434264219,-0.0046148864471,0.0344411902342
1589274713804923574,851,1589274713804851738,,-0.237211323878,-1.83182643926,2.68321769295,0.569411482005,-0.00462084042275,0.0344808579419
1589274713810883718,852,1589274713810759389,,-0.237216741985,-1.83186590753,2.68319026862,0.569411448111,-0.00462242881331,0.0344812047721
1589274713813862017,853,1589274713813739072,,-0.260253884152,-1.83183616935,2.68278592674,0.564819311908,-0.00460928421977,0.0351543859586
1589274713816935020,854,1589274713816773650,,-0.260202516983,-1.96308456724,2.66051340045,0.564034979201,-0.00460664060477,0.0360442799522
1589274713819864519,855,1589274713819768743,,-0.259732600123,-1.96286257375,2.63737934846,0.560548398875,-0.00459556188791,0.0341642541401
1589274713825961989,856,1589274713825872693,,-0.259369551538,-1.83134925512,2.63651962573,0.558703012167,-0.00459452854031,0.0350363867638
1589274713829117094,857,1589274713828865453,,-0.236684305887,-1.96283075005,2.63783112048,0.55596848446,-0.00392059236102,0.0342203672092
1589274713835022706,858,1589274713834926139,,-0.259282808955,-1.96260908123,2.61426868192,0.553340126524,-0.00457854699633,0.0358336320395
1589274713838049177,859,1589274713837920697,,-0.258855408583,-1.96243461142,2.59099788712,0.550738512962,-0.00457622109026,0.0357838817659
1589274713841088004,860,1589274713840959914,,-0.258843400337,-1.96245302567,2.59098513964,0.54889345916,-0.00457325135304,0.0366595587834
1589274713844026988,861,1589274713843921870,,-0.23576002768,-1.9624917825,2.59138713044,0.546143497123,-0.00389698050622,0.0367463523426
1589274713849887087,862,1589274713849791935,,-0.235727807818,-1.96249485582,2.59138773409,0.54614388681,-0.00389548191699,0.0367407190703
1589274713855913603,863,1589274713855808423,,-0.21306286173,-2.09410589406,2.59268466865,0.54615826099,-0.0032386314564,0.0359829149637
1589274713859033964,864,1589274713858824734,,-0.213044112118,-2.09413649899,2.59266148957,0.548002297816,-0.00390407762717,0.0351071285209
1589274713861951528,865,1589274713861783726,,-0.21307335637,-2.09417628487,2.59262695009,0.548001979554,-0.00390636820871,0.0351118412998
1589274713864873594,866,1589274713864807745,,-0.213049483632,-2.0942040555,2.59260648019,0.548939223141,-0.00325086641349,0.0342107387524
1589274713868134828,867,1589274713867969003,,-0.213042123873,-2.09422349046,2.59259138606,0.548003627931,-0.00324436122322,0.035109203626
1589274713873856105,868,1589274713873777900,,-0.236093381717,-2.09419403606,2.5921817879,0.548924537553,-0.00390165924033,0.0349733567077
1589274713876906589,869,1589274713876816119,,-0.23649049335,-2.22585804805,2.59305421699,0.548908735493,-0.00390391690403,0.0358887688288
1589274713883211896,870,1589274713883107843,,-0.260009225011,-2.22599427377,2.61590536316,0.550577497954,-0.00391320461092,0.0366795616435
1589274713885956110,871,1589274713885869172,,-0.236892778834,-2.35761313613,2.59390229835,0.55073810257,-0.00391011433101,0.0359265423389
1589274713888935874,872,1589274713888848874,,-0.214238172645,-2.35783926322,2.61754447763,0.552444449946,-0.00325318194459,0.0351993326987
1589274713891897685,873,1589274713891825340,,-0.213821329483,-2.35768906436,2.59427403419,0.552549909188,-0.00391783843875,0.0370069072005
1589274713897841465,874,1589274713897768417,,-0.237404810647,-2.22626904192,2.63940842518,0.554997313448,-0.0039297466961,0.0378137923951
1589274713900918573,875,1589274713900790340,,-0.23775653383,-2.35800596632,2.64025815011,0.556827068441,-0.00392977931578,0.0378463123898
1589274713906868661,876,1589274713906787816,,-0.260820767998,-2.35799331841,2.63983265972,0.558643866408,-0.00393578861571,0.0386368020085
1589274713909922388,877,1589274713909824763,,-0.238183908005,-2.3582139305,2.66337863704,0.563084860249,-0.00395003566411,0.0379593925267
1589274713918939409,878,1589274713918803068,,-0.238162382393,-2.35816956113,2.6634198469,0.565834439401,-0.00395363906487,0.0380086364749
1589274713922127746,879,1589274713921998498,,-0.285243939062,-2.49006973207,2.68658513407,0.571138845889,-0.00463153073838,0.040540432167
1589274713925096982,880,1589274713924954454,,-0.262052664326,-2.49010784095,2.68699057888,0.57296733131,-0.00396596964625,0.0407266479913
1589274713931104759,881,1589274713930997695,,-0.28568222954,-2.49024694399,2.70982622385,0.573725680531,-0.0039606674281,0.0415134723628
1589274713934095901,882,1589274713933993473,,-0.286180918064,-2.4903996461,2.73298450998,0.577258534808,-0.00397091177186,0.0406777128445
1589274713937015361,883,1589274713936920781,,-0.309307365449,-2.49034167752,2.73259690096,0.578154754782,-0.00397341408588,0.0414621173381
1589274713943147477,884,1589274713942968757,,-0.309752019904,-2.49047970876,2.75577482117,0.580752740245,-0.00397647182661,0.0415160329894
1589274713946180936,885,1589274713945958068,,-0.287092306009,-2.49064987178,2.77936269904,0.581534440925,-0.00397574952731,0.0407722003993
1589274713949033260,886,1589274713948935931,,-0.287110737541,-2.4906680922,2.77934446725,0.582454052123,-0.00397978346103,0.0407919856244
1589274713955087258,887,1589274713954938644,,-0.287119144408,-2.490686155,2.77932741197,0.58429878633,-0.00397891539639,0.0399283006363
1589274713958170484,888,1589274713958069193,,-0.311047119307,-2.6226497329,2.80298276501,0.589620830413,-0.00398980989543,0.0416984832905
1589274713961087188,889,1589274713960975973,,-0.311061021734,-2.62264914497,2.80298177233,0.589620892212,-0.00399435881525,0.0416971739356
1589274713967051933,890,1589274713966962300,,-0.311465737396,-2.6228427885,2.82610923062,0.592202238691,-0.00466586399255,0.0426584360309
1589274713970059394,891,1589274713969969963,,-0.288380324368,-2.62290251385,2.82649204741,0.594964481528,-0.00467281383757,0.0419534133696
1589274713979674110,892,1589274713979453616,,-0.288387871867,-2.49123189194,2.84886131612,0.599392703651,-0.00467669059382,0.0420332744016
1589274713982269524,893,1589274713982187771,,-0.311890514738,-2.62306801165,2.84920703318,0.603942769069,-0.00469027249119,0.0437882211436
1589274713985034112,894,1589274713984921427,,-0.312335348063,-2.62322046461,2.87237119622,0.606541172127,-0.00470108864215,0.0438355404745
1589274713991098949,895,1589274713990981807,,-0.313145702034,-2.7553215662,2.89634864522,0.613707701505,-0.00404970449851,0.0448757812644
1589274713993934628,896,1589274713993850742,,-0.313136100938,-2.75533227148,2.89633949918,0.613707675895,-0.0040470792086,0.0448763683303
1589274713996949822,897,1589274713996842971,,-0.336367272153,-2.75527667974,2.89594768042,0.615524134558,-0.0040567367956,0.0456739246626
1589274714003181605,898,1589274714003029872,,-0.313198942011,-2.75534114611,2.89632426186,0.617349098511,-0.00473181516313,0.0458676439958
1589274714006275382,899,1589274714006087120,,-0.313704330401,-2.75543357884,2.91953472452,0.620866723723,-0.00475031419441,0.0459394717024
1589274714009123662,900,1589274714008973891,,-0.337366748722,-2.75552167765,2.94231205075,0.62345169757,-0.00475801099439,0.0467546115696
1589274714015084453,901,1589274714014960833,,-0.314126518699,-2.75557620877,2.9427073229,0.626214139248,-0.00475601912681,0.0460449285268
1589274714018083683,902,1589274714017969080,,-0.314575504437,-2.75572052261,2.9658763974,0.628827615724,-0.0047556980022,0.0451876933813
1589274714021003322,903,1589274714020876377,,-0.338215272033,-2.75584101807,2.98872800906,0.630495094196,-0.00543193891183,0.0459786696474
1589274714026949939,904,1589274714026847966,,-0.338212444913,-2.75587830233,2.98869394955,0.630495180849,-0.00543325477402,0.0459773259002
1589274714030039931,905,1589274714029852714,,-0.338539214711,-2.88785000531,2.98940073218,0.635058471622,-0.00543236539774,0.0469794505005
1589274714038946332,906,1589274714038837610,,-0.315756113094,-2.88805382395,3.01295577316,0.638620112056,-0.00610611363728,0.0444552049498
1589274714041966489,907,1589274714041871273,,-0.315730654806,-2.88807482784,3.01293830777,0.640467121025,-0.00545009313466,0.0435792681811
1589274714048002288,908,1589274714047848547,,-0.316524065007,-3.02021493467,3.03680911021,0.641250568395,-0.00611310516859,0.0426734985641
1589274714050906509,909,1589274714050790328,,-0.316464248077,-3.0202114738,3.03681878623,0.643113376157,-0.00544875755966,0.0408917562614
1589274714056946457,910,1589274714056813918,,-0.316460790814,-3.02020434208,3.03682623921,0.64492776917,-0.005461440716,0.041823250235
1589274714059890706,911,1589274714059799310,,-0.294213501909,-3.02051644197,3.08367731039,0.650165334551,-0.00613886417175,0.0402524484239
1589274714063054488,912,1589274714062944678,,-0.294235382932,-3.02054485098,3.08364739524,0.650165079139,-0.00613982881432,0.0402564265519
1589274714066095267,913,1589274714065944959,,-0.295147213464,-3.15272620307,3.10748064248,0.650917308455,-0.0061565460563,0.0411868539042
1589274714072051584,914,1589274714071952871,,-0.294761039854,-3.0206720438,3.10682099058,0.651827437053,-0.00616015054709,0.041198641945
1589274714075058809,915,1589274714074945718,,-0.295117713866,-3.15273072226,3.10747885921,0.653689728754,-0.00549566552732,0.0394269214894
1589274714078006672,916,1589274714077878809,,-0.29514528205,-3.15270109529,3.10750629908,0.654607673193,-0.00615555777976,0.0394514850596
1589274714084083296,917,1589274714083977698,,-0.295206445943,-3.15268467838,3.10751714486,0.654607499659,-0.0061670719426,0.0394525662359
1589274714087109913,918,1589274714087024091,,-0.296355381585,-3.41699962278,3.13202410893,0.658111610812,-0.0055178171946,0.0404197604812
1589274714090043596,919,1589274714089962045,,-0.296329832771,-3.41700487311,3.13202079823,0.658111635481,-0.005512651419,0.0404200636934
1589274714095926689,920,1589274714095834245,,-0.296819297506,-3.41714519315,3.15527048711,0.659776040479,-0.00618666167344,0.0413597525657
1589274714098896108,921,1589274714098793851,,-0.296778710776,-3.41715293468,3.15526592082,0.660695970842,-0.00618191016501,0.0413760798329
1589274714102098627,922,1589274714101976047,,-0.297258778906,-3.41733386848,3.17837379324,0.662374424263,-0.00619677396219,0.041407459217
1589274714108116534,923,1589274714108015479,,-0.320796589874,-3.54943070055,3.17860592739,0.666028557777,-0.00687294833936,0.042243398586
1589274714111073129,924,1589274714110963491,,-0.320743326953,-3.54938633921,3.17866083831,0.666028985309,-0.00686769689277,0.0422375115736
1589274714114124525,925,1589274714113953987,,-0.298047363904,-3.54949939059,3.202298954,0.668626559711,-0.00621509029655,0.0424257790861
1589274714120141351,926,1589274714120017144,,-0.298387384519,-3.68166869551,3.20294075261,0.667707137155,-0.00621356453834,0.0424023823765
1589274714126271721,927,1589274714126170533,,-0.298008295625,-3.68154100949,3.17977575763,0.663342475006,-0.00621128971662,0.0386827698223
1589274714129090953,928,1589274714128990164,,-0.27393631431,-3.68122420351,3.13389267448,0.653624408553,-0.00619355033116,0.0350064988476
1589274714132018248,929,1589274714131920637,,-0.273974143774,-3.68113151443,3.13399824154,0.653624500645,-0.00620219305616,0.0350032490135
1589274714135134307,930,1589274714134963974,,-0.274354043726,-3.81325801729,3.13474145358,0.651793543997,-0.0068723781296,0.0349647590567
1589274714138088211,931,1589274714137989171,,-0.250734213109,-3.81314769302,3.11204264975,0.642863846662,-0.0068496107847,0.0303952870748
1589274714144174665,932,1589274714143961948,,-0.250740215193,-3.81314423197,3.11204640694,0.642864136044,-0.00685696772821,0.0303875068249
1589274714147103492,933,1589274714146988417,,-0.227187817002,-3.94507799208,3.06693696991,0.627699983304,-0.00616517072168,0.0238984239967
1589274714150071408,934,1589274714149983413,,-0.179124707442,-3.9444842334,2.97525308886,0.609158950479,-0.00613088825194,0.0174793786206
1589274714159083591,935,1589274714158939252,,-0.17899417084,-3.9444995396,2.97524065247,0.609159384979,-0.00611908452733,0.0174683689429
1589274714162056801,936,1589274714161972937,,-0.128177382463,-3.54667827034,2.78893966033,0.554798069613,-0.00798964637875,-0.00136170831455
1589274714165083860,937,1589274714164988634,,-0.100628399427,-3.67732164684,2.53572499544,0.53911314275,-0.00661217944774,-0.0069371823631
1589274714168054888,938,1589274714167957748,,-0.100336579488,-3.67694685229,2.53627999989,0.539113612633,-0.00657216618011,-0.00693868920933
1589274714171112674,939,1589274714171009057,,-0.0770720816914,-3.54493038757,2.55905870423,0.533524329949,-0.00654111767042,-0.00963241120401
1589274714177070227,940,1589274714176958569,,-0.054260633814,-3.6776051279,2.5597121036,0.528036268222,-0.00786847514179,-0.010496213807
1589274714180333633,941,1589274714180165595,,-0.0306550068899,-3.67787139388,2.53641865669,0.523638349039,-0.00652025851915,-0.0122433121717
1589274714183427567,942,1589274714183330549,,-0.0306003517105,-3.6781137815,2.53606781262,0.523638419104,-0.00651188650054,-0.0122447711589
1589274714189191446,943,1589274714189049287,,-0.0542851220443,-3.94297518524,2.53657489636,0.520067178084,-0.00648244194847,-0.0169755354179
1589274714191970864,944,1589274714191897092,,-0.0541136194785,-3.94300752336,2.5365282923,0.520067410589,-0.00646039522794,-0.016976816952
1589274714198036808,945,1589274714197916431,,-0.0768610909902,-3.81056680593,2.53555151941,0.519132330132,-0.00711074817928,-0.0162308228355
1589274714200983239,946,1589274714200891362,,-0.0311983037625,-4.07540097567,2.53760830221,0.510924380204,-0.00641861128978,-0.0178705086439
1589274714203973329,947,1589274714203897484,,-0.0314195142898,-4.07537728222,2.53764362426,0.510924840736,-0.00643472634163,-0.0178515364341
1589274714206938115,948,1589274714206864233,,-0.0316268548268,-4.07541453533,2.53758122025,0.506312120914,-0.00643340388169,-0.0160887753117
1589274714215994334,949,1589274714215876393,,-0.00851887087565,-3.94296958594,2.53757715045,0.496225116971,-0.00642636258612,-0.0151620343403
1589274714222150233,950,1589274714222051452,,-0.0315574460465,-4.07520045355,2.51461183843,0.493612732019,-0.00641342190462,-0.0144388275911
1589274714224987932,951,1589274714224909464,,-0.031466107837,-4.07519411981,2.51462324749,0.493595761341,-0.00640206862892,-0.0135361561784
1589274714228055029,952,1589274714227944732,,-0.0550739605398,-4.07525682531,2.53732715521,0.494332962278,-0.00640946583474,-0.0118656152257
1589274714231068470,953,1589274714230982865,,-0.0550432755462,-4.07536146445,2.53715975017,0.496128017062,-0.00641915617265,-0.0100350985664
1589274714237143041,954,1589274714236978955,,-0.055017599876,-4.07541604556,2.53707263303,0.496127920822,-0.00641882274165,-0.0100400686401
1589274714240021977,955,1589274714239936042,,-0.054580524879,-4.07530417926,2.51394157011,0.498108324149,-0.00642932595132,-0.0100188240818
1589274714246313724,956,1589274714246133531,,-0.0546001042282,-4.07530312832,2.51394284861,0.498108145491,-0.00643496616375,-0.0100240839975
1589274714249088928,957,1589274714249011714,,-0.0539746164499,-4.07516221835,2.49086484523,0.499221434714,-0.00575216809669,-0.0127333390788
1589274714255028482,958,1589274714254934822,,-0.0533513583279,-4.07495352965,2.46790105949,0.498469588557,-0.00573221102798,-0.0136598107927
1589274714257971811,959,1589274714257888371,,-0.0524288182138,-4.07466003756,2.42167160102,0.496043309613,-0.00571618935539,-0.0155166797097
1589274714260992142,960,1589274714260900214,,-0.0751932257748,-3.94224148686,2.42059780237,0.493289755349,-0.00569741443842,-0.0148031646389
1589274714263948975,961,1589274714263870980,,-0.0753769845494,-4.07480543356,2.42093316293,0.492370169577,-0.00567882679015,-0.0148172924311
1589274714270076762,962,1589274714269904559,,-0.0522795551329,-4.07487875738,2.42130677665,0.489652383587,-0.00567414000944,-0.01651554048
1589274714275947045,963,1589274714275872341,,-0.0528123374338,-4.07508108153,2.44427938622,0.484985256167,-0.00565828598889,-0.0192812355072
1589274714279584616,964,1589274714279448938,,-0.029969370654,-4.2075534782,2.44526891354,0.483169103864,-0.00632021172229,-0.0200646817379
1589274714285116134,965,1589274714285011250,,-0.00719458915391,-4.34006293502,2.44621742207,0.485968854983,-0.00632789750155,-0.0225712163103
1589274714287982185,966,1589274714287893348,,-0.00726004778376,-4.34006100758,2.44622064833,0.485969177487,-0.00633086389703,-0.0225634394661
1589274714294020667,967,1589274714293868715,,-0.0314650249601,-4.34025976869,2.49208903714,0.485665922459,-0.00634689315535,-0.0218011881248
1589274714296949163,968,1589274714296850862,,-0.0320496736874,-4.34039129399,2.51517420936,0.48734455561,-0.00636543037932,-0.0217661437114
1589274714299942529,969,1589274714299857674,,-0.00945765277201,-4.34057274523,2.53868874213,0.490824453142,-0.00639327793785,-0.0197508392658
1589274714303053668,970,1589274714302875712,,-0.0331384792715,-4.47299402128,2.53875940875,0.491702244243,-0.00641637110106,-0.0180712501437
1589274714309073776,971,1589274714308975473,,-0.0100201025218,-4.47306605547,2.53914937228,0.496295367457,-0.00643835815667,-0.0187591630158
1589274714311984583,972,1589274714311891706,,-0.033518038103,-4.4731469645,2.56190802329,0.506175786493,-0.00646250303267,-0.0160339752552
1589274714318033528,973,1589274714317951816,,-0.0584059752518,-4.605944848,2.63137163628,0.518538882142,-0.00650745490038,-0.0150600568465
1589274714320977685,974,1589274714320887886,,-0.0584048411539,-4.60596216001,2.63134135834,0.51853882016,-0.00650823060982,-0.0150618556351
1589274714323975501,975,1589274714323879134,,-0.0587103427974,-4.60613057873,2.65436825297,0.522984003919,-0.00650837817761,-0.0158929729182
1589274714329985286,976,1589274714329901850,,-0.0587065615068,-4.60610821842,2.6544071381,0.525732116331,-0.00718150881546,-0.0158446875613
1589274714335997433,977,1589274714335887130,,-0.0367512569373,-4.60644559447,2.72439432449,0.53451698604,-0.00719359806145,-0.019163746362
1589274714342022361,978,1589274714341939437,,-0.0134582084619,-4.60650636739,2.72480486357,0.533629004016,-0.00717906924387,-0.0208434653206
1589274714345157324,979,1589274714344886972,,-0.0133034012541,-4.60642396472,2.7249449274,0.532770799079,-0.0078205695239,-0.0235691164431
1589274714348047761,980,1589274714347968488,,-0.012889820799,-4.47390818518,2.72454270993,0.529182006644,-0.00779554293499,-0.0272509992749
1589274714354055217,981,1589274714353896477,,-0.0128068712824,-4.47383797245,2.72465839243,0.529182307492,-0.00778486090012,-0.0272482106815
1589274714359977129,982,1589274714359902002,,0.0341380032637,-4.47375409834,2.70240340825,0.523049255795,-0.00709132568642,-0.0343073697079
1589274714362984779,983,1589274714362899687,,0.0587014997579,-4.34107955381,2.65614369234,0.517000941977,-0.0077223486112,-0.0378886632127
1589274714366157001,984,1589274714366030882,,0.0591277846569,-4.34089749015,2.63313129178,0.516267804422,-0.007722751406,-0.0397110291563
1589274714369176095,985,1589274714369043465,,0.0592852004434,-4.34092418011,2.63308375146,0.516266631366,-0.00771386005439,-0.0397280041079
1589274714372090982,986,1589274714372019512,,0.05952605404,-4.34104441607,2.63288008485,0.516283641682,-0.00769396886114,-0.0406588146156
1589274714378160783,987,1589274714378086816,,0.0821552337573,-4.34119187928,2.65646274092,0.517986332454,-0.00771645210194,-0.041395014721
1589274714381288359,988,1589274714381221156,,0.0815096164873,-4.47384371021,2.67995455081,0.520602075298,-0.00771984928224,-0.0422597981994
1589274714384016030,989,1589274714383902006,,0.0579576313943,-4.47402097965,2.70246400399,0.524123370307,-0.00705920379568,-0.042355610105
1589274714389996687,990,1589274714389913876,,0.0576560298186,-4.60648555862,2.70295537624,0.527781441899,-0.00707681158,-0.0423045901029
1589274714396099844,991,1589274714395995223,,0.0107207521267,-4.47408411215,2.72476344479,0.534894858198,-0.0077955245946,-0.0388520454711
1589274714402069234,992,1589274714401979534,,0.00983738178113,-4.6066021414,2.74847383719,0.542938426259,-0.00783398132144,-0.0359913787173
1589274714405221727,993,1589274714405042506,,0.00959668493838,-4.60656284507,2.74854055001,0.542939293599,-0.00785269427634,-0.0359742125992
1589274714408168795,994,1589274714408073149,,-0.0147235486736,-4.60665148425,2.79450882167,0.546203037885,-0.00788414464587,-0.0306123270731
1589274714414084376,995,1589274714413969518,,-0.0149412018569,-4.60661109493,2.79457424579,0.546203385251,-0.00790364498485,-0.0306010986142
1589274714417072824,996,1589274714416930626,,-0.0162913518162,-4.73926728618,2.84147321534,0.547711370885,-0.00725217206103,-0.028747683904
1589274714420051014,997,1589274714419970033,,-0.0407746811319,-4.8718956672,2.88780681837,0.550994364138,-0.00726847088733,-0.0242912061373
1589274714426028361,998,1589274714425944878,,-0.0409665860332,-4.87187669719,2.88783610566,0.550994365862,-0.00728702963982,-0.0242856061164
1589274714429128218,999,1589274714428996357,,-0.0653179376394,-5.00452640465,2.9342374467,0.557048449226,-0.00663914491438,-0.0207081292156
1589274714432052493,1000,1589274714431974072,,-0.0660108284413,-5.00482462011,2.98036370743,0.562229232686,-0.00597230388849,-0.0197230633392
1589274714438067613,1001,1589274714437973866,,-0.0663896794493,-5.13730524339,2.98083827131,0.564040052495,-0.00664936188008,-0.0187739843049
1589274714441285571,1002,1589274714441158816,,-0.0666852138596,-5.13744307797,3.00401915856,0.570300689352,-0.00665814721768,-0.0186781693395
1589274714447167070,1003,1589274714447017732,,-0.0667561697558,-5.13762209495,3.02703722005,0.575700176929,-0.00663971302014,-0.0213235343199
1589274714450125278,1004,1589274714450001575,,-0.0665764927958,-5.13759694515,3.02708386209,0.575699958706,-0.00662581872687,-0.0213337453839
1589274714456124593,1005,1589274714456036100,,-0.0653396240569,-4.87245036599,3.00316071516,0.567717088887,-0.00658300847775,-0.0269184136458
1589274714459114706,1006,1589274714458987300,,-0.0650850878432,-4.87234737633,3.00333333021,0.567716343083,-0.00656659538947,-0.0269381444981
1589274714462205230,1007,1589274714462041601,,-0.0408449998433,-4.87204280128,2.95761443461,0.562572478672,-0.0071975471338,-0.0305051401913
1589274714465146511,1008,1589274714465050544,,-0.0162403322795,-4.73930495157,2.91145232936,0.556515278302,-0.0071591468178,-0.0331888928782
1589274714471009749,1009,1589274714470907897,,0.008409442732,-4.60653273715,2.86524284998,0.550463135593,-0.00712285230355,-0.0367837783692
1589274714474203625,1010,1589274714474095848,,0.0573754176392,-4.47366412224,2.74976736479,0.536633723108,-0.0064046789439,-0.0412551123895
1589274714477083656,1011,1589274714476998422,,0.0580083168369,-4.47357108227,2.72660720135,0.533133000052,-0.00637765897212,-0.0422276668388
1589274714483449066,1012,1589274714483315016,,0.0578262871564,-4.60613029971,2.72695839922,0.528556051919,-0.0056881416981,-0.0422980879617
1589274714486083947,1013,1589274714485943874,,0.0578010569216,-4.60624350559,2.72676770801,0.528555486688,-0.00569295090017,-0.0423045035782
1589274714488981341,1014,1589274714488898479,,0.0341165840086,-4.60640690699,2.74929847854,0.528443583196,-0.00568712858098,-0.0442613015507
1589274714495174862,1015,1589274714494947900,,0.0339972555337,-4.60646049952,2.74921016132,0.52844376088,-0.00569781517974,-0.0442578055981
1589274714498136045,1016,1589274714498024696,,0.0335192642227,-4.60657785105,2.77232837559,0.530998304339,-0.00570870356034,-0.0414916153608
1589274714501085560,1017,1589274714500987590,,0.0103276436298,-4.7389695154,2.74913656777,0.532916970628,-0.00639722151414,-0.0388933887987
1589274714507121365,1018,1589274714507020065,,0.0100838767764,-4.73895508954,2.74916233988,0.532917368141,-0.00641956797657,-0.0388842590166
1589274714510096298,1019,1589274714509978102,,0.00897369112662,-4.73911670549,2.79551511277,0.537152440761,-0.00578777023859,-0.0360817132173
1589274714519113210,1020,1589274714519011056,,0.0315911348628,-4.73920690085,2.79587829027,0.538036701324,-0.00517830637836,-0.0340732826579
1589274714525125579,1021,1589274714525000607,,0.007034557949,-4.87181676466,2.84235083521,0.543186501815,-0.00521360773352,-0.0314028702999
1589274714528205341,1022,1589274714527992035,,-0.01796720545,-5.0045401506,2.91194060099,0.548179594498,-0.00457153207126,-0.0278377062706
1589274714534109898,1023,1589274714534026458,,-0.0649280293634,-5.00454676947,2.93421136672,0.549792621184,-0.00525503119531,-0.0244658352956
1589274714537063707,1024,1589274714536974386,,-0.0893927330209,-5.137255793,2.98041346107,0.555876830771,-0.0052842219138,-0.0227036752468
1589274714543398977,1025,1589274714543182314,,-0.0678787921424,-5.27013379391,3.05076771861,0.566421835612,-0.00531783227577,-0.0223616445673
1589274714546366690,1026,1589274714546075956,,-0.0678580454172,-5.27015147928,3.05073762886,0.566421777994,-0.00531648628208,-0.0223634240129
1589274714549214978,1027,1589274714549104083,,-0.0680868678131,-5.13771411909,3.073601495,0.569944667674,-0.00467085920393,-0.0223018975917
1589274714555148367,1028,1589274714555060129,,-0.0674627036728,-5.13766761795,3.0502693207,0.565570500193,-0.00596204376419,-0.0260141747431
1589274714558090749,1029,1589274714558020433,,-0.0672398858725,-5.13768990683,3.05023669848,0.565570186719,-0.00594383838694,-0.0260251536279
1589274714561087121,1030,1589274714561018529,,-0.0181212546595,-4.73979841941,2.95727131972,0.55435387506,-0.00589897253894,-0.031354157654
1589274714567116097,1031,1589274714567042121,,-0.0178050958852,-4.73962484515,2.95755141979,0.554354199359,-0.00586451943057,-0.0313548869897
1589274714570164883,1032,1589274714570078263,,0.00937539345254,-4.47384352179,2.7950902729,0.534495566858,-0.00577793290867,-0.0406102269021
1589274714576137164,1033,1589274714576052040,,0.0576405963643,-4.34116986135,2.7493212602,0.527536270012,-0.0050351692075,-0.0440852567558
1589274714579662104,1034,1589274714579559659,,0.0351250997233,-4.34109990601,2.7256170793,0.521299138822,-0.00498994424014,-0.0452482321263
1589274714582416999,1035,1589274714582329432,,0.0589780375307,-4.34112547477,2.70266556027,0.514207213711,-0.00495587077727,-0.0497505646493
1589274714591312314,1036,1589274714591128365,,0.059036793441,-4.3412384586,2.70248278994,0.514206984432,-0.00494861562457,-0.0497536565062
1589274714594182591,1037,1589274714594078038,,0.0601963295949,-4.20865595817,2.6555704535,0.510011078323,-0.00558716520944,-0.0543611822174
1589274714600074797,1038,1589274714600007608,,0.0833305175322,-4.2087785131,2.65587555775,0.510043840405,-0.00625530860411,-0.0560213110625
1589274714603156066,1039,1589274714603072972,,0.0601871330121,-4.20876788148,2.65539327307,0.510010552204,-0.00558885460459,-0.054365944344
1589274714606261056,1040,1589274714606148841,,0.0367408980117,-4.20871000044,2.6549889631,0.510867846459,-0.00561271345177,-0.0517734651616
1589274714609083360,1041,1589274714609003211,,0.0365020765645,-4.20873267488,2.65495631328,0.510868806092,-0.00563384042556,-0.0517617000997
1589274714612079783,1042,1589274714611995169,,0.0595532319558,-4.20881910101,2.6553263817,0.50995756942,-0.00564773495863,-0.0516198841279
1589274714615089314,1043,1589274714614996167,,0.0591310715042,-4.2087683637,2.65541623535,0.509868392341,-0.00503361689265,-0.0470798428648
1589274714621163209,1044,1589274714621017415,,0.0587827182126,-4.20872104081,2.65549897356,0.509869819603,-0.00506490810829,-0.0470610260834
1589274714624116907,1045,1589274714624027521,,0.0342004740249,-4.34134124016,2.70183795423,0.512230574234,-0.00442143780455,-0.042618034851
1589274714627149238,1046,1589274714627053091,,0.0099813486269,-4.34148885577,2.74781940399,0.513720179776,-0.00444696861607,-0.0400235480628
1589274714633188477,1047,1589274714633091659,,-0.0142863111906,-4.4740130136,2.77099642454,0.5125527393,-0.00514158663081,-0.0347424741135
1589274714639175887,1048,1589274714639074886,,-0.039174417601,-4.73918796167,2.8177762383,0.518569510148,-0.00451644826205,-0.0293575701623
1589274714642210356,1049,1589274714642004921,,-0.0644663874144,-5.00442542741,2.88768308279,0.526271098152,-0.00456117838613,-0.0239477379227
1589274714645091292,1050,1589274714644998128,,-0.0885834542567,-5.00456048975,2.93366162309,0.530536049086,-0.00458611724514,-0.0231267272639
1589274714651143493,1051,1589274714651011638,,-0.0898183301484,-5.13731285865,2.98030230048,0.537538450831,-0.00394851320537,-0.0211997553136
1589274714657019130,1052,1589274714656912888,,-0.0901893373611,-5.13743610694,3.0035077045,0.5483763125,-0.00464580475265,-0.0210278392807
1589274714660037478,1053,1589274714659892984,,-0.0898368836572,-5.00484935282,3.00321775217,0.554819676448,-0.00466164622019,-0.022737721687
1589274714666180776,1054,1589274714666083751,,-0.0658153818016,-4.87232163747,2.9799367511,0.553194663975,-0.00464938933046,-0.0262483715628
1589274714669200351,1055,1589274714669078164,,-0.0655934852489,-4.87222039778,2.98010716823,0.553194180018,-0.00463319170994,-0.0262614319929
1589274714675196808,1056,1589274714675098116,,-0.0169909560582,-4.73940261343,2.88787527508,0.543809317907,-0.00390873258785,-0.0315519423827
1589274714681225509,1057,1589274714681152530,,-0.0166968035049,-4.73926218369,2.88810744264,0.54380961553,-0.0038759787652,-0.0315508533432
1589274714687033563,1058,1589274714686965554,,0.0316874138972,-4.3416458611,2.84141911996,0.529646006494,-0.00381919249689,-0.0414587586644
1589274714690072891,1059,1589274714690009416,,0.0324230469341,-4.34157309918,2.81821973767,0.527083855507,-0.00377725611706,-0.0433229482826
1589274714696029908,1060,1589274714695936269,,0.0562566728836,-4.3417654478,2.81841931547,0.525268725117,-0.00371292139546,-0.0441297935878
1589274714702074717,1061,1589274714701983541,,0.0575191147771,-4.20917806559,2.77142767394,0.523781304147,-0.00435460559474,-0.0468748415076
1589274714708025479,1062,1589274714707958504,,0.0575885051746,-4.20920510228,2.77138516979,0.523780561443,-0.00435115434654,-0.0468834602011
1589274714714111705,1063,1589274714714020338,,0.0102346068489,-4.3418106031,2.81734729409,0.528969025412,-0.00367253316145,-0.0461831763087
1589274714720041182,1064,1589274714719966468,,-0.0140380003332,-4.47446851957,2.8636331291,0.534087339304,-0.00367830655206,-0.0417237142622
1589274714726342452,1065,1589274714726097621,,-0.0140630903698,-4.47454432644,2.8635145532,0.534086897237,-0.00368346200115,-0.0417289178326
1589274714732105803,1066,1589274714732025212,,-0.0148806086922,-4.60720931407,2.88697064796,0.536594454968,-0.00437210830802,-0.037149658409
1589274714738300348,1067,1589274714738139636,,-0.038658871333,-4.7396967043,2.88690180977,0.538359065805,-0.0030811106306,-0.0336294447603
1589274714741197170,1068,1589274714741115743,,-0.0876032754118,-5.00498663902,2.97962615872,0.541285466185,-0.00312080325098,-0.0257192069588
1589274714744183669,1069,1589274714744091152,,-0.0889313855288,-5.00507342173,3.02619977626,0.543720403508,-0.00250276616809,-0.0247474518343
1589274714750173890,1070,1589274714750060106,,-0.089149502619,-5.00501694776,3.02628675987,0.543720455808,-0.00252486816893,-0.0247440574271
1589274714756038779,1071,1589274714755943892,,-0.13776144037,-5.27024052979,3.09580268923,0.546867359555,-0.00321837488128,-0.0204383380661
1589274714762118427,1072,1589274714761989850,,-0.115608641182,-5.40277745838,3.11999480097,0.553139966752,-0.00326686095364,-0.0210764217126
1589274714768215453,1073,1589274714768093095,,-0.0927130868101,-5.27039129371,3.14317343936,0.562258993193,-0.00330446252489,-0.0262117229332
1589274714774207422,1074,1589274714774113172,,-0.0672713883916,-5.00514223447,3.04987950288,0.553766147923,-0.00394211536566,-0.0307295059243
1589274714780431137,1075,1589274714780331467,,-0.0649901503318,-4.73971048888,2.95638648446,0.541549355158,-0.00326006969147,-0.0318387070188
1589274714783457383,1076,1589274714783380567,,-0.0650920031594,-4.7398081547,2.95622765892,0.541549400335,-0.00326949163342,-0.0318369724165
1589274714789253741,1077,1589274714789138192,,-0.0637912603467,-4.73956268252,2.88658188849,0.533751281551,-0.00324651549992,-0.0319695170871
1589274714795388723,1078,1589274714795287524,,-0.0849615408352,-4.60657908905,2.7930838318,0.513212008219,-0.00186852400401,-0.0288434635531
1589274714801221605,1079,1589274714801141024,,-0.0812394580427,-4.34087037992,2.63010500764,0.482090548532,-0.000475437285414,-0.0239493572089
1589274714807243014,1080,1589274714807116620,,-0.0810241353986,-4.34087641856,2.63010168326,0.482090223521,-0.000455694704284,-0.023956282313
1589274714819165271,1081,1589274714819085175,,-0.10363022591,-4.47294846023,2.60735709515,0.473931464166,-0.000402509664001,-0.0206428225767
1589274714825226181,1082,1589274714825150334,,-0.126626752353,-4.47279265245,2.6071316157,0.473829576926,-0.000381529882802,-0.0153783846101
1589274714831238459,1083,1589274714831123513,,-0.174257646935,-4.60540094896,2.67646410411,0.480572601006,0.000973129396712,-0.00741964597613
1589274714837198161,1084,1589274714837118056,,-0.173898043661,-4.6053729149,2.67653573,0.480572423921,0.00100647240342,-0.0074266644281
1589274714843194177,1085,1589274714843123703,,-0.1975260551,-4.73784533109,2.69989598896,0.480306222615,0.00103108103036,-0.00125048552368
1589274714850061709,1086,1589274714849911426,,-0.221580490983,-4.8704986361,2.74636504742,0.480873331676,0.00105932425385,0.00222146980558
1589274714854957447,1087,1589274714854904818,,-0.245838901443,-5.13558576283,2.79336783605,0.48597710419,0.00240225782203,0.00757984740312
1589274714861224959,1088,1589274714861115697,,-0.248727994573,-5.53373732154,2.91045256091,0.499829821874,0.00171099510474,0.0114361868629
1589274714867029649,1089,1589274714866965889,,-0.248832248641,-5.53398551947,2.90997169243,0.49983009089,0.00169552335909,0.0114267296515
1589274714879600938,1090,1589274714879416959,,-0.203787855912,-5.5345456816,2.9798223754,0.515095788305,0.00165362248335,0.00385299610203
1589274714882412539,1091,1589274714882318795,,-0.226908090105,-5.40195824604,2.95564787525,0.517126041825,0.000281288293392,0.00103608123069
1589274714888022761,1092,1589274714887942483,,-0.203760699819,-5.26942801839,2.95569050221,0.517174596081,0.000911379604198,-0.0015171547711
1589274714894098880,1093,1589274714893981219,,-0.155300213586,-5.00403625236,2.86307248087,0.512360301766,0.000226489647135,-0.00673477596132
1589274714899986323,1094,1589274714899921065,,-0.130959294453,-4.73877624095,2.81647022713,0.505370616757,-0.000447352347664,-0.00941209955104
1589274714906183353,1095,1589274714906098524,,-0.152953050497,-4.60584402928,2.74619678838,0.497625049151,-0.00111375459488,-0.0123830717893
1589274714912006083,1096,1589274714911958844,,-0.1525729354,-4.47321362341,2.72263881273,0.492329289506,-0.00113120427516,-0.0151730186966
1589274714918110588,1097,1589274714918002551,,-0.130176935524,-4.47318460621,2.72315127221,0.489612495315,-0.00119179722937,-0.0168485243307
1589274714924019336,1098,1589274714923946413,,-0.130290784031,-4.34091513474,2.74565414675,0.489469659799,-0.00185466667869,-0.0168553025778
1589274714930080414,1099,1589274714929999036,,-0.177383002552,-4.34090409378,2.76795547578,0.49108627672,-0.00122443828838,-0.0134992008364
1589274714936052757,1100,1589274714935981833,,-0.202575297269,-4.60614782384,2.83793439434,0.50150141578,-0.000600662564048,-0.00623270670536
1589274714942143978,1101,1589274714942064883,,-0.202856853102,-4.60641889688,2.86081738237,0.509499101985,5.56440378122e-05,-0.000664176438794
1589274714948115330,1102,1589274714948039735,,-0.202820917343,-4.60646859077,2.86073991292,0.50949909796,5.78321953286e-05,-0.000667070467171
1589274714954197563,1103,1589274714954094242,,-0.322533403746,-5.00434421804,2.99896140298,0.523905791019,0.00135151908399,0.0151641928326
1589274714960126013,1104,1589274714960032124,,-0.322308501924,-5.0044075773,2.99887985348,0.523905954523,0.00137038810072,0.0151568487056
1589274714966450359,1105,1589274714966080886,,-0.346973611126,-5.13721734675,3.06836280316,0.529750246539,0.00204654726733,0.0223525545421
1589274714972386729,1106,1589274714972249264,,-0.371459767919,-5.26994667896,3.13789549616,0.53291691958,0.00273903551793,0.0258745279705
1589274714978255993,1107,1589274714978098705,,-0.324906516609,-5.27005542739,3.16216713421,0.540109985385,0.00342673269075,0.0253972444118
1589274714981233141,1108,1589274714981138081,,-0.324184288295,-5.13750979517,3.1618581106,0.543817011319,0.00346130916367,0.0227463726128
1589274714987125881,1109,1589274714987025133,,-0.324217494694,-5.2699611796,3.16239491821,0.544785002746,0.00349072234995,0.0200413748897
1589274714993391096,1110,1589274714993312562,,-0.253542666928,-5.13743261556,3.14008239313,0.545979046249,0.00285864101944,0.0123562041866
1589274714999257158,1111,1589274714999120732,,-0.205016915548,-4.87220778463,3.07065187893,0.538344014717,0.000237738767495,0.00255410256578
1589274715005292878,1112,1589274715005139838,,-0.204674370852,-4.87233627234,3.07047085071,0.538344055231,0.000268185420064,0.00254252149057
1589274715011214954,1113,1589274715011090496,,-0.179074531203,-4.60708706147,2.97709277722,0.531699276696,-0.00036534114319,-0.00285508181487
1589274715017199099,1114,1589274715017119630,,-0.155567817583,-4.47467358101,2.97704705758,0.528154450308,-0.00102143850452,-0.00911895259266
1589274715023111514,1115,1589274715023009293,,-0.154540556798,-4.47465317847,2.93046293533,0.521177831766,-0.00164593469225,-0.0119657954322
1589274715029168567,1116,1589274715029057104,,-0.154482701375,-4.47476276725,2.93029864321,0.521177773603,-0.00164083216727,-0.0119690291033
1589274715035209021,1117,1589274715035044931,,-0.178441901963,-4.47489225423,2.95291962388,0.520978285686,-0.00166346261204,-0.00938343080057
1589274715041167155,1118,1589274715041093732,,-0.202261858052,-4.60734263233,2.95287117636,0.519993434404,-0.00169475971104,-0.00592242072561
1589274715047518781,1119,1589274715047379144,,-0.226269389333,-4.60733515512,2.97569136333,0.525128740616,-0.000434704918896,0.00579949797419
1589274715053386138,1120,1589274715053272837,,-0.226538470153,-4.60724471043,2.97581092439,0.525128612214,-0.000458927366689,0.00580924999244
1589274715059293272,1121,1589274715059185053,,-0.274464755683,-4.60745250696,3.04454331345,0.529111965896,0.000829444391578,0.014640277634
1589274715065197028,1122,1589274715065082809,,-0.323650241119,-4.87261188056,3.13741646581,0.534786922467,0.0021018026913,0.0234990575657
1589274715071275114,1123,1589274715071182245,,-0.373327701402,-5.13799194725,3.25336087281,0.542159346266,0.002722685236,0.031516229969
1589274715077280522,1124,1589274715077204059,,-0.398154790034,-5.27052016547,3.29981423062,0.550045830379,0.00333782654904,0.0351600714269
1589274715080350695,1125,1589274715080274131,,-0.376792479229,-5.40336114277,3.37017496039,0.559698632122,0.00395561998435,0.034585644019
1589274715083619195,1126,1589274715083508485,,-0.401063059202,-5.4035078367,3.41605999622,0.564002621722,0.00326436644855,0.0336060349506
1589274715089111188,1127,1589274715089045398,,-0.354662091534,-5.40356655133,3.41694800095,0.567705060699,0.00392400844279,0.0312694780301
1589274715095225839,1128,1589274715095116790,,-0.331028710269,-5.27099285078,3.41716221347,0.572392154738,0.00324630011734,0.0251523952515
1589274715101102165,1129,1589274715101028649,,-0.260777636401,-5.13857536828,3.41815454581,0.576235817514,0.00192314335701,0.0147766521569
1589274715107162311,1130,1589274715107074159,,-0.236309522412,-5.00600005588,3.37176348303,0.574776143186,0.00126976000668,0.0103677143444
1589274715119157800,1131,1589274715119085376,,-0.234305019856,-4.74079918515,3.32462042444,0.567842735976,1.19885613462e-05,0.00479073555439
1589274715125128141,1132,1589274715125038792,,-0.210256204276,-4.74071882301,3.30194018878,0.562508870743,5.19790881002e-05,0.00391583715314
1589274715131192288,1133,1589274715131121428,,-0.23304617439,-4.87295809728,3.27893113059,0.559864689652,0.000765098075025,0.00643702179632
1589274715137143859,1134,1589274715137054660,,-0.303006676859,-4.87302845814,3.32404001808,0.560278900569,0.00147493226328,0.0177685869748
1589274715143137016,1135,1589274715143064316,,-0.302642269279,-4.8729550557,3.32418081998,0.560279218658,0.00150857465189,0.0177557279036
1589274715149239958,1136,1589274715149165267,,-0.3030187862,-4.87330064553,3.3704359044,0.564506624016,0.00221316055103,0.0214483002901
1589274715155245089,1137,1589274715155149680,,-0.349479423895,-5.00576761077,3.36995474221,0.569874637249,0.00290065788927,0.0284937851869
1589274715161184801,1138,1589274715161065042,,-0.396196875822,-5.00585343945,3.39222492794,0.571473558137,0.00291673526695,0.0336677093261
1589274715167163748,1139,1589274715167056392,,-0.420526798589,-5.1385535856,3.43856578209,0.575648041655,0.00356626813439,0.0399496595612
1589274715173693286,1140,1589274715173594855,,-0.44738485892,-5.53669229105,3.57823956233,0.580158264379,0.0042175935562,0.046253248714
1589274715179549036,1141,1589274715179441116,,-0.447556906431,-5.5366703737,3.57825196034,0.580158049451,0.00420234255754,0.0462573325386
1589274715182371598,1142,1589274715182289577,,-0.472199461599,-5.66933414482,3.62461096277,0.58441761314,0.00350508185517,0.0480137579289
1589274715188079138,1143,1589274715187993838,,-0.450109136166,-5.80198065219,3.64851502407,0.587980134937,0.00413647129399,0.0455176140627
1589274715194136024,1144,1589274715194044036,,-0.428964926192,-5.80230259973,3.74178603346,0.596575412114,0.00407699577251,0.0440207251077
1589274715200206395,1145,1589274715200068481,,-0.429518906169,-5.8022424593,3.74181574099,0.596573665171,0.0040380129958,0.0440479846078
1589274715206272956,1146,1589274715206050334,,-0.378197065565,-5.27142307093,3.53243795971,0.591567558149,0.00400989540601,0.0388018849095
1589274715212331142,1147,1589274715212216639,,-0.378705129325,-5.27140050452,3.53241720332,0.591566721086,0.00396448031617,0.0388193094673
1589274715218139068,1148,1589274715217990819,,-0.4031237466,-5.27159128814,3.57824143989,0.595917804673,0.00326232493679,0.0351340425707
1589274715224242446,1149,1589274715224147625,,-0.404189458648,-5.40406506141,3.60203557329,0.600383078059,0.00389013349367,0.033395758897
1589274715230134552,1150,1589274715230038484,,-0.404154420679,-5.27165934456,3.60148543757,0.603146549168,0.00318237812454,0.0325501880808
1589274715236284280,1151,1589274715236198542,,-0.427465708011,-5.27159561062,3.60107860933,0.608624949643,0.00381421337319,0.0333942092145
1589274715242111347,1152,1589274715242047719,,-0.404362727782,-5.13933140608,3.62417364112,0.615817588343,0.0044591894888,0.0327697864043
1589274715248116588,1153,1589274715248018087,,-0.428447553447,-5.13944009561,3.67015426616,0.617310364504,0.00444665458509,0.0353603230325
1589274715254100013,1154,1589274715254035365,,-0.475624169,-5.27190287402,3.69301480196,0.618011080585,0.00511706613467,0.039602814677
1589274715260059744,1155,1589274715259981131,,-0.499364009102,-5.40451546436,3.71607264207,0.618688802814,0.00580808333486,0.0449283860428
1589274715266124532,1156,1589274715265995063,,-0.546563239932,-5.4046285581,3.76159528411,0.623775748381,0.00581191618661,0.0519874445359
1589274715272126620,1157,1589274715272046143,,-0.570423396353,-5.53723899907,3.78475887673,0.629073903023,0.00649760304317,0.0546733626986
1589274715278363728,1158,1589274715278235951,,-0.618329285028,-5.66994048031,3.85384728719,0.637699844366,0.00651279902114,0.0600001051212
1589274715284277117,1159,1589274715284195023,,-0.691479870066,-6.20030055576,3.97015734939,0.654235544087,0.00649962829055,0.0680567972723
1589274715290283014,1160,1589274715290189975,,-0.690932572206,-6.20039684591,3.97010225375,0.654235461815,0.00655385638222,0.068052387465
1589274715296057347,1161,1589274715295999613,,-0.692591822845,-6.33339851973,4.06328333747,0.665537217778,0.0072411665161,0.0691748043285
1589274715302167371,1162,1589274715302000746,,-0.693086750855,-6.333576295,4.10969627474,0.674403505787,0.00792285316542,0.0693463850463
1589274715308425834,1163,1589274715308223213,,-0.645952877897,-6.20107517572,4.11015234391,0.675453719473,0.00662019719115,0.061476269944
1589274715314114954,1164,1589274715314007134,,-0.645708090731,-6.20105612701,4.11021954606,0.675452897146,0.00665138978747,0.0614819378194
1589274715320051678,1165,1589274715319979906,,-0.551442726391,-5.93601706732,4.08812451186,0.673924630951,0.00599634417557,0.0520348498333
1589274715326207549,1166,1589274715326116136,,-0.526634820327,-5.67086643391,4.04149304855,0.670694632208,0.0046832978542,0.0439323643471
1589274715332062643,1167,1589274715331969627,,-0.455808480484,-5.53825394433,3.99597323965,0.668384370774,0.00400801646494,0.0352368324386
1589274715338196241,1168,1589274715338117400,,-0.385456852152,-5.40578610312,3.97366517957,0.663187380026,0.00265759646733,0.0264805804657
1589274715344248936,1169,1589274715344115090,,-0.36108508805,-5.27288266453,3.90427454587,0.658231707939,0.00194763008305,0.0210876806886
1589274715350301931,1170,1589274715350162992,,-0.337492121015,-5.14035299349,3.88110239582,0.65660406395,0.00123043464026,0.0175843309565
1589274715356281191,1171,1589274715356178629,,-0.360998703471,-5.14029923022,3.88067787867,0.655661306739,-0.000124910482152,0.0192335637604
1589274715362195371,1172,1589274715362110054,,-0.361266923776,-5.14012010039,3.88089018157,0.65566151741,-0.000163993778345,0.0192260871204
1589274715368375563,1173,1589274715368287456,,-0.385332736795,-5.14005980139,3.90375714867,0.657262725442,0.000455366208871,0.0236531483857
1589274715374162903,1174,1589274715374078813,,-0.432333440589,-5.27251148881,3.90319114496,0.662609650539,0.00243255680011,0.0325588583751
1589274715380418521,1175,1589274715380316563,,-0.432361828498,-5.27261918299,3.90304252065,0.662609636999,0.0024284536703,0.0325594402333
1589274715383579035,1176,1589274715383492568,,-0.479903690759,-5.40505379098,3.92579676802,0.662318915427,0.00240921864248,0.0404566261886
1589274715389315440,1177,1589274715389176475,,-0.480957909482,-5.40528641778,3.97217154303,0.662910580501,0.00372094394002,0.0423030683533
