%time,field.header.seq,field.header.stamp,field.header.frame_id,field.vector.x,field.vector.y,field.vector.z
1589274713384872581,749,1589274713384638377,,0.499896871872,-0.200804263349,0.21504036386
1589274713390821846,750,1589274713390644859,,0.499896884246,-0.200804057133,0.215029237727
1589274713393794909,751,1589274713393605046,,0.499896073936,-0.200807467912,0.215019798622
1589274713399745706,752,1589274713399636350,,0.499895991964,-0.200807898092,0.215010527423
1589274713402735742,753,1589274713402597702,,0.499894501814,-0.200809079358,0.214999452473
1589274713405765459,754,1589274713405638774,,0.499894448809,-0.200808979993,0.214990070742
1589274713408873355,755,1589274713408727483,,0.499893728163,-0.200810491881,0.214978868611
1589274713414718885,756,1589274713414591435,,0.499892688128,-0.200811974763,0.21496774037
1589274713417740203,757,1589274713417589751,,0.499891904153,-0.200813275005,0.21495799632
1589274713423741884,758,1589274713423613781,,0.49989103923,-0.200813319347,0.214948986491
1589274713426726858,759,1589274713426601306,,0.499890214978,-0.200815169551,0.214941978589
1589274713429824639,760,1589274713429661968,,0.499889432448,-0.200816104454,0.214933678325
1589274713432714775,761,1589274713432611263,,0.499890056,-0.200815344626,0.214926562912
1589274713438857937,762,1589274713438659323,,0.499889103013,-0.200817056277,0.214918849139
1589274713441733677,763,1589274713441632981,,0.499889490113,-0.20081639434,0.214912461606
1589274713447832245,764,1589274713447678868,,0.499889318451,-0.200817716061,0.214903421802
1589274713450723228,765,1589274713450584306,,0.499889370446,-0.200818022772,0.214895296726
1589274713453795969,766,1589274713453674075,,0.499888989121,-0.200819250433,0.214886500889
1589274713456788277,767,1589274713456620564,,0.499888823534,-0.200820663528,0.214876915239
1589274713462753185,768,1589274713462606463,,0.499888331586,-0.200821770179,0.214868290858
1589274713465792774,769,1589274713465671942,,0.499887881126,-0.200823495565,0.214858720496
1589274713471818357,770,1589274713471651938,,0.499887554368,-0.200822797953,0.214848550157
1589274713474754565,771,1589274713474618760,,0.499887293333,-0.200824157794,0.214839121398
1589274713477807389,772,1589274713477691219,,0.499886567938,-0.20082388662,0.214828400844
1589274713480981602,773,1589274713480824067,,0.499886307872,-0.200825248967,0.214819127951
1589274713486804527,774,1589274713486662224,,0.49988562752,-0.200824735054,0.214809484554
1589274713489806711,775,1589274713489650423,,0.499884912533,-0.200824839968,0.214801014789
1589274713495840400,776,1589274713495689854,,0.499884161879,-0.200825881453,0.214792115176
1589274713498746657,777,1589274713498624408,,0.499883498141,-0.200825483182,0.21478309813
1589274713501742452,778,1589274713501610832,,0.4998831118,-0.200825634379,0.214776779756
1589274713504709558,779,1589274713504612440,,0.499882356401,-0.200825719877,0.214767417592
1589274713510843822,780,1589274713510696639,,0.499882030426,-0.200824905674,0.214760058382
1589274713513738098,781,1589274713513631386,,0.499881353087,-0.200826160157,0.214751864931
1589274713519819556,782,1589274713519651887,,0.499880329391,-0.200825406272,0.2147435258
1589274713522799658,783,1589274713522709557,,0.499879561155,-0.200824305303,0.214734343719
1589274713525811625,784,1589274713525654872,,0.499879107483,-0.20082409569,0.214724357988
1589274713531830614,785,1589274713531683042,,0.499877901999,-0.200824822433,0.214716311505
1589274713534748254,786,1589274713534633081,,0.499876771081,-0.200822915672,0.214704521577
1589274713537786921,787,1589274713537645255,,0.49987647383,-0.200821403438,0.214696865266
1589274713543750376,788,1589274713543649346,,0.499876018971,-0.200821766478,0.214687856827
1589274713546751931,789,1589274713546655501,,0.499875778257,-0.200818418547,0.214677822977
1589274713549683128,790,1589274713549585628,,0.499875062869,-0.20081520121,0.21466751033
1589274713555715112,791,1589274713555596407,,0.499874621449,-0.20081241869,0.214657272909
1589274713558710820,792,1589274713558611983,,0.499874212715,-0.200808086949,0.214647149102
1589274713561703577,793,1589274713561616116,,0.499873637311,-0.20080169042,0.214636774222
1589274713567692521,794,1589274713567594714,,0.499872889077,-0.200796852377,0.214626314947
1589274713570705991,795,1589274713570594724,,0.499872309031,-0.200793939629,0.214617233182
1589274713573753369,796,1589274713573619309,,0.49987138502,-0.200791010927,0.214607948376
1589274713580096529,797,1589274713579978196,,0.499870692855,-0.200788305962,0.214597843332
1589274713583088854,798,1589274713582959295,,0.499869651745,-0.20078650032,0.214587990405
1589274713585783735,799,1589274713585602790,,0.499868238246,-0.200784640911,0.21457690897
1589274713591714539,800,1589274713591575377,,0.499866512745,-0.200781619609,0.214567517273
1589274713594738475,801,1589274713594604363,,0.499864872344,-0.200780793585,0.214557769177
1589274713597841352,802,1589274713597615586,,0.499863311886,-0.200778531978,0.214548257004
1589274713603736742,803,1589274713603598497,,0.499861347832,-0.200777406411,0.214538133789
1589274713606923348,804,1589274713606705049,,0.499859880906,-0.200774102407,0.214528614777
1589274713609807629,805,1589274713609647649,,0.499858995443,-0.200771433103,0.214520662512
1589274713615750789,806,1589274713615602463,,0.499856218715,-0.200769669426,0.214510020296
1589274713618722945,807,1589274713618583053,,0.499855826602,-0.200767125754,0.214502802264
1589274713624754734,808,1589274713624612139,,0.499855199286,-0.200760998998,0.21449548442
1589274713627715220,809,1589274713627630628,,0.499854559988,-0.200757128327,0.214489055927
1589274713630753980,810,1589274713630609608,,0.499854041814,-0.200750332256,0.214482888252
1589274713633703059,811,1589274713633580766,,0.499853911541,-0.20074345399,0.214475193348
1589274713639813773,812,1589274713639706289,,0.499854395823,-0.200734919699,0.214470313512
1589274713642798916,813,1589274713642669345,,0.499854887674,-0.200725997291,0.214463986424
1589274713648948513,814,1589274713648710063,,0.499855925153,-0.200714882506,0.214457357335
1589274713651799283,815,1589274713651672123,,0.499856442795,-0.200705804112,0.214450419662
1589274713654747756,816,1589274713654618448,,0.49985764523,-0.200693176936,0.214443608864
1589274713660911293,817,1589274713660703138,,0.499858308581,-0.200682259328,0.214434179175
1589274713663747147,818,1589274713663627985,,0.499859135518,-0.20067084828,0.214426343345
1589274713666743187,819,1589274713666636945,,0.499859854234,-0.200658259829,0.214415963617
1589274713672878353,820,1589274713672683337,,0.499860386638,-0.200644603004,0.214406036996
1589274713675796513,821,1589274713675671149,,0.499860638987,-0.200633179055,0.214395038994
1589274713679145854,822,1589274713679050868,,0.499861710673,-0.200621240585,0.21438472041
1589274713684790854,823,1589274713684676789,,0.499862089807,-0.200610000019,0.214373604814
1589274713687890708,824,1589274713687737237,,0.499862203022,-0.200598850219,0.214361841423
1589274713690906047,825,1589274713690745705,,0.499861535516,-0.200588107647,0.214350479454
1589274713696745301,826,1589274713696614949,,0.499861864239,-0.200576551189,0.214339217291
1589274713699759150,827,1589274713699613837,,0.499862036266,-0.200566327549,0.214328628719
1589274713702751918,828,1589274713702654265,,0.499862108634,-0.200554550412,0.214318104124
1589274713708910270,829,1589274713708719067,,0.499863246295,-0.200539175404,0.21430785383
1589274713711756004,830,1589274713711665144,,0.499863245531,-0.200527069133,0.214296534279
1589274713714784411,831,1589274713714670684,,0.499864147447,-0.200514304692,0.214286029047
1589274713720752954,832,1589274713720651424,,0.499864885421,-0.200501123066,0.214276429544
1589274713723819692,833,1589274713723694704,,0.499865588328,-0.200487908762,0.214267956855
1589274713726806208,834,1589274713726668145,,0.499866042029,-0.200473324099,0.214257163578
1589274713735804032,835,1589274713735677083,,0.499864976748,-0.200447420161,0.21423625571
1589274713738806417,836,1589274713738707067,,0.499864689825,-0.20043441934,0.214225718141
1589274713744821202,837,1589274713744692822,,0.49986461212,-0.200420909775,0.214214940459
1589274713747781646,838,1589274713747673608,,0.499864844707,-0.200404301327,0.214202821658
1589274713750862464,839,1589274713750738394,,0.499865076543,-0.20038771819,0.214190175464
1589274713759814912,840,1589274713759704619,,0.499864642504,-0.200370889662,0.214177285011
1589274713762746455,841,1589274713762651302,,0.499864033681,-0.200356117438,0.214163987345
1589274713765854887,842,1589274713765669077,,0.499863881541,-0.200343745347,0.214153575996
1589274713768765255,843,1589274713768666995,,0.499863049694,-0.20033042219,0.214139553086
1589274713771882983,844,1589274713771725814,,0.499861260781,-0.20031513221,0.214126848329
1589274713777780098,845,1589274713777666012,,0.499860559112,-0.200300742283,0.21411630636
1589274713780919475,846,1589274713780805968,,0.499860254933,-0.200282067679,0.214103713394
1589274713786698543,847,1589274713786619249,,0.499860812979,-0.200264182597,0.214092031889
1589274713789773070,848,1589274713789679860,,0.49986129965,-0.200247182974,0.214080894041
1589274713795780448,849,1589274713795630300,,0.499861240447,-0.20021249957,0.21405723759
1589274713801771160,850,1589274713801615756,,0.499859905093,-0.200198767773,0.2140456223
1589274713804882819,851,1589274713804691587,,0.499859910914,-0.200182400615,0.214035572273
1589274713810769504,852,1589274713810638881,,0.499859026702,-0.200165199318,0.214025127626
1589274713813762930,853,1589274713813617512,,0.49985921957,-0.200147988831,0.214014296691
1589274713816750083,854,1589274713816639514,,0.499859393421,-0.200130133938,0.214003151684
1589274713819741519,855,1589274713819625061,,0.499858078434,-0.20011149589,0.213988066789
1589274713825826706,856,1589274713825654193,,0.499858006948,-0.200095006368,0.213977781302
1589274713828818475,857,1589274713828675168,,0.49985774791,-0.200076087462,0.213963653379
1589274713834916400,858,1589274713834764007,,0.499857604767,-0.200053757072,0.213950854823
1589274713837788738,859,1589274713837692620,,0.499857151468,-0.20003757934,0.213939691731
1589274713840825764,860,1589274713840683621,,0.499855596995,-0.200016696258,0.213925384618
1589274713843955168,861,1589274713843724855,,0.499855050033,-0.199993731395,0.213910692861
1589274713849768703,862,1589274713849646466,,0.499853795024,-0.199972363796,0.213895882979
1589274713855791416,863,1589274713855676302,,0.499853917787,-0.199952357504,0.21388411483
1589274713858778889,864,1589274713858673210,,0.499852475213,-0.199931827419,0.213869831101
1589274713861748003,865,1589274713861645435,,0.499853020327,-0.199912105871,0.213860059168
1589274713864809843,866,1589274713864643660,,0.499851344961,-0.199891544909,0.213845525401
1589274713867869529,867,1589274713867695570,,0.499852005431,-0.199866582667,0.213834412119
1589274713873738671,868,1589274713873643932,,0.499852303246,-0.199842379169,0.213821810673
1589274713876761778,869,1589274713876671397,,0.499853616488,-0.199819240784,0.213811161775
1589274713883070872,870,1589274713882974556,,0.499853914522,-0.199796544291,0.213799140536
1589274713885843416,871,1589274713885706436,,0.499855074204,-0.199768227604,0.213786518583
1589274713888789316,872,1589274713888690277,,0.499854385714,-0.199742120087,0.213772569096
1589274713891789226,873,1589274713891675946,,0.499854096711,-0.199718164392,0.213757903579
1589274713897743506,874,1589274713897615051,,0.499854282474,-0.199693670967,0.213744588524
1589274713900821774,875,1589274713900648819,,0.499853178167,-0.19966689842,0.213729403783
1589274713906736398,876,1589274713906630366,,0.499852776771,-0.199639132838,0.213714140856
1589274713909814556,877,1589274713909686034,,0.499852438833,-0.199612349012,0.213699755239
1589274713918844699,878,1589274713918645936,,0.499850771506,-0.199555151166,0.213668267494
1589274713921826134,879,1589274713921704663,,0.499851101809,-0.199524676386,0.213654776195
1589274713924908271,880,1589274713924719333,,0.499849383191,-0.199496588501,0.213639494709
1589274713930865845,881,1589274713930751315,,0.499849634789,-0.199462059158,0.213628049841
1589274713933932768,882,1589274713933743134,,0.499849026634,-0.199431811072,0.213617330443
1589274713936815022,883,1589274713936678973,,0.499849847937,-0.199399945725,0.213608881272
1589274713942835477,884,1589274713942720420,,0.49985000396,-0.199369427821,0.213598496691
1589274713945823283,885,1589274713945708548,,0.499849398966,-0.199343653938,0.213586183127
1589274713948849862,886,1589274713948686597,,0.499849351707,-0.199312482344,0.21357234681
1589274713954800626,887,1589274713954688596,,0.499850273673,-0.199279353419,0.213559690867
1589274713957987318,888,1589274713957833912,,0.499850874408,-0.199250718314,0.213548133891
1589274713960830974,889,1589274713960738548,,0.499849801737,-0.199222706938,0.21353431804
1589274713966797060,890,1589274713966691301,,0.499848328603,-0.199190108912,0.213519250501
1589274713969877761,891,1589274713969774986,,0.499847906571,-0.19915752008,0.213505286047
1589274713979290791,892,1589274713979165515,,0.49984580207,-0.199092728874,0.213475764668
1589274713982082635,893,1589274713982001651,,0.499843311634,-0.199065316715,0.2134613
1589274713984820766,894,1589274713984692316,,0.499842916115,-0.199033003563,0.213446322859
1589274713990874293,895,1589274713990715628,,0.499842399765,-0.198999033974,0.213431246764
1589274713993775732,896,1589274713993677952,,0.499842030476,-0.198963308333,0.213416556808
1589274713996808220,897,1589274713996668218,,0.499841144639,-0.198931196138,0.213400974843
1589274714002858520,898,1589274714002747992,,0.499841435811,-0.198897434895,0.213389151211
1589274714005882057,899,1589274714005744031,,0.499841837288,-0.198870060001,0.213378217618
1589274714008824624,900,1589274714008696887,,0.499841090555,-0.198835888161,0.213364107464
1589274714014812910,901,1589274714014695125,,0.499840925303,-0.198795017195,0.213348578844
1589274714017881105,902,1589274714017690544,,0.499842143891,-0.198759198777,0.213338855602
1589274714020825450,903,1589274714020687162,,0.499841368755,-0.198722862455,0.213323232911
1589274714026795410,904,1589274714026662403,,0.49983995588,-0.198685282794,0.213307158143
1589274714029774482,905,1589274714029662267,,0.499840471718,-0.198642201765,0.21329308422
1589274714038799456,906,1589274714038666017,,0.499838207064,-0.198570776507,0.21326110328
1589274714041808043,907,1589274714041699547,,0.499837204848,-0.198533302875,0.213244702692
1589274714047844969,908,1589274714047694197,,0.499837503428,-0.198495501719,0.213228987546
1589274714050827981,909,1589274714050636939,,0.499837232387,-0.198455798017,0.213213526875
1589274714056876698,910,1589274714056648308,,0.49983535629,-0.198418365861,0.213194808864
1589274714059833235,911,1589274714059646325,,0.49983485953,-0.198378444223,0.213178376164
1589274714062863070,912,1589274714062704516,,0.499833730044,-0.19833996881,0.213164682194
1589274714065938286,913,1589274714065708794,,0.499833347472,-0.198308317194,0.213153928451
1589274714071858169,914,1589274714071715611,,0.499830969069,-0.19827245514,0.213138024836
1589274714074833149,915,1589274714074707078,,0.499830458973,-0.198228937767,0.21312339122
1589274714077829239,916,1589274714077688704,,0.499831341364,-0.198192367908,0.213112937011
1589274714083840116,917,1589274714083732662,,0.499829995732,-0.198155695203,0.21309839603
1589274714086853544,918,1589274714086737567,,0.49983012761,-0.198114629802,0.213082266299
1589274714089912579,919,1589274714089728498,,0.49982921102,-0.198071065929,0.213067833087
1589274714095825632,920,1589274714095668433,,0.499828204041,-0.198032809905,0.213054420679
1589274714098800167,921,1589274714098658950,,0.499828029095,-0.197989646045,0.213039549858
1589274714101817258,922,1589274714101712131,,0.499825839887,-0.197953394497,0.213022882345
1589274714107963804,923,1589274714107755386,,0.499826683533,-0.197908051721,0.213007762152
1589274714110847120,924,1589274714110746457,,0.499825932479,-0.197864679308,0.212989942464
1589274714113859788,925,1589274714113727150,,0.49982403035,-0.197826348884,0.212971697752
1589274714119939192,926,1589274714119782481,,0.499824630982,-0.197776795279,0.212953147262
1589274714125861603,927,1589274714125698319,,0.499823777135,-0.197732537291,0.21293681985
1589274714128844047,928,1589274714128718123,,0.499823458609,-0.197687063407,0.212917760081
1589274714131778204,929,1589274714131700250,,0.499823781161,-0.197644593267,0.212900670659
1589274714134804521,930,1589274714134684476,,0.499823614422,-0.197599199583,0.212880775977
1589274714137844375,931,1589274714137707253,,0.49982322936,-0.197549215374,0.212860095207
1589274714143884413,932,1589274714143713065,,0.499821871508,-0.197503376235,0.212840949977
1589274714146867957,933,1589274714146713622,,0.499821484035,-0.1974585684,0.212822656126
1589274714149833592,934,1589274714149745370,,0.49982016815,-0.197411630507,0.212800555346
1589274714158856212,935,1589274714158739204,,0.499818712873,-0.197362444785,0.212777890243
1589274714161876663,936,1589274714161739646,,0.499818144308,-0.197314381784,0.212752751203
1589274714164829266,937,1589274714164716308,,0.499816272657,-0.197265339286,0.212726591392
1589274714167868262,938,1589274714167704169,,0.49981492108,-0.197194306215,0.212703244147
1589274714170879292,939,1589274714170711071,,0.499817856322,-0.197133113075,0.212677676765
1589274714176815026,940,1589274714176689179,,0.499815832304,-0.197079145229,0.212650977969
1589274714180057689,941,1589274714179953329,,0.499809363737,-0.197021549986,0.212621881958
1589274714183244125,942,1589274714183143986,,0.499804219767,-0.196967033756,0.212605182313
1589274714188960379,943,1589274714188764383,,0.499800990018,-0.196911980026,0.21258875481
1589274714191803328,944,1589274714191718615,,0.499801277822,-0.196856623523,0.212574742278
1589274714197821760,945,1589274714197730918,,0.499802370078,-0.1968004739,0.212561797685
1589274714200799715,946,1589274714200718704,,0.499805248666,-0.196751182214,0.212552836289
1589274714203813370,947,1589274714203722004,,0.499807064524,-0.196704892732,0.212545155571
1589274714206793755,948,1589274714206687596,,0.499808236518,-0.196655421523,0.212539683706
1589274714215818086,949,1589274714215698275,,0.499810142679,-0.196563687767,0.212523860759
1589274714221917522,950,1589274714221805859,,0.49981033301,-0.196513279971,0.212511043837
1589274714224814743,951,1589274714224720009,,0.499810228677,-0.196457602076,0.212492070516
1589274714227861201,952,1589274714227721383,,0.499810135405,-0.196405840675,0.212470824585
1589274714230878402,953,1589274714230752411,,0.499806933394,-0.196350001682,0.212439979221
1589274714236936950,954,1589274714236769801,,0.499806534309,-0.196288705593,0.21241184305
1589274714239826420,955,1589274714239744311,,0.499805379127,-0.196232521224,0.212382856848
1589274714245879042,956,1589274714245740060,,0.499804286487,-0.196186501335,0.212359125865
1589274714248932565,957,1589274714248782654,,0.49980666846,-0.196112343826,0.212330049615
1589274714254841961,958,1589274714254744187,,0.499808688915,-0.196039553261,0.212301512135
1589274714257833545,959,1589274714257698937,,0.499810170068,-0.195983108688,0.21228068019
1589274714260802805,960,1589274714260714982,,0.499812608268,-0.195914104292,0.212259768075
1589274714263851940,961,1589274714263697378,,0.499814511906,-0.195845056343,0.212238100062
1589274714269832134,962,1589274714269701292,,0.499817386899,-0.195783057697,0.212221346409
1589274714275822592,963,1589274714275701329,,0.499822382268,-0.19566740059,0.212202310165
1589274714279310872,964,1589274714279181442,,0.499823317578,-0.19561653929,0.212185599528
1589274714284870330,965,1589274714284759733,,0.499825824487,-0.195564336746,0.212174614859
1589274714287869061,966,1589274714287737475,,0.499825608857,-0.195513083244,0.212160024111
1589274714293842045,967,1589274714293693030,,0.499825929654,-0.195462199917,0.212142815277
1589274714296804972,968,1589274714296692156,,0.499825338101,-0.195415243533,0.212126433329
1589274714299793280,969,1589274714299697033,,0.499822936337,-0.195369207674,0.212106200687
1589274714302812987,970,1589274714302697783,,0.499823266909,-0.195329563535,0.212089433667
1589274714308899914,971,1589274714308770555,,0.499820458343,-0.195280430915,0.212063739933
1589274714311924392,972,1589274714311732808,,0.499816775461,-0.195220509434,0.212032909796
1589274714317882354,973,1589274714317773929,,0.499818176051,-0.195170744678,0.212014438119
1589274714320940029,974,1589274714320727858,,0.499816388044,-0.19511122822,0.211990648435
1589274714323896742,975,1589274714323720408,,0.499815248692,-0.195044941009,0.211964618719
1589274714329878963,976,1589274714329742194,,0.499817634844,-0.194977843225,0.211944636775
1589274714335810327,977,1589274714335724471,,0.499821319995,-0.194846128344,0.211906308668
1589274714341878405,978,1589274714341746822,,0.49982362673,-0.194775226836,0.211883050625
1589274714344870259,979,1589274714344718959,,0.499828172641,-0.194701540143,0.211866049852
1589274714347913077,980,1589274714347753263,,0.499830176153,-0.194628261679,0.211845283249
1589274714353799821,981,1589274714353724939,,0.499833232677,-0.19455365661,0.211822870561
1589274714359831397,982,1589274714359721356,,0.499835237495,-0.194477130883,0.211797444684
1589274714362831548,983,1589274714362729738,,0.499838298141,-0.194397167533,0.211772568209
1589274714365979529,984,1589274714365802302,,0.49983993002,-0.19433726777,0.211747006497
1589274714368909223,985,1589274714368823807,,0.49984069767,-0.194261940341,0.211716817512
1589274714371902372,986,1589274714371779640,,0.499839368795,-0.194180661855,0.211682030442
1589274714378016544,987,1589274714377830655,,0.499837997493,-0.194128778644,0.211656305702
1589274714381077596,988,1589274714380985333,,0.499837960942,-0.194060731352,0.211630755594
1589274714383910806,989,1589274714383714928,,0.499834133909,-0.193995067205,0.211600632352
1589274714389886606,990,1589274714389737894,,0.499831094992,-0.193940346318,0.211575377409
1589274714395878746,991,1589274714395745986,,0.49982818562,-0.193836255891,0.211538827513
1589274714401902760,992,1589274714401804625,,0.499828087408,-0.193787490128,0.211522792984
1589274714404952145,993,1589274714404796726,,0.499828382952,-0.19373822067,0.211512257591
1589274714407980075,994,1589274714407810927,,0.499827791057,-0.193685960209,0.211495345993
1589274714413928170,995,1589274714413799511,,0.49982876078,-0.193629838658,0.211480682181
1589274714416871752,996,1589274714416758238,,0.499830713958,-0.193569321118,0.211466975876
1589274714419885751,997,1589274714419758884,,0.499831328857,-0.193506604074,0.211452198293
1589274714425862591,998,1589274714425756952,,0.499832161801,-0.193451703387,0.211433486735
1589274714428875159,999,1589274714428763688,,0.499833778445,-0.193380532493,0.211409396756
1589274714431909816,1000,1589274714431770658,,0.499835509568,-0.193295458552,0.211380375598
1589274714437916091,1001,1589274714437769491,,0.499837663785,-0.193231478224,0.211359496538
1589274714440949626,1002,1589274714440830505,,0.499837420057,-0.193151688577,0.211328446031
1589274714446895815,1003,1589274714446801498,,0.499838896824,-0.193056862574,0.211295699241
1589274714449877858,1004,1589274714449755352,,0.499841014117,-0.192976732841,0.21126886971
1589274714455923158,1005,1589274714455819569,,0.499842514926,-0.192893486971,0.211241907501
1589274714458905945,1006,1589274714458776798,,0.499841494017,-0.192810970511,0.211206727987
1589274714461868011,1007,1589274714461765639,,0.499846500407,-0.192723997443,0.2111850227
1589274714464932141,1008,1589274714464762259,,0.499847924254,-0.192637987546,0.211153827599
1589274714470862091,1009,1589274714470730229,,0.499851097449,-0.192547492226,0.211124967474
1589274714473925856,1010,1589274714473831248,,0.499856363547,-0.192458253964,0.21109809225
1589274714476942729,1011,1589274714476779388,,0.499857428962,-0.192371357236,0.211066624505
1589274714483228765,1012,1589274714483119995,,0.49986017489,-0.192288709328,0.211041511122
1589274714485897019,1013,1589274714485758454,,0.49985809839,-0.192212509943,0.211013592006
1589274714488872707,1014,1589274714488724546,,0.499857862172,-0.192133017856,0.210991280992
1589274714494850600,1015,1589274714494747753,,0.499854425795,-0.192067501669,0.210969742148
1589274714497876825,1016,1589274714497780157,,0.49985246816,-0.192003561682,0.210948250925
1589274714500876461,1017,1589274714500775863,,0.49985082455,-0.191939820662,0.210926897418
1589274714506924725,1018,1589274714506783122,,0.499848454343,-0.191882100414,0.21090999355
1589274714509964268,1019,1589274714509772604,,0.49984827885,-0.191823161842,0.210894316023
1589274714518908200,1020,1589274714518775769,,0.499844777087,-0.19170333632,0.210862718347
1589274714524906009,1021,1589274714524787965,,0.499845217733,-0.19163914286,0.21084406039
1589274714527927063,1022,1589274714527785291,,0.499843237493,-0.191571522002,0.210823905995
1589274714533901011,1023,1589274714533804950,,0.499843228334,-0.191498383107,0.210804053272
1589274714536902646,1024,1589274714536784333,,0.499842384315,-0.191423845584,0.210778413105
1589274714542958740,1025,1589274714542842444,,0.49984376095,-0.191343886692,0.210756521449
1589274714545909144,1026,1589274714545784086,,0.499844509973,-0.191258103489,0.210729227261
1589274714548931298,1027,1589274714548796937,,0.499846271305,-0.191191237702,0.210706441241
1589274714554992560,1028,1589274714554786495,,0.499849252755,-0.191093925109,0.210679086353
1589274714557953176,1029,1589274714557788360,,0.499850445106,-0.190998882284,0.210646922755
1589274714560860285,1030,1589274714560787332,,0.499853834625,-0.190916052996,0.21062662425
1589274714566911136,1031,1589274714566812622,,0.499855474297,-0.190818757119,0.210598072875
1589274714569874104,1032,1589274714569803987,,0.499859441267,-0.19070523181,0.21056398334
1589274714575948356,1033,1589274714575794167,,0.499866206108,-0.190499048093,0.210500641851
1589274714579369763,1034,1589274714579226933,,0.499868857972,-0.190397923135,0.210465414179
1589274714582245008,1035,1589274714582101950,,0.499871884494,-0.190301171364,0.210436299134
1589274714590994543,1036,1589274714590849713,,0.499871911699,-0.190213129134,0.210407330843
1589274714593994947,1037,1589274714593832860,,0.49987247664,-0.190121946563,0.210376247973
1589274714599896984,1038,1589274714599806912,,0.499872726844,-0.190039749752,0.21035131488
1589274714602915500,1039,1589274714602825350,,0.499870551706,-0.189964901676,0.210325703517
1589274714606062752,1040,1589274714605888422,,0.499870305882,-0.189910861932,0.210309285528
1589274714608907960,1041,1589274714608798341,,0.499867932563,-0.189848715192,0.210291358396
1589274714611864909,1042,1589274714611776168,,0.499865728556,-0.189779739264,0.210273877948
1589274714614888087,1043,1589274714614800867,,0.499863266427,-0.189736978421,0.21026597801
1589274714620957217,1044,1589274714620815535,,0.49986107977,-0.189682115104,0.210254094744
1589274714623905555,1045,1589274714623830443,,0.499857692853,-0.189619179285,0.210237394045
1589274714626985370,1046,1589274714626836232,,0.499855076174,-0.189558215803,0.210219470478
1589274714632964792,1047,1589274714632879890,,0.499852761688,-0.189498480557,0.210198764407
1589274714638973938,1048,1589274714638863522,,0.499851534125,-0.189428992924,0.210176289189
1589274714641867749,1049,1589274714641781434,,0.499850471681,-0.189357994301,0.210151462017
1589274714644928707,1050,1589274714644779848,,0.499851725672,-0.189277661865,0.210120133474
1589274714650960455,1051,1589274714650816899,,0.499849568644,-0.189196325339,0.210087610596
1589274714656934963,1052,1589274714656794955,,0.499850883436,-0.189101867806,0.210055291357
1589274714659881118,1053,1589274714659790764,,0.499854084325,-0.189004080582,0.210026025272
1589274714665942666,1054,1589274714665771187,,0.499856255783,-0.188900901212,0.209997024417
1589274714669008046,1055,1589274714668849630,,0.499860162678,-0.18879261744,0.209959973447
1589274714674998682,1056,1589274714674810917,,0.499864674979,-0.188680235579,0.209935561465
1589274714681140433,1057,1589274714680961551,,0.49986581641,-0.188566037472,0.209903291222
1589274714686883044,1058,1589274714686786464,,0.499874299452,-0.188445043127,0.209871799581
1589274714689885292,1059,1589274714689762173,,0.499876343032,-0.188327656408,0.209841490107
1589274714695952550,1060,1589274714695791369,,0.499882729358,-0.188096467778,0.209774206666
1589274714701882606,1061,1589274714701801783,,0.499882240358,-0.187986827783,0.209741695915
1589274714707934697,1062,1589274714707824429,,0.499880863816,-0.187884106512,0.209706698149
1589274714713936253,1063,1589274714713829010,,0.499880484245,-0.18778215661,0.209675376069
1589274714719916300,1064,1589274714719783609,,0.499877032334,-0.187691795956,0.20964212029
1589274714725923838,1065,1589274714725850026,,0.499874820539,-0.187606072456,0.209612565135
1589274714731955300,1066,1589274714731831339,,0.499872606701,-0.187527416875,0.209587053566
1589274714738032976,1067,1589274714737889869,,0.499869389268,-0.1874557713,0.209562201854
1589274714740974434,1068,1589274714740879367,,0.499865685385,-0.187388874328,0.209543518424
1589274714743960429,1069,1589274714743863965,,0.499864289057,-0.187342113252,0.209534194218
1589274714749930076,1070,1589274714749796533,,0.499862545225,-0.187275009321,0.209513484681
1589274714755938215,1071,1589274714755772817,,0.499859771223,-0.187201604617,0.209493950204
1589274714761969281,1072,1589274714761821878,,0.499861902762,-0.187142039343,0.209484008466
1589274714767958125,1073,1589274714767867630,,0.499860331138,-0.187071543149,0.209465448208
1589274714774024195,1074,1589274714773876149,,0.499858029556,-0.186984785898,0.209444012632
1589274714780209701,1075,1589274714780049924,,0.49985936307,-0.186899967708,0.209421036853
1589274714783269903,1076,1589274714783134242,,0.499858483956,-0.186817220956,0.209397102607
1589274714789018914,1077,1589274714788883759,,0.499858333322,-0.186726620599,0.209369615991
1589274714795091050,1078,1589274714794928164,,0.499860244895,-0.18663377339,0.209339102187
1589274714800986042,1079,1589274714800895948,,0.499861700621,-0.186534840754,0.209306369784
1589274714806937194,1080,1589274714806874321,,0.4998644734,-0.186428197168,0.209273255893
1589274714818978408,1081,1589274714818851195,,0.499868447681,-0.18620279521,0.209204071554
1589274714825007624,1082,1589274714824923864,,0.499872659255,-0.186084321496,0.209170588159
1589274714831004299,1083,1589274714830893453,,0.49987599934,-0.185962216311,0.209136106688
1589274714837004273,1084,1589274714836886380,,0.499878719,-0.185842902725,0.209100354536
1589274714842978715,1085,1589274714842904774,,0.499882066915,-0.185727136347,0.209066814522
1589274714849900126,1086,1589274714849778227,,0.499882691622,-0.18561041924,0.209031475364
1589274714854844726,1087,1589274714854777072,,0.499881714731,-0.185501468983,0.209000170522
1589274714861049749,1088,1589274714860875637,,0.499882502639,-0.185392411713,0.208967149169
1589274714866934660,1089,1589274714866849580,,0.499883487644,-0.185290373049,0.20893531281
1589274714879292528,1090,1589274714879203464,,0.499878109983,-0.18511395719,0.208885414587
1589274714882292612,1091,1589274714882169036,,0.499875127463,-0.185041389056,0.208864323673
1589274714887932670,1092,1589274714887816358,,0.499874918832,-0.184968794765,0.208848290607
1589274714893954137,1093,1589274714893854979,,0.499871721738,-0.184903991813,0.208829680965
1589274714899864228,1094,1589274714899789580,,0.499869922039,-0.184835919644,0.208814074345
1589274714905955466,1095,1589274714905861563,,0.499869116516,-0.184769954592,0.208801964971
1589274714911924310,1096,1589274714911836475,,0.49986752505,-0.184702489418,0.208787656454
1589274714918092625,1097,1589274714917871609,,0.499864603625,-0.184571976887,0.208757944991
1589274714923925029,1098,1589274714923815055,,0.499863530135,-0.184478269598,0.208727531953
1589274714929939738,1099,1589274714929827497,,0.499863725066,-0.184409978203,0.208705879327
1589274714936022110,1100,1589274714935825151,,0.499863004226,-0.184317971101,0.208676364057
1589274714941951338,1101,1589274714941855543,,0.499862086501,-0.184209951806,0.20864182064
1589274714948024974,1102,1589274714947855589,,0.499862307071,-0.184109702859,0.208614275404
1589274714954065527,1103,1589274714953903409,,0.499862771723,-0.184009299637,0.208588288378
1589274714960027152,1104,1589274714959860303,,0.499863348518,-0.183902275437,0.208555353275
1589274714966050692,1105,1589274714965890592,,0.499864231659,-0.183793076419,0.208523887115
1589274714972058276,1106,1589274714971946728,,0.499867222916,-0.183677331922,0.208494368313
1589274714978043005,1107,1589274714977887569,,0.499871714917,-0.183558000969,0.208463796792
1589274714981067057,1108,1589274714980983897,,0.499873488836,-0.183438860883,0.208434638433
1589274714986969007,1109,1589274714986853655,,0.499877659392,-0.183319349248,0.208404547004
1589274714993144393,1110,1589274714993033502,,0.499880259869,-0.183223728261,0.208382895905
1589274714999053889,1111,1589274714998926030,,0.499882319168,-0.183128208203,0.208362682969
1589274715005048264,1112,1589274715004937394,,0.49988437603,-0.183006898222,0.208326927158
1589274715011028764,1113,1589274715010923624,,0.499884337001,-0.182909375395,0.208301516681
1589274715017001506,1114,1589274715016910395,,0.499885445574,-0.182837848941,0.208281764872
1589274715022908952,1115,1589274715022833315,,0.499881696416,-0.182738398628,0.208251694181
1589274715028950914,1116,1589274715028866182,,0.499877968871,-0.182653093062,0.208225278388
1589274715035087334,1117,1589274715034871759,,0.499874658589,-0.18259224431,0.208209887114
1589274715041008440,1118,1589274715040902262,,0.499867903803,-0.182540281482,0.208192223275
1589274715047116072,1119,1589274715047006558,,0.499863321665,-0.182492185178,0.208170861535
1589274715053132519,1120,1589274715053039980,,0.499859991439,-0.182440628138,0.208156266734
1589274715059079904,1121,1589274715058958918,,0.499856015825,-0.182388910585,0.208133235524
1589274715065023791,1122,1589274715064891403,,0.499852063615,-0.182332896141,0.208109042285
1589274715071050366,1123,1589274715070931811,,0.499850305786,-0.182263336181,0.208091632235
1589274715077045188,1124,1589274715076929617,,0.499849158504,-0.182189114452,0.208073589181
1589274715080160139,1125,1589274715080086157,,0.499845692848,-0.182111322166,0.208050026575
1589274715083412624,1126,1589274715083244822,,0.499846286053,-0.182023246113,0.208020800913
1589274715088984269,1127,1589274715088875181,,0.499847658397,-0.181927288871,0.208002899581
1589274715095008114,1128,1589274715094935150,,0.499848750127,-0.181827690192,0.207976356275
1589274715100938488,1129,1589274715100862353,,0.49984962075,-0.181720502322,0.207942420185
1589274715107048090,1130,1589274715106894455,,0.499853194494,-0.181606214766,0.207915212528
1589274715119035278,1131,1589274715118903392,,0.499856775244,-0.181363527779,0.207849740221
1589274715124991318,1132,1589274715124873857,,0.499859272972,-0.181234620438,0.207811824693
1589274715130986699,1133,1589274715130917374,,0.499862070658,-0.181106892403,0.207778053653
1589274715136936029,1134,1589274715136864031,,0.499862438583,-0.180978082187,0.207740562106
1589274715143001231,1135,1589274715142895940,,0.499865099434,-0.180848544426,0.207704856714
1589274715149038679,1136,1589274715148914699,,0.499866265125,-0.180721854139,0.207669938313
1589274715155030359,1137,1589274715154875163,,0.499864454661,-0.180606435206,0.207636229268
1589274715161045021,1138,1589274715160888454,,0.499865272547,-0.180493712076,0.207608270501
1589274715166968268,1139,1589274715166866336,,0.499862944915,-0.180393046483,0.207581027418
1589274715173526577,1140,1589274715173416820,,0.499861290004,-0.180298478463,0.207555579863
1589274715179427884,1141,1589274715179272498,,0.499859481979,-0.18021394462,0.207533827762
1589274715182314175,1142,1589274715182134392,,0.499855731865,-0.180138565556,0.207515706576
1589274715188046134,1143,1589274715187844934,,0.499851774269,-0.18006868835,0.207498760987
1589274715194001759,1144,1589274715193872508,,0.499848301117,-0.180004996101,0.207481344105
1589274715200004785,1145,1589274715199926500,,0.499844931441,-0.179938112792,0.207469954867
1589274715206025973,1146,1589274715205907936,,0.499840245462,-0.179873442969,0.207448859237
1589274715212259982,1147,1589274715212070410,,0.49983693472,-0.17980674444,0.207433966502
1589274715218008389,1148,1589274715217842614,,0.499834571041,-0.179729280597,0.207411177684
1589274715224065347,1149,1589274715223912412,,0.499830870353,-0.179650848275,0.207385444516
1589274715230086781,1150,1589274715229851324,,0.499828973624,-0.179568977672,0.207360326635
1589274715236110302,1151,1589274715235958606,,0.49982530341,-0.179480788663,0.207327670342
1589274715241996175,1152,1589274715241916723,,0.499824731894,-0.179383096549,0.207301139289
1589274715248003170,1153,1589274715247884409,,0.499824235423,-0.17928228531,0.207270951648
1589274715253985960,1154,1589274715253893750,,0.499822560784,-0.17917565668,0.207235283652
1589274715259921940,1155,1589274715259819408,,0.499823131215,-0.179057860511,0.207208231794
1589274715265967746,1156,1589274715265862076,,0.499824217682,-0.178942898916,0.207177788958
1589274715271985335,1157,1589274715271898471,,0.499825091155,-0.178820789817,0.207147142026
1589274715278107452,1158,1589274715277995078,,0.49982622564,-0.178699128651,0.207119743596
1589274715284083522,1159,1589274715283959379,,0.499830021208,-0.178577056548,0.207090010453
1589274715290038109,1160,1589274715289929892,,0.49983141502,-0.178452571537,0.207062034257
1589274715295958092,1161,1589274715295866030,,0.499833443289,-0.178335276164,0.207033654869
1589274715301990327,1162,1589274715301866404,,0.499835729591,-0.178215583382,0.207005200224
1589274715308099606,1163,1589274715307986623,,0.499834845831,-0.178110284846,0.206980378607
1589274715314092590,1164,1589274715313870220,,0.499836119836,-0.178002152737,0.206956309309
1589274715319950887,1165,1589274715319854990,,0.499834858374,-0.177908691497,0.206932273093
1589274715326029870,1166,1589274715325928892,,0.49983210518,-0.177818837012,0.206905885723
1589274715331988804,1167,1589274715331858275,,0.499832086344,-0.177734519525,0.206883290823
1589274715338024451,1168,1589274715337926472,,0.49982800303,-0.177664602061,0.206859047586
1589274715344027738,1169,1589274715343892339,,0.499824732349,-0.177622743181,0.206842823798
1589274715350066484,1170,1589274715349914894,,0.499822203701,-0.177573763353,0.206827804372
1589274715356103125,1171,1589274715355969646,,0.499819141385,-0.177502837646,0.20680674202
1589274715362050700,1172,1589274715361919997,,0.499814359017,-0.177455503648,0.206787664404
1589274715368174813,1173,1589274715367964726,,0.499810751071,-0.177412009417,0.206777301705
1589274715374042836,1174,1589274715373924906,,0.499809914798,-0.177333219108,0.206760151455
1589274715380210239,1175,1589274715380120576,,0.499805898077,-0.17725676613,0.206741079847
1589274715383366130,1176,1589274715383233234,,0.499805196864,-0.177191045959,0.206727787788
1589274715389079032,1177,1589274715388927430,,0.49980368582,-0.177121537659,0.206712563107
1589274715395111355,1178,1589274715394994458,,0.499803114336,-0.17704853525,0.206695858393
1589274715401131824,1179,1589274715400952261,,0.499804613185,-0.176975379727,0.20667966973
1589274715407107431,1180,1589274715406981666,,0.49980423592,-0.176889089738,0.206654228102
1589274715413025645,1181,1589274715412900259,,0.499804717024,-0.176800244765,0.206632384107
1589274715419122083,1182,1589274715418953747,,0.499806128017,-0.17670656876,0.206613447845
1589274715425012848,1183,1589274715424880810,,0.499804671463,-0.176612550938,0.206590841933
1589274715431196863,1184,1589274715430979438,,0.499804489479,-0.17651044561,0.206564652886
1589274715437091744,1185,1589274715436957421,,0.499803848855,-0.176407136699,0.206539138521
1589274715443135316,1186,1589274715443019056,,0.499805968894,-0.176298717261,0.206511680239
1589274715449067154,1187,1589274715448947159,,0.499803532495,-0.176186340427,0.206477913182
1589274715455153595,1188,1589274715455000525,,0.499802357454,-0.176075935195,0.206451120758
1589274715461077032,1189,1589274715460944140,,0.499801299835,-0.175969700486,0.206426484065
1589274715467003184,1190,1589274715466917871,,0.499798646326,-0.175872056964,0.206402979214
1589274715479568767,1191,1589274715479395676,,0.499798327306,-0.175677770888,0.206359170904
1589274715482372503,1192,1589274715482258942,,0.499798777569,-0.175587194511,0.206335083637
1589274715488189017,1193,1589274715487977448,,0.499797547625,-0.175500560187,0.206318553348
1589274715494140872,1194,1589274715493998458,,0.499796176014,-0.175422079761,0.206308214669
1589274715500165654,1195,1589274715500079008,,0.499794665965,-0.175350493294,0.206295996516
1589274715506101143,1196,1589274715505930621,,0.499791506096,-0.175281563704,0.206283639492
1589274715512110251,1197,1589274715511988469,,0.49979043027,-0.175215878608,0.206266856429
1589274715518142615,1198,1589274715517978193,,0.499788648952,-0.175147063035,0.206247912008
1589274715524082959,1199,1589274715523945449,,0.499784376897,-0.175077691388,0.206224861478
1589274715530046192,1200,1589274715529894757,,0.499782911703,-0.175010170399,0.206204592055
1589274715536072869,1201,1589274715535966118,,0.49977701819,-0.174941428822,0.206180020927
1589274715542138423,1202,1589274715541957166,,0.499772499167,-0.174867091255,0.206154324284
1589274715548183520,1203,1589274715547998823,,0.499769280598,-0.174791569427,0.206129516701
1589274715554146445,1204,1589274715553946825,,0.499765770302,-0.174709416353,0.206103228248
1589274715560299046,1205,1589274715560134637,,0.499764980447,-0.174622307465,0.206076657379
1589274715566135671,1206,1589274715566011025,,0.499762804347,-0.174537213399,0.206054052879
1589274715572268484,1207,1589274715572023387,,0.49976291827,-0.174441228119,0.206034072019
1589274715578105144,1208,1589274715577979544,,0.499763003312,-0.174343958093,0.206015404249
1589274715584185041,1209,1589274715583989793,,0.499762672508,-0.174245786723,0.205993114558
1589274715590152805,1210,1589274715589981846,,0.499763857416,-0.174146571001,0.205977651585
1589274715596225506,1211,1589274715596061894,,0.499766554026,-0.174038879061,0.205959756998
1589274715602146491,1212,1589274715602002842,,0.499766890368,-0.17393472855,0.205935887048
1589274715608167763,1213,1589274715607960526,,0.499768167292,-0.173826320607,0.205913902521
1589274715614230268,1214,1589274715614002598,,0.499769484796,-0.173724184456,0.205890335164
1589274715620141470,1215,1589274715620018859,,0.499768202994,-0.173619174054,0.205867973634
1589274715626355294,1216,1589274715625976511,,0.499768984326,-0.173515302769,0.205844590203
1589274715632217763,1217,1589274715632003936,,0.499766405511,-0.173422268721,0.205818154478
1589274715638145842,1218,1589274715638007209,,0.499762599299,-0.173327779458,0.205792078087
1589274715644170317,1219,1589274715643990725,,0.499760733562,-0.173246494545,0.205769280219
1589274715650189034,1220,1589274715650031484,,0.499756196223,-0.17316897503,0.205748747525
1589274715656122348,1221,1589274715655976447,,0.499753499018,-0.17310166568,0.20573058731
1589274715662121438,1222,1589274715661975004,,0.499748699954,-0.173038090991,0.205711387592
1589274715668172075,1223,1589274715667982091,,0.499744925229,-0.172986120416,0.205702421737
1589274715674213448,1224,1589274715674056858,,0.499742311725,-0.172934227429,0.205689829091
1589274715680378373,1225,1589274715680251718,,0.499738101635,-0.172881302097,0.20568148873
1589274715686091413,1226,1589274715685972989,,0.499735389731,-0.172831017841,0.205670037071
1589274715692189924,1227,1589274715692028389,,0.499731590836,-0.172777344423,0.205661708261
1589274715698189172,1228,1589274715698015915,,0.499728513719,-0.172719393482,0.205650613236
1589274715704143515,1229,1589274715703986919,,0.49972771315,-0.172654600894,0.20564114829
1589274715710134493,1230,1589274715709993780,,0.499724735373,-0.17259304292,0.205623339493
1589274715716139305,1231,1589274715715983236,,0.499723778087,-0.172521024952,0.20560769543
1589274715722215239,1232,1589274715722027761,,0.499722259487,-0.172449047526,0.205588286635
1589274715728126185,1233,1589274715727986769,,0.499720212688,-0.172373661291,0.205569611858
1589274715734092452,1234,1589274715734002611,,0.499719464118,-0.172294558547,0.205551031933
1589274715740192596,1235,1589274715740021430,,0.499717566439,-0.172213521145,0.205528145065
1589274715746111804,1236,1589274715746030699,,0.499717400155,-0.172126002474,0.205511062773
1589274715752169481,1237,1589274715752021400,,0.49971816676,-0.172040339684,0.205494126967
1589274715758138192,1238,1589274715757979395,,0.499717240249,-0.171947599728,0.205467903806
1589274715764332546,1239,1589274715764079840,,0.499717896081,-0.171853163247,0.205448584538
1589274715770151420,1240,1589274715769964753,,0.499719984895,-0.171764779982,0.205431184579
1589274715776183844,1241,1589274715776038480,,0.499719111925,-0.171667910219,0.205406744273
1589274715785264415,1242,1589274715785033132,,0.499720220118,-0.171478419203,0.205363449638
1589274715791225805,1243,1589274715791061378,,0.499719376503,-0.171390107902,0.205343730665
1589274715797243035,1244,1589274715797027761,,0.499718272904,-0.171304097664,0.205323833752
1589274715803264328,1245,1589274715803058512,,0.499717118461,-0.171224663355,0.205305045657
1589274715809265519,1246,1589274715809006757,,0.499714367432,-0.171150723693,0.205285565863
1589274715815163478,1247,1589274715814993965,,0.499711848889,-0.171087820437,0.205270408487
1589274715821148988,1248,1589274715821017689,,0.499708371015,-0.171028777329,0.205253921819
1589274715827050154,1249,1589274715826964416,,0.499705224534,-0.170974596663,0.205238406371
1589274715839175741,1250,1589274715839055207,,0.499698426163,-0.17087756109,0.205215347942
1589274715845101916,1251,1589274715844977780,,0.499693262642,-0.170832925036,0.205204669452
1589274715852258891,1252,1589274715852155531,,0.499689782947,-0.170784203268,0.205194979939
1589274715857250844,1253,1589274715857035541,,0.499689304811,-0.170728724666,0.205188254458
1589274715863100688,1254,1589274715862968640,,0.499686496029,-0.170677235383,0.205177055728
1589274715869103000,1255,1589274715869016867,,0.499686142766,-0.170639236159,0.205167873632
1589274715875112280,1256,1589274715874975901,,0.499686979907,-0.170596362352,0.205162597966
1589274715881251743,1257,1589274715881118097,,0.499685710089,-0.170526882053,0.205147234486
1589274715887137820,1258,1589274715887044846,,0.499684800687,-0.170469266347,0.205133720669
1589274715893407261,1259,1589274715893270499,,0.499685277623,-0.170416433332,0.205123225984
1589274715899109656,1260,1589274715899014156,,0.499683214752,-0.170344732188,0.205108362661
1589274715905159108,1261,1589274715904966337,,0.499681029216,-0.170269877879,0.205090367909
1589274715911141813,1262,1589274715911024422,,0.499681281813,-0.170205049563,0.205076869212
1589274715917246417,1263,1589274715917052307,,0.499679634637,-0.17014795282,0.205063661162
1589274715923140491,1264,1589274715922985487,,0.499676973455,-0.17008591511,0.205044374993
1589274715929181703,1265,1589274715929047292,,0.499678542046,-0.170019877018,0.205030517132
1589274715935131107,1266,1589274715935017734,,0.499678565717,-0.169961938152,0.205014878642
1589274715941202371,1267,1589274715941035502,,0.499677751376,-0.169901050175,0.20499848735
1589274715947099269,1268,1589274715946984385,,0.499677224487,-0.169838257515,0.204985454539
1589274715953294421,1269,1589274715953198387,,0.499676167975,-0.169776155032,0.204974394623
1589274715959148187,1270,1589274715959025649,,0.499677180326,-0.16971803445,0.204964774829
1589274715965165790,1271,1589274715965032607,,0.499675177856,-0.169657955896,0.204952164498
1589274715971160498,1272,1589274715970954871,,0.499673797718,-0.169597345948,0.204941150119
1589274715977176753,1273,1589274715976993136,,0.499672600203,-0.169542814807,0.20492996281
1589274715983628862,1274,1589274715983461883,,0.499671725522,-0.169485995031,0.204918862216
1589274715989107826,1275,1589274715988961360,,0.499670848661,-0.16943345222,0.204907848292
1589274715995136611,1276,1589274715995007358,,0.499668213601,-0.169384251998,0.204896016112
1589274716001169183,1277,1589274716001041313,,0.499666948026,-0.169329344624,0.204882128317
1589274716007094357,1278,1589274716006984797,,0.499665503591,-0.169276694171,0.204872127346
1589274716019198305,1279,1589274716019039396,,0.499662261396,-0.169169194252,0.204848966698
1589274716025145553,1280,1589274716025015872,,0.499659714815,-0.169114866633,0.204834981066
1589274716031116028,1281,1589274716030999604,,0.499659641316,-0.169061039852,0.204823868935
1589274716037284972,1282,1589274716037055181,,0.499660047377,-0.169001774157,0.204814196606
1589274716043238620,1283,1589274716043100179,,0.499659098156,-0.168945001782,0.204802451939
1589274716049197956,1284,1589274716049083116,,0.499659529755,-0.168887727461,0.204789375771
1589274716055143864,1285,1589274716055004101,,0.499661265236,-0.16882619321,0.204779215527
1589274716061155644,1286,1589274716061012477,,0.499660729327,-0.168766271342,0.204766760647
1589274716067193225,1287,1589274716067040213,,0.499661107519,-0.168706914891,0.204754773423
1589274716076183465,1288,1589274716076095508,,0.499660800112,-0.168583579779,0.204730708138
1589274716082545347,1289,1589274716082371507,,0.499661220067,-0.168520463078,0.204715665685
1589274716088169801,1290,1589274716087997679,,0.499660970751,-0.168398781224,0.204687259306
1589274716094215575,1291,1589274716094051502,,0.499659748293,-0.168282826096,0.20465695655
1589274716100139058,1292,1589274716100025158,,0.499660023597,-0.168226577226,0.204646216745
1589274716112195219,1293,1589274716112045479,,0.499658112443,-0.168074480071,0.20461639572
1589274716118138535,1294,1589274716118041788,,0.499654331729,-0.167987353768,0.204594396679
1589274716124152685,1295,1589274716124041991,,0.499654263247,-0.167944037642,0.204590367849
1589274716130087654,1296,1589274716130007526,,0.499654192063,-0.167903187982,0.204583576963
1589274716136135508,1297,1589274716136043073,,0.499650504357,-0.167824699215,0.204564754786
1589274716142183637,1298,1589274716142071943,,0.499649912012,-0.167780703922,0.20455627356
1589274716148272543,1299,1589274716148118231,,0.499648381693,-0.167692032476,0.204538595614
1589274716154170462,1300,1589274716154065869,,0.499648040666,-0.167645754663,0.204528195084
1589274716160485678,1301,1589274716160399356,,0.499646637375,-0.167555281353,0.20450782408
1589274716166837737,1302,1589274716166725330,,0.499647333177,-0.167511191916,0.204498499247
1589274716172209483,1303,1589274716172066148,,0.499646208704,-0.167418296224,0.204479702809
1589274716178139268,1304,1589274716178033044,,0.499646619385,-0.167370256266,0.204470999104
1589274716184245481,1305,1589274716184077019,,0.499644815765,-0.167280950059,0.204451610909
1589274716190188656,1306,1589274716190038896,,0.499644401633,-0.167234929638,0.20444287531
1589274716196273093,1307,1589274716196097598,,0.499645279565,-0.167143859167,0.204425067864
1589274716202251647,1308,1589274716202105257,,0.499643411313,-0.167099902907,0.204411441625
1589274716208243843,1309,1589274716208058811,,0.499642822599,-0.167017351108,0.204394105535
1589274716214211710,1310,1589274716214031788,,0.499642015286,-0.166971329214,0.204382481
1589274716220281374,1311,1589274716220155826,,0.49964181863,-0.166934062089,0.204374141948
1589274716232316026,1312,1589274716232126774,,0.499639910339,-0.166815335168,0.20434636351
1589274716238283040,1313,1589274716238070837,,0.49963861621,-0.166780168405,0.204336892971
1589274716244278494,1314,1589274716244059585,,0.499638210542,-0.166719526695,0.204324365755
1589274716250168656,1315,1589274716250024643,,0.499638269107,-0.166694632502,0.204320814029
1589274716256201476,1316,1589274716256040012,,0.499639060279,-0.166630265748,0.204311272607
1589274716262257594,1317,1589274716262075504,,0.499638231144,-0.166607973519,0.204306084029
1589274716268219835,1318,1589274716268093601,,0.499636759895,-0.166549337501,0.204293088079
1589274716274182366,1319,1589274716274051871,,0.499637170247,-0.166522970276,0.204289082261
1589274716280459255,1320,1589274716280254648,,0.499635617346,-0.166477392713,0.204281152177
1589274716292183345,1321,1589274716292029774,,0.499634584705,-0.166408926645,0.204263102418
1589274716298306967,1322,1589274716298118086,,0.499633722759,-0.16638508832,0.204255277842
1589274716304280344,1323,1589274716304108381,,0.499635013149,-0.166338096194,0.204247307973
1589274716310247988,1324,1589274716310127090,,0.499635106572,-0.166308938194,0.204240673406
1589274716316265272,1325,1589274716316102358,,0.499634879678,-0.166263809659,0.204231913477
1589274716322239612,1326,1589274716322111150,,0.499635291777,-0.166233970088,0.204224105101
1589274716328292292,1327,1589274716328103086,,0.499635875092,-0.166181475553,0.204216676784
1589274716334234432,1328,1589274716334098967,,0.499635877472,-0.1661554872,0.204211541964
1589274716340579790,1329,1589274716340433816,,0.499636484709,-0.166108949848,0.204201679097
1589274716346238424,1330,1589274716346092412,,0.499636723046,-0.166082671126,0.204194728691
1589274716352214717,1331,1589274716352070459,,0.49963677372,-0.166032621749,0.20418370727
1589274716358203029,1332,1589274716358048539,,0.499637020769,-0.166007943407,0.204179772227
1589274716364250071,1333,1589274716364110651,,0.499636893636,-0.165954226252,0.204167160875
1589274716370275393,1334,1589274716370144479,,0.499636690589,-0.165929234297,0.204161271486
1589274716376236260,1335,1589274716376081861,,0.499637634247,-0.165903803285,0.204156451107
1589274716382561620,1336,1589274716382442317,,0.499637374319,-0.165853796464,0.204144698142
1589274716388145607,1337,1589274716388026103,,0.499637779114,-0.165802338086,0.204132996384
1589274716394155021,1338,1589274716394028727,,0.499638351533,-0.16577799739,0.204128783165
1589274716400722663,1339,1589274716400561733,,0.499638748733,-0.165756575987,0.204123595726
1589274716412172465,1340,1589274716412048378,,0.499639601755,-0.165670171235,0.204104186377
1589274716418172948,1341,1589274716418042586,,0.499639575015,-0.165648975994,0.204101301049
1589274716424145771,1342,1589274716424052179,,0.499640030161,-0.165628906569,0.204098802305
1589274716430217019,1343,1589274716430055835,,0.499641000077,-0.165592163141,0.204091531196
1589274716436210175,1344,1589274716436050347,,0.499641060629,-0.16555623536,0.204082679496
1589274716442158543,1345,1589274716442059680,,0.499640754718,-0.165538407535,0.204078563958
1589274716448240487,1346,1589274716448072026,,0.499640837731,-0.165522808982,0.204075438427
1589274716454240017,1347,1589274716454086862,,0.499641095474,-0.165488079191,0.204067829322
1589274716460639059,1348,1589274716460528259,,0.49964215181,-0.165458328306,0.204060886224
1589274716472279445,1349,1589274716472125711,,0.499641973159,-0.165431446804,0.204054982453
1589274716478180439,1350,1589274716478059282,,0.499642509449,-0.165407980195,0.204050143283
1589274716484243264,1351,1589274716484106675,,0.499643212202,-0.16539973098,0.204048934779
1589274716490319270,1352,1589274716490129363,,0.499643604235,-0.165374689198,0.204043008083
1589274716496326166,1353,1589274716496151189,,0.499643805721,-0.165366037839,0.20404197282
1589274716502273865,1354,1589274716502105429,,0.499644011059,-0.165341019995,0.204037367467
1589274716508276381,1355,1589274716508085982,,0.499643759263,-0.165330238193,0.204034570916
1589274716514244036,1356,1589274716514081042,,0.499643809848,-0.165313116104,0.204030380789
1589274716520542626,1357,1589274716520431859,,0.499643863444,-0.165305031215,0.204027688408
1589274716526209175,1358,1589274716526098206,,0.499644024593,-0.165297267087,0.204024971349
1589274716532327181,1359,1589274716532099251,,0.499644573239,-0.165281545218,0.204020765934
1589274716538166369,1360,1589274716538082730,,0.499645189874,-0.16527423589,0.204018857991
1589274716544233196,1361,1589274716544094149,,0.49964556182,-0.165259029895,0.204016399474
1589274716550280374,1362,1589274716550124752,,0.499645759716,-0.165252176677,0.204013042404
1589274716556301081,1363,1589274716556091210,,0.49964704792,-0.165237584843,0.204010863121
1589274716562263022,1364,1589274716562137278,,0.499646529694,-0.165230400332,0.204008549347
1589274716568193355,1365,1589274716568058132,,0.499647554411,-0.165215896305,0.204005001214
1589274716574261259,1366,1589274716574115394,,0.499648766598,-0.165211895204,0.204005545736
1589274716580414309,1367,1589274716580303984,,0.49964961593,-0.165203314947,0.204003266374
1589274716592252421,1368,1589274716592116110,,0.49965101025,-0.165190202864,0.204000569949
1589274716598222497,1369,1589274716598087032,,0.499650982572,-0.16518483169,0.203999905699
1589274716604210055,1370,1589274716604121464,,0.499651678667,-0.165176190751,0.203998278483
1589274716610228460,1371,1589274716610096789,,0.49965262921,-0.165172823702,0.203998465996
1589274716616190595,1372,1589274716616069810,,0.499653198013,-0.165167012839,0.203996683531
1589274716622287832,1373,1589274716622152522,,0.499653378925,-0.165163484331,0.203995569777
1589274716628239140,1374,1589274716628118319,,0.499653681334,-0.16516077588,0.203995498302
1589274716634223499,1375,1589274716634126762,,0.499654551726,-0.165154743135,0.203994425147
1589274716640504517,1376,1589274716640424635,,0.499655211845,-0.16515074775,0.203993105157
1589274716652399812,1377,1589274716652177212,,0.499656293338,-0.165139623095,0.203990667054
1589274716658266242,1378,1589274716658134481,,0.499657758988,-0.165131815653,0.203989371082
1589274716664319384,1379,1589274716664184905,,0.49965752334,-0.165129412621,0.203987783695
1589274716670282847,1380,1589274716670168921,,0.499659629284,-0.165121687755,0.203989366653
1589274716676328127,1381,1589274716676179817,,0.499660394291,-0.165115847363,0.203987375702
1589274716682554981,1382,1589274716682454466,,0.499660497474,-0.165112940417,0.20398683036
1589274716688231047,1383,1589274716688115777,,0.499660952103,-0.165111622704,0.203986596462
1589274716694286682,1384,1589274716694126316,,0.499661748118,-0.165106285121,0.203985591765
1589274716700714602,1385,1589274716700534344,,0.499661982418,-0.165106629143,0.20398575169
1589274716709324358,1386,1589274716709175223,,0.499663259069,-0.165102969837,0.203985150748
1589274716715251996,1387,1589274716715153477,,0.499663827317,-0.16509951725,0.203984930847
1589274716721311456,1388,1589274716721167465,,0.499663349377,-0.165099548277,0.203983071235
1589274716727392091,1389,1589274716727230201,,0.499663651299,-0.165098898522,0.203983234333
1589274716736328631,1390,1589274716736137432,,0.499664698632,-0.165097461955,0.203983661215
1589274716742430562,1391,1589274716742179704,,0.499664613953,-0.165097381296,0.203983644847
1589274716748281032,1392,1589274716748145419,,0.499664930316,-0.16509685849,0.203982711912
1589274716754294852,1393,1589274716754143082,,0.499664950577,-0.165096858485,0.203982607115
1589274716760359467,1394,1589274716760265098,,0.499664949276,-0.165096962331,0.203981882871
1589274716766197555,1395,1589274716766101276,,0.499665662444,-0.165097169969,0.203981866674
1589274716772465754,1396,1589274716772184239,,0.499665744251,-0.165097389833,0.203980504659
1589274716778326331,1397,1589274716778147826,,0.499666435288,-0.165096984737,0.203981382479
1589274716784430701,1398,1589274716784212038,,0.499666215711,-0.165098449076,0.203980102072
1589274716790315639,1399,1589274716790150084,,0.499666550152,-0.165098580737,0.203980097177
1589274716796249934,1400,1589274716796097474,,0.499667706506,-0.165099034368,0.203980957657
1589274716802322501,1401,1589274716802170344,,0.499668433549,-0.165099470839,0.203981004912
1589274716808343575,1402,1589274716808154408,,0.499668410881,-0.165100550876,0.203979636878
1589274716814284099,1403,1589274716814181683,,0.499669391177,-0.165101499575,0.203980280316
1589274716820497598,1404,1589274716820406630,,0.499670297498,-0.165101148954,0.203980015493
