%time,field.header.seq,field.header.stamp,field.header.frame_id,field.wrench.force.x,field.wrench.force.y,field.wrench.force.z,field.wrench.torque.x,field.wrench.torque.y,field.wrench.torque.z
1589285442449612375,2374,1589285442449518788,,-0.162402451543,-0.495208973644,0.453657191597,0.0714195177101,0.00942021849747,0.0289857328815
1589285442452821012,2375,1589285442452517416,,-0.206269604109,-0.495669225734,0.453377574995,0.071506023324,0.0100315712849,0.0320547104922
1589285442455587513,2376,1589285442455488419,,-0.228363054996,-0.495934230628,0.453275309488,0.0706366827223,0.00943334679585,0.0335326217161
1589285442461574821,2377,1589285442461459590,,-0.20628632363,-0.495660555313,0.453379447062,0.072420170951,0.0100432235927,0.0329402211991
1589285442464636436,2378,1589285442464464306,,-0.231120080724,-0.625593369179,0.479270737832,0.0741580148019,0.0100784826267,0.0362632940171
1589285442467608246,2379,1589285442467514493,,-0.208885362869,-0.625380494077,0.479466585591,0.0750624173611,0.0106952594019,0.0364510428582
1589285442474057126,2380,1589285442473926763,,-0.231740408703,-0.626205426483,0.501806265615,0.0758484409864,0.0101025697849,0.0380411315718
1589285442476604473,2381,1589285442476524044,,-0.232920502215,-0.755690037929,0.482347083354,0.0760019709771,0.0107142229742,0.0380543734498
1589285442482572260,2382,1589285442482480621,,-0.232905135264,-0.755693105311,0.482349697988,0.0760027182165,0.0107146050785,0.0380527734432
1589285442485594135,2383,1589285442485499694,,-0.253905846529,-0.62643542073,0.501623563285,0.0803795667314,0.0107644350801,0.0398659438801
1589285442488653061,2384,1589285442488568583,,-0.253901619925,-0.626444553585,0.501614297217,0.0803794316485,0.0107644914391,0.0398662010218
1589285442491503058,2385,1589285442491426377,,-0.231701353402,-0.626239332715,0.501781986908,0.0803630370889,0.0107616116571,0.0391568195458
1589285442497664643,2386,1589285442497566462,,-0.232945969275,-0.627443071458,0.546783119761,0.084520847063,0.00956903227553,0.0376826507815
1589285442500605381,2387,1589285442500508854,,-0.232929058089,-0.627457370829,0.546773915131,0.0845201154997,0.00957165941724,0.0376836244112
1589285442509517749,2388,1589285442509440332,,-0.232920698136,-0.627465674538,0.546767947336,0.0844640114764,0.00895036260725,0.0351424560194
1589285442512599253,2389,1589285442512511353,,-0.232915043749,-0.627473827095,0.546761000148,0.0844483351762,0.00894909233846,0.0343017979889
1589285442515560884,2390,1589285442515474765,,-0.212686176081,-0.757716466482,0.572619368128,0.0860959729764,0.00956995794581,0.0328391640237
1589285442521590061,2391,1589285442521465166,,-0.21268028857,-0.757720696558,0.57261595742,0.0851665852574,0.00894768735322,0.0319519562741
1589285442524597768,2392,1589285442524513937,,-0.212676332504,-0.757720611917,0.572617538762,0.0869741161485,0.00896078826046,0.0320400471317
1589285442530582427,2393,1589285442530462865,,-0.212693490222,-0.757711188205,0.572623635835,0.0869740100295,0.00895967156007,0.0320406474838
1589285442533598441,2394,1589285442533482802,,-0.213250745273,-0.758249928002,0.595287336267,0.089546084072,0.00897622083488,0.0321633549911
1589285442536538254,2395,1589285442536433865,,-0.21327087045,-0.75823557595,0.595298407167,0.08954612702,0.0089747089031,0.0321636573359
1589285442539724922,2396,1589285442539543866,,-0.236256946275,-0.758884554593,0.617650009599,0.0921259406858,0.0089917154635,0.0329925840982
1589285442545565708,2397,1589285442545477022,,-0.236807043795,-0.759415230146,0.640271068605,0.0947076677178,0.00900743005033,0.0331096720199
1589285442548702633,2398,1589285442548565306,,-0.238659193961,-0.890230490946,0.665599926929,0.0982081900257,0.00902841532087,0.0358065075099
1589285442554669865,2399,1589285442554581002,,-0.262205685201,-0.891248432423,0.710761446689,0.104303132566,0.01029929091,0.0385037643796
1589285442557634315,2400,1589285442557554865,,-0.26219277621,-0.89126504903,0.710745372288,0.104303495864,0.0102990704934,0.0385028391829
1589285442560540677,2401,1589285442560446667,,-0.262736263161,-0.891707976802,0.733464049564,0.106884486159,0.0103121012149,0.0394668344405
1589285442563587981,2402,1589285442563484426,,-0.262754436515,-0.891703760017,0.733462665947,0.10688440567,0.0103104650143,0.0394674798961
1589285442573056178,2403,1589285442572867732,,-0.264428928556,-1.02282986996,0.758514549264,0.111277560898,0.0103306141927,0.0405096568071
1589285442575574607,2404,1589285442575475106,,-0.264421738036,-1.02281947185,0.75853107718,0.111277981048,0.010331099736,0.0405083788336
1589285442578515048,2405,1589285442578425995,,-0.241368160989,-1.02232100936,0.7361432625,0.1114170607,0.0103282758481,0.0389396178477
1589285442581584061,2406,1589285442581459829,,-0.219228560801,-1.02266620194,0.759193552769,0.112174713788,0.0103301176681,0.0382502119056
1589285442584628637,2407,1589285442584553479,,-0.219229062261,-1.02266371136,0.75919676287,0.113984508653,0.00971794545551,0.0383209726519
1589285442590627119,2408,1589285442590529710,,-0.219228818263,-1.02265714472,0.759205678732,0.113984248418,0.00971883256239,0.0383215217318
1589285442593589939,2409,1589285442593459891,,-0.219712264666,-1.02307679428,0.782040320937,0.113838587032,0.009717552028,0.0366053330331
1589285442596564566,2410,1589285442596485944,,-0.263295579695,-0.892120169134,0.756230428181,0.112151755719,0.00908434705928,0.0362574305257
1589285442602640501,2411,1589285442602524987,,-0.195737668743,-0.891891902951,0.757138152951,0.113040696938,0.00845443106016,0.0307173177511
1589285442608558654,2412,1589285442608471312,,-0.195723366203,-0.891922166441,0.757106199355,0.113040152838,0.00845625033886,0.0307188192343
1589285442611762920,2413,1589285442611649953,,-0.196222491262,-0.892385282681,0.779957580195,0.114711604666,0.00846128050421,0.0290652079587
1589285442614689651,2414,1589285442614566473,,-0.173247871008,-0.891873056626,0.757427220198,0.115761551229,0.0078451384438,0.0258315118713
1589285442617691021,2415,1589285442617564670,,-0.17324766616,-0.891880812541,0.757418134342,0.115761437652,0.00784525730911,0.0258319847549
1589285442620642364,2416,1589285442620563152,,-0.195273008641,-0.762282554844,0.777328577426,0.116530644227,0.00784792803695,0.025712769405
1589285442629836486,2417,1589285442629720846,,-0.172881450473,-0.762230133837,0.777619523908,0.116539136163,0.00721873207116,0.0215864532313
1589285442632599355,2418,1589285442632455807,,-0.172891256009,-0.762231091497,0.777616405152,0.11653865862,0.00721958338158,0.0215887465175
1589285442638628339,2419,1589285442638550469,,-0.172890885513,-0.762228509931,0.777619018006,0.117465117073,0.00722244860093,0.0199163199259
1589285442641610453,2420,1589285442641526700,,-0.150911770765,-0.762687619455,0.800736787422,0.118236447634,0.00722435207799,0.0192235861058
1589285442644562319,2421,1589285442644484207,,-0.150924728493,-0.762677513931,0.800743970461,0.118236684333,0.00722198033556,0.0192230214249
1589285442650623816,2422,1589285442650533027,,-0.173444582225,-0.762712064184,0.800429433425,0.119145523602,0.00722370286006,0.0191074722497
1589285442653624540,2423,1589285442653561817,,-0.173463188728,-0.762708154502,0.800429126819,0.11914523516,0.00722304116513,0.01910952088
1589285442656652783,2424,1589285442656576107,,-0.150142566627,-0.63326540234,0.797948746939,0.120058037274,0.00659435842009,0.0192779666825
1589285442662662763,2425,1589285442662575908,,-0.150668813556,-0.633786790279,0.820825404002,0.121743496395,0.00659755490467,0.0193261872639
1589285442665585909,2426,1589285442665462550,,-0.151749724105,-0.892749150812,0.803389833238,0.122811494768,0.00785971690801,0.0193565626975
1589285442671920774,2427,1589285442671816744,,-0.152246133654,-0.893199018253,0.826189972823,0.123574365393,0.00723054884364,0.0193775390053
1589285442674981144,2428,1589285442674896453,,-0.175327646897,-0.893685168618,0.848755584374,0.122524062164,0.00785971258623,0.0192060400422
1589285442677553192,2429,1589285442677429572,,-0.17530255885,-0.893697241759,0.848748054085,0.122524471953,0.00786015055294,0.0192032463695
1589285442680523778,2430,1589285442680434416,,-0.175586227036,-1.02384443229,0.828220341947,0.122656036437,0.00786182929529,0.0200675059134
1589285442687185297,2431,1589285442687108808,,-0.153378297448,-1.02424118215,0.85146805174,0.123434328226,0.00723411813636,0.0185040640734
1589285442689589600,2432,1589285442689504444,,-0.175534385239,-1.02384817322,0.828226706443,0.122658340192,0.00723402129383,0.0191993918315
1589285442692496461,2433,1589285442692422888,,-0.175516798367,-1.02383838069,0.828242538865,0.122658434133,0.00723553213772,0.0191982223184
1589285442698534772,2434,1589285442698452086,,-0.151337085938,-0.763155194338,0.823602714238,0.122666701167,0.00660653163224,0.0176240340159
1589285442701520109,2435,1589285442701460825,,-0.152583829423,-0.893669903494,0.84910989595,0.124367789126,0.00724047884022,0.016817224208
1589285442707589348,2436,1589285442707514512,,-0.129604093949,-0.89319172755,0.826552239724,0.123611529816,0.00723940115393,0.0152283949137
1589285442710551368,2437,1589285442710457349,,-0.129613252092,-0.8931871649,0.826555734156,0.123611798966,0.00723715667383,0.0152272769627
1589285442713535808,2438,1589285442713403848,,-0.129582785248,-0.893200768201,0.826545811058,0.123611707277,0.00724037842993,0.0152264896903
1589285442719547851,2439,1589285442719452819,,-0.129575616278,-0.893205091951,0.826542262504,0.123611717825,0.00724094494812,0.0152261346602
1589285442722462227,2440,1589285442722399455,,-0.129582853905,-0.893196075139,0.826550871789,0.123612286145,0.00723737953847,0.0152232156793
1589285442725536409,2441,1589285442725435187,,-0.130046849093,-0.893662631616,0.849453575566,0.124383484324,0.00723961737412,0.0152424393281
1589285442731521412,2442,1589285442731448829,,-0.13004006057,-0.893671205463,0.84944559468,0.124383575482,0.00723963040849,0.0152416892413
1589285442734511318,2443,1589285442734437152,,-0.129345138588,-0.763639433519,0.846871968067,0.124379407158,0.0066104430461,0.0152400904925
1589285442737612432,2444,1589285442737522134,,-0.130051394026,-0.893660906748,0.849454694383,0.125284249235,0.00723938203631,0.0161174194479
1589285442743614030,2445,1589285442743509472,,-0.129361414742,-0.763639164376,0.846869724696,0.126207394977,0.00660968047298,0.0152858009408
1589285442749671412,2446,1589285442749542498,,-0.130049009279,-0.893672016236,0.849443371703,0.128963279705,0.00661386614831,0.0144911273799
1589285442755705557,2447,1589285442755597405,,-0.130040004441,-0.893661082407,0.84945625325,0.128954290816,0.00661348352553,0.0153532847473
1589285442758620271,2448,1589285442758515677,,-0.13050971255,-0.894119093157,0.872279555566,0.128803236891,0.00661399989393,0.0153502997099
1589285442764896513,2449,1589285442764777215,,-0.107897832067,-0.894123179241,0.872633315367,0.127883121367,0.00661255521381,0.0154600879611
1589285442767722511,2450,1589285442767558007,,-0.107900192319,-0.894125242205,0.872630909754,0.127883139757,0.00661217063668,0.0154601003294
1589285442771110699,2451,1589285442770960914,,-0.107905406028,-0.894118516784,0.872637156098,0.126073222736,0.00661068564517,0.0136993587332
1589285442773752189,2452,1589285442773692914,,-0.107910270209,-0.89411048671,0.872644782284,0.126073222387,0.00661034132647,0.0136995280899
1589285442782611510,2453,1589285442782493583,,-0.107435541564,-0.893660861071,0.849812008703,0.124396357048,0.00660762493969,0.0136562092915
1589285442785590225,2454,1589285442785503349,,-0.084482183952,-0.893208595148,0.827266789584,0.124558023561,0.00598961644619,0.0112393260195
1589285442788547585,2455,1589285442788438224,,-0.0844965760742,-0.893204767608,0.827269452327,0.124557868424,0.00598938818577,0.0112411667856
1589285442791582971,2456,1589285442791500813,,-0.107425747289,-0.893664568631,0.849809347989,0.124411504904,0.00599012437982,0.0119525308202
1589285442794677663,2457,1589285442794567689,,-0.0844752434672,-0.893226614714,0.827248042008,0.124583863929,0.00661274275762,0.00952800611077
1589285442797576734,2458,1589285442797472508,,-0.0844781122364,-0.89323132178,0.827242666539,0.124595527054,0.00661297799855,0.00867655766826
1589285442803503803,2459,1589285442803423878,,-0.107412374682,-0.893684614779,0.849789957229,0.12534204806,0.00599387355792,0.0102602985045
1589285442809522821,2460,1589285442809454202,,-0.107395413549,-0.893700058917,0.849775858787,0.124432725912,0.00599373839165,0.0102386567154
1589285442815513511,2461,1589285442815432621,,-0.107390723708,-0.893695381854,0.849781370265,0.125353513415,0.00599511395045,0.00940593244201
1589285442818535365,2462,1589285442818376298,,-0.0848946143515,-0.893698674344,0.85015271529,0.125363533917,0.00599455816538,0.00868901238658
1589285442824461226,2463,1589285442824398176,,-0.107399126049,-0.893686980842,0.849789143455,0.126261724278,0.00599384658083,0.0102778696931
1589285442827537670,2464,1589285442827418298,,-0.0849181467363,-0.893693609966,0.850155688828,0.125351923831,0.00599138784945,0.0095417050123
1589285442830450102,2465,1589285442830385784,,-0.084479051133,-0.893226388867,0.827247897036,0.125495809209,0.00536116267631,0.00954570659147
1589285442836549512,2466,1589285442836454526,,-0.0844916007798,-0.893214828663,0.827259097414,0.125495826861,0.00535998463856,0.00954613606643
1589285442839526630,2467,1589285442839454531,,-0.0849549301307,-0.893670992314,0.85017578931,0.125355874046,0.00660919457797,0.00954405906742
1589285442842469908,2468,1589285442842402106,,-0.10744463108,-0.893661335952,0.849810360146,0.125331401905,0.00598900239607,0.0111122690799
1589285442848513462,2469,1589285442848424389,,-0.106995599703,-0.893189173806,0.826910433355,0.12456002475,0.00598542036468,0.0110933475368
1589285442851485260,2470,1589285442851393627,,-0.130041662582,-0.893659577559,0.849457582565,0.124403453298,0.00598547288306,0.0126696280981
1589285442854618434,2471,1589285442854553970,,-0.107438366333,-0.893662453534,0.849809976948,0.124415808643,0.00660724979779,0.0119513249217
1589285442860576800,2472,1589285442860518656,,-0.130036703887,-0.89366820836,0.849449261673,0.124403450363,0.00598584714193,0.012669480102
1589285442866680087,2473,1589285442866609662,,-0.107446502398,-0.893668947326,0.849802119345,0.125314987764,0.00660773260429,0.012825964014
1589285442873021588,2474,1589285442872845332,,-0.107434272102,-0.893667140534,0.84980556567,0.125315076777,0.00660836355122,0.0128247691983
1589285442875676510,2475,1589285442875602902,,-0.107427753927,-0.893668347915,0.849805119987,0.124415841927,0.00660792842389,0.0119506032082
1589285442878755161,2476,1589285442878687655,,-0.107428324416,-0.893667178043,0.849806278123,0.126240350562,0.00598936414363,0.0119928698893
1589285442881591693,2477,1589285442881526014,,-0.107425924973,-0.89366972712,0.849803900796,0.126240376131,0.00598938512443,0.0119925902584
1589285442884716802,2478,1589285442884612382,,-0.107884276362,-0.894126232084,0.872631863343,0.127034083392,0.00661317513154,0.0102960955797
1589285442887735116,2479,1589285442887658757,,-0.0853757082472,-0.894133138519,0.873002663858,0.126124299195,0.00661233836616,0.00955917135328
1589285442893544282,2480,1589285442893491414,,-0.0853711114398,-0.894127666581,0.873008717738,0.126124367966,0.00661225544008,0.00955832130801
1589285442896624188,2481,1589285442896522613,,-0.0632436272129,-1.02469996846,0.875776285289,0.125236935062,0.00661041338706,0.00796802195937
1589285442899822940,2482,1589285442899745552,,-0.0854700951479,-1.02426073209,0.852575714785,0.124458283796,0.00660827675531,0.00867021562986
1589285442902526618,2483,1589285442902455824,,-0.0854627993895,-1.02426007336,0.852577237525,0.124458261072,0.00660899690772,0.00866999290308
1589285442908721854,2484,1589285442908650244,,-0.0853863465132,-0.894128341237,0.873006536794,0.124307240678,0.00660846275094,0.00866714248525
1589285442911543941,2485,1589285442911447861,,-0.0853986751832,-0.894126990777,0.873006714007,0.124307241001,0.0066074842541,0.00866788384233
1589285442917585991,2486,1589285442917438226,,-0.0859353870252,-1.02467734198,0.875385002545,0.123386288449,0.0066041109066,0.00949949559672
1589285442920553603,2487,1589285442920425335,,-0.0632697749329,-1.02469834533,0.875776295794,0.123380648362,0.00598331523216,0.0096309507734
1589285442923593775,2488,1589285442923412506,,-0.0859219939747,-1.02466229397,0.875403931251,0.124295847384,0.00660550247086,0.00951733469632
1589285442926708051,2489,1589285442926622196,,-0.0859239579674,-1.02466838696,0.87539660657,0.125215271993,0.00660641528471,0.00953742147905
1589285442932638407,2490,1589285442932446891,,-0.0632690058219,-1.0246899636,0.875786158265,0.124290261234,0.00598308279996,0.00964929211268
1589285442935546322,2491,1589285442935479489,,-0.0859299886581,-1.02466778961,0.875396713822,0.124285015966,0.00660219934118,0.0103668811952
1589285442941667473,2492,1589285442941579978,,-0.0859396636082,-1.02467290712,0.87538977389,0.124285053773,0.00660111964427,0.0103671154869
1589285442944732871,2493,1589285442944625724,,-0.0854998390547,-1.02424719546,0.852588994784,0.12168822821,0.00659633428358,0.0103074931814
1589285442947752058,2494,1589285442947680001,,-0.0632996426889,-1.15530277228,0.855155641715,0.120801292552,0.00659554785132,0.00786940995426
1589285442954018425,2495,1589285442953887210,,-0.0632996073254,-1.15530333423,0.855154885143,0.120801361562,0.0065950586955,0.00786876052009
1589285442956780855,2496,1589285442956660919,,-0.0632937132807,-1.15529504154,0.855166524607,0.120801341398,0.00659565925754,0.0078685667128
1589285442959913779,2497,1589285442959661556,,-0.062831298987,-1.02426496273,0.852983909227,0.119891886407,0.006594484021,0.00784883092982
1589285442965877278,2498,1589285442965777298,,-0.0628293470473,-1.0242638088,0.85298543865,0.118070902835,0.00597320647929,0.00696053972432
1589285442971918763,2499,1589285442971840096,,-0.0637018718489,-1.15567644901,0.877967383145,0.117936950626,0.00659155498969,0.00609969636439
1589285442974988580,2500,1589285442974910851,,-0.0636868773428,-1.1556819975,0.877961167379,0.117936891229,0.00659284076934,0.00609945518155
1589285442977627885,2501,1589285442977543488,,-0.0632475653573,-1.15530796593,0.855152478393,0.116267652145,0.00597267049771,0.00521644072822
1589285442980649429,2502,1589285442980564588,,-0.06323940019,-1.15531156328,0.855148222228,0.116267619424,0.00597338795304,0.00521634853149
1589285442983713897,2503,1589285442983593415,,-0.06322745369,-1.15531123249,0.855149552498,0.116267603395,0.00597418641058,0.00521579137436
1589285442989647470,2504,1589285442989568457,,-0.0627964141864,-1.15492419183,0.832270699667,0.116405340151,0.00597461695064,0.00521833341492
1589285442992676513,2505,1589285442992587110,,-0.0623702608191,-1.154540276,0.80950149506,0.115646259469,0.00534696031226,0.00435519322762
1589285442995845804,2506,1589285442995727434,,-0.062362534141,-1.15453866186,0.809504392488,0.113816961014,0.00534474041052,0.00431940419845
1589285443001729687,2507,1589285443001576777,,-0.0623479105831,-1.1545459444,0.809495132266,0.113816904824,0.00534603314113,0.00431928502118
1589285443004693162,2508,1589285443004588080,,-0.0623171932827,-1.02385982143,0.830075991694,0.113679846912,0.00534699179706,0.00347115802925
1589285443007713263,2509,1589285443007628401,,-0.061888958203,-1.02343589621,0.807298253686,0.112930081198,0.00597064811737,0.00261173655628
1589285443013779454,2510,1589285443013664972,,-0.0401750947275,-1.15496668924,0.832657625439,0.112801722905,0.00597007416765,0.00190031333867
1589285443020205742,2511,1589285443019929236,,-0.0393338576734,-1.15419868157,0.787132348753,0.109415869689,0.00533871495329,0.00268243926386
1589285443022624236,2512,1589285443022515140,,-0.0393331922004,-1.15419927886,0.78713150618,0.109435331151,0.00596183482328,0.00183899648663
1589285443025701126,2513,1589285443025597390,,-0.039337248258,-1.15419751699,0.787133886968,0.108500775334,0.00595867259522,0.00266472599232
1589285443028728653,2514,1589285443028631826,,-0.038922930285,-1.1538129425,0.76429476502,0.107728953095,0.00595607555128,0.00265028783268
1589285443034731153,2515,1589285443034613670,,-0.0389245634228,-1.15381348752,0.764293859067,0.10772898994,0.00595561314765,0.00264982922644
1589285443037587472,2516,1589285443037526754,,-0.0163469516805,-1.15385852225,0.764696412035,0.106847379316,0.00595354070381,0.00108558427006
1589285443040696291,2517,1589285443040606449,,-0.038931251836,-1.15381119451,0.764296980027,0.105895208121,0.00532873596238,0.00261588525665
1589285443043623003,2518,1589285443043528409,,-0.0389318889275,-1.15381204208,0.76429566805,0.105895209361,0.0053286939633,0.00261592058676
1589285443049711697,2519,1589285443049542556,,-0.0385191432292,-1.1534293587,0.74157037007,0.105131272758,0.00594808264938,0.00260263065376
1589285443052684937,2520,1589285443052589119,,-0.0385163123504,-1.1534290641,0.74157097533,0.103302096406,0.0059432748094,0.00256905024363
1589285443055742120,2521,1589285443055658548,,-0.0610919550036,-1.15339344891,0.741178704802,0.102370578057,0.00594003237293,0.00325533024607
1589285443061773000,2522,1589285443061631248,,-0.0610900556745,-1.15339309562,0.741179411132,0.102370570412,0.00594018301787,0.00325529577731
1589285443064666590,2523,1589285443064584945,,-0.0610850497984,-1.15339152872,0.741182262057,0.100541498533,0.0059347868367,0.00322004723019
1589285443067656058,2524,1589285443067560215,,-0.0380938981227,-1.15304512431,0.718865801829,0.0988902339688,0.00592946617543,0.00165052178757
1589285443073998940,2525,1589285443073888645,,-0.0380899461654,-1.15304585951,0.718864832005,0.0988902401453,0.00592949790788,0.00165003765521
1589285443076631865,2526,1589285443076534434,,-0.0376726306526,-1.15266395224,0.696174916875,0.0972339664327,0.00592429629864,-4.8668001077e-05
1589285443079674380,2527,1589285443079562875,,-0.0376746647519,-1.15266507572,0.696172946644,0.0972339803764,0.00592406673466,-4.8753815371e-05
1589285443085725145,2528,1589285443085616056,,-0.0372542372382,-1.15228605099,0.673398116585,0.0964569783907,0.00530481758763,-6.18405674864e-05
1589285443088715288,2529,1589285443088612180,,-0.0155291375131,-1.1530881696,0.719270902833,0.0971249651768,0.00592420381574,-0.00159429877597
1589285443094729716,2530,1589285443094637185,,-0.0380946961976,-1.15304327466,0.718868726333,0.0961734443318,0.00592009594174,-6.57084596423e-05
1589285443097681288,2531,1589285443097549586,,-0.0381003253853,-1.15304149494,0.718871282613,0.0961734582301,0.00591987440685,-6.53243841425e-05
1589285443100666885,2532,1589285443100562159,,-0.0381057923193,-1.15304122696,0.718871422672,0.0961682541576,0.00530315199443,-6.55890734066e-05
1589285443109659841,2533,1589285443109560897,,-0.0376821974898,-1.15266273462,0.696176415144,0.0935878255816,0.00529543443907,-0.000948261082511
1589285443115694524,2534,1589285443115588837,,-0.0147161590192,-1.15232940644,0.673801621746,0.0918990773343,0.00590289931754,-0.000831197511707
1589285443121822944,2535,1589285443121657262,,-0.0147110255341,-1.15232741621,0.673805137503,0.0918990572597,0.00590317859455,-0.000831433581647
1589285443124722712,2536,1589285443124648980,,0.00824229099026,-1.15201251698,0.651547701927,0.0911642416408,0.00590096916304,-0.00237717075163
1589285443127715642,2537,1589285443127620669,,-0.0147110364742,-1.15233054044,0.673799794251,0.0919114973168,0.00529001603744,-0.00167051952462
1589285443130708884,2538,1589285443130617856,,-0.0147126641293,-1.15232992616,0.673800809253,0.0919115087608,0.00528973473034,-0.00167078064628
1589285443133818935,2539,1589285443133716764,,-0.0147079954035,-1.15233144758,0.67379830925,0.0919114880205,0.00529008460331,-0.0016708138522
1589285443136763572,2540,1589285443136653642,,-0.0151236760842,-1.15271057212,0.696573454587,0.0917924006846,0.00528974285351,-0.00250260083965
1589285443142730806,2541,1589285443142609424,,-0.0151170844329,-1.15271293797,0.696569682571,0.091811791014,0.00529059013537,-0.00333288566505
1589285443145709672,2542,1589285443145618306,,-0.0147028960181,-1.15233267997,0.673796312897,0.0910349495659,0.00467496512821,-0.00334284222745
1589285443148740453,2543,1589285443148635569,,-0.014778932898,-1.0213557255,0.69438326163,0.0918319821894,0.00529152292287,-0.00416315605516
1589285443154820736,2544,1589285443154722453,,-0.0147787989141,-1.02135822909,0.694379581986,0.0918319809226,0.00529148682627,-0.00416322987851
1589285443157724025,2545,1589285443157632050,,0.00811143584995,-1.02098031187,0.672028202229,0.090153616544,0.00467312367596,-0.00487927269889
1589285443160513758,2546,1589285443160440248,,0.00811159257387,-1.02098046229,0.672027971811,0.0892666395749,0.00467125942615,-0.00572552714828
1589285443172853820,2547,1589285443172722463,,0.00811363550361,-1.02098036109,0.672028100893,0.0892666185099,0.00467117740109,-0.00572592248025
1589285443175669992,2548,1589285443175566630,,0.00811448110522,-1.02097995286,0.672028710882,0.0892666111838,0.00467117123523,-0.00572604172205
1589285443178863741,2549,1589285443178734948,,0.0305951530712,-1.02105308584,0.672444177626,0.088420265271,0.00528201894755,-0.0080848058031
1589285443181601986,2550,1589285443181470490,,0.0305928071844,-1.02105254053,0.672445112361,0.0883904276014,0.00466958589149,-0.00725690616239
1589285443184849329,2551,1589285443184671558,,0.0085145126061,-1.02055540859,0.649373426532,0.0876024713828,0.00466625830812,-0.00656918676335
1589285443190591285,2552,1589285443190445765,,0.0309843691695,-1.02062372673,0.649797166191,0.0876471543356,0.00466773048574,-0.0080903685715
1589285443193939779,2553,1589285443193804288,,0.0309866232367,-1.02062607495,0.649793370388,0.0876224707948,0.00466693347901,-0.00726364303105
1589285443196517943,2554,1589285443196417127,,0.0085179402238,-1.02055612525,0.649372255284,0.0876263710938,0.0046669665908,-0.00739658873286
1589285443202601915,2555,1589285443202521681,,0.00892259503081,-1.02012930491,0.626742826771,0.0868343931178,0.00466377510592,-0.00657676552073
1589285443205623875,2556,1589285443205517981,,0.00891983098607,-1.02013247491,0.626737706379,0.0868344089356,0.00466361861947,-0.00657666764136
1589285443211624956,2557,1589285443211524324,,0.00877252421309,-0.889506252416,0.646865128695,0.0866834626059,0.00466308293885,-0.00657830279019
1589285443214817125,2558,1589285443214689452,,0.0087746992574,-0.889510055103,0.646859870075,0.0867130206768,0.00527451455404,-0.00740410988986
1589285443217804221,2559,1589285443217709562,,0.00852415617602,-1.02056091652,0.649364643675,0.0857801371069,0.00526958594231,-0.00658564512526
1589285443226613085,2560,1589285443226534459,,0.00877664695934,-0.889509759667,0.64686024991,0.0857801163249,0.00527007313359,-0.00658552596705
1589285443229591163,2561,1589285443229497878,,0.0315434375188,-0.889093129151,0.624659334201,0.0840839138685,0.00465451689901,-0.00646674348803
1589285443232654384,2562,1589285443232485654,,0.00957283207526,-0.888525253601,0.601641984041,0.0832961103875,0.00465116709575,-0.00578238292762
1589285443235657318,2563,1589285443235564584,,0.00956773380291,-0.888527558981,0.601638660463,0.082411165185,0.00464858592539,-0.00661068020439
1589285443238774708,2564,1589285443238688632,,0.00956840889484,-0.888529553517,0.601635704093,0.0824111995347,0.00464928184805,-0.00660976251913
1589285443241798034,2565,1589285443241698459,,0.00956671483621,-0.888535268171,0.601627291223,0.082411255879,0.00464995380646,-0.00660858722157
1589285443247752165,2566,1589285443247627237,,0.00956577528652,-0.888543147499,0.601615669125,0.0814743759589,0.00525215398445,-0.00579397427583
1589285443250766719,2567,1589285443250657906,,0.0103570078918,-0.887568835866,0.556385093654,0.0781264934553,0.00463255322441,-0.00663656264867
1589285443256776688,2568,1589285443256699648,,0.00995835371853,-0.88806185724,0.57892747788,0.0788942727367,0.0046365069089,-0.00663050827248
1589285443259642970,2569,1589285443259570447,,0.0103549505086,-0.887574469776,0.556376144399,0.0762743183751,0.0046237446079,-0.00583159684312
1589285443262695779,2570,1589285443262613470,,0.0109589295762,-0.756208490288,0.530975880206,0.0745879518346,0.00461504650722,-0.00584278953346
1589285443265738702,2571,1589285443265635570,,0.0107413439313,-0.887085675914,0.533857663057,0.0736861996077,0.00520978640942,-0.00584817436265
1589285443275173249,2572,1589285443275063467,,0.0113438822155,-0.755635350185,0.508497435082,0.0738203209427,0.00461135516909,-0.00584643599239
1589285443277833078,2573,1589285443277721439,,0.0329370347687,-1.01855608584,0.536694811941,0.0709985638964,0.00579136290117,-0.00735103664483
1589285443280790723,2574,1589285443280665734,,0.0329323740244,-1.0185567078,0.536693917575,0.0709986222029,0.0057913230046,-0.00735050491431
1589285443283792656,2575,1589285443283688382,,0.0109118730008,-1.01807510528,0.513747682974,0.0702003913197,0.00518795463803,-0.00667477873389
1589285443289627542,2576,1589285443289550834,,0.0111360474082,-0.886599096772,0.511368528565,0.0692824409941,0.00518206562936,-0.00667775534254
1589285443295805042,2577,1589285443295690402,,0.0111310884675,-0.886597565891,0.511371290729,0.069275135767,0.00458689718684,-0.00667675726449
1589285443298765364,2578,1589285443298674324,,0.0115329274456,-0.886115980714,0.488809377307,0.0676253604529,0.00457762100355,-0.00748648088302
1589285443307914505,2579,1589285443307779703,,-0.0107684701309,-0.886055656547,0.488402274643,0.0657683263283,0.00397249356707,-0.0068161467902
1589285443310786505,2580,1589285443310665680,,-0.0107661991962,-0.886055433667,0.488402729055,0.0657683284199,0.00397275458909,-0.00681597447569
1589285443313790251,2581,1589285443313632152,,0.0115256220609,-0.886110562405,0.488819371818,0.0648756270581,0.00396829999389,-0.00748869415968
1589285443316802764,2582,1589285443316708155,,0.011924208454,-0.885637645929,0.466380972777,0.0641088230973,0.00396369681309,-0.00748902380793
1589285443319516032,2583,1589285443319444642,,0.0121134163682,-0.754475856311,0.463574786184,0.0631709671939,0.00395615041386,-0.00669221512622
1589285443322501194,2584,1589285443322420759,,0.0125006518582,-0.753912358048,0.441201416695,0.0624117290455,0.00453809784893,-0.00669333548531
1589285443328682995,2585,1589285443328509574,,-0.00962594500551,-0.753848477587,0.440795532067,0.0623793552939,0.00394987690159,-0.00602585120141
1589285443331774852,2586,1589285443331684374,,0.0121065277673,-0.75447186866,0.463581456041,0.062284170173,0.00395106516025,-0.00748848324697
1589285443334587943,2587,1589285443334510061,,0.0121019444035,-0.754469352365,0.463585670919,0.0622841749577,0.00395049918903,-0.00748874204237
1589285443337808130,2588,1589285443337699843,,-0.00964113872518,-0.753842684792,0.440805106706,0.0614615295318,0.00394231298991,-0.006028058371
1589285443343762987,2589,1589285443343640232,,-0.0096420136806,-0.753842183568,0.440805944735,0.0614615085736,0.00394198900358,-0.00602848392069
1589285443347208129,2590,1589285443347128347,,0.0124900492583,-0.753903928797,0.44121612031,0.0614021097679,0.00393946982012,-0.00430723147598
1589285443352608451,2591,1589285443352465727,,0.0124879913584,-0.753902085645,0.441219327932,0.0614021122883,0.00393913581401,-0.00430750101327
1589285443355511673,2592,1589285443355439043,,0.0128806603061,-0.75334646045,0.418880243286,0.0606344512513,0.00393371123064,-0.00431221418795
1589285443358697102,2593,1589285443358512524,,0.0128841996836,-0.753346292979,0.418880435626,0.0606344053985,0.00393355986706,-0.0043129969316
1589285443367706122,2594,1589285443367582614,,-0.00964107813828,-0.753839807648,0.44081002834,0.0613811639141,0.00393764397511,-0.00364374201519
1589285443370980407,2595,1589285443370906543,,-0.00964110071102,-0.753842775662,0.440804952136,0.0613577380077,0.00393651655807,-0.00285226669338
1589285443373974823,2596,1589285443373840770,,0.0124888772995,-0.753903193093,0.441217410577,0.0604766673643,0.00451492669915,-0.00352427955088
1589285443376536431,2597,1589285443376458727,,0.012100247791,-0.75446498518,0.463592822571,0.0612532256172,0.00510674961993,-0.00351924990597
1589285443382851588,2598,1589285443382718088,,0.0117099363708,-0.755032835071,0.486001460922,0.0620207920533,0.0051136329201,-0.00351400361466
1589285443388832546,2599,1589285443388742712,,-0.0100461431383,-0.75440334012,0.463183028184,0.0612337047748,0.00510508387637,-0.00285582984978
1589285443391650660,2600,1589285443391525076,,-0.0092911677785,-0.623275592247,0.437390355307,0.0613657163843,0.00452056078827,-0.00285461359614
1589285443397633878,2601,1589285443397549645,,-0.00928645738374,-0.623273671927,0.437393191759,0.06227158889,0.00511388911865,-0.00205364018206
1589285443400799444,2602,1589285443400642222,,-0.00928333213282,-0.623275999744,0.437389941005,0.0622844405276,0.00452780007441,-0.00284762212324
1589285443403835620,2603,1589285443403741136,,-0.00927756290373,-0.623276897133,0.437388784643,0.0622930968917,0.00511468160487,-0.00284842981861
1589285443412745249,2604,1589285443412652814,,-0.00927468705304,-0.623276468821,0.437389455976,0.0622628445621,0.00452643778958,-0.00205631471066
1589285443415736205,2605,1589285443415673848,,-0.00967474126957,-0.623960627428,0.459748808588,0.0648761245308,0.00572663953931,-0.00202742646113
1589285443421804246,2606,1589285443421733482,,-0.00926685547605,-0.623275764517,0.437390625597,0.064099136693,0.0051299781073,-0.00203656412532
1589285443424769225,2607,1589285443424652472,,0.0126897571312,-0.623341346645,0.437798443762,0.0641084940004,0.00454162062531,-0.00270528132436
1589285443427816104,2608,1589285443427735546,,0.0126869534678,-0.623342221608,0.437797279235,0.0641085155388,0.00454123381604,-0.00270542026033
1589285443430701524,2609,1589285443430640692,,0.0123089864855,-0.624024639746,0.460158185322,0.064884707034,0.00513683852595,-0.00269821564584
1589285443436768080,2610,1589285443436677764,,-0.00926096510462,-0.623276192986,0.437390139791,0.0659268954771,0.00514528258842,-0.00201671808136
1589285443440618386,2611,1589285443440486980,,-0.0092608420597,-0.623277079275,0.437388879442,0.0659269013282,0.00514510048403,-0.00201699138698
1589285443442589035,2612,1589285443442506276,,-0.00926055682538,-0.62327597815,0.437390454575,0.0659269013258,0.00514505731252,-0.00201710158777
1589285443448796010,2613,1589285443448668682,,-0.0100185949484,-0.754402487601,0.46318501339,0.0676038976832,0.00515833616398,-0.00199733702091
1589285443451901305,2614,1589285443451781411,,0.0126955436157,-0.623342444558,0.437796712776,0.0668673449868,0.00456166743091,-0.00347971213999
1589285443460729853,2615,1589285443460641173,,0.012692847042,-0.623340749676,0.437799204157,0.0659585223911,0.00455499916094,-0.00348787103184
1589285443463745461,2616,1589285443463651242,,-0.00926395207334,-0.623274410548,0.437392616481,0.0668488156502,0.00456059016176,-0.00280728507488
1589285443472982113,2617,1589285443472876967,,0.0126913235256,-0.623338602726,0.437802305147,0.0668673756085,0.00456113930583,-0.00347981599618
1589285443475707050,2618,1589285443475588752,,0.0126905037279,-0.623338463876,0.437802526605,0.0668752453746,0.00515340371787,-0.00347983555905
1589285443478711725,2619,1589285443478624411,,0.0126900066567,-0.623337751271,0.43780355561,0.0668986358233,0.00515443261507,-0.00428098105226
1589285443481741417,2620,1589285443481665570,,0.0126903898393,-0.623337380795,0.43780407198,0.0668986309696,0.00515435015641,-0.00428115617942
1589285443484830095,2621,1589285443484734825,,0.0124701782357,-0.494700021533,0.456013830049,0.0667577912525,0.00515301772423,-0.00428197825885
1589285443487750856,2622,1589285443487650546,,-0.00926384531712,-0.623271302387,0.437397047767,0.0668789033563,0.0051535836483,-0.00360859459121
1589285443493843406,2623,1589285443493722084,,-0.00926565602819,-0.623270517161,0.437398128324,0.0668789183285,0.00515338068383,-0.00360860696462
1589285443496760996,2624,1589285443496664631,,0.0346467177987,-0.623435669036,0.438237475147,0.0668947959371,0.00515411359063,-0.00415224656586
1589285443508692618,2625,1589285443508586476,,0.0130680161966,-0.622653899628,0.415492956259,0.0660994718425,0.00455571157426,-0.00348640121878
1589285443514909421,2626,1589285443514737915,,0.0346477607602,-0.623436778914,0.438235813776,0.0677903687298,0.00516030491031,-0.00334264930046
1589285443517745596,2627,1589285443517646433,,0.0126878314538,-0.623336887127,0.437804849007,0.0677721434328,0.00515962618067,-0.00266883416245
1589285443520884125,2628,1589285443520770617,,0.0130668904268,-0.622653336265,0.415493835914,0.0688536575226,0.00516857323216,-0.00346122122937
1589285443526994795,2629,1589285443526908578,,0.0132039376495,-0.49304872439,0.411285046064,0.0679230849981,0.00516076391427,-0.00266665697874
1589285443529646607,2630,1589285443529555454,,0.0132040174209,-0.493050191417,0.411283284823,0.0679230815811,0.00516087383406,-0.00266653128161
1589285443532634926,2631,1589285443532535370,,0.0128350660019,-0.493880465687,0.433619246919,0.0686910680901,0.0051668948983,-0.00265786203215
1589285443535764921,2632,1589285443535684182,,0.0128284670984,-0.493881274619,0.433618520843,0.0686835295265,0.00457259252454,-0.00265688172846
1589285443541807464,2633,1589285443541725641,,-0.00891812235769,-0.493811845207,0.433208712843,0.069556138791,0.00457737106342,-0.00115706920746
1589285443544687770,2634,1589285443544554270,,-0.00892857184831,-0.493812668148,0.433207559534,0.0686545073774,0.00516556419526,-0.00116789644482
1589285443547890207,2635,1589285443547747117,,-0.00893950147026,-0.493811697443,0.433208440636,0.0686545317555,0.005165652201,-0.00116607270657
1589285443550666219,2636,1589285443550582173,,-0.0306847666064,-0.493785728922,0.432830687009,0.0686318049798,0.00457087147618,-0.000491818436909
1589285443553649044,2637,1589285443553547183,,-0.0306869257284,-0.493786604291,0.432829535287,0.0686318144684,0.00457075210922,-0.000491603644308
1589285443556646595,2638,1589285443556574726,,-0.0311282918383,-0.494605454261,0.455223795411,0.0694076269247,0.00517041426628,-0.000480345981557
1589285443565844719,2639,1589285443565704276,,-0.0311252161772,-0.494607418859,0.45522187115,0.0703168302487,0.00517677109611,-0.00046741003345
1589285443571858023,2640,1589285443571778532,,-0.0089371037981,-0.493816604252,0.433202896801,0.0705021454514,0.00517906838191,-0.00195671527205
1589285443575376819,2641,1589285443575273786,,-0.00893712446697,-0.493817210546,0.433202205247,0.0714191094509,0.00578266927388,-0.00194520312904
1589285443577614525,2642,1589285443577534648,,0.0122733398268,-0.624026027983,0.460157254868,0.0694387232697,0.00517149513138,-0.00183205310778
1589285443580659175,2643,1589285443580560973,,-0.00970632232539,-0.62396067711,0.459748075499,0.0703592263484,0.00577414916824,-0.00195883504348
1589285443583675717,2644,1589285443583576267,,-0.00934034529654,-0.494638398104,0.455596492334,0.070331864598,0.00517720656254,-0.00114469709788
1589285443589660063,2645,1589285443589592125,,-0.00934039877734,-0.494638376549,0.45559651464,0.0712510216108,0.00518375491933,-0.00113183470149
1589285443592893827,2646,1589285443592792127,,0.0124377341319,-0.494705840756,0.456008403143,0.0712668878411,0.0051847598825,-0.00180881154248
1589285443598903675,2647,1589285443598798595,,0.012440050428,-0.494707162698,0.456006905831,0.0712668764974,0.00518481282231,-0.00180910671079
1589285443601636330,2648,1589285443601561695,,0.0125769311778,-0.36711520118,0.451178655058,0.0712596905819,0.0045876352825,-0.00180913986272
1589285443604861134,2649,1589285443604749338,,0.0129359268154,-0.366185598921,0.428650881773,0.0723401031119,0.00459502819392,-0.0026130391342
1589285443614322274,2650,1589285443613850288,,-0.00817792919195,-0.241043268183,0.422866190768,0.0714242929927,0.00458982150477,-0.00275334400619
1589285443622831185,2651,1589285443622729274,,-0.0293954322409,-0.241020783416,0.422523401076,0.0714071531037,0.00458927547716,-0.00207606108512
1589285443625861924,2652,1589285443625734597,,-0.0298867086844,-0.24193312299,0.445312459458,0.0721753896454,0.00459386522837,-0.00206678613956
1589285443628934592,2653,1589285443628757221,,-0.0298862934352,-0.241932041647,0.445313074807,0.0740039013121,0.00460408267092,-0.00204390938981
1589285443631827333,2654,1589285443631745476,,-0.0298851572527,-0.241933490481,0.445312363925,0.0740038934184,0.00460414595736,-0.00204405263569
1589285443637912752,2655,1589285443637767470,,0.0131669093821,-0.119357560437,0.418719752741,0.0732772518704,0.00520037880266,-0.00341300751095
1589285443640846648,2656,1589285443640674838,,0.0131671793134,-0.119358787889,0.418719394361,0.0732772304059,0.0052007232012,-0.00341294357826
1589285443647179900,2657,1589285443647050502,,0.0128544599345,-0.119974729695,0.441843818628,0.0758985874716,0.00461663172263,-0.00419865117794
1589285443649785175,2658,1589285443649683578,,0.0128549285909,-0.11997563858,0.441843558201,0.0758985572525,0.00461720372194,-0.00419856846398
1589285443655887908,2659,1589285443655802551,,0.0128514807702,-0.11997697193,0.441843296446,0.0758985687486,0.00461768123052,-0.00419783543428
1589285443658758908,2660,1589285443658691951,,-0.00866066866462,-0.120482116227,0.464559791267,0.076648285348,0.00462057724765,-0.00350693745142
1589285443661767222,2661,1589285443661682335,,0.0125261675937,-0.120542200016,0.46498962305,0.0775757482099,0.00462576705267,-0.00418090888104
1589285443664799085,2662,1589285443664663436,,0.0125226573611,-0.120542407342,0.464989663851,0.0775757970197,0.0046253905482,-0.00418041974636
1589285443667840500,2663,1589285443667736873,,0.0125219166225,-0.120542624793,0.464989627428,0.0775758021651,0.00462542571149,-0.00418028535377
1589285443671204175,2664,1589285443671081370,,0.0125226605255,-0.120539976617,0.464990293893,0.0775758086334,0.00462511330775,-0.00418051097125
1589285443674044580,2665,1589285443673947520,,0.0125213486877,-0.120542330197,0.464989719092,0.0775758427576,0.00462464457287,-0.00418039630244
1589285443682773682,2666,1589285443682689400,,0.0131592327112,-0.119360513232,0.418719152352,0.0778968133386,0.00522938770941,-0.004994174235
1589285443688853745,2667,1589285443688708221,,0.0339553405215,-0.120062402228,0.442378175397,0.0786844627732,0.00523429775309,-0.00567391127685
1589285443691832632,2668,1589285443691745345,,0.0128490361723,-0.119972270876,0.441844644028,0.0786421285361,0.00523260847407,-0.00417097137074
1589285443697763102,2669,1589285443697669023,,0.012523322517,-0.120535218785,0.464991509416,0.0794102489297,0.00523635006712,-0.00416259015741
1589285443700803420,2670,1589285443700690867,,0.0125218961438,-0.120535612474,0.464991445778,0.0803293053202,0.00524083800514,-0.00415291053169
1589285443703781640,2671,1589285443703706595,,0.0125205260834,-0.120536353086,0.464991290687,0.0812383712077,0.00524564373972,-0.00414306436816
1589285443707033345,2672,1589285443706960887,,0.0125225125693,-0.120534040224,0.464991836735,0.0812383307973,0.00524606597664,-0.00414332211259
1589285443712933453,2673,1589285443712736648,,0.0125233874562,-0.120533679283,0.464991906735,0.0812383386976,0.00524575668793,-0.00414355879733
1589285443715770633,2674,1589285443715673615,,0.0338777109559,-0.000295791003711,0.463994690911,0.0821758448851,0.00525151083236,-0.00482276110086
1589285443718767474,2675,1589285443718638516,,0.0127321858979,0.12053572961,0.488370758785,0.0829229710434,0.00464711728319,-0.00412604115072
1589285443721893291,2676,1589285443721758254,,0.0127316277548,0.120536326592,0.488370625994,0.0828819016929,0.00464575541358,-0.00248339761356
1589285443730822665,2677,1589285443730722106,,0.0127292285217,0.120537210535,0.488370470365,0.0828818695343,0.00464645055034,-0.0024831703692
1589285443733873918,2678,1589285443733764177,,0.0127308289758,0.120537404653,0.488370380736,0.0838212155892,0.00465083615227,-0.00329369595706
1589285443745712193,2679,1589285443745613850,,-0.0302719322271,0.24400474659,0.514302298261,0.0864046681082,0.00466147791336,-0.0027024753425
1589285443748770714,2680,1589285443748663492,,-0.0302729779353,0.244005370219,0.514301940835,0.0864046669061,0.00466157181004,-0.00270235180919
1589285443751781494,2681,1589285443751638672,,-0.0298342483784,0.12062917213,0.487601773132,0.0865083014787,0.00466142716398,-0.00105101307981
1589285443757772190,2682,1589285443757666511,,-0.030274006493,0.244003523307,0.514302756535,0.0881740041278,0.00405566962354,-0.00019057460129
1589285443760780042,2683,1589285443760705561,,-0.00876268180998,0.243938357268,0.514660532242,0.0872920208908,0.00466441055693,-0.00173244020157
1589285443772925402,2684,1589285443772807705,,-0.00876362215375,0.243934369501,0.51466240633,0.0909372834835,0.00406365244096,-0.000842315533394
1589285443775781792,2685,1589285443775558547,,0.0127445226824,0.243901304374,0.515083770955,0.0909391745009,0.00467692200075,-0.000708962290671
1589285443778606114,2686,1589285443778521893,,0.0120496747053,0.121415866742,0.534745835656,0.0898915780047,0.00528655115325,-0.00155265431502
1589285443781690928,2687,1589285443781572012,,0.0123876476752,0.244596444155,0.538050969596,0.0917077476848,0.00467900073128,-0.000695946723651
1589285443784691320,2688,1589285443784604090,,-0.00918280684631,0.244628553577,0.537631306235,0.09260313783,0.00468085331206,1.52606896971e-05
1589285443790713408,2689,1589285443790614384,,-0.00918255231366,0.244629482923,0.537630887718,0.0926031608513,0.00468039733878,1.54166361576e-05
1589285443793710444,2690,1589285443793588096,,-0.00917732972257,0.244631593704,0.537630016453,0.0944162389244,0.00468437659481,0.000876635225298
1589285443798546135,2691,1589285443798462843,,-0.00917333999422,0.244630386146,0.537630634003,0.0944162520086,0.00468422961551,0.000876011183065
1589285443802613743,2692,1589285443802551390,,0.0131359488683,0.369143593914,0.519574198495,0.0964101402731,0.00468893313376,0.000210052679808
1589285443805626814,2693,1589285443805559260,,-0.00896391671236,0.369951257946,0.541906999444,0.0971652439495,0.0046900189134,0.000922594050195
1589285443808639146,2694,1589285443808568520,,-0.00896307088619,0.36995320949,0.541905681141,0.097165252494,0.00468985218406,0.00092254171122
1589285443814689939,2695,1589285443814628088,,-0.00916623280069,0.244634560724,0.537628855704,0.0989837747778,0.00531129934611,0.0017905048637
1589285443817695239,2696,1589285443817584366,,-0.00979733943453,0.121858601072,0.557525048899,0.0997376151303,0.00531268826769,0.0026402543586
1589285443823709079,2697,1589285443823612781,,-0.00979608446394,0.121858460288,0.557525101722,0.0997376333427,0.00531242906524,0.00264008791788
1589285443826910692,2698,1589285443826804404,,-0.0312048534976,0.245353340132,0.560265114255,0.101554940674,0.00531702139609,0.00337722767295
1589285443829737569,2699,1589285443829670433,,-0.0311534272419,0.370757654822,0.564327169364,0.101550427446,0.00469765776368,0.0033771202154
1589285443835860086,2700,1589285443835748268,,-0.0315464585255,0.498762304385,0.591342691351,0.102322313886,0.0046993228987,0.00339194643314
1589285443841854638,2701,1589285443841775556,,-0.0316101596279,0.371471029271,0.587254895844,0.103271108793,0.00470235552485,0.00173237907819
1589285443844794249,2702,1589285443844718895,,-0.0316097219786,0.371468742031,0.5872563662,0.103271113885,0.00470223985889,0.00173238953172
1589285443847772014,2703,1589285443847691983,,-0.00978474721459,0.371408791496,0.587628434727,0.105113500112,0.00470635863226,0.00106040773726
1589285443850773242,2704,1589285443850705071,,-0.00957297699105,0.498700001703,0.591724195179,0.106035376537,0.00408700999916,0.000234839924186
1589285443853790176,2705,1589285443853709491,,-0.00957280486727,0.498700075559,0.591724135718,0.106035376521,0.00408701232228,0.000234806635382
1589285443856792099,2706,1589285443856690936,,-0.0095707691924,0.498699191232,0.591724913949,0.106955095243,0.00408843401833,0.000249578788409
1589285443862680299,2707,1589285443862584760,,-0.0319841945301,0.499435440221,0.614071861245,0.109539681712,0.00409135217214,0.00099990733912
1589285443872123359,2708,1589285443872021077,,-0.00998128519076,0.499373507949,0.614454576712,0.109573681805,0.00471608790624,-0.000550058063722
1589285443875073096,2709,1589285443874954359,,0.0116457807505,0.49999528242,0.63762839542,0.113105819714,0.00472166582242,-0.00120268871046
1589285443877928591,2710,1589285443877791831,,-0.0101906691215,0.372086119222,0.610498002267,0.112336504591,0.00409594873223,-0.00136003974706
1589285443880631793,2711,1589285443880530954,,-0.0101952306517,0.37208459067,0.610498857726,0.112336485379,0.00409662196896,-0.00135959887188
1589285443883703142,2712,1589285443883604001,,-0.0103918693703,0.500026887454,0.637220735084,0.114014893752,0.00409750102921,-0.0013332990603
1589285443893010244,2713,1589285443892829207,,-0.0108093255365,0.500663723925,0.660017439413,0.115682744134,0.00348097157657,-0.000449369733588
1589285443895859576,2714,1589285443895749654,,-0.0108047661872,0.50066426313,0.660017105047,0.117512299502,0.00348118031447,-0.000420012311763
1589285443898913648,2715,1589285443898809766,,-0.0108001860893,0.500661304722,0.660019424136,0.118449368528,0.00348187061568,-0.00126325982847
1589285443904960263,2716,1589285443904782585,,-0.0107941187329,0.500661898975,0.660019072617,0.118449383951,0.00348114828074,-0.00126380432128
1589285443907897400,2717,1589285443907808959,,-0.0105690849292,0.629276891757,0.663636790252,0.119341895315,0.00348005436331,-0.000391154349703
1589285443910810146,2718,1589285443910721958,,-0.0105644829534,0.629280666798,0.66363328392,0.120276021991,0.00285326635114,-0.00123617229622
1589285443916885255,2719,1589285443916791209,,-0.010573857995,0.629277015428,0.663636596951,0.12027599632,0.00285456149412,-0.00123567981078
1589285443921220756,2720,1589285443921137612,,0.011211882781,0.629824135503,0.686886722672,0.124721808643,0.00285411072531,-0.00187879700665
1589285443922784285,2721,1589285443922703220,,0.0112172504714,0.629825801577,0.686885107365,0.125644383082,0.00348256523978,-0.00186410577171
1589285443928862383,2722,1589285443928789894,,0.0112176101291,0.629825132,0.686885715446,0.12745365911,0.00285066522874,-0.000972851927841
1589285443934924234,2723,1589285443934791022,,0.0112230674154,0.629822762329,0.686887799113,0.127453661317,0.00285033010017,-0.000973544503878
1589285443937877386,2724,1589285443937795289,,0.0115742269669,0.759416816566,0.690172927037,0.12931851127,0.00284878046911,-0.00266220909483
1589285443940853242,2725,1589285443940745516,,0.0111808055841,0.759950145732,0.712879760642,0.130069493473,0.00284795421275,-0.00179619280006
1589285443946900038,2726,1589285443946811422,,0.0111734284655,0.759950069512,0.712879957559,0.130069503964,0.00284817543245,-0.00179508198792
1589285443949861134,2727,1589285443949770301,,0.011177157528,0.759952719245,0.712877074401,0.130067016036,0.00221702210351,-0.0017964209178
1589285443952938365,2728,1589285443952757439,,0.0111815051796,0.759957297317,0.712872125799,0.13006701289,0.00221676464392,-0.00179696636211
1589285443958953081,2729,1589285443958859821,,0.011173319477,0.759956189235,0.712873435415,0.130084730728,0.00221791489035,-0.00265049416606
1589285443961816233,2730,1589285443961727634,,0.0114907852575,0.890257387157,0.715811757205,0.131899055095,0.00284857721126,-0.00176558610128
1589285443965119622,2731,1589285443964687919,,-0.010918398751,0.890306593929,0.715392958658,0.131882110897,0.0022153290462,-0.00104828719097
1589285443967803214,2732,1589285443967695915,,0.0110959216843,0.890728766283,0.738517993272,0.1326830139,0.00221614829253,-0.00260952065569
1589285443971177160,2733,1589285443971111813,,-0.0113348174275,0.890766568089,0.73811330199,0.13266813505,0.00221678535307,-0.00189197744722
1589285443976910734,2734,1589285443976778564,,0.0110975723259,0.890721969184,0.738526166396,0.134514942228,0.00284815308474,-0.00258210704706
1589285443985787804,2735,1589285443985684670,,0.0335214422863,0.89069708023,0.73894476321,0.136359565774,0.00284732569243,-0.00327240144622
1589285443988759118,2736,1589285443988683155,,0.0111009076774,0.890723278242,0.738524537437,0.137279818016,0.00221330747503,-0.00339826953746
1589285443994788765,2737,1589285443994718409,,0.0114297338634,1.02154009257,0.741142245921,0.138189570808,0.00221209714485,-0.0033852655595
1589285444000793340,2738,1589285444000694745,,0.0110176359916,1.02195485008,0.763861386505,0.139878080942,0.00221073443962,-0.00335780598514
1589285444003826142,2739,1589285444003765137,,-0.0116555448049,1.15356687066,0.788617816434,0.140615426957,0.00158366311701,-0.00176682355739
1589285444006802155,2740,1589285444006722499,,-0.0116567090062,1.15356584137,0.788619304833,0.140615415636,0.00158413518113,-0.00176730125879
1589285444013138232,2741,1589285444012928930,,-0.0112543957912,1.15319552862,0.765787650804,0.141672995294,0.00158369372093,-0.00175016566424
1589285444015939130,2742,1589285444015832966,,-0.011256767388,1.1531963067,0.765786444232,0.141673019589,0.0015830580221,-0.00174877362302
1589285444019022122,2743,1589285444018927160,,-0.0112400472424,1.15321016287,0.76576582345,0.141673050608,0.00158070098252,-0.00174839266981
1589285444021982143,2744,1589285444021845040,,0.0110178855053,1.02196274551,0.763850819651,0.141672363216,0.00220640616998,-0.00160926785879
1589285444024924812,2745,1589285444024846208,,-0.0112393067457,1.15321003475,0.765766027267,0.142560808776,0.0022049963397,-5.29877555561e-06
1589285444027872959,2746,1589285444027747362,,-0.0112252244476,1.15321629294,0.765756809186,0.142560828913,0.00220369231895,-5.97443119663e-06
1589285444033977137,2747,1589285444033887646,,-0.011615123769,1.15358364854,0.788593870087,0.143332915449,0.00220103432061,5.81184302403e-06
1589285444045867672,2748,1589285444045740970,,0.010673736105,1.02238001691,0.786682810945,0.145178921717,0.00283435839627,-0.000687640121739
1589285444048836019,2749,1589285444048741262,,0.0109985121891,1.15354333766,0.788996758056,0.146088760346,0.00283267087472,-0.000672075709135
1589285444051909143,2750,1589285444051821162,,0.0109972656876,1.15354478247,0.788994663061,0.145162246409,0.00283363028459,0.000172882014599
1589285444054778547,2751,1589285444054718783,,0.0109904944503,1.15353682256,0.789006395016,0.145162250875,0.00283329327284,0.000174646463658
1589285444057765209,2752,1589285444057693284,,0.0109885372286,1.15353698813,0.789006180216,0.145162241239,0.00283381140376,0.000174248628768
1589285444060760763,2753,1589285444060677928,,0.0109897484226,1.15354056442,0.789000934734,0.145162246995,0.00283350326133,0.00017446453648
1589285444063801422,2754,1589285444063726450,,0.0109732918484,1.15353889927,0.789003598275,0.145164703164,0.00347108109175,0.000175782098064
1589285444073347823,2755,1589285444072892030,,-0.0116385470893,1.15357344665,0.788608448232,0.146077117621,0.00347303171148,5.3824230346e-05
1589285444075825510,2756,1589285444075734757,,0.0109279856909,1.15352253574,0.789028150326,0.146091118039,0.00347513784605,-0.000667390799184
1589285444078931930,2757,1589285444078821189,,0.0109277166758,1.15352593741,0.789023180959,0.146091131486,0.00347470097144,-0.000666721665212
1589285444081889841,2758,1589285444081792437,,0.0109292804509,1.15352275496,0.789027811909,0.146091153525,0.00347393644388,-0.000665875876289
1589285444087753697,2759,1589285444087680886,,0.010918010811,1.15351930601,0.78903301012,0.146091154252,0.00347422756284,-0.000664195315141
1589285444094411190,2760,1589285444094323168,,0.0109334940617,1.15352538901,0.789023902652,0.147010958809,0.00347328865597,-0.000651226354412
1589285444096773142,2761,1589285444096703260,,0.0109466421411,1.15353225897,0.789013676622,0.147010975323,0.00347237360084,-0.00065237724409
1589285444105886734,2762,1589285444105788195,,0.0108855499774,1.28535586081,0.813837639262,0.148680422223,0.00283337367636,0.000232948665565
1589285444108879256,2763,1589285444108747490,,-0.0120310504319,1.15394955897,0.811348477451,0.148650649396,0.00283178904162,0.00182073573027
1589285444111837289,2764,1589285444111760143,,-0.0120397147327,1.15395015179,0.81134750579,0.148650628202,0.0028328625138,0.00182079619241
1589285444114821564,2765,1589285444114740770,,-0.012045660854,1.1539470481,0.81135183178,0.14865061517,0.00283266134041,0.00182217265655
1589285444117790221,2766,1589285444117689917,,-0.0116273622395,1.1535767374,0.788603799505,0.14788432303,0.00346993624436,0.00180786833325
1589285444123838417,2767,1589285444123765835,,-0.0117725509104,1.28539007124,0.813445463989,0.148653084585,0.0034690821368,0.00182098585795
1589285444126868435,2768,1589285444126783366,,-0.0117796180026,1.28538534862,0.813452824225,0.148653062432,0.00347065980179,0.00181978770232
1589285444129847297,2769,1589285444129681637,,-0.034655349949,1.15398116343,0.810978410183,0.149549602966,0.00347251281009,0.0025598041839
1589285444135820715,2770,1589285444135712778,,-0.035068806592,1.15434244812,0.833753263242,0.151207614572,0.00347088784457,0.00431483114961
1589285444138633503,2771,1589285444138572165,,-0.0346400748658,1.15398090285,0.810979433578,0.150456566385,0.00409796291265,0.00343904922598
1589285444141720998,2772,1589285444141615606,,-0.0117916320759,1.28536088591,0.813491303866,0.1513767655,0.00346933122431,0.00273192163451
1589285444147704357,2773,1589285444147618452,,-0.0122306963042,1.28568184304,0.836270172106,0.152145423977,0.00347043494326,0.00274855889052
1589285444150729670,2774,1589285444150640302,,-0.0344533718068,1.28542640243,0.813069379757,0.153193395195,0.00346775201462,0.00349156639971
1589285444153767981,2775,1589285444153688077,,-0.0121877522465,1.28570263872,0.836238826947,0.153975178097,0.00346489204781,0.00278024512591
1589285444156851709,2776,1589285444156775810,,-0.0121892429225,1.28570241758,0.836239145213,0.1539751708,0.00346444655277,0.00278120429358
1589285444165785439,2777,1589285444165703063,,0.0104733789458,1.28565905391,0.836646025549,0.153990892113,0.00409408558614,0.00205537533204
1589285444172033702,2778,1589285444171904375,,-0.012194404088,1.28571241468,0.836223699406,0.153977663958,0.00409359958137,0.00278252695784
1589285444175144909,2779,1589285444175064508,,-0.0125964080416,1.28604172247,0.859105377366,0.154749733773,0.00409207408688,0.00279627133938
1589285444180806802,2780,1589285444180693366,,-0.0131253551803,1.02364166585,0.854706023611,0.153858359911,0.00473256345078,0.00191748994726
1589285444192834588,2781,1589285444192749292,,0.0101151117441,1.15426006904,0.834543102679,0.153080958888,0.00409638108265,0.00204473847594
1589285444198788298,2782,1589285444198686669,,-0.0128990965148,1.15466906157,0.857017398326,0.156589201719,0.00409330976223,0.00283422490034
1589285444204714755,2783,1589285444204637481,,-0.0126397664573,1.28601782529,0.859140512478,0.159313124507,0.00409140850998,0.00374902336508
1589285444210909030,2784,1589285444210815502,,-0.0126174832721,1.28602482552,0.85913036153,0.159313198897,0.00408904611629,0.00374843957359
1589285444216870660,2785,1589285444216795307,,-0.0132857168379,1.15501670195,0.879838206332,0.161914167177,0.00472822152498,0.00379550646103
1589285444222905496,2786,1589285444222800227,,-0.0358938760798,1.15505563927,0.879455965265,0.160944773609,0.00408589001959,0.00711274613821
1589285444228969372,2787,1589285444228809234,,-0.0358866788745,1.1550577283,0.879453515294,0.160944794132,0.00408475095153,0.00711293598767
1589285444234928740,2788,1589285444234851305,,-0.0360616213096,1.02407587843,0.877141984595,0.162760317916,0.00408174478589,0.00801265290195
1589285444240977305,2789,1589285444240850767,,-0.0584785519093,1.15513528515,0.87904234317,0.161842812595,0.00408167367387,0.00785609827446
1589285444246866575,2790,1589285444246785557,,-0.0580683001858,1.15476741372,0.856249265513,0.162889592247,0.00408169156818,0.00874530817714
1589285444253130563,2791,1589285444252932405,,-0.0583280097832,1.28646863844,0.881127955072,0.16733881009,0.003445845549,0.007965311553
1589285444255897327,2792,1589285444255816666,,-0.0583029155536,1.28648475158,0.88110608988,0.167338910201,0.00344339198304,0.00796426935516
1589285444261985669,2793,1589285444261875509,,-0.0356561819426,1.28641708538,0.881509068398,0.168246274624,0.00344436587791,0.00812328277321
