%time,field.header.seq,field.header.stamp,field.header.frame_id,field.vector.x,field.vector.y,field.vector.z
1589285442449391175,2374,1589285442449275481,,0.499968486329,-0.159375334847,0.202471267455
1589285442452410081,2375,1589285442452275815,,0.49996609321,-0.159288780357,0.202456271489
1589285442455373544,2376,1589285442455267644,,0.499961819249,-0.159205925939,0.202442374332
1589285442461400902,2377,1589285442461280667,,0.499959343202,-0.159121105178,0.202427387829
1589285442464387922,2378,1589285442464263335,,0.499957228973,-0.159034526904,0.20241534486
1589285442467487177,2379,1589285442467278825,,0.499953361428,-0.158950398721,0.202398120785
1589285442473761753,2380,1589285442473666997,,0.499949627171,-0.158862467886,0.202385261905
1589285442476388741,2381,1589285442476298891,,0.499947505682,-0.158774572322,0.202374500514
1589285442482409619,2382,1589285442482312927,,0.499944964136,-0.15868556774,0.202356568201
1589285442485416394,2383,1589285442485301005,,0.499941095679,-0.158595194655,0.20234564046
1589285442488451233,2384,1589285442488319112,,0.499938726661,-0.158505863068,0.202333653435
1589285442491394512,2385,1589285442491231037,,0.499936023038,-0.158411853764,0.202319252029
1589285442497433196,2386,1589285442497281620,,0.499931889547,-0.158327475007,0.202306965956
1589285442500401761,2387,1589285442500269285,,0.499930926618,-0.158234347396,0.202298216445
1589285442509329073,2388,1589285442509247643,,0.499924194323,-0.158057406843,0.202276749847
1589285442512432177,2389,1589285442512303027,,0.499922793036,-0.157969080288,0.20227088272
1589285442515346016,2390,1589285442515258661,,0.499918825435,-0.157887755669,0.202261029945
1589285442521385514,2391,1589285442521281121,,0.499915027253,-0.157805602346,0.202252863242
1589285442524471867,2392,1589285442524318677,,0.499910070448,-0.157724364681,0.202241472072
1589285442530357433,2393,1589285442530254517,,0.499906782491,-0.157652863694,0.202234720058
1589285442533409093,2394,1589285442533283131,,0.499900927741,-0.157579065111,0.202223454897
1589285442536369858,2395,1589285442536260419,,0.499898141124,-0.15752264502,0.202217579535
1589285442539441759,2396,1589285442539294439,,0.499891680088,-0.157454408122,0.20220285562
1589285442545424815,2397,1589285442545292600,,0.499885934661,-0.157379024444,0.202189603955
1589285442548438676,2398,1589285442548312466,,0.499882184507,-0.157327756088,0.202181714038
1589285442554545332,2399,1589285442554344333,,0.49987665349,-0.157264124557,0.202171718569
1589285442557483131,2400,1589285442557312092,,0.499869042539,-0.157196443116,0.202158267705
1589285442560371067,2401,1589285442560270788,,0.499862941712,-0.157134136457,0.202145936935
1589285442563505735,2402,1589285442563295747,,0.499859289688,-0.157070209171,0.20214005254
1589285442572706127,2403,1589285442572504190,,0.499855371417,-0.157008364083,0.202132999023
1589285442575418754,2404,1589285442575282666,,0.499850186063,-0.156946917781,0.202121064873
1589285442578395361,2405,1589285442578268261,,0.499847387885,-0.156881918278,0.202112648644
1589285442581393451,2406,1589285442581271216,,0.499845554886,-0.156812987109,0.202106777451
1589285442584435679,2407,1589285442584312145,,0.499841930884,-0.15674572486,0.202096545153
1589285442590419681,2408,1589285442590303194,,0.499838452066,-0.156678380744,0.202090687039
1589285442593428422,2409,1589285442593299454,,0.499836056101,-0.15660686771,0.202084799416
1589285442596448377,2410,1589285442596320466,,0.499831647434,-0.156534550516,0.202079523014
1589285442602455979,2411,1589285442602337639,,0.49983058446,-0.156465111143,0.202074811876
1589285442608409347,2412,1589285442608288729,,0.499824278164,-0.156390093612,0.202069505065
1589285442611433879,2413,1589285442611295967,,0.499820774179,-0.156323406871,0.202061832303
1589285442614406065,2414,1589285442614307100,,0.499817412165,-0.156253634134,0.202060011652
1589285442617441461,2415,1589285442617298645,,0.499812435008,-0.156188548191,0.202053329986
1589285442620414874,2416,1589285442620297392,,0.499808039917,-0.156123472607,0.202049822744
1589285442629541351,2417,1589285442629341893,,0.499797373103,-0.156003131661,0.202044510078
1589285442632411124,2418,1589285442632301435,,0.499793229875,-0.155943574848,0.202043453737
1589285442638463533,2419,1589285442638338549,,0.499785629127,-0.155887810138,0.202040117923
1589285442641421761,2420,1589285442641288622,,0.499780907361,-0.15583064808,0.202038658438
1589285442644402759,2421,1589285442644283707,,0.499776018748,-0.155777332864,0.202033288855
1589285442650406211,2422,1589285442650297740,,0.499770529753,-0.155724111099,0.202030873203
1589285442653431060,2423,1589285442653320153,,0.499767054777,-0.155673777642,0.202031640785
1589285442656375688,2424,1589285442656272628,,0.499763144404,-0.15563020996,0.202029129114
1589285442662470646,2425,1589285442662328668,,0.499759314492,-0.155575003807,0.202024469015
1589285442665422452,2426,1589285442665306722,,0.499753894298,-0.155517303909,0.202018808609
1589285442671650585,2427,1589285442671536078,,0.49975197409,-0.155471799138,0.202018100702
1589285442674786523,2428,1589285442674664529,,0.499750315189,-0.155411945064,0.202018846639
1589285442677432390,2429,1589285442677270711,,0.499745549103,-0.155355058145,0.202012853418
1589285442680392160,2430,1589285442680262498,,0.499742438858,-0.155300699821,0.202012808231
1589285442687019716,2431,1589285442686925993,,0.499740906816,-0.155244149457,0.202011735867
1589285442689427438,2432,1589285442689310211,,0.499738994878,-0.155186997961,0.202010358358
1589285442692348918,2433,1589285442692270638,,0.4997367019,-0.155135133286,0.202009242794
1589285442698416069,2434,1589285442698276757,,0.499734578046,-0.155080218459,0.202004802816
1589285442701381789,2435,1589285442701302176,,0.499733404016,-0.155023621875,0.202006063445
1589285442707466583,2436,1589285442707291320,,0.499732027574,-0.154970270287,0.202005710723
1589285442710403280,2437,1589285442710287553,,0.499730398845,-0.154923339649,0.202004003812
1589285442713372663,2438,1589285442713246914,,0.49972768325,-0.154866390858,0.202002274553
1589285442719330571,2439,1589285442719250730,,0.499726138051,-0.154816674136,0.202003649244
1589285442722354857,2440,1589285442722255386,,0.499723475809,-0.154771974946,0.201998460974
1589285442725408391,2441,1589285442725264873,,0.499720826506,-0.154721984725,0.201996977044
1589285442731423812,2442,1589285442731275366,,0.499718063476,-0.15467699488,0.201995683601
1589285442734418477,2443,1589285442734278728,,0.499714750414,-0.154630528856,0.201993736651
1589285442737480084,2444,1589285442737339172,,0.499712965841,-0.154588256228,0.201993464287
1589285442743449549,2445,1589285442743311963,,0.499709957329,-0.154544934723,0.201990058325
1589285442749466243,2446,1589285442749303748,,0.499705555757,-0.154457615886,0.201992209264
1589285442755470567,2447,1589285442755333323,,0.499703462744,-0.154414116038,0.201988857903
1589285442758383846,2448,1589285442758287758,,0.499702975683,-0.154366018043,0.201991822956
1589285442764656446,2449,1589285442764553229,,0.499699368006,-0.154323818452,0.201990485177
1589285442767439966,2450,1589285442767327942,,0.499698083253,-0.154279949897,0.201991522962
1589285442770853183,2451,1589285442770740101,,0.499697989586,-0.154232776037,0.20199749597
1589285442773665005,2452,1589285442773574884,,0.499697535703,-0.154193893685,0.202000156834
1589285442782487295,2453,1589285442782305060,,0.499695856297,-0.154148050583,0.201996528275
1589285442785417732,2454,1589285442785298528,,0.499695400177,-0.154100670799,0.201997916109
1589285442788363208,2455,1589285442788278736,,0.499694982862,-0.154063056293,0.202002756421
1589285442791437228,2456,1589285442791279272,,0.499694365389,-0.154018082536,0.202000813288
1589285442794462917,2457,1589285442794324633,,0.499692471247,-0.153973678686,0.202000348177
1589285442797433260,2458,1589285442797331573,,0.499692026329,-0.153934233013,0.20200267483
1589285442803402628,2459,1589285442803283085,,0.499689625067,-0.153896935105,0.202001639856
1589285442809410286,2460,1589285442809291627,,0.499688228107,-0.153822714076,0.202003698788
1589285442815420273,2461,1589285442815295894,,0.499686226596,-0.153788756748,0.20200324204
1589285442818357480,2462,1589285442818246918,,0.4996848452,-0.153757351943,0.202002289759
1589285442824371884,2463,1589285442824269019,,0.499683984561,-0.153726112405,0.202003992883
1589285442827392146,2464,1589285442827262904,,0.49968305814,-0.153693527932,0.20200541253
1589285442830370183,2465,1589285442830265933,,0.499681223785,-0.153662557938,0.202008996937
1589285442836432884,2466,1589285442836308763,,0.499680484476,-0.153636830639,0.202011683008
1589285442839472057,2467,1589285442839300779,,0.499678748791,-0.153606660606,0.202013457174
1589285442842392046,2468,1589285442842290436,,0.499678016415,-0.15357223932,0.2020166642
1589285442848415056,2469,1589285442848316382,,0.499676905324,-0.153548177462,0.202016281954
1589285442851418618,2470,1589285442851284055,,0.499676070403,-0.15351392793,0.202016607993
1589285442854416581,2471,1589285442854340493,,0.499675909606,-0.153480542235,0.202018283308
1589285442860399803,2472,1589285442860303315,,0.499674983567,-0.153449409739,0.20202104184
1589285442866602345,2473,1589285442866510407,,0.499675026029,-0.1534179675,0.202022110381
1589285442872718697,2474,1589285442872591493,,0.499674337468,-0.153385536841,0.202020842533
1589285442875473103,2475,1589285442875366890,,0.49967376004,-0.153354415167,0.202022111733
1589285442878571978,2476,1589285442878391916,,0.499672723078,-0.153325182004,0.202021911331
1589285442881409582,2477,1589285442881338896,,0.49967311209,-0.153291289788,0.202023895503
1589285442884439969,2478,1589285442884355859,,0.499673167245,-0.153258523352,0.202027873297
1589285442887537711,2479,1589285442887405181,,0.499671903089,-0.153227697729,0.202029380819
1589285442893366814,2480,1589285442893302550,,0.499671101608,-0.153197665384,0.202029200792
1589285442896386312,2481,1589285442896318982,,0.499670828554,-0.153169534276,0.202032892469
1589285442899495546,2482,1589285442899385886,,0.499670240036,-0.153138866996,0.202036179104
1589285442902421872,2483,1589285442902306363,,0.499669159411,-0.153109670561,0.202036623204
1589285442908532937,2484,1589285442908384584,,0.499667814678,-0.153082788672,0.202038374735
1589285442911488489,2485,1589285442911298245,,0.499667800936,-0.153058845647,0.202042963265
1589285442917434874,2486,1589285442917319864,,0.499666267467,-0.153035423676,0.202045725439
1589285442920513723,2487,1589285442920307565,,0.49966527163,-0.153010572949,0.202045115006
1589285442923515821,2488,1589285442923293003,,0.499664713562,-0.152986674482,0.202046952388
1589285442926530819,2489,1589285442926414568,,0.499664297676,-0.152964092757,0.20205119773
1589285442932478858,2490,1589285442932289262,,0.499662920388,-0.152942399581,0.202053272276
1589285442935427595,2491,1589285442935308944,,0.499660844967,-0.152920962336,0.202055475705
1589285442941446977,2492,1589285442941352495,,0.499660679679,-0.152899554496,0.202058238037
1589285442944515157,2493,1589285442944369457,,0.499659618686,-0.152877934319,0.202061968793
1589285442947537797,2494,1589285442947444979,,0.499659027949,-0.152853895389,0.202064892895
1589285442953825481,2495,1589285442953600135,,0.499658520786,-0.15283180666,0.202067321946
1589285442956526803,2496,1589285442956383035,,0.499657883065,-0.152809053557,0.202070260959
1589285442959619265,2497,1589285442959402991,,0.499657126297,-0.152786254277,0.202073184389
1589285442965517232,2498,1589285442965416416,,0.499656874673,-0.152766013229,0.202077106891
1589285442971717331,2499,1589285442971607507,,0.499656962944,-0.152743600976,0.202080513803
1589285442974823229,2500,1589285442974695368,,0.499656550349,-0.152723007765,0.202083749249
1589285442977481022,2501,1589285442977336947,,0.499656912881,-0.152699770772,0.202085497873
1589285442980463388,2502,1589285442980357049,,0.499656780857,-0.152680449195,0.202089245207
1589285442983475528,2503,1589285442983349857,,0.499658028325,-0.15265937588,0.202093697143
1589285442989469408,2504,1589285442989362511,,0.499657427013,-0.152642879722,0.202098611329
1589285442992486047,2505,1589285442992366403,,0.499656783638,-0.152626583669,0.202102735514
1589285442995541427,2506,1589285442995443767,,0.499656492639,-0.152611246771,0.202106358852
1589285443001479602,2507,1589285443001374248,,0.499656143749,-0.152593185484,0.202109408107
1589285443004590670,2508,1589285443004387891,,0.49965649063,-0.152579079723,0.202114626926
1589285443007578732,2509,1589285443007420548,,0.49965628949,-0.15256552948,0.20211813985
1589285443013639895,2510,1589285443013467911,,0.499656603526,-0.152555519405,0.202123075414
1589285443019508858,2511,1589285443019417264,,0.499656923555,-0.15254453007,0.202127831452
1589285443022450904,2512,1589285443022310630,,0.49965652987,-0.152536288792,0.202131084852
1589285443025455256,2513,1589285443025330905,,0.499656399777,-0.152526704537,0.202135669348
1589285443028530214,2514,1589285443028364065,,0.499655672767,-0.152518970693,0.202140023045
1589285443034522147,2515,1589285443034376564,,0.499655123022,-0.152509834032,0.202143318919
1589285443037500952,2516,1589285443037345524,,0.49965499611,-0.152502396821,0.202146559928
1589285443040515276,2517,1589285443040417520,,0.499654888991,-0.152494207961,0.202150919783
1589285443043452139,2518,1589285443043344233,,0.499654686674,-0.152486658227,0.202155146722
1589285443049454988,2519,1589285443049342364,,0.49965442387,-0.152478995583,0.202160491833
1589285443052448229,2520,1589285443052334211,,0.499654660364,-0.152469991541,0.20216640893
1589285443055532283,2521,1589285443055444198,,0.499654380557,-0.152464129196,0.202170281891
1589285443061471665,2522,1589285443061387335,,0.499654081657,-0.152458345823,0.202174417588
1589285443064612457,2523,1589285443064389934,,0.499655094682,-0.152451756207,0.202178469728
1589285443067471272,2524,1589285443067370816,,0.499655385625,-0.152445995149,0.202181467069
1589285443073846008,2525,1589285443073701968,,0.499655747313,-0.152440557007,0.202183873576
1589285443076503422,2526,1589285443076330358,,0.499656707467,-0.152435366409,0.20218735341
1589285443079492382,2527,1589285443079399805,,0.499656898275,-0.152431934188,0.202191736448
1589285443085519297,2528,1589285443085396180,,0.499656373531,-0.152427929368,0.202194221864
1589285443088523127,2529,1589285443088393543,,0.499657293702,-0.152423839141,0.202199130198
1589285443094521922,2530,1589285443094405825,,0.49965785892,-0.152419568798,0.202203308041
1589285443097487321,2531,1589285443097354167,,0.499658339578,-0.152417485734,0.202207317782
1589285443100451629,2532,1589285443100339635,,0.499658711543,-0.152415972361,0.202210492273
1589285443109497583,2533,1589285443109369262,,0.499659328447,-0.15241008094,0.202216456418
1589285443115527584,2534,1589285443115343384,,0.499660176649,-0.152408223982,0.202220207098
1589285443121517659,2535,1589285443121362833,,0.499660094803,-0.152407076345,0.202221932501
1589285443124512410,2536,1589285443124389237,,0.499660571841,-0.152404461195,0.20222518613
1589285443127542914,2537,1589285443127393374,,0.499660870925,-0.152403248751,0.202227261211
1589285443130548971,2538,1589285443130399230,,0.49966080438,-0.15240376655,0.202228975333
1589285443133522072,2539,1589285443133403449,,0.499660882311,-0.1524022013,0.202231123127
1589285443136512812,2540,1589285443136365624,,0.49966092116,-0.152402169538,0.202232799243
1589285443142514661,2541,1589285443142385707,,0.499661395531,-0.152400261145,0.202234040785
1589285443145549978,2542,1589285443145406565,,0.499661268158,-0.152399402602,0.202236186713
1589285443148541492,2543,1589285443148403090,,0.499661808911,-0.152399487766,0.202238237335
1589285443154560051,2544,1589285443154398558,,0.499661656194,-0.152399984032,0.202239941415
1589285443157523468,2545,1589285443157394052,,0.499661610901,-0.152400512988,0.202240922184
1589285443160413975,2546,1589285443160337258,,0.499662313399,-0.152399994284,0.20224369289
1589285443172658297,2547,1589285443172534407,,0.49966287071,-0.152400736576,0.202245991123
1589285443175476431,2548,1589285443175334161,,0.499663775078,-0.152401309949,0.202248179168
1589285443178560311,2549,1589285443178417200,,0.499663471991,-0.152401983492,0.202248855596
1589285443181487304,2550,1589285443181327043,,0.499664472737,-0.152402907291,0.20225122875
1589285443184550955,2551,1589285443184395655,,0.499664748205,-0.152403950341,0.202252896119
1589285443190495512,2552,1589285443190341536,,0.499666057829,-0.152405569183,0.202255188546
1589285443193711489,2553,1589285443193621943,,0.49966611015,-0.15240701381,0.202256092918
1589285443196429498,2554,1589285443196324342,,0.499667116899,-0.152407710633,0.202258007992
1589285443202469241,2555,1589285443202356928,,0.499668016166,-0.152407958776,0.202260085006
1589285443205500316,2556,1589285443205369391,,0.499669927042,-0.152410239873,0.202263678492
1589285443211613529,2557,1589285443211376951,,0.499670144061,-0.152413308435,0.202265146325
1589285443214547321,2558,1589285443214417756,,0.499671381831,-0.152414016656,0.20226823202
1589285443217583559,2559,1589285443217426996,,0.499673102524,-0.152416938741,0.202271656958
1589285443226474316,2560,1589285443226383750,,0.499675291305,-0.152418230974,0.202276010781
1589285443229455830,2561,1589285443229358622,,0.499676944507,-0.152421031853,0.20227997682
1589285443232431366,2562,1589285443232345271,,0.499679530919,-0.152423715319,0.202284282442
1589285443235508156,2563,1589285443235412295,,0.499682016108,-0.152427310604,0.202289782631
1589285443238560280,2564,1589285443238424112,,0.49968521618,-0.152430322965,0.202296629631
1589285443241523440,2565,1589285443241417763,,0.499687940167,-0.152433296246,0.202303695829
1589285443247521618,2566,1589285443247411498,,0.499691009656,-0.152437832534,0.202310238824
1589285443250526309,2567,1589285443250409913,,0.499694017236,-0.152442024146,0.202317897549
1589285443256663904,2568,1589285443256465806,,0.499697145639,-0.152446974561,0.202323991698
1589285443259497804,2569,1589285443259417457,,0.499699710842,-0.152451104653,0.202330277655
1589285443262591691,2570,1589285443262404619,,0.499702700278,-0.152457235392,0.202336445305
1589285443265488901,2571,1589285443265399883,,0.499705184606,-0.152462783529,0.202342234456
1589285443274961237,2572,1589285443274783912,,0.499707291323,-0.152467956273,0.2023471874
1589285443277634970,2573,1589285443277448832,,0.49970945937,-0.152475474779,0.20235206769
1589285443280544101,2574,1589285443280399676,,0.499710777939,-0.152482535734,0.202356577965
1589285443283585619,2575,1589285443283437007,,0.499712246217,-0.152490399884,0.202361246681
1589285443289582618,2576,1589285443289442540,,0.499715379996,-0.152505317083,0.202369901447
1589285443295538773,2577,1589285443295456403,,0.499716966954,-0.152514109168,0.202375421971
1589285443298579880,2578,1589285443298424331,,0.499718472926,-0.15252142506,0.202378330526
1589285443307581244,2579,1589285443307483028,,0.499720391309,-0.152529906128,0.20238337928
1589285443310535872,2580,1589285443310421521,,0.499721663528,-0.152537344328,0.20238646712
1589285443313485280,2581,1589285443313402699,,0.499723133594,-0.152545442195,0.202389819891
1589285443316687415,2582,1589285443316463315,,0.499723355483,-0.152552536773,0.2023921047
1589285443319443728,2583,1589285443319343334,,0.499724666654,-0.152562641172,0.202395252467
1589285443322454803,2584,1589285443322327324,,0.499726136661,-0.152570670319,0.202398059797
1589285443328525110,2585,1589285443328362637,,0.499726602889,-0.152578398489,0.202398551711
1589285443331633624,2586,1589285443331465839,,0.499728442809,-0.152585712474,0.202401114142
1589285443334532424,2587,1589285443334367412,,0.499729931967,-0.15259573999,0.202402150197
1589285443337657493,2588,1589285443337465867,,0.499730664169,-0.152605507264,0.202403305738
1589285443343568564,2589,1589285443343435526,,0.49973162197,-0.152615311831,0.202402623093
1589285443346988855,2590,1589285443346881861,,0.499732771239,-0.152622091491,0.202402902763
1589285443352495262,2591,1589285443352369952,,0.499733694725,-0.152631311644,0.202402458826
1589285443355454845,2592,1589285443355339416,,0.499734779486,-0.152639164586,0.202401736813
1589285443358488661,2593,1589285443358369362,,0.499734582917,-0.152647695604,0.202399421273
1589285443367591804,2594,1589285443367437496,,0.499736228407,-0.152657001008,0.202399434088
1589285443370863450,2595,1589285443370744534,,0.499737387522,-0.152663703186,0.202398492056
1589285443373851452,2596,1589285443373745215,,0.499738202871,-0.152673194945,0.202397439183
1589285443376496557,2597,1589285443376355035,,0.499739055551,-0.152681023382,0.202395994964
1589285443382676659,2598,1589285443382479735,,0.499740139032,-0.152694452426,0.202393513957
1589285443388656552,2599,1589285443388493239,,0.499741258819,-0.152701489141,0.202392369835
1589285443391519680,2600,1589285443391405211,,0.499742216938,-0.152707936378,0.202392441383
1589285443397551860,2601,1589285443397422457,,0.499742974167,-0.152713891583,0.202389456071
1589285443400519330,2602,1589285443400411480,,0.499743821338,-0.15271952046,0.20238657883
1589285443403643191,2603,1589285443403476383,,0.499745558277,-0.152723096733,0.202383368666
1589285443412500069,2604,1589285443412411081,,0.499748789997,-0.152735309792,0.202379571053
1589285443415549085,2605,1589285443415450038,,0.499751474276,-0.152738904198,0.202378685385
1589285443421663491,2606,1589285443421468672,,0.499752186351,-0.152742664837,0.202377552918
1589285443424507968,2607,1589285443424440198,,0.499753611279,-0.152747587399,0.202376741087
1589285443427576476,2608,1589285443427470174,,0.499754975314,-0.152752583437,0.202375963792
1589285443430498593,2609,1589285443430425941,,0.499755776502,-0.152757339514,0.202374499111
1589285443436550794,2610,1589285443436415594,,0.499756633558,-0.152759179072,0.202372520098
1589285443440461612,2611,1589285443440332642,,0.499758137788,-0.152763652956,0.202372056033
1589285443442511975,2612,1589285443442372700,,0.499760017208,-0.152766053895,0.202371726596
1589285443448569060,2613,1589285443448455073,,0.499760505137,-0.152771148955,0.202371321909
1589285443451616979,2614,1589285443451481049,,0.499761855506,-0.152772179142,0.202370080272
1589285443460540946,2615,1589285443460431370,,0.499762489313,-0.152777063408,0.202369217388
1589285443463592945,2616,1589285443463443333,,0.49976422482,-0.152780141866,0.202370424944
1589285443472776353,2617,1589285443472628980,,0.499766107258,-0.152784671309,0.202368865516
1589285443475612439,2618,1589285443475404817,,0.49976673353,-0.152787777931,0.202368342261
1589285443478549373,2619,1589285443478447220,,0.499767989703,-0.152789788819,0.202368074904
1589285443481551925,2620,1589285443481421349,,0.499768662118,-0.152792952157,0.20236694056
1589285443484666476,2621,1589285443484470095,,0.499769419333,-0.152795785543,0.202366928838
1589285443487556137,2622,1589285443487443803,,0.499769817555,-0.152795408164,0.202365327752
1589285443493573414,2623,1589285443493480836,,0.499770971983,-0.152799625763,0.202364416321
1589285443496558333,2624,1589285443496417255,,0.499771634413,-0.15280209712,0.202363713686
1589285443508647394,2625,1589285443508423529,,0.499773384681,-0.152805461766,0.202360942124
1589285443514656608,2626,1589285443514505765,,0.499773848535,-0.152809189787,0.202359100377
1589285443517597190,2627,1589285443517472083,,0.499774920142,-0.152811859601,0.202358675368
1589285443520665214,2628,1589285443520483174,,0.499776326842,-0.152814053194,0.20235837198
1589285443526774158,2629,1589285443526665067,,0.499776680346,-0.152818143527,0.202357584175
1589285443529556872,2630,1589285443529409733,,0.499777399854,-0.152820953178,0.202356198599
1589285443532481062,2631,1589285443532391021,,0.499777575967,-0.15282407244,0.202354576077
1589285443535571038,2632,1589285443535462951,,0.499778566951,-0.152826427073,0.20235440567
1589285443541604392,2633,1589285443541462326,,0.499778971976,-0.152828993173,0.202353107955
1589285443544506010,2634,1589285443544398993,,0.499780113055,-0.152833098436,0.202351187223
1589285443547680165,2635,1589285443547501557,,0.499780844154,-0.152836996945,0.202351178026
1589285443550537284,2636,1589285443550424779,,0.499781040525,-0.152840034671,0.20234827473
1589285443553511688,2637,1589285443553419866,,0.499782076546,-0.152844355558,0.202346968393
1589285443556539440,2638,1589285443556417960,,0.499783070058,-0.152849032423,0.202344365479
1589285443565519057,2639,1589285443565429958,,0.499784448912,-0.152857768668,0.202339966832
1589285443571771999,2640,1589285443571646606,,0.499785322497,-0.15286203141,0.202337187597
1589285443575014973,2641,1589285443574829581,,0.499786120081,-0.152866071262,0.202336249965
1589285443577481958,2642,1589285443577385378,,0.49978642935,-0.152870214176,0.202334628542
1589285443580525634,2643,1589285443580412067,,0.499787790188,-0.152875888328,0.202333736831
1589285443583498352,2644,1589285443583404137,,0.499787954142,-0.152881195364,0.202331538272
1589285443589535189,2645,1589285443589438419,,0.499788665743,-0.152885789494,0.202330591705
1589285443592565445,2646,1589285443592490269,,0.499789977229,-0.152889055223,0.202330941672
1589285443598626835,2647,1589285443598532559,,0.499790491094,-0.152894611088,0.202328666178
1589285443601509358,2648,1589285443601413423,,0.499791552773,-0.152899954293,0.202327491775
1589285443604541580,2649,1589285443604462843,,0.49979192222,-0.152904025334,0.202325614114
1589285443614329111,2650,1589285443613603311,,0.499793181561,-0.152910213489,0.202324330023
1589285443622568486,2651,1589285443622479721,,0.49979499272,-0.152920925115,0.202319742713
1589285443625571172,2652,1589285443625482421,,0.499795601347,-0.152927096627,0.202317622077
1589285443628613958,2653,1589285443628478999,,0.49979580614,-0.152933599791,0.202314931083
1589285443631632464,2654,1589285443631509899,,0.499796376121,-0.15293912458,0.202312111887
1589285443637653597,2655,1589285443637467529,,0.499797170358,-0.152944420679,0.202310845582
1589285443640526173,2656,1589285443640428267,,0.499797979059,-0.15295123754,0.202307913496
1589285443646787749,2657,1589285443646702091,,0.499797629977,-0.152957372217,0.202304743542
1589285443649538477,2658,1589285443649454582,,0.499798278532,-0.15296383891,0.202302220293
1589285443655696430,2659,1589285443655536021,,0.499799077887,-0.152969327261,0.202300407053
1589285443658539839,2660,1589285443658447481,,0.499799378503,-0.152978805878,0.20229645522
1589285443661580805,2661,1589285443661473871,,0.499800108311,-0.152986811043,0.202294460101
1589285443664609226,2662,1589285443664467269,,0.499800614777,-0.152995027835,0.202293243004
1589285443667592729,2663,1589285443667477126,,0.499801091287,-0.153003671522,0.202290549973
1589285443670975495,2664,1589285443670856416,,0.499801701495,-0.153014284275,0.202288244466
1589285443673829274,2665,1589285443673748436,,0.4998036621,-0.153023595534,0.202286224046
1589285443682564513,2666,1589285443682451056,,0.499804464043,-0.153043040212,0.202279072202
1589285443688573148,2667,1589285443688467701,,0.499805454501,-0.153052498019,0.202275085877
1589285443691611703,2668,1589285443691489576,,0.499805881502,-0.153060920797,0.202273219374
1589285443697630239,2669,1589285443697475292,,0.499807218442,-0.153069161453,0.202271761725
1589285443700596627,2670,1589285443700453221,,0.49980742022,-0.153077506298,0.202267970035
1589285443703601292,2671,1589285443703475445,,0.499807708965,-0.153085195416,0.202265618059
1589285443706878121,2672,1589285443706751493,,0.499808331645,-0.153091931096,0.202260931313
1589285443712608887,2673,1589285443712477367,,0.499809291776,-0.153101363474,0.202257771565
1589285443715620957,2674,1589285443715492705,,0.499810705253,-0.153106582116,0.202254054038
1589285443718555367,2675,1589285443718457593,,0.499810990931,-0.153114774913,0.202248031144
1589285443721596050,2676,1589285443721465237,,0.499812865912,-0.153122319261,0.202244515611
1589285443730628110,2677,1589285443730462465,,0.4998132675,-0.153128962684,0.202241457626
1589285443733671963,2678,1589285443733521401,,0.499814372504,-0.15313664837,0.202236446352
1589285443745623213,2679,1589285443745442439,,0.499815942057,-0.153152858335,0.202226311306
1589285443748568934,2680,1589285443748474250,,0.499816691172,-0.153161761911,0.202222568003
1589285443751582355,2681,1589285443751466433,,0.499817913786,-0.153170673629,0.202218643066
1589285443757596836,2682,1589285443757461825,,0.499819269666,-0.153181070638,0.202216192347
1589285443760597745,2683,1589285443760473297,,0.499820245067,-0.153191982554,0.202211608874
1589285443772692970,2684,1589285443772607992,,0.499822358921,-0.15321443405,0.20220160337
1589285443775570195,2685,1589285443775450003,,0.499823771998,-0.153225574808,0.202196444381
1589285443778519735,2686,1589285443778413886,,0.499825260695,-0.153235235014,0.202192587677
1589285443781575599,2687,1589285443781434143,,0.499826603262,-0.15324912617,0.202189497429
1589285443784550602,2688,1589285443784451167,,0.499826627102,-0.15326251701,0.202185196672
1589285443790604747,2689,1589285443790472355,,0.499827651434,-0.153276230396,0.202182004835
1589285443793544124,2690,1589285443793446489,,0.499827471635,-0.153290790493,0.202176632481
1589285443798391209,2691,1589285443798292394,,0.499828144403,-0.153302318512,0.202171274517
1589285443802499754,2692,1589285443802410825,,0.499828505957,-0.153326548322,0.202162425851
1589285443805509081,2693,1589285443805419580,,0.499829400308,-0.153340079268,0.202158962542
1589285443808570993,2694,1589285443808428430,,0.499829324228,-0.15335052693,0.202156148544
1589285443814574401,2695,1589285443814494415,,0.499829437202,-0.153361405431,0.202153015088
1589285443817540012,2696,1589285443817430102,,0.499830144178,-0.153374315494,0.202149783148
1589285443823569851,2697,1589285443823483990,,0.499831276847,-0.153387031283,0.202146688608
1589285443826658465,2698,1589285443826600462,,0.499831992226,-0.153399081607,0.202143121697
1589285443829529609,2699,1589285443829454741,,0.499832867358,-0.15341064697,0.202140062832
1589285443835667504,2700,1589285443835509753,,0.499833197555,-0.153421968103,0.202134724456
1589285443841636504,2701,1589285443841532231,,0.499834242394,-0.153433655091,0.202130974601
1589285443844602011,2702,1589285443844499861,,0.499834823137,-0.153446418053,0.202125165647
1589285443847541485,2703,1589285443847476003,,0.499835166944,-0.153459073825,0.202120429221
1589285443850565045,2704,1589285443850477530,,0.499835649198,-0.153473243566,0.202114923617
1589285443853560690,2705,1589285443853471192,,0.499836624578,-0.153488676654,0.202109650528
1589285443856527316,2706,1589285443856463515,,0.499837243136,-0.153505561466,0.202104846049
1589285443862544773,2707,1589285443862441936,,0.499839048693,-0.153539349136,0.202094782716
1589285443871926718,2708,1589285443871783266,,0.499839760289,-0.153557209139,0.202090734873
1589285443874932034,2709,1589285443874805314,,0.499839958505,-0.153577269484,0.202084382093
1589285443877687831,2710,1589285443877540065,,0.499839926853,-0.153597458284,0.202077913043
1589285443880550755,2711,1589285443880419898,,0.499839887954,-0.153617679343,0.202072226843
1589285443883585111,2712,1589285443883435923,,0.499841174211,-0.153639698246,0.202068138864
1589285443892672362,2713,1589285443892556085,,0.499841682986,-0.153685645987,0.202058854911
1589285443895656753,2714,1589285443895537427,,0.499841664952,-0.153708189064,0.202050712405
1589285443898740805,2715,1589285443898559016,,0.499841001421,-0.153729698053,0.202043043706
1589285443904658022,2716,1589285443904546718,,0.499841025873,-0.153753537595,0.202038136362
1589285443907668049,2717,1589285443907531803,,0.499841679338,-0.153775494554,0.20203483394
1589285443910608935,2718,1589285443910495661,,0.499840892552,-0.15379766849,0.20202619722
1589285443916673709,2719,1589285443916563221,,0.499840940939,-0.15381485183,0.202019906361
1589285443920999896,2720,1589285443920922535,,0.499841420022,-0.15383538825,0.20201535965
1589285443922607891,2721,1589285443922489886,,0.499841976175,-0.153860827531,0.202008961856
1589285443928661308,2722,1589285443928533725,,0.499842259654,-0.153883796112,0.202005444961
1589285443934701318,2723,1589285443934549099,,0.49984283382,-0.153903672026,0.202000313631
1589285443937656774,2724,1589285443937512294,,0.499842526192,-0.153929187765,0.201994404124
1589285443940595206,2725,1589285443940499846,,0.499842834389,-0.153952252163,0.201990639873
1589285443946661791,2726,1589285443946539495,,0.499842960636,-0.153974359696,0.2019879971
1589285443949692922,2727,1589285443949504811,,0.499843605854,-0.153995539456,0.201981544988
1589285443952612098,2728,1589285443952515823,,0.499844257161,-0.154017729598,0.201975758009
1589285443958679429,2729,1589285443958555726,,0.499844638971,-0.154041642146,0.201972108206
1589285443961719256,2730,1589285443961518439,,0.499845031733,-0.154064975343,0.201969371254
1589285443964565315,2731,1589285443964482700,,0.499845337817,-0.15409126564,0.201963984188
1589285443967684801,2732,1589285443967487253,,0.499845576176,-0.154115336515,0.201958450142
1589285443971011218,2733,1589285443970906209,,0.499845579735,-0.154140909293,0.201952690719
1589285443976678156,2734,1589285443976536721,,0.499846718013,-0.154167593706,0.201946701025
1589285443985602912,2735,1589285443985482668,,0.499847457429,-0.15422710195,0.201935236929
1589285443988573003,2736,1589285443988487890,,0.499847988573,-0.154254481839,0.201926275619
1589285443994634933,2737,1589285443994535686,,0.499847841896,-0.154286093403,0.201918641462
1589285444000618880,2738,1589285444000512940,,0.499849207415,-0.154314916994,0.201915860921
1589285444003633269,2739,1589285444003518071,,0.499849453129,-0.154344043513,0.201910240234
1589285444006651833,2740,1589285444006540331,,0.499851546751,-0.154373293989,0.201903708143
1589285444012646656,2741,1589285444012526009,,0.49985187172,-0.154398624437,0.201896222931
1589285444015694202,2742,1589285444015553234,,0.499852959708,-0.154425974344,0.201892709206
1589285444018698483,2743,1589285444018599183,,0.499853361219,-0.154459633895,0.201886547549
1589285444021636378,2744,1589285444021537503,,0.499853490618,-0.1544877215,0.201881597068
1589285444024714492,2745,1589285444024532957,,0.499854003197,-0.154513636443,0.201875803631
1589285444027620340,2746,1589285444027520974,,0.499854506377,-0.154545469542,0.201870248315
1589285444033768336,2747,1589285444033660982,,0.499855745457,-0.154576322154,0.201864748681
1589285444045651908,2748,1589285444045521453,,0.499858085508,-0.154630803564,0.201854416532
1589285444048639978,2749,1589285444048502204,,0.499857730463,-0.15465871547,0.201848435839
1589285444051701639,2750,1589285444051571229,,0.499857958165,-0.154685368,0.201839878887
1589285444054611212,2751,1589285444054525213,,0.499858752691,-0.154714612999,0.201836984168
1589285444057605865,2752,1589285444057514863,,0.499858824914,-0.154743458988,0.2018306622
1589285444060638114,2753,1589285444060494081,,0.499859824768,-0.154771760712,0.201823351578
1589285444063643084,2754,1589285444063533558,,0.499860611623,-0.154799494854,0.201817499466
1589285444072770425,2755,1589285444072634082,,0.499862542567,-0.154823260736,0.201811609128
1589285444075636407,2756,1589285444075544027,,0.499862514185,-0.154846770145,0.201805150109
1589285444078729996,2757,1589285444078566144,,0.499863026258,-0.154879590135,0.201798705684
1589285444081634712,2758,1589285444081547462,,0.499863557833,-0.15490957501,0.201794801117
1589285444087614717,2759,1589285444087496944,,0.499863729926,-0.154937630805,0.201791584619
1589285444094192885,2760,1589285444094106722,,0.499864377066,-0.154970904163,0.201784201427
1589285444096639982,2761,1589285444096535545,,0.49986440933,-0.155005228944,0.201779157214
1589285444105660360,2762,1589285444105558047,,0.499865597817,-0.155070263567,0.201762641128
1589285444108640491,2763,1589285444108526555,,0.499866355364,-0.155102640989,0.201760471405
1589285444111619174,2764,1589285444111522839,,0.49986678666,-0.155133961531,0.201754401879
1589285444114598626,2765,1589285444114525282,,0.499866774169,-0.155170309124,0.201750215993
1589285444117647424,2766,1589285444117513256,,0.499866795394,-0.155206278291,0.201741555991
1589285444123729853,2767,1589285444123579201,,0.49986757996,-0.155245638956,0.20173337193
1589285444126728789,2768,1589285444126629762,,0.499867925472,-0.155284263261,0.201724948203
1589285444129602407,2769,1589285444129519316,,0.499869757939,-0.155312146634,0.201718025414
1589285444135677214,2770,1589285444135552605,,0.499869614732,-0.155346153794,0.201708659676
1589285444138590383,2771,1589285444138470790,,0.499869647835,-0.15539112805,0.201702475315
1589285444141643244,2772,1589285444141515860,,0.499870497407,-0.15542904583,0.201695518998
1589285444147642069,2773,1589285444147516990,,0.499870411575,-0.155462346234,0.201691031497
1589285444150628217,2774,1589285444150505378,,0.499870075157,-0.155508244309,0.201680305164
1589285444153754264,2775,1589285444153574659,,0.499871599305,-0.155549897741,0.201673259447
1589285444156767193,2776,1589285444156600386,,0.499873472111,-0.155589351157,0.201669203541
1589285444165619691,2777,1589285444165518030,,0.499874365128,-0.155629283514,0.20166245863
1589285444171851866,2778,1589285444171723936,,0.499875582669,-0.155669306395,0.201659336737
1589285444174935182,2779,1589285444174849263,,0.499875965847,-0.155712851955,0.201652661437
1589285444180703214,2780,1589285444180523934,,0.499875399979,-0.155753530266,0.201645746429
1589285444192656782,2781,1589285444192556592,,0.499877053043,-0.155843051596,0.201631556157
1589285444198619319,2782,1589285444198527562,,0.499876235837,-0.155890906194,0.201621414666
1589285444204622615,2783,1589285444204525790,,0.499877162238,-0.155937899677,0.201612873161
1589285444210704957,2784,1589285444210584055,,0.499877171753,-0.15599117249,0.201603065189
1589285444216704612,2785,1589285444216560782,,0.499876603045,-0.156043296367,0.2015907009
1589285444222741125,2786,1589285444222575998,,0.499876572036,-0.156094897778,0.201581020163
1589285444228748540,2787,1589285444228584218,,0.499876776257,-0.15614854476,0.201571288639
1589285444234715393,2788,1589285444234614922,,0.499876097468,-0.156204962175,0.201557946779
1589285444240724962,2789,1589285444240601672,,0.499875437515,-0.15626142816,0.201549246507
1589285444246677202,2790,1589285444246581097,,0.499876410723,-0.156303836973,0.201541135251
1589285444252810178,2791,1589285444252659439,,0.499876920274,-0.156356677653,0.201530747566
1589285444255690535,2792,1589285444255601998,,0.499876052456,-0.15642084544,0.201524092136
1589285444261800410,2793,1589285444261630089,,0.499875944885,-0.156466533547,0.201515648981
1589285444264725963,2794,1589285444264598769,,0.499877692464,-0.156519828393,0.201507467699
1589285444267719504,2795,1589285444267624377,,0.499878954643,-0.15658075487,0.201499296131
1589285444271126801,2796,1589285444270928323,,0.499877103098,-0.156637777081,0.201486984572
1589285444273938093,2797,1589285444273874452,,0.499878229659,-0.156687385506,0.20147462701
1589285444285758371,2798,1589285444285609863,,0.499877670376,-0.156795583482,0.20145125248
1589285444292592361,2799,1589285444292401395,,0.499876647068,-0.156848779717,0.201444804016
1589285444300754586,2800,1589285444300594196,,0.499876906901,-0.156904198417,0.201433175529
1589285444306937187,2801,1589285444306868899,,0.4998777782,-0.156959533617,0.201422366971
1589285444309701132,2802,1589285444309625423,,0.499875703439,-0.157019764339,0.201410314633
1589285444312680541,2803,1589285444312604029,,0.499876771226,-0.157078560295,0.201399028696
1589285444315703458,2804,1589285444315603996,,0.499876295132,-0.157139967224,0.201390865737
1589285444321679814,2805,1589285444321558974,,0.499877070984,-0.157202813208,0.201379178642
1589285444327715333,2806,1589285444327593358,,0.499876786157,-0.157265188513,0.201369034821
1589285444333711803,2807,1589285444333588143,,0.499875978407,-0.157330600949,0.201356878423
1589285444342655313,2808,1589285444342570679,,0.499875615363,-0.15746391437,0.20133559967
1589285444348666813,2809,1589285444348574106,,0.499875504433,-0.157532883109,0.20132207341
1589285444354706477,2810,1589285444354592232,,0.499874788281,-0.157602016397,0.201309257163
1589285444360761549,2811,1589285444360674926,,0.49987352296,-0.157660101614,0.201296627024
1589285444363615722,2812,1589285444363547214,,0.499872211224,-0.157712398933,0.201281043364
1589285444366858057,2813,1589285444366779107,,0.499870388955,-0.157793901223,0.201267821234
1589285444378749366,2814,1589285444378588423,,0.499867601329,-0.15790994556,0.201242519506
1589285444384693510,2815,1589285444384556686,,0.499867964392,-0.15798731441,0.201231043037
1589285444387632268,2816,1589285444387554703,,0.499868716169,-0.158058235566,0.201217882699
1589285444393818696,2817,1589285444393719895,,0.499865995417,-0.158119202827,0.201203986694
1589285444396696547,2818,1589285444396594556,,0.499869178623,-0.15817794009,0.201197580816
1589285444402723291,2819,1589285444402569903,,0.499868027272,-0.158294988736,0.201179983301
1589285444408684718,2820,1589285444408580022,,0.499869458656,-0.158352429865,0.201172046932
1589285444414710132,2821,1589285444414544469,,0.499870316172,-0.158412871499,0.201163914321
1589285444420639497,2822,1589285444420553148,,0.499870601369,-0.158478368969,0.201152546212
1589285444432710399,2823,1589285444432628134,,0.499870970783,-0.158595724768,0.201126918906
1589285444435671442,2824,1589285444435570850,,0.499870431831,-0.158667274089,0.201112567433
1589285444441705377,2825,1589285444441570427,,0.499868133484,-0.158752162732,0.201097959973
1589285444447671800,2826,1589285444447590924,,0.499865516154,-0.158813947874,0.201088675573
1589285444454201492,2827,1589285444454122803,,0.49986490494,-0.158893373718,0.201072084903
1589285444465705470,2828,1589285444465599808,,0.499859589288,-0.159059917547,0.20104272378
1589285444471953919,2829,1589285444471779993,,0.499858808375,-0.159141920622,0.201028640871
1589285444474920004,2830,1589285444474811041,,0.499857728436,-0.159200275202,0.201018842217
1589285444477665938,2831,1589285444477557251,,0.499855823376,-0.159286121822,0.201008493119
1589285444480712958,2832,1589285444480578710,,0.499852350009,-0.159377296943,0.200997995884
1589285444483725411,2833,1589285444483596022,,0.499851022738,-0.1594369989,0.200989691743
1589285444489687317,2834,1589285444489547318,,0.499848414752,-0.15952096858,0.200976450663
1589285444495668748,2835,1589285444495550420,,0.499847540036,-0.159607997479,0.200967527637
1589285444501865488,2836,1589285444501620964,,0.499846464456,-0.159664679565,0.200953633993
1589285444507820529,2837,1589285444507647595,,0.499845445148,-0.159736945674,0.200942259498
1589285444514204550,2838,1589285444514128538,,0.49984469132,-0.159820609762,0.200932610282
1589285444525735464,2839,1589285444525608002,,0.499844392193,-0.159939007585,0.200914526536
1589285444531721710,2840,1589285444531572232,,0.499843344087,-0.160019480476,0.200903814281
1589285444537752090,2841,1589285444537591270,,0.49984383211,-0.160082329726,0.200895839264
1589285444543779879,2842,1589285444543591500,,0.499844937541,-0.160127834495,0.200885725044
1589285444549735921,2843,1589285444549601740,,0.499843844311,-0.160178964775,0.200877325487
1589285444555704658,2844,1589285444555601001,,0.499845260688,-0.160252642449,0.20087080062
1589285444558714480,2845,1589285444558588915,,0.499843672243,-0.160313072714,0.200865824802
1589285444561746550,2846,1589285444561596554,,0.499841710287,-0.160372336434,0.200855805404
1589285444565151596,2847,1589285444565056422,,0.499841310187,-0.160459608951,0.200846935259
1589285444567699293,2848,1589285444567591734,,0.499841816638,-0.160546012056,0.20084118352
1589285444571101105,2849,1589285444570959316,,0.499839740099,-0.160620675707,0.200827309607
1589285444574153652,2850,1589285444573972827,,0.499838252915,-0.16068034442,0.200818591922
1589285444580779803,2851,1589285444580665206,,0.499836271219,-0.160737725776,0.200812167085
1589285444585970420,2852,1589285444585650189,,0.499832032125,-0.160831509176,0.20080080096
1589285444591722618,2853,1589285444591616201,,0.499827799526,-0.160907065042,0.200796433601
1589285444597770773,2854,1589285444597672658,,0.499824461819,-0.160978996305,0.200784343505
1589285444603831541,2855,1589285444603723482,,0.499822852455,-0.161071232065,0.200772675757
1589285444609744807,2856,1589285444609613733,,0.499820957789,-0.16117067101,0.200762709888
1589285444615660838,2857,1589285444615558322,,0.499820178718,-0.161252905937,0.200750339279
1589285444621740129,2858,1589285444621600633,,0.499819082465,-0.16133246144,0.200738461495
1589285444627788378,2859,1589285444627672783,,0.499818443784,-0.16140927741,0.200729989472
1589285444633904606,2860,1589285444633819127,,0.499815630407,-0.1614854776,0.20071815919
1589285444645837803,2861,1589285444645684464,,0.499813305625,-0.161649692565,0.200697184022
1589285444651777159,2862,1589285444651638862,,0.499813199134,-0.161733550753,0.200683897876
1589285444657779207,2863,1589285444657657677,,0.499813853274,-0.16181607828,0.200667802381
1589285444663832487,2864,1589285444663694158,,0.499812525335,-0.161879151017,0.200649816885
1589285444669830110,2865,1589285444669726039,,0.499814720838,-0.161941502405,0.200634169548
1589285444675789365,2866,1589285444675693808,,0.49981144674,-0.162046186625,0.200616374745
1589285444681802346,2867,1589285444681683596,,0.499807106388,-0.162125380823,0.200596976325
1589285444687785041,2868,1589285444687661052,,0.499805712246,-0.162195873984,0.200581214371
1589285444694105839,2869,1589285444693984068,,0.499805081729,-0.162295396207,0.200565251158
1589285444706014922,2870,1589285444705731003,,0.499800287593,-0.162484654115,0.200534943264
1589285444711746201,2871,1589285444711643176,,0.499799532345,-0.162576229145,0.200521602736
1589285444717754014,2872,1589285444717659393,,0.499798195119,-0.162666562831,0.200512985057
1589285444723789901,2873,1589285444723701682,,0.499796915883,-0.162756741289,0.200499497836
1589285444729771321,2874,1589285444729684786,,0.499793585874,-0.16285396501,0.200491396134
1589285444735794390,2875,1589285444735646322,,0.49979197559,-0.162953114974,0.200483471256
1589285444741712235,2876,1589285444741610431,,0.499791587623,-0.1630558968,0.200469953991
1589285444747965113,2877,1589285444747821982,,0.49978755729,-0.16315834101,0.200457646008
1589285444754381524,2878,1589285444754274399,,0.49978596223,-0.163267950341,0.200438944606
1589285444765945521,2879,1589285444765702527,,0.49978125746,-0.163480220949,0.20040333015
1589285444772196611,2880,1589285444771952565,,0.499780065391,-0.163582727277,0.200386013001
1589285444775075959,2881,1589285444774957426,,0.499775498728,-0.16368609102,0.200368186835
1589285444781233306,2882,1589285444781041152,,0.499770745002,-0.16379355358,0.200350304464
1589285444786726210,2883,1589285444786640898,,0.499769309638,-0.163890345739,0.200333700936
1589285444792865304,2884,1589285444792709396,,0.499766336997,-0.163999067094,0.200321004355
1589285444804835381,2885,1589285444804674082,,0.499763845879,-0.164207742989,0.200285489861
1589285444810815293,2886,1589285444810665670,,0.499762769316,-0.164319209866,0.200269193517
1589285444816879489,2887,1589285444816709669,,0.499762830388,-0.164421468585,0.200254360043
1589285444822834636,2888,1589285444822674893,,0.499760414099,-0.16453519642,0.200238889109
1589285444828808731,2889,1589285444828716308,,0.499758470589,-0.16464625682,0.200223020131
1589285444834825972,2890,1589285444834709215,,0.499755706166,-0.164756265271,0.200205960208
1589285444841261414,2891,1589285444841130195,,0.499753387678,-0.164842115924,0.200189880022
1589285444852894662,2892,1589285444852687934,,0.499747244155,-0.165059858363,0.200161362426
1589285444861829893,2893,1589285444861662160,,0.499741321169,-0.165157221002,0.200144548059
1589285444867806708,2894,1589285444867646169,,0.499738463633,-0.165242258715,0.200129115091
1589285444871167845,2895,1589285444871023766,,0.499735027509,-0.165361892322,0.200107953519
1589285444874082681,2896,1589285444873999732,,0.499732771687,-0.1654778822,0.200091706414
1589285444885977741,2897,1589285444885717822,,0.499732688595,-0.165666460765,0.200062977489
1589285444891858396,2898,1589285444891717706,,0.499730408836,-0.165757600293,0.200049579994
1589285444897880222,2899,1589285444897707529,,0.499730027484,-0.165849642452,0.200039765651
1589285444903793304,2900,1589285444903690170,,0.499728114035,-0.165944142993,0.20003102376
1589285444909806660,2901,1589285444909686922,,0.499725722586,-0.166041259324,0.200015861059
1589285444915899655,2902,1589285444915706053,,0.499725391353,-0.166139423009,0.200002033305
1589285444921816843,2903,1589285444921709438,,0.499724796801,-0.166242918864,0.199986250001
1589285444927884044,2904,1589285444927694839,,0.499724675779,-0.166315199649,0.199968488178
1589285444934080374,2905,1589285444933970492,,0.499724087549,-0.166401091316,0.199950158166
1589285444945920523,2906,1589285444945754713,,0.499717292622,-0.166623048731,0.199917922421
1589285444951902978,2907,1589285444951751925,,0.499713927429,-0.166710505998,0.199901586275
1589285444957878955,2908,1589285444957782965,,0.499712104944,-0.166838578836,0.199884398727
1589285444963923090,2909,1589285444963753588,,0.499709841629,-0.166960481615,0.199871933215
1589285444969846761,2910,1589285444969710484,,0.499710301492,-0.167065191037,0.199855968505
1589285444975845552,2911,1589285444975681513,,0.499709429936,-0.167171114086,0.199842925284
1589285444981903064,2912,1589285444981751822,,0.499709511729,-0.167279046782,0.199835656878
1589285444987803493,2913,1589285444987708752,,0.499705820397,-0.167380857632,0.199822053336
1589285444994358369,2914,1589285444994194810,,0.499704252462,-0.167489793123,0.199815762181
1589285445005898298,2915,1589285445005759505,,0.49969844563,-0.167712056659,0.199789573628
1589285445011868004,2916,1589285445011712998,,0.499696994847,-0.16782535306,0.199773694706
1589285445017822834,2917,1589285445017720546,,0.499692250629,-0.167907530329,0.199745931841
1589285445023815461,2918,1589285445023717651,,0.499690789088,-0.167993259546,0.199729606716
1589285445029878801,2919,1589285445029739906,,0.499686033177,-0.168125268781,0.199707933673
1589285445035904048,2920,1589285445035787737,,0.499682022899,-0.168220851311,0.199686257465
1589285445041840128,2921,1589285445041744286,,0.499677578496,-0.168302174491,0.199666115868
1589285445047805614,2922,1589285445047707436,,0.49967765701,-0.168423961816,0.199646370135
1589285445054215082,2923,1589285445054124805,,0.499675920285,-0.168535682414,0.199630574955
1589285445060964922,2924,1589285445060858869,,0.499673752226,-0.168628703414,0.199610496165
1589285445065794723,2925,1589285445065686185,,0.49967508127,-0.168724526947,0.199603111606
1589285445072134896,2926,1589285445072000062,,0.499675007654,-0.168819330896,0.199594957811
1589285445075095998,2927,1589285445074992229,,0.499672698628,-0.168883674909,0.199588279214
1589285445080789441,2928,1589285445080687847,,0.499672332744,-0.16898574209,0.199581339071
1589285445092817503,2929,1589285445092701727,,0.499666634257,-0.169188595688,0.199564068589
1589285445098859913,2930,1589285445098723091,,0.499665172729,-0.169303854585,0.199541366848
1589285445104868854,2931,1589285445104746111,,0.499659725092,-0.169436811829,0.199521724422
1589285445110803125,2932,1589285445110719001,,0.499657926993,-0.169549576807,0.199510032229
1589285445116813956,2933,1589285445116670778,,0.49965310626,-0.169665292203,0.199485934838
1589285445122827407,2934,1589285445122715273,,0.499646215503,-0.169780934217,0.199469473132
1589285445128775793,2935,1589285445128682563,,0.499641118937,-0.169893213846,0.199449074765
1589285445135596299,2936,1589285445135512721,,0.499634605772,-0.170008361239,0.199429555494
1589285445140845938,2937,1589285445140758689,,0.499629675912,-0.170090522993,0.199411844007
1589285445152975293,2938,1589285445152848858,,0.499620846303,-0.170316276127,0.199380351267
1589285445158930464,2939,1589285445158797484,,0.499616513365,-0.170418105344,0.199364908237
1589285445164872293,2940,1589285445164742403,,0.499617176731,-0.170502466581,0.199350318269
1589285445171147809,2941,1589285445171038513,,0.499615494298,-0.17063321994,0.199336620367
1589285445174105592,2942,1589285445173971848,,0.499615722153,-0.170753548421,0.199327861861
1589285445181100755,2943,1589285445181009739,,0.499614723197,-0.170851626163,0.199313993032
1589285445185859212,2944,1589285445185749057,,0.499614794706,-0.170944963364,0.19930133376
1589285445191933979,2945,1589285445191773316,,0.499612655494,-0.171007204139,0.199294278102
1589285445197805540,2946,1589285445197693292,,0.499609250892,-0.171106568889,0.199279747211
1589285445203754185,2947,1589285445203641303,,0.499606697701,-0.171219992832,0.19926829409
1589285445209830814,2948,1589285445209720626,,0.499604270198,-0.171292811987,0.199260889117
1589285445215901753,2949,1589285445215759093,,0.499605472605,-0.171392720772,0.199238278754
1589285445221841621,2950,1589285445221735578,,0.499604052254,-0.171516851052,0.199222019577
1589285445227847587,2951,1589285445227763374,,0.49960383178,-0.171617349987,0.199204830411
1589285445234507716,2952,1589285445234415017,,0.4996031637,-0.171722055316,0.199180941184
1589285445240182621,2953,1589285445240033125,,0.499598839873,-0.171833802084,0.199173715148
1589285445245951149,2954,1589285445245752471,,0.499594653561,-0.171948234656,0.199156044375
1589285445251924317,2955,1589285445251747659,,0.499590070812,-0.172062598038,0.199140924626
1589285445257888551,2956,1589285445257756631,,0.499585646668,-0.172182205542,0.199128630724
1589285445263840443,2957,1589285445263678140,,0.499581158247,-0.172309555738,0.199106055577
1589285445269827605,2958,1589285445269707585,,0.499579140451,-0.172437334667,0.19908835116
1589285445275917991,2959,1589285445275757205,,0.499576602296,-0.172565459891,0.199070920538
1589285445281892156,2960,1589285445281735727,,0.499572034986,-0.172665489992,0.199050707256
1589285445287907866,2961,1589285445287752685,,0.499568517299,-0.172801341504,0.19903321668
1589285445294445465,2962,1589285445294307281,,0.499561665993,-0.172951212077,0.199016331608
1589285445305953275,2963,1589285445305804852,,0.499553803246,-0.17317740722,0.198973666255
1589285445311877325,2964,1589285445311769615,,0.499550161711,-0.173317682554,0.198954469635
1589285445317941456,2965,1589285445317803785,,0.499548009466,-0.173431781464,0.198936333873
1589285445323884677,2966,1589285445323786327,,0.499546961019,-0.173548714971,0.198911558796
1589285445329817146,2967,1589285445329714791,,0.499547296756,-0.173660292524,0.198899205963
1589285445335856853,2968,1589285445335736496,,0.49954667621,-0.173769446298,0.198877172884
1589285445341847122,2969,1589285445341740003,,0.499548108344,-0.173876287973,0.198860376896
1589285445347803050,2970,1589285445347703488,,0.499549176099,-0.173981278902,0.19884900229
1589285445354595134,2971,1589285445354505719,,0.499549347618,-0.174094794724,0.198831271974
1589285445365915448,2972,1589285445365743690,,0.499550807462,-0.174275100784,0.198796441889
1589285445372078632,2973,1589285445371991559,,0.499551740889,-0.17435951169,0.198780591007
1589285445375212110,2974,1589285445375036136,,0.499548888982,-0.174492110649,0.198764994261
1589285445381219107,2975,1589285445381132087,,0.49954569538,-0.174591638044,0.198750009001
1589285445392920451,2976,1589285445392779357,,0.499543464574,-0.17481166901,0.198713961115
1589285445398896193,2977,1589285445398744561,,0.499539973771,-0.17494034351,0.198702192456
1589285445404893372,2978,1589285445404761592,,0.499539976137,-0.175043481202,0.198680439087
1589285445411004273,2979,1589285445410790154,,0.499538967783,-0.175151229442,0.198667961948
1589285445416923758,2980,1589285445416748016,,0.499536255794,-0.175255476784,0.198656765452
1589285445422871320,2981,1589285445422729571,,0.499533591594,-0.175360799417,0.198642939056
1589285445428858803,2982,1589285445428749210,,0.499529454038,-0.175471457162,0.198633722307
1589285445434823953,2983,1589285445434700686,,0.499528048846,-0.175577887429,0.198625742127
1589285445440932448,2984,1589285445440819966,,0.499525249929,-0.175690171061,0.19861272342
1589285445447426062,2985,1589285445447318489,,0.499524417731,-0.17580148074,0.198600926723
1589285445452893867,2986,1589285445452797086,,0.499523919436,-0.175911058839,0.198586009874
1589285445458881359,2987,1589285445458750510,,0.499522454963,-0.17602632571,0.198568319702
1589285445464880905,2988,1589285445464763307,,0.499522131368,-0.176136945766,0.198552022554
1589285445471373715,2989,1589285445471175207,,0.499521261167,-0.17624667789,0.198533470728
1589285445474410792,2990,1589285445474270328,,0.499521688731,-0.176355972023,0.198513061383
1589285445485949880,2991,1589285445485814106,,0.499520831343,-0.176574777592,0.198473804897
1589285445491853440,2992,1589285445491752100,,0.499519621424,-0.176648431479,0.19845568571
1589285445497873737,2993,1589285445497762635,,0.499518884402,-0.176730998849,0.198437447459
1589285445503909741,2994,1589285445503789911,,0.499514661305,-0.17686353158,0.198420282378
1589285445509881668,2995,1589285445509741836,,0.499513687509,-0.176958191189,0.198405100079
1589285445515975318,2996,1589285445515762054,,0.499514137053,-0.177039347688,0.198390062876
1589285445521968502,2997,1589285445521747457,,0.499512871218,-0.177169641198,0.198371780428
1589285445527961211,2998,1589285445527817679,,0.499512724009,-0.177290983235,0.198361318027
1589285445534099498,2999,1589285445534000556,,0.499513726998,-0.177391522329,0.198345692461
1589285445540963341,3000,1589285445540833693,,0.499514071692,-0.177492519144,0.198332926366
1589285445546004560,3001,1589285445545834853,,0.499512361524,-0.177588411955,0.198320452329
1589285445551960567,3002,1589285445551786274,,0.499510431772,-0.177691919807,0.198306367827
1589285445557880316,3003,1589285445557750110,,0.499509352565,-0.177789729817,0.198295137863
1589285445563913319,3004,1589285445563789969,,0.499505192377,-0.177896085005,0.198274923695
1589285445569975325,3005,1589285445569814683,,0.499503937324,-0.17800616491,0.198255528841
1589285445575902508,3006,1589285445575772420,,0.499503562639,-0.178110747798,0.198233769021
1589285445581976459,3007,1589285445581849599,,0.499501335608,-0.178181643443,0.198208972606
1589285445587941396,3008,1589285445587799132,,0.499500875053,-0.178265500789,0.198190954397
1589285445594691357,3009,1589285445594578678,,0.499497980166,-0.178392826398,0.198172204587
1589285445606027653,3010,1589285445605904355,,0.49949370254,-0.178555977607,0.198140435028
1589285445611927723,3011,1589285445611788855,,0.499494037338,-0.178671184093,0.19812394506
1589285445617924751,3012,1589285445617788188,,0.499492790136,-0.178782301321,0.198114344591
1589285445623989903,3013,1589285445623802772,,0.499495872565,-0.178870437956,0.198100180563
1589285445629986361,3014,1589285445629825640,,0.499497370839,-0.178955130228,0.198093301851
1589285445635972513,3015,1589285445635819130,,0.499498090778,-0.179044809906,0.198086680399
1589285445641951529,3016,1589285445641838047,,0.499497994743,-0.179135385298,0.198083579233
1589285445647926873,3017,1589285445647799944,,0.499495911653,-0.179225550522,0.19807581819
1589285445654337766,3018,1589285445654237370,,0.499492600807,-0.179324690687,0.198063254371
1589285445661075778,3019,1589285445660971268,,0.499491228041,-0.179424978057,0.198052331792
1589285445665978681,3020,1589285445665812758,,0.499488460218,-0.179530107704,0.198030276485
1589285445672241897,3021,1589285445672039351,,0.499486711504,-0.179642402264,0.198014801581
1589285445675189098,3022,1589285445675066554,,0.49947826708,-0.179865908145,0.197968092429
1589285445680924182,3023,1589285445680808064,,0.499472640121,-0.179982110954,0.197945630908
1589285445692907610,3024,1589285445692796233,,0.499458893373,-0.180328161871,0.19788553897
1589285445698966512,3025,1589285445698839663,,0.499455437801,-0.180558213691,0.197858652363
1589285445704989172,3026,1589285445704820872,,0.499453874967,-0.18067512466,0.197844861224
