%time,field.header.seq,field.header.stamp,field.header.frame_id,field.vector.x,field.vector.y,field.vector.z
1589275378133015341,4862,1589275378132853668,,0.501065511866,-0.200780682812,0.217439522172
1589275378135966010,4863,1589275378135847072,,0.501068370101,-0.200793193132,0.217438195379
1589275378138940949,4864,1589275378138819802,,0.501069023849,-0.20082402991,0.217438738708
1589275378144880887,4865,1589275378144759686,,0.501072218669,-0.200834614242,0.217436799616
1589275378147797784,4866,1589275378147733433,,0.50107363225,-0.200844480688,0.217431298368
1589275378150970330,4867,1589275378150795107,,0.501077207557,-0.200854956653,0.217428314913
1589275378156913982,4868,1589275378156787852,,0.501081391777,-0.200864111458,0.217426437119
1589275378159931966,4869,1589275378159767181,,0.501085030216,-0.200873876618,0.217421476046
1589275378162977018,4870,1589275378162865131,,0.50108914712,-0.200883751567,0.217418560749
1589275378168926538,4871,1589275378168821689,,0.501092234647,-0.200892291963,0.217417711412
1589275378172035902,4872,1589275378171832465,,0.501094058124,-0.200901764985,0.217413831269
1589275378174913605,4873,1589275378174807967,,0.501097201462,-0.200910009815,0.217410758461
1589275378181105089,4874,1589275378180964235,,0.501099060949,-0.200918747701,0.217406966771
1589275378183896427,4875,1589275378183777205,,0.501102749289,-0.200926686759,0.217402976721
1589275378186885596,4876,1589275378186793596,,0.50110498276,-0.200933677318,0.217399289281
1589275378192933039,4877,1589275378192821232,,0.50110874466,-0.200940183424,0.217396069276
1589275378195959954,4878,1589275378195851531,,0.501111005831,-0.200946482677,0.21739243939
1589275378201941143,4879,1589275378201796884,,0.501113188807,-0.20095460868,0.217387509413
1589275378204907057,4880,1589275378204783564,,0.501116691833,-0.200959806617,0.217383695256
1589275378207942516,4881,1589275378207830995,,0.501119035625,-0.200967847907,0.217378310477
1589275378213987874,4882,1589275378213865263,,0.50112253894,-0.200973810165,0.217375088662
1589275378216963890,4883,1589275378216814379,,0.501125540582,-0.200980063717,0.217370974633
1589275378219924381,4884,1589275378219825774,,0.501127823741,-0.2009868923,0.217366388595
1589275378226036537,4885,1589275378225868745,,0.501130593131,-0.200995285215,0.217361919599
1589275378228928946,4886,1589275378228820322,,0.501132870209,-0.201001512445,0.21735741638
1589275378232031057,4887,1589275378231849127,,0.501135811796,-0.201006958182,0.217353115756
1589275378238021743,4888,1589275378237838178,,0.501138281943,-0.201010580052,0.217349295278
1589275378240910951,4889,1589275378240805292,,0.501140230276,-0.201017660232,0.217345131305
1589275378243994494,4890,1589275378243842660,,0.501142768077,-0.201020682363,0.217341187203
1589275378249920387,4891,1589275378249813190,,0.501145032177,-0.201023834425,0.217335708864
1589275378252969423,4892,1589275378252830258,,0.501147672099,-0.201027790569,0.217330892362
1589275378255948209,4893,1589275378255828931,,0.501150433373,-0.201030939112,0.217324727497
1589275378261897211,4894,1589275378261795648,,0.50115343558,-0.201032033496,0.217321524693
1589275378265041256,4895,1589275378264857651,,0.501156028994,-0.201036369419,0.217316084574
1589275378267943282,4896,1589275378267819324,,0.501158375121,-0.201036388697,0.217310814313
1589275378273922473,4897,1589275378273809663,,0.501160581948,-0.201039014261,0.217307712391
1589275378276909873,4898,1589275378276826083,,0.501162485397,-0.201037624965,0.217304444965
1589275378283286598,4899,1589275378283191042,,0.501163939755,-0.201038487178,0.21730050507
1589275378285912327,4900,1589275378285815025,,0.501165217129,-0.201040252114,0.217295344155
1589275378288967044,4901,1589275378288855247,,0.501166914447,-0.201040412629,0.217291649991
1589275378291949100,4902,1589275378291831550,,0.501168814214,-0.201040469407,0.217287500309
1589275378298002195,4903,1589275378297862212,,0.501170839143,-0.201039735914,0.217283191894
1589275378300971005,4904,1589275378300827639,,0.5011722887,-0.20103966896,0.217278576452
1589275378306922299,4905,1589275378306817635,,0.501173175776,-0.201039459727,0.217272833
1589275378309925225,4906,1589275378309830872,,0.501175031042,-0.20103739449,0.217268099245
1589275378312998700,4907,1589275378312903287,,0.501176369714,-0.201036320095,0.217262158704
1589275378319104046,4908,1589275378318862165,,0.501177787178,-0.201035484413,0.21725638761
1589275378321924221,4909,1589275378321834367,,0.501179612714,-0.201033427658,0.217251297613
1589275378324966602,4910,1589275378324853148,,0.501181300142,-0.201031884966,0.217244827946
1589275378330933135,4911,1589275378330781451,,0.501183501745,-0.201029431802,0.21724006077
1589275378333938471,4912,1589275378333831113,,0.501185529846,-0.201026286104,0.217234878453
1589275378337080419,4913,1589275378336900270,,0.501187474837,-0.201021540731,0.217230397208
1589275378343024032,4914,1589275378342851285,,0.501189275362,-0.2010178836,0.217225797119
1589275378345944589,4915,1589275378345815173,,0.501192169515,-0.20101244485,0.217222199996
1589275378348990258,4916,1589275378348858334,,0.501194466681,-0.201006892803,0.217218767089
1589275378354976519,4917,1589275378354871150,,0.50119753177,-0.200999818784,0.217216387449
1589275378357965149,4918,1589275378357839418,,0.501200214384,-0.20099421656,0.217213311196
1589275378360969987,4919,1589275378360845680,,0.50120281942,-0.200984546508,0.217209441348
1589275378366905200,4920,1589275378366814181,,0.501206094324,-0.20097833845,0.217207606895
1589275378369929499,4921,1589275378369816469,,0.501209676581,-0.200969546667,0.217205772576
1589275378373011510,4922,1589275378372861401,,0.50121254919,-0.200961556484,0.217202537459
1589275378379414939,4923,1589275378379267354,,0.501215938324,-0.200952848755,0.217200861498
1589275378382375646,4924,1589275378382189197,,0.501219161766,-0.200943985126,0.217197666854
1589275378385023778,4925,1589275378384867389,,0.501223440858,-0.20093351796,0.217195923898
1589275378391041673,4926,1589275378390884373,,0.501227936098,-0.200923174469,0.21719314031
1589275378394048993,4927,1589275378393873621,,0.50123184971,-0.200911611115,0.217189597153
1589275378396987456,4928,1589275378396875888,,0.501236493781,-0.200886295023,0.21718216198
1589275378403017712,4929,1589275378402883109,,0.5012417719,-0.200855434534,0.217174362791
1589275378406071300,4930,1589275378405877866,,0.501244680299,-0.20084864742,0.217171941602
1589275378408941937,4931,1589275378408805292,,0.501247553417,-0.200838582058,0.21716682187
1589275378415051980,4932,1589275378414892564,,0.501250824301,-0.200827161358,0.21716491464
1589275378418016894,4933,1589275378417839116,,0.5012534721,-0.200815860203,0.217161596108
1589275378420994007,4934,1589275378420838279,,0.501256291757,-0.200807097491,0.217157737831
1589275378426966143,4935,1589275378426800077,,0.501259765117,-0.200796289273,0.217153799921
1589275378430009270,4936,1589275378429855843,,0.50126332481,-0.200787524561,0.217150255966
1589275378432941952,4937,1589275378432847216,,0.501266311999,-0.200777344783,0.217145949463
1589275378438916880,4938,1589275378438808769,,0.501268259589,-0.200765639219,0.217142289636
1589275378441997092,4939,1589275378441805600,,0.50127089964,-0.200755689692,0.217139683378
1589275378444973881,4940,1589275378444843234,,0.501273050537,-0.200741342993,0.217135704355
1589275378451000776,4941,1589275378450826123,,0.501276580853,-0.200718397596,0.217130631421
1589275378453942683,4942,1589275378453799716,,0.501278387523,-0.20070448687,0.217124476602
1589275378456929245,4943,1589275378456783341,,0.50128071252,-0.200695337797,0.217121131428
1589275378462954817,4944,1589275378462815700,,0.501281717851,-0.200688421723,0.217115993434
1589275378465982574,4945,1589275378465816889,,0.50128322644,-0.200680706805,0.217112155878
1589275378468971558,4946,1589275378468830671,,0.501283116128,-0.200672928319,0.217106219841
1589275378474941314,4947,1589275378474842167,,0.501284456345,-0.200665288555,0.217100636478
1589275378478036831,4948,1589275378477822797,,0.50128470815,-0.200657492406,0.217093698548
1589275378483904654,4949,1589275378483795842,,0.501284313252,-0.20064754264,0.217085387078
1589275378486925227,4950,1589275378486815264,,0.501282458214,-0.200637996496,0.217075452012
1589275378489991492,4951,1589275378489831969,,0.501281323273,-0.200624182841,0.217065135995
1589275378495990389,4952,1589275378495823372,,0.501280181697,-0.200609111205,0.217054693649
1589275378498940520,4953,1589275378498795733,,0.501280131112,-0.200593906233,0.217046693585
1589275378501928540,4954,1589275378501805678,,0.501280426545,-0.200583985374,0.217039756382
1589275378507883553,4955,1589275378507765878,,0.501280868853,-0.200575931466,0.217032644092
1589275378511005224,4956,1589275378510852635,,0.501281155301,-0.200567184097,0.21702540202
1589275378513941208,4957,1589275378513852327,,0.501281934047,-0.200558476075,0.217019772244
1589275378522964752,4958,1589275378522849698,,0.501284744353,-0.200541211494,0.217009525505
1589275378525940716,4959,1589275378525832127,,0.50128565794,-0.200532473877,0.217004364321
1589275378532083055,4960,1589275378531888917,,0.50128677044,-0.200523866624,0.216999671634
1589275378534957842,4961,1589275378534813728,,0.501287729757,-0.200513641634,0.216995848107
1589275378539519692,4962,1589275378537848591,,0.501288115786,-0.200504444376,0.21699075556
1589275378543926643,4963,1589275378543805181,,0.501288520512,-0.200492962945,0.216984763863
1589275378546900395,4964,1589275378546823091,,0.501289466878,-0.200483695094,0.216981070668
1589275378549949393,4965,1589275378549808703,,0.501289498553,-0.200474054314,0.216974522481
1589275378556059028,4966,1589275378555879294,,0.501289316878,-0.200466149222,0.216968513126
1589275378558982932,4967,1589275378558868674,,0.501288865956,-0.200455718928,0.216962030803
1589275378561953401,4968,1589275378561836492,,0.501288560778,-0.20044696239,0.216956185361
1589275378568038864,4969,1589275378567848619,,0.501287490397,-0.200438042964,0.216948544155
1589275378571079136,4970,1589275378570943873,,0.501286954332,-0.200427435487,0.216942228281
1589275378573932723,4971,1589275378573839886,,0.501286525263,-0.200416944229,0.216934821592
1589275378580206100,4972,1589275378580087322,,0.501286135585,-0.200405229643,0.216927641114
1589275378583382293,4973,1589275378583216494,,0.501285974707,-0.200393512693,0.216920661774
1589275378585974626,4974,1589275378585846496,,0.501285456985,-0.200383195384,0.216914179107
1589275378591981112,4975,1589275378591874937,,0.501286007035,-0.200369815339,0.216907813085
1589275378594952279,4976,1589275378594831834,,0.501285777944,-0.200357163728,0.216901369759
1589275378600991423,4977,1589275378600905498,,0.501285900101,-0.200344206404,0.21689554189
1589275378603984252,4978,1589275378603835235,,0.501286915885,-0.200330764559,0.21688974357
1589275378606889205,4979,1589275378606781752,,0.501286857654,-0.200317016158,0.216883306353
1589275378612897512,4980,1589275378612802007,,0.501287474776,-0.200301600641,0.216876858495
1589275378615922196,4981,1589275378615806537,,0.501287433251,-0.200288905969,0.216870227645
1589275378619020388,4982,1589275378618825451,,0.501287347816,-0.200274094786,0.216862626699
1589275378624943368,4983,1589275378624828286,,0.501286511312,-0.200258681023,0.21685485447
1589275378627970346,4984,1589275378627823883,,0.501285747993,-0.200243377226,0.216848041904
1589275378630925528,4985,1589275378630826882,,0.501285340821,-0.200226732439,0.216842063594
1589275378637063794,4986,1589275378636911635,,0.501284675912,-0.200209644994,0.216836915395
1589275378642991652,4987,1589275378642851287,,0.501282892846,-0.200176950685,0.216830659245
1589275378648903777,4988,1589275378648801451,,0.501282015176,-0.200160915947,0.216826969189
1589275378651926916,4989,1589275378651797902,,0.501282408408,-0.200142685821,0.216823808728
1589275378654911924,4990,1589275378654817590,,0.50128222383,-0.200125172062,0.216818438707
1589275378660989820,4991,1589275378660826882,,0.501281629809,-0.200107527277,0.216812825196
1589275378663989673,4992,1589275378663832889,,0.501281364579,-0.200092262383,0.21680664849
1589275378666879750,4993,1589275378666807417,,0.50128137553,-0.200076000581,0.216800414596
1589275378673159288,4994,1589275378672976560,,0.501280821466,-0.200063626085,0.216796661694
1589275378675920540,4995,1589275378675820518,,0.501280649381,-0.200046141469,0.216791416126
1589275378682349190,4996,1589275378682183136,,0.501279958525,-0.20002868953,0.216785469346
1589275378684958659,4997,1589275378684810496,,0.501279225393,-0.200012534486,0.216782564192
1589275378687977109,4998,1589275378687839321,,0.501278484017,-0.199996614876,0.216778026173
1589275378694013798,4999,1589275378693866367,,0.501277567305,-0.199978449847,0.216773821071
1589275378696965895,5000,1589275378696800017,,0.501277100919,-0.199961176611,0.216769515148
1589275378706048372,5001,1589275378705877119,,0.501277452533,-0.199927385657,0.216759787344
1589275378708929420,5002,1589275378708853067,,0.501278538774,-0.199910833701,0.216753795293
1589275378711957673,5003,1589275378711846855,,0.501279390613,-0.199894077796,0.216749047473
1589275378717948113,5004,1589275378717822551,,0.501279819437,-0.199877643161,0.216744177588
1589275378720974005,5005,1589275378720842370,,0.501279749004,-0.199861026633,0.21673906759
1589275378723969871,5006,1589275378723844638,,0.501279891726,-0.199843383763,0.21673381034
1589275378729991238,5007,1589275378729849978,,0.501279219307,-0.199826961697,0.216728039449
1589275378733035243,5008,1589275378732839068,,0.501280237385,-0.199809533482,0.216724524916
1589275378735968170,5009,1589275378735867292,,0.501280223141,-0.199794008877,0.216718815589
1589275378742164099,5010,1589275378741895610,,0.501280652817,-0.199775358752,0.216713248412
1589275378744981564,5011,1589275378744898626,,0.501281258311,-0.199762199365,0.216707269707
1589275378748005695,5012,1589275378747873949,,0.501281079921,-0.199746474828,0.216701449739
1589275378754008109,5013,1589275378753916771,,0.501281206725,-0.199730937321,0.2166939666
1589275378757071220,5014,1589275378756936693,,0.501281511347,-0.199714730947,0.216687787696
1589275378765976644,5015,1589275378765827553,,0.50128127767,-0.19968613323,0.216673970632
1589275378768952065,5016,1589275378768807761,,0.501280872065,-0.199670057113,0.216668394354
1589275378771976187,5017,1589275378771835178,,0.501280819402,-0.199656361873,0.216660307969
1589275378778062807,5018,1589275378777852360,,0.50128227358,-0.199640149516,0.216655478956
1589275378781195559,5019,1589275378781034004,,0.50128212148,-0.199623677301,0.216647625444
1589275378784060388,5020,1589275378783913144,,0.501282468801,-0.199609326023,0.216641325403
1589275378790048519,5021,1589275378789896067,,0.501283757341,-0.199594892464,0.21663657665
1589275378793097886,5022,1589275378792916412,,0.501283292072,-0.199581271008,0.216630512977
1589275378796095207,5023,1589275378795918702,,0.501284267966,-0.199566027006,0.216626599128
1589275378802044387,5024,1589275378801905922,,0.501284067081,-0.199552617548,0.216619841262
1589275378805120280,5025,1589275378804945839,,0.501285187412,-0.199537746314,0.216615844937
1589275378808010154,5026,1589275378807905001,,0.501284874773,-0.199521057112,0.216609140142
1589275378814021686,5027,1589275378813909541,,0.501285404813,-0.199504406691,0.216603292392
1589275378816965214,5028,1589275378816879224,,0.501286016186,-0.199488795526,0.216597439264
1589275378826092253,5029,1589275378825938313,,0.501286426971,-0.199460573254,0.216583792336
1589275378829048880,5030,1589275378828904367,,0.501285740502,-0.199447412558,0.216576137349
1589275378832043913,5031,1589275378831888064,,0.501286112649,-0.199431411926,0.216569376913
1589275378838034633,5032,1589275378837889389,,0.501286468333,-0.199416942064,0.216561749587
1589275378841008800,5033,1589275378840885640,,0.501287422619,-0.199399852504,0.216553967696
1589275378847039554,5034,1589275378846891425,,0.501288668838,-0.19938302446,0.216548231226
1589275378849999249,5035,1589275378849889503,,0.501288959367,-0.199371470707,0.216541983716
1589275378853007138,5036,1589275378852914568,,0.501289961549,-0.199356071959,0.216534551926
1589275378856094210,5037,1589275378855920635,,0.501290320467,-0.199340031864,0.216527050503
1589275378862028646,5038,1589275378861894467,,0.501290980399,-0.199323143481,0.216519246551
1589275378865049418,5039,1589275378864901308,,0.501292062439,-0.199307718817,0.216514840443
1589275378871023708,5040,1589275378870939134,,0.501292754056,-0.199288824504,0.216507336577
1589275378874053257,5041,1589275378873922078,,0.501293351817,-0.199269217348,0.216499350094
1589275378877086416,5042,1589275378876915001,,0.501294522648,-0.199250052373,0.216492069064
1589275378883537666,5043,1589275378883335368,,0.501295521062,-0.199233413297,0.216485007188
1589275378886063103,5044,1589275378885919095,,0.501297085972,-0.199215206372,0.216477135744
1589275378889106847,5045,1589275378888949546,,0.501297262162,-0.199200664664,0.216469089849
1589275378895082529,5046,1589275378894946754,,0.501298508707,-0.199181023938,0.216461751089
1589275378898019484,5047,1589275378897879139,,0.501299818451,-0.199163656887,0.216453696449
1589275378901099096,5048,1589275378900902004,,0.501300137477,-0.199144490992,0.21644354453
1589275378907002089,5049,1589275378906900471,,0.501302148054,-0.199124873845,0.216434926699
1589275378910014383,5050,1589275378909875922,,0.501303679531,-0.19910703047,0.216426853706
1589275378913079092,5051,1589275378912983343,,0.501304709211,-0.19908671417,0.216417279394
1589275378919075310,5052,1589275378918888076,,0.501305615841,-0.199067281455,0.216407995937
1589275378922049328,5053,1589275378921900056,,0.501305984119,-0.199048515957,0.216399320281
1589275378925065121,5054,1589275378924932267,,0.501306827492,-0.199028094871,0.216391101704
1589275378931104797,5055,1589275378930965068,,0.501306838299,-0.199006988822,0.216380787993
1589275378934027861,5056,1589275378933892610,,0.501308507687,-0.198984711902,0.216372103738
1589275378937086102,5057,1589275378936939431,,0.501308261056,-0.198963514679,0.216361135803
1589275378943071270,5058,1589275378942950946,,0.501310300446,-0.198940055301,0.216353690788
1589275378946089372,5059,1589275378945926633,,0.501312098466,-0.198915656983,0.216344923501
1589275378949109351,5060,1589275378948960577,,0.501312158573,-0.198895579978,0.216334635089
1589275378955078668,5061,1589275378954947654,,0.50131398881,-0.198869756413,0.216327226146
1589275378958068061,5062,1589275378957918498,,0.501314606007,-0.198847560129,0.21631691842
1589275378961034916,5063,1589275378960931199,,0.501315135718,-0.198824512676,0.216308660164
1589275378967130858,5064,1589275378967023597,,0.501315671888,-0.198801252059,0.216299466516
1589275378970019702,5065,1589275378969919630,,0.501315767871,-0.198780287502,0.216291274361
1589275378973063681,5066,1589275378972961490,,0.50131684191,-0.198756364483,0.216282912441
1589275378979479005,5067,1589275378979312088,,0.501317617782,-0.198732334216,0.216272992137
1589275378982307734,5068,1589275378982209297,,0.501317354138,-0.19871125252,0.21626247298
1589275378988053740,5069,1589275378987932096,,0.501316724932,-0.198690118784,0.216252656686
1589275378991066573,5070,1589275378990939480,,0.501316734185,-0.198667702638,0.216241956268
1589275378994097948,5071,1589275378993972998,,0.501317056732,-0.198643888511,0.21623053237
1589275379003049875,5072,1589275379002894496,,0.501318902426,-0.198599325745,0.216212570639
1589275379006101627,5073,1589275379005931964,,0.501318538366,-0.198578758176,0.216201159031
1589275379012123901,5074,1589275379011925212,,0.50131971095,-0.198554856144,0.216189908421
1589275379015053089,5075,1589275379014955616,,0.501320455287,-0.198530294909,0.216180050593
1589275379018064039,5076,1589275379017931386,,0.501321808662,-0.198506245401,0.21617010445
1589275379024013206,5077,1589275379023929239,,0.501323328371,-0.198481359373,0.216161495808
1589275379027018433,5078,1589275379026925160,,0.501324477858,-0.198457927756,0.216150646361
1589275379030064518,5079,1589275379029933921,,0.501326296942,-0.198435415417,0.216142143679
1589275379035983099,5080,1589275379035870265,,0.501326868429,-0.198412009693,0.216132175445
1589275379038987310,5081,1589275379038876494,,0.501327917812,-0.198386972922,0.216119806897
1589275379042024227,5082,1589275379041888921,,0.501328500487,-0.198362930453,0.216110316569
1589275379048024414,5083,1589275379047904046,,0.501329422866,-0.198337390152,0.216101344045
1589275379051085207,5084,1589275379050946931,,0.501330940126,-0.198307936041,0.216091708141
1589275379054070934,5085,1589275379053917071,,0.501332575481,-0.198281407307,0.21608172472
1589275379063085612,5086,1589275379062936087,,0.501336348685,-0.198229421988,0.216064625875
1589275379068958915,5087,1589275379068848908,,0.501337591872,-0.198206877568,0.21605606337
1589275379072061458,5088,1589275379071942685,,0.501338799918,-0.198182612662,0.216045590869
1589275379075121723,5089,1589275379074969243,,0.501340660056,-0.198156450094,0.216035095471
1589275379081251625,5090,1589275379081092878,,0.501343766561,-0.198126580043,0.21602635492
1589275379084050217,5091,1589275379083933273,,0.501344206499,-0.198104356551,0.216017441499
1589275379087006362,5092,1589275379086928080,,0.501345924006,-0.198081930186,0.216010210561
1589275379093009127,5093,1589275379092883866,,0.501347269302,-0.198061373873,0.216002890112
1589275379095999044,5094,1589275379095878984,,0.501348888384,-0.198037113083,0.215992288132
1589275379098978110,5095,1589275379098846923,,0.501350629112,-0.198006860284,0.215982065091
1589275379105017273,5096,1589275379104947003,,0.50135231698,-0.197981716099,0.215972311161
1589275379108167779,5097,1589275379108010424,,0.501353171636,-0.197956711961,0.215963080968
1589275379111117177,5098,1589275379110959228,,0.501354478737,-0.197929768443,0.215954115873
1589275379117164292,5099,1589275379117006890,,0.50135593624,-0.197900963023,0.215943399695
1589275379123103241,5100,1589275379122950860,,0.50136026379,-0.197842273294,0.215926028013
1589275379129081926,5101,1589275379128901648,,0.501362289085,-0.197813843242,0.215917609343
1589275379132050686,5102,1589275379131929359,,0.501363579715,-0.197784484375,0.215906850424
1589275379135053985,5103,1589275379134909670,,0.501365329416,-0.197751900028,0.215896377073
1589275379141047904,5104,1589275379140958857,,0.501367121674,-0.197722481838,0.21588739075
1589275379144088009,5105,1589275379143943257,,0.50136963662,-0.197691293328,0.215877965945
1589275379147090783,5106,1589275379146970905,,0.501371534561,-0.197656909702,0.215868244747
1589275379153064306,5107,1589275379152945966,,0.501373461604,-0.197629441664,0.21586146113
1589275379156126947,5108,1589275379155922019,,0.501375224638,-0.19759990392,0.215854388605
1589275379159045132,5109,1589275379158917348,,0.501376450584,-0.1975663823,0.215842810594
1589275379165132853,5110,1589275379164965474,,0.501376678584,-0.197536908406,0.215833176151
1589275379168099803,5111,1589275379167926169,,0.501378570547,-0.197503934713,0.215823766786
1589275379170968370,5112,1589275379170865116,,0.501380718869,-0.197469708455,0.215813641882
1589275379177059828,5113,1589275379176871423,,0.501383412389,-0.19744004076,0.215805694044
1589275379180258574,5114,1589275379180155364,,0.501385215319,-0.1974106412,0.21579684701
1589275379183460511,5115,1589275379183313852,,0.50138758249,-0.197379228478,0.215789346098
1589275379189047658,5116,1589275379188916878,,0.501388237868,-0.197350833697,0.215776856125
1589275379192072367,5117,1589275379191923214,,0.501389495621,-0.197322984519,0.215767290413
1589275379195045888,5118,1589275379194924304,,0.501390769958,-0.197293936146,0.215757651321
1589275379201211521,5119,1589275379200984530,,0.501391297871,-0.197268094556,0.215749562849
1589275379204086836,5120,1589275379203916891,,0.501392880782,-0.197238092476,0.215740753691
1589275379207048794,5121,1589275379206935865,,0.50139424618,-0.197209104747,0.215730319258
1589275379213155773,5122,1589275379212959983,,0.501396851684,-0.19717661479,0.21572095297
1589275379219226927,5123,1589275379218974092,,0.501398954163,-0.19714386612,0.215709054707
1589275379222142838,5124,1589275379221975522,,0.501400813895,-0.197112392045,0.215700071044
1589275379225035101,5125,1589275379224943625,,0.501403055691,-0.197080886321,0.215689421939
1589275379228121591,5126,1589275379227947987,,0.501405810587,-0.197039069803,0.215677182009
1589275379231116201,5127,1589275379231019591,,0.501407706055,-0.196999667832,0.215664118478
1589275379237122075,5128,1589275379236969184,,0.501411983757,-0.19695631256,0.215653287001
1589275379240395330,5129,1589275379240309590,,0.50141461024,-0.196915074325,0.215639712789
1589275379243064697,5130,1589275379242944617,,0.501418444522,-0.196872732469,0.215625836012
1589275379249159037,5131,1589275379248991045,,0.501421025918,-0.196828712977,0.215611032807
1589275379252140243,5132,1589275379252044093,,0.501424709102,-0.196789945213,0.215600776409
1589275379258082911,5133,1589275379257952706,,0.501427213505,-0.196748207744,0.215587753922
1589275379261109476,5134,1589275379260975727,,0.501431373833,-0.196707435501,0.215576962323
1589275379264141631,5135,1589275379263997800,,0.501433750348,-0.196666236492,0.215565582113
1589275379270149834,5136,1589275379269978182,,0.501436471028,-0.196626918924,0.21555516239
1589275379273072845,5137,1589275379272937547,,0.501438615314,-0.196587946816,0.215542355382
1589275379276125287,5138,1589275379275970531,,0.501439584851,-0.196553060381,0.215528956427
1589275379282503653,5139,1589275379282304944,,0.501441191127,-0.19651681289,0.21551604173
1589275379285114441,5140,1589275379285007889,,0.501445000599,-0.196478775504,0.215506657123
1589275379288119643,5141,1589275379288004217,,0.501445476387,-0.196443542032,0.215492605661
1589275379294118734,5142,1589275379294019668,,0.501447266895,-0.196404563314,0.215479176915
1589275379297069893,5143,1589275379296948764,,0.501447967049,-0.196366547665,0.215465000049
1589275379306190146,5144,1589275379306029799,,0.501451551411,-0.196288468944,0.215441734537
1589275379309112732,5145,1589275379308959131,,0.501453315832,-0.196251767552,0.215429371562
1589275379312174378,5146,1589275379312016464,,0.50145442915,-0.196209799824,0.215414915085
1589275379318139111,5147,1589275379317999819,,0.501456944478,-0.196160957672,0.215401708389
1589275379321126249,5148,1589275379321026950,,0.501459075176,-0.196116442926,0.215388367849
1589275379324071612,5149,1589275379323960825,,0.501461538592,-0.196071097878,0.215376287724
1589275379330070311,5150,1589275379329969887,,0.501463257409,-0.196027623688,0.215364185394
1589275379333114716,5151,1589275379333015205,,0.501465931817,-0.195987200596,0.215353115329
1589275379336079696,5152,1589275379335968637,,0.501469717606,-0.195928635238,0.215336564355
1589275379342128175,5153,1589275379342019581,,0.501473459105,-0.195870749459,0.215322456132
1589275379345182060,5154,1589275379345024321,,0.501476114441,-0.195824185192,0.215311599741
1589275379348134486,5155,1589275379347974533,,0.50147881321,-0.195765648156,0.215296795475
1589275379354120435,5156,1589275379354001734,,0.501483000324,-0.195701921344,0.215284334137
1589275379357092316,5157,1589275379356973231,,0.501485046303,-0.195650736909,0.215270982947
1589275379366102719,5158,1589275379365977367,,0.501488592092,-0.195548371362,0.215242102871
1589275379369094673,5159,1589275379368964669,,0.501489566599,-0.195498827551,0.215227232714
1589275379372291703,5160,1589275379372116475,,0.501492459128,-0.195452663797,0.215214223902
1589275379378086630,5161,1589275379377959233,,0.501496433058,-0.195398007584,0.215198989052
1589275379381206757,5162,1589275379381103222,,0.501498771305,-0.195352928795,0.215184570977
1589275379387101221,5163,1589275379386984189,,0.501499966765,-0.195303507756,0.215167825213
1589275379390174763,5164,1589275379390051532,,0.501501465047,-0.195269115998,0.215157511837
1589275379393040515,5165,1589275379392933902,,0.501502943658,-0.19522770645,0.215147863958
1589275379399087084,5166,1589275379398940517,,0.501504724059,-0.195176236248,0.215132097907
1589275379402203582,5167,1589275379402036512,,0.501505205142,-0.195131405748,0.215117490818
1589275379405150250,5168,1589275379405020158,,0.501505531305,-0.195092262596,0.215102717125
1589275379411137169,5169,1589275379411002256,,0.50150884668,-0.195039530943,0.215088369071
1589275379414081796,5170,1589275379413989448,,0.501509895539,-0.194988506117,0.215071115521
1589275379417078089,5171,1589275379416958394,,0.501513244078,-0.194940846291,0.215058134511
1589275379423178843,5172,1589275379422997310,,0.501514937402,-0.194894085487,0.21504384477
1589275379426085412,5173,1589275379425932082,,0.501517052735,-0.194847615352,0.215027962047
1589275379429028552,5174,1589275379428917212,,0.501519249032,-0.19479795813,0.215011819602
1589275379435141329,5175,1589275379435023438,,0.501522436351,-0.194741986694,0.214995022471
1589275379438222526,5176,1589275379438062433,,0.501526333729,-0.19468539602,0.214978293909
1589275379444127052,5177,1589275379444000931,,0.50152877765,-0.194629544693,0.214960244495
1589275379447139906,5178,1589275379447035876,,0.501534794286,-0.194565177035,0.214942688754
1589275379450097036,5179,1589275379449988305,,0.501538668599,-0.194506937189,0.214923461584
1589275379459188686,5180,1589275379459030357,,0.50154759996,-0.194383021343,0.21488541603
1589275379462107564,5181,1589275379461999071,,0.501551136179,-0.194320694524,0.214865026721
1589275379468175838,5182,1589275379467969108,,0.501555410104,-0.194262282135,0.214849089852
1589275379471145203,5183,1589275379470976091,,0.501555201871,-0.194205286843,0.214829376284
1589275379474150292,5184,1589275379473911459,,0.501558846245,-0.194148580604,0.214814462663
1589275379477045543,5185,1589275379476920768,,0.501561239236,-0.194094907172,0.214797837225
1589275379483442611,5186,1589275379483296007,,0.501563250105,-0.194052198983,0.214783731332
1589275379486154095,5187,1589275379486002491,,0.501565532231,-0.194010607411,0.214768157502
1589275379492095362,5188,1589275379491969627,,0.50156859611,-0.19395312511,0.214752558797
1589275379495024452,5189,1589275379494910054,,0.501570449672,-0.193903380606,0.214736215553
1589275379498071981,5190,1589275379497936334,,0.501572177651,-0.193862657076,0.214722814192
1589275379504243632,5191,1589275379504026724,,0.501573297098,-0.193809970191,0.214704790421
1589275379507149340,5192,1589275379507057403,,0.501575962475,-0.193751639635,0.214690255703
1589275379510176775,5193,1589275379510061092,,0.501577224745,-0.19369962024,0.21467541488
1589275379516169171,5194,1589275379516040272,,0.501577975738,-0.193654929891,0.214661675428
1589275379519167536,5195,1589275379519053595,,0.501580206767,-0.193607322055,0.214646196682
1589275379522155918,5196,1589275379522011297,,0.501583034781,-0.193554995167,0.214631829876
1589275379528073400,5197,1589275379527960977,,0.501585471732,-0.193505906893,0.214617531373
1589275379531148117,5198,1589275379531017870,,0.501587122802,-0.193452752813,0.214599743462
1589275379534159981,5199,1589275379534016660,,0.501591273187,-0.193393906188,0.214583458356
1589275379543223906,5200,1589275379543052904,,0.501596629284,-0.193280370016,0.214549700705
1589275379546118775,5201,1589275379545995771,,0.501600583958,-0.193212816563,0.214536329456
1589275379552173917,5202,1589275379552041206,,0.501604077018,-0.193152183577,0.214518041288
1589275379555141597,5203,1589275379555043471,,0.501608862635,-0.193088209279,0.214505812562
1589275379558188575,5204,1589275379558030636,,0.501612297741,-0.193023025043,0.214488045419
1589275379564189590,5205,1589275379564007630,,0.501615991492,-0.1929559174,0.214469155427
1589275379567093983,5206,1589275379567003825,,0.501619543105,-0.19289182763,0.21445268172
1589275379570162158,5207,1589275379570008912,,0.501622532798,-0.192840465632,0.214439589281
1589275379576066943,5208,1589275379575952970,,0.501626671441,-0.192771550078,0.214419781445
1589275379579521627,5209,1589275379579419869,,0.501630157537,-0.192702408255,0.214399775147
1589275379582416263,5210,1589275379582302579,,0.501634507859,-0.192642943779,0.214385335751
1589275379588116472,5211,1589275379588001317,,0.501637068802,-0.192578589905,0.214370331103
1589275379591115547,5212,1589275379590976985,,0.50163951806,-0.192506058913,0.214348060279
1589275379594079211,5213,1589275379593984580,,0.501644130981,-0.192434901616,0.214331603312
1589275379600430519,5214,1589275379600324430,,0.501647529914,-0.192371843758,0.214316556364
1589275379603166743,5215,1589275379602982675,,0.501650667143,-0.19230892151,0.214300140892
1589275379606184722,5216,1589275379606031574,,0.501654404679,-0.192244575618,0.214282270219
1589275379612163212,5217,1589275379612048535,,0.501658076868,-0.192186344075,0.214268491938
1589275379615107328,5218,1589275379615022422,,0.501662618522,-0.192120537794,0.214250472773
1589275379618160188,5219,1589275379618063033,,0.5016646691,-0.192062974465,0.214236800432
1589275379624171553,5220,1589275379623997522,,0.501667624154,-0.192000364532,0.214221575739
1589275379627214118,5221,1589275379627026320,,0.501671580661,-0.191936002507,0.214207555493
1589275379630124763,5222,1589275379630004143,,0.501673545717,-0.191877087054,0.214195892502
1589275379636132242,5223,1589275379636023012,,0.501675975576,-0.191818184544,0.21418105072
1589275379639088652,5224,1589275379638989308,,0.501680543894,-0.191757666095,0.214167486551
1589275379642162540,5225,1589275379641992019,,0.501685710509,-0.191698141219,0.214155380699
1589275379648111484,5226,1589275379647999128,,0.501687797489,-0.191635911517,0.214136445045
1589275379651124460,5227,1589275379651010788,,0.501691900038,-0.191577802319,0.214123252351
1589275379654124983,5228,1589275379654019172,,0.501694604037,-0.191515779148,0.214110476768
1589275379663108802,5229,1589275379662972803,,0.501700875624,-0.191386970726,0.214077923317
1589275379669154207,5230,1589275379669016970,,0.501705166512,-0.19131776848,0.214062891284
1589275379672112916,5231,1589275379671974671,,0.501709889164,-0.191249189886,0.214048887537
1589275379675172750,5232,1589275379675017924,,0.501714423781,-0.191176353978,0.21403242706
1589275379681298661,5233,1589275379681163229,,0.501719611579,-0.19110068645,0.21401256476
1589275379684107200,5234,1589275379683967842,,0.501725234712,-0.191028433076,0.213995693715
1589275379687080860,5235,1589275379686956136,,0.501732133532,-0.190951840818,0.213978850984
1589275379693153675,5236,1589275379693048313,,0.501735149897,-0.19089257346,0.21396072397
1589275379696118694,5237,1589275379696007304,,0.501741631995,-0.190818263564,0.213946623423
1589275379699173809,5238,1589275379699048529,,0.501745903888,-0.190738802847,0.213927372272
1589275379705218145,5239,1589275379705063814,,0.501749188297,-0.190684049365,0.213912136495
1589275379708137886,5240,1589275379708035990,,0.501753764475,-0.190615450388,0.21389972741
1589275379711078447,5241,1589275379710987188,,0.501756125112,-0.190548088091,0.213885491442
1589275379717117808,5242,1589275379717007472,,0.501758851673,-0.19048954372,0.213872941854
1589275379720124727,5243,1589275379720046289,,0.501761489806,-0.19043706877,0.213862008097
1589275379723209832,5244,1589275379723043659,,0.501763803017,-0.190387039147,0.213850554655
1589275379729175943,5245,1589275379729052028,,0.501766505675,-0.190339035453,0.213838922786
1589275379732170935,5246,1589275379732041891,,0.501769439937,-0.190286798358,0.213828457636
1589275379735192816,5247,1589275379735064045,,0.501770471341,-0.190239805977,0.21381512948
1589275379741217272,5248,1589275379741042090,,0.501773154259,-0.190184693925,0.213804495522
1589275379744213931,5249,1589275379744060492,,0.501774572017,-0.190127010569,0.213792342599
1589275379747139510,5250,1589275379747062773,,0.501776959264,-0.190071480319,0.213778443422
1589275379753245148,5251,1589275379753064567,,0.501780224952,-0.190009223682,0.213762265399
1589275379756170742,5252,1589275379756023794,,0.501783605081,-0.189942452299,0.213744073744
1589275379759254972,5253,1589275379759055166,,0.501787356159,-0.189872245995,0.213725717745
1589275379765238611,5254,1589275379765034894,,0.501791011845,-0.189795346132,0.213707671575
1589275379768191900,5255,1589275379768057785,,0.501795455223,-0.189716418352,0.213688296755
1589275379774175808,5256,1589275379774020769,,0.501799836433,-0.189628924529,0.21366965617
1589275379777180287,5257,1589275379777004043,,0.501804394649,-0.189538052774,0.213651062762
1589275379780379506,5258,1589275379780296628,,0.501811515288,-0.189444043218,0.213631563589
1589275379783499555,5259,1589275379783410369,,0.501818773079,-0.189347194683,0.213609948894
1589275379789320194,5260,1589275379789119644,,0.501825165653,-0.189250304762,0.213586799526
1589275379792257425,5261,1589275379792093774,,0.501832332365,-0.189153078362,0.213560746674
1589275379798154636,5262,1589275379798025571,,0.501839054286,-0.18906292629,0.213539840659
1589275379801149091,5263,1589275379801041988,,0.501845506087,-0.188971517059,0.213520603902
1589275379804197273,5264,1589275379804045130,,0.501850236204,-0.188884193516,0.213498601491
1589275379810163296,5265,1589275379810019220,,0.501854476503,-0.188807820977,0.213479370463
1589275379813342427,5266,1589275379813096811,,0.501858288007,-0.188733538552,0.213463421608
1589275379816205788,5267,1589275379816055195,,0.501860463586,-0.188667710098,0.213446755088
1589275379822297348,5268,1589275379822113964,,0.501862652922,-0.18860962563,0.213434511202
1589275379825216059,5269,1589275379825098469,,0.50186261581,-0.18856042803,0.213419887862
1589275379828242630,5270,1589275379828115048,,0.501863514775,-0.188510735844,0.213407039662
1589275379834120011,5271,1589275379834014467,,0.50186529242,-0.188459160046,0.213397305458
1589275379837147063,5272,1589275379837037339,,0.501865124657,-0.188413319928,0.213383309619
1589275379846186951,5273,1589275379846049048,,0.501867619869,-0.188305470092,0.213356420037
1589275379849208270,5274,1589275379849050524,,0.501868725362,-0.188249412711,0.213340831121
1589275379855221732,5275,1589275379855033403,,0.501873239039,-0.188181411815,0.213324281745
1589275379858337478,5276,1589275379858129217,,0.501878045643,-0.188109447466,0.213306845495
1589275379861196841,5277,1589275379861066351,,0.501882293494,-0.188029821821,0.213286202253
1589275379864130583,5278,1589275379864022592,,0.501887834129,-0.187949845584,0.213268181009
1589275379870118059,5279,1589275379870004978,,0.501892073873,-0.187880965067,0.213252004886
1589275379873181235,5280,1589275379873039907,,0.501895560627,-0.187806668345,0.213233381101
1589275379879188162,5281,1589275379879056529,,0.501902783043,-0.18769913076,0.213214336671
1589275379882306232,5282,1589275379882197585,,0.50190620447,-0.187612965046,0.213193963829
1589275379885190661,5283,1589275379885055645,,0.501912853592,-0.187530243772,0.213177780086
1589275379891234268,5284,1589275379891057306,,0.501919345358,-0.187426289071,0.213158429917
1589275379894171494,5285,1589275379894074873,,0.501924360568,-0.187330678082,0.21313816885
1589275379897175514,5286,1589275379897068063,,0.501929994433,-0.187247181275,0.213118666116
1589275379903301019,5287,1589275379903137660,,0.501935009837,-0.187171116219,0.213103368856
1589275379906178485,5288,1589275379906061792,,0.501941216176,-0.187094849478,0.213087205792
1589275379909103308,5289,1589275379908958534,,0.501945484733,-0.187028355067,0.213070506656
1589275379915148988,5290,1589275379915005529,,0.50194840939,-0.186962449089,0.213053339983
1589275379918225710,5291,1589275379918034002,,0.501949983743,-0.1869030242,0.213035339257
1589275379921248428,5292,1589275379921076639,,0.501952402154,-0.186850817463,0.213024045354
1589275379927132278,5293,1589275379927041421,,0.501954009505,-0.186796397126,0.213013258331
1589275379930197808,5294,1589275379930036478,,0.501954457451,-0.186748047972,0.212999980062
1589275379933152259,5295,1589275379933051024,,0.50195550253,-0.1867030682,0.212989373864
1589275379939184798,5296,1589275379939050629,,0.501958559454,-0.186649840615,0.212981805252
1589275379942206703,5297,1589275379942098837,,0.501958363959,-0.186602753609,0.212964450787
1589275379945117958,5298,1589275379945003465,,0.501961506895,-0.186548191189,0.21295253427
1589275379951306124,5299,1589275379951134314,,0.501966138502,-0.186491634874,0.212939418404
1589275379954202784,5300,1589275379954093614,,0.501968903285,-0.18643067519,0.212923404361
1589275379957180142,5301,1589275379957048817,,0.501972970628,-0.186363929991,0.212904257698
1589275379963177331,5302,1589275379963059237,,0.501979976861,-0.186291249096,0.212890004283
1589275379966181280,5303,1589275379966056179,,0.501985541467,-0.186213915915,0.212873039724
1589275379969164760,5304,1589275379969061470,,0.501991787756,-0.186131617142,0.212853750762
1589275379975209395,5305,1589275379975119498,,0.501998206048,-0.186045994139,0.212838465597
1589275379978271979,5306,1589275379978093574,,0.502005861345,-0.185954459722,0.212821256644
1589275379981413265,5307,1589275379981313501,,0.50201284972,-0.185866273413,0.212803418395
1589275379987185047,5308,1589275379987072347,,0.502021697758,-0.185771737272,0.212786282212
1589275379990176994,5309,1589275379990051863,,0.502029890668,-0.185682339908,0.212770295868
1589275379993117526,5310,1589275379993007943,,0.502038857494,-0.185591161619,0.212753607733
1589275379999277898,5311,1589275379999058221,,0.50204771769,-0.185501374405,0.21273517848
1589275380002253103,5312,1589275380002121520,,0.502055251192,-0.185417722022,0.212716623447
1589275380005278171,5313,1589275380005102070,,0.502062242139,-0.185336057909,0.212698588754
1589275380011265218,5314,1589275380011080169,,0.502068319697,-0.185261161384,0.212681287421
1589275380014141050,5315,1589275380014055230,,0.502074109161,-0.185192388033,0.212668409335
1589275380017146682,5316,1589275380017050391,,0.502077025036,-0.185135040106,0.2126531673
1589275380023209541,5317,1589275380023087719,,0.502080517497,-0.185078750969,0.212641793785
1589275380026190088,5318,1589275380026089778,,0.502083622873,-0.185031577309,0.212630539128
1589275380029222210,5319,1589275380029078394,,0.502084533076,-0.184990926525,0.212617108797
1589275380035194470,5320,1589275380035094842,,0.502086290206,-0.184953328957,0.212608565309
1589275380038255301,5321,1589275380038098242,,0.502089501864,-0.184912906326,0.212601651424
1589275380044274679,5322,1589275380044097529,,0.502091737135,-0.184875586559,0.212593505454
1589275380047272609,5323,1589275380047172546,,0.502092769931,-0.184835591805,0.212580017077
1589275380050164674,5324,1589275380050016164,,0.50209576647,-0.184791088715,0.212571090564
1589275380056297274,5325,1589275380056062248,,0.502100964477,-0.184742027818,0.212563149062
1589275380059143591,5326,1589275380059034064,,0.502106307759,-0.184688377193,0.212551038791
1589275380062187819,5327,1589275380062045173,,0.50211238618,-0.184631192951,0.212539163775
1589275380068350488,5328,1589275380068150207,,0.502118153673,-0.184566986029,0.212525729637
1589275380071235942,5329,1589275380071114434,,0.502124371675,-0.184505877684,0.212513422207
1589275380074327228,5330,1589275380074182282,,0.502131147485,-0.184431519857,0.212499331854
1589275380080535167,5331,1589275380080432036,,0.50213576462,-0.184366607394,0.212487664228
1589275380083551804,5332,1589275380083458465,,0.502142686524,-0.184295158218,0.21247801037
1589275380086230398,5333,1589275380086082963,,0.502148162028,-0.184223326048,0.212464146182
1589275380092249489,5334,1589275380092160685,,0.502153476372,-0.1841492668,0.212448824811
1589275380095235653,5335,1589275380095054591,,0.502159625816,-0.184076454446,0.212436968674
1589275380098217623,5336,1589275380098064269,,0.502165738794,-0.184004158544,0.212424584047
1589275380104305589,5337,1589275380104099971,,0.50217047301,-0.18393439662,0.2124114509
1589275380107127275,5338,1589275380107043554,,0.502174626526,-0.183865368201,0.212398122155
1589275380110175502,5339,1589275380110076379,,0.502179180402,-0.183797949144,0.212386578991
1589275380116262399,5340,1589275380116099941,,0.502183078146,-0.183734151234,0.21237308168
1589275380119296818,5341,1589275380119146744,,0.50218762518,-0.183670847307,0.212360261901
1589275380125278654,5342,1589275380125132436,,0.502191313488,-0.183616280394,0.212347952937
1589275380128243030,5343,1589275380128112502,,0.502195519509,-0.183561091675,0.212337013265
1589275380131229788,5344,1589275380131125988,,0.502198142761,-0.183511866338,0.212326976122
1589275380134222125,5345,1589275380134091745,,0.502201390407,-0.183467250967,0.212320844819
1589275380140428876,5346,1589275380140329604,,0.502204955372,-0.183421541079,0.212314807277
1589275380143165942,5347,1589275380143062959,,0.502207752607,-0.183379292686,0.212307559978
1589275380146288004,5348,1589275380146124379,,0.502209804374,-0.183338785741,0.212300355818
1589275380152178851,5349,1589275380152106340,,0.502213429584,-0.18329837462,0.212295851209
1589275380155207881,5350,1589275380155067370,,0.502217044062,-0.183259598713,0.212292719048
1589275380158156384,5351,1589275380158045512,,0.502221796961,-0.183218207014,0.212286531971
1589275380164156835,5352,1589275380164030192,,0.50222582592,-0.183174978789,0.21228256961
1589275380167297639,5353,1589275380167128728,,0.502229750056,-0.183130032643,0.212275361297
1589275380173346249,5354,1589275380173162277,,0.502233116461,-0.183086745407,0.212266066449
1589275380176291304,5355,1589275380176133961,,0.502238408147,-0.183036860941,0.212259609288
1589275380179326243,5356,1589275380179163573,,0.502243546439,-0.182987700584,0.212255217002
1589275380185281564,5357,1589275380185074545,,0.502248501458,-0.182934961428,0.212250098647
1589275380188230897,5358,1589275380188073051,,0.502252904798,-0.182882517626,0.212241911804
1589275380191252967,5359,1589275380191142560,,0.502258984661,-0.18282550265,0.21223391593
1589275380197330623,5360,1589275380197114381,,0.502263084805,-0.182772030393,0.212224597983
1589275380200328587,5361,1589275380200243982,,0.502269790358,-0.182711299627,0.212217835371
1589275380203237128,5362,1589275380203117721,,0.50227470056,-0.182657227502,0.212209487442
1589275380209332158,5363,1589275380209170462,,0.502281148012,-0.182597946815,0.21220340428
1589275380212180776,5364,1589275380212058038,,0.50228618284,-0.18254228399,0.21219537386
1589275380215234317,5365,1589275380215091986,,0.50229175159,-0.182487736824,0.212189835072
1589275380221230309,5366,1589275380221060876,,0.502296893503,-0.182432578442,0.212181166261
1589275380224187671,5367,1589275380224055999,,0.502300882685,-0.182382288653,0.212174845528
1589275380227249606,5368,1589275380227080525,,0.502306981453,-0.182332469242,0.212169870494
1589275380233600368,5369,1589275380233506413,,0.502311931002,-0.182287056596,0.212160940161
1589275380236235200,5370,1589275380236115816,,0.50231719028,-0.182240480991,0.212156594739
1589275380239209045,5371,1589275380239097714,,0.502320970619,-0.18220341051,0.212149800991
1589275380245342926,5372,1589275380245166687,,0.502325943966,-0.182169098811,0.212147932711
1589275380248203660,5373,1589275380248092130,,0.502329209058,-0.182135489053,0.21214375892
1589275380251267819,5374,1589275380251125567,,0.502333631682,-0.182104105353,0.212142250246
1589275380257232157,5375,1589275380257101598,,0.502336749228,-0.182077109631,0.212138142572
1589275380263136427,5376,1589275380263021909,,0.502343343902,-0.182021822246,0.21213346231
1589275380269336253,5377,1589275380269129888,,0.50234866473,-0.181991779413,0.212131144423
1589275380272311749,5378,1589275380272162244,,0.502352579163,-0.18196276615,0.212127720175
1589275380278218106,5379,1589275380278128130,,0.502356785001,-0.181931311782,0.212119977027
1589275380281621251,5380,1589275380281385428,,0.502362476498,-0.181896028667,0.212115126501
1589275380284565987,5381,1589275380284441622,,0.502368981357,-0.181860862325,0.212109462302
1589275380290174702,5382,1589275380290060147,,0.502374320543,-0.181828105711,0.212105567202
1589275380296287894,5383,1589275380296125144,,0.502387185496,-0.181743761819,0.212096687176
1589275380302262786,5384,1589275380302112044,,0.502391966977,-0.181708455806,0.212091639183
1589275380305403563,5385,1589275380305162268,,0.502397579887,-0.181667782431,0.212086563762
1589275380308283308,5386,1589275380308123966,,0.502404275954,-0.181620028874,0.212081506321
1589275380314254310,5387,1589275380314116465,,0.502409906883,-0.181579776654,0.212076819609
1589275380317189990,5388,1589275380317081672,,0.502415385845,-0.181538094162,0.212070406327
1589275380320585696,5389,1589275380320468327,,0.50242225965,-0.181500178588,0.212067074163
1589275380326398323,5390,1589275380326146329,,0.502426584551,-0.181468245724,0.212059682969
1589275380329296541,5391,1589275380329168721,,0.502433019033,-0.181428869008,0.212054089836
1589275380332195507,5392,1589275380332079800,,0.502439336845,-0.181386145637,0.21204731531
1589275380338321109,5393,1589275380338188829,,0.502443780451,-0.181354149855,0.212041895833
1589275380341215975,5394,1589275380341097841,,0.502447813101,-0.181319264922,0.212035280176
1589275380344259181,5395,1589275380344144330,,0.502452102268,-0.181284088744,0.212028646634
1589275380350192098,5396,1589275380350092680,,0.502456740386,-0.181249151952,0.212021279947
1589275380356305084,5397,1589275380356153793,,0.502464980917,-0.181191733831,0.21201195673
1589275380362263309,5398,1589275380362160697,,0.502469896566,-0.181166262572,0.212007848087
1589275380365261530,5399,1589275380365120545,,0.502472577188,-0.181144008657,0.212002084423
1589275380368238479,5400,1589275380368138039,,0.502476127137,-0.181122297157,0.211999057949
1589275380374281518,5401,1589275380374170862,,0.502479097854,-0.181101913149,0.211995647913
1589275380377280647,5402,1589275380377152027,,0.502483389378,-0.181079436269,0.211995759929
1589275380380662235,5403,1589275380380524634,,0.502485938964,-0.18106016085,0.211991239219
1589275380386367701,5404,1589275380386166748,,0.502489409143,-0.181044171828,0.211991903548
1589275380389294997,5405,1589275380389127207,,0.502493360453,-0.181020414996,0.211989238976
1589275380392256580,5406,1589275380392141276,,0.502497912331,-0.180996276693,0.211988023977
1589275380398279426,5407,1589275380398153945,,0.5025016369,-0.180976680612,0.211986366946
1589275380401249709,5408,1589275380401130310,,0.502505521051,-0.180952772292,0.211983664196
1589275380404315104,5409,1589275380404124252,,0.502510640013,-0.180923353139,0.211980423446
1589275380410359269,5410,1589275380410201929,,0.502514255036,-0.180895535333,0.211976505298
1589275380416306173,5411,1589275380416137679,,0.502522836967,-0.180840408549,0.211968126404
1589275380422272435,5412,1589275380422130864,,0.502527208943,-0.180814708032,0.211965164069
1589275380425324654,5413,1589275380425123990,,0.502530798896,-0.180786120157,0.211960521702
1589275380428240361,5414,1589275380428113054,,0.502535917504,-0.180757690674,0.211957539232
1589275380434322392,5415,1589275380434125637,,0.502539199287,-0.180731047582,0.211951337574
1589275380437248783,5416,1589275380437085128,,0.502543085781,-0.180704027851,0.211947547656
1589275380443226093,5417,1589275380443093780,,0.502546234989,-0.18068230975,0.211944048468
1589275380446189859,5418,1589275380446086313,,0.502549042486,-0.180655809896,0.211939186284
1589275380449238240,5419,1589275380449135351,,0.502553097592,-0.18062659143,0.211934465093
1589275380452259369,5420,1589275380452117800,,0.502555464267,-0.180604320725,0.211929231507
1589275380458231934,5421,1589275380458124714,,0.502558464851,-0.180581388037,0.211925469683
1589275380461265966,5422,1589275380461090603,,0.502561598277,-0.180558347482,0.211922597569
1589275380464271577,5423,1589275380464105200,,0.502564294057,-0.180536117281,0.211917987974
1589275380470286851,5424,1589275380470096523,,0.502567598369,-0.180514727447,0.21191513396
1589275380473239311,5425,1589275380473063740,,0.50256943113,-0.180495099048,0.211911765714
1589275380479292196,5426,1589275380479162213,,0.502572323618,-0.180475484727,0.211908551284
1589275380482437645,5427,1589275380482297039,,0.502573865989,-0.180458030801,0.211904260598
1589275380485293663,5428,1589275380485153949,,0.502575917738,-0.180438405945,0.211900260174
1589275380491226040,5429,1589275380491096993,,0.502578120388,-0.180419082389,0.211897260976
1589275380494333693,5430,1589275380494150018,,0.502579630293,-0.180400235163,0.211893325087
1589275380497277585,5431,1589275380497107813,,0.502581837884,-0.180382774787,0.211890505689
1589275380503397135,5432,1589275380503142662,,0.502584641037,-0.180361381313,0.211887657612
1589275380506298158,5433,1589275380506171459,,0.50258590726,-0.180346837651,0.211884382582
1589275380509328857,5434,1589275380509138420,,0.502587882096,-0.180329299863,0.211880727957
1589275380515265205,5435,1589275380515145915,,0.502590180661,-0.180311406039,0.211879359023
1589275380518280425,5436,1589275380518155730,,0.502592073236,-0.180294973337,0.21187778553
1589275380521200342,5437,1589275380521090560,,0.502594498116,-0.180279050276,0.211876363342
1589275380527431592,5438,1589275380527253828,,0.50259659804,-0.180263375297,0.211874858745
1589275380530302811,5439,1589275380530139107,,0.502598586252,-0.180247666417,0.211873571743
1589275380539291887,5440,1589275380539159859,,0.502603092406,-0.18021742875,0.211872118772
1589275380542283401,5441,1589275380542175100,,0.502604903283,-0.180202289825,0.211871595679
1589275380545326131,5442,1589275380545155208,,0.502606455052,-0.18018683731,0.211869800724
1589275380551281706,5443,1589275380551123917,,0.502608244152,-0.180172403424,0.21186914149
1589275380554218056,5444,1589275380554089438,,0.502608998675,-0.180159187262,0.211867176804
1589275380557249585,5445,1589275380557113975,,0.502610540432,-0.180144525978,0.211866417015
1589275380566293554,5446,1589275380566188270,,0.502612189393,-0.180132839046,0.21186562655
1589275380569173567,5447,1589275380569044371,,0.502612993901,-0.180122122472,0.211862294627
1589275380572216018,5448,1589275380572089803,,0.502614800524,-0.180106425466,0.211860674163
1589275380575207965,5449,1589275380575090325,,0.502616242077,-0.180095785166,0.211860552073
1589275380578144288,5450,1589275380578074348,,0.502617107461,-0.180084413288,0.211858192275
1589275380581394984,5451,1589275380581304038,,0.502618548771,-0.180072672265,0.211857260003
1589275380587284021,5452,1589275380587216420,,0.502619858818,-0.180062039563,0.211856548629
1589275380590322207,5453,1589275380590175401,,0.502621139716,-0.180049093455,0.21185584611
1589275380596241818,5454,1589275380596144703,,0.502622805144,-0.180039718993,0.211855038412
1589275380599275899,5455,1589275380599137838,,0.502624000431,-0.180029316945,0.21185549243
1589275380602290292,5456,1589275380602158075,,0.502625274851,-0.18002042396,0.211854200047
1589275380608223759,5457,1589275380608128639,,0.502626625657,-0.180013322009,0.211853411998
1589275380611318753,5458,1589275380611209419,,0.502627839027,-0.180003578011,0.211852452678
1589275380614238924,5459,1589275380614089562,,0.502629087465,-0.179994006013,0.211850981563
1589275380620221671,5460,1589275380620141372,,0.502630983641,-0.179984741635,0.211850843009
1589275380623249170,5461,1589275380623168759,,0.502632642265,-0.179975810443,0.211849496566
1589275380629193102,5462,1589275380629080894,,0.502634101736,-0.179967779198,0.211848604942
1589275380632177725,5463,1589275380632056159,,0.502636558315,-0.179958598848,0.211848623091
1589275380635126845,5464,1589275380635064239,,0.502638072144,-0.17995160207,0.211848313874
1589275380638247431,5465,1589275380638167590,,0.5026406863,-0.179943221795,0.211848091333
1589275380644279721,5466,1589275380644159128,,0.502642200945,-0.179937570112,0.211847354863
1589275380647484710,5467,1589275380647381274,,0.502644029999,-0.179928475867,0.211846308183
1589275380656386002,5468,1589275380656180247,,0.502647577185,-0.179916063112,0.211845218055
1589275380659248793,5469,1589275380659155808,,0.50265027254,-0.179908590788,0.211845892173
1589275380662277352,5470,1589275380662153540,,0.502652527485,-0.1799023803,0.211845543407
1589275380668367405,5471,1589275380668149383,,0.502654355393,-0.179895803613,0.211845339843
1589275380671259276,5472,1589275380671138940,,0.502655713995,-0.179890549428,0.211845162628
1589275380677291102,5473,1589275380677146562,,0.502657956651,-0.179882185116,0.211845147282
1589275380680583393,5474,1589275380680513531,,0.50265927706,-0.179879106656,0.21184405328
1589275380683602719,5475,1589275380683515614,,0.502660737747,-0.179873913454,0.211843476183
1589275380689341048,5476,1589275380689202115,,0.502662936685,-0.179868127647,0.211844127179
1589275380692368887,5477,1589275380692224034,,0.502664744719,-0.179863341028,0.211845001165
1589275380695328709,5478,1589275380695157773,,0.502665741729,-0.179859664744,0.21184496003
1589275380701331045,5479,1589275380701183627,,0.502667760149,-0.179853959925,0.211844376346
1589275380704346240,5480,1589275380704184701,,0.502670081411,-0.179849286563,0.211846186618
1589275380707327119,5481,1589275380707233418,,0.502671618934,-0.179845113716,0.211844896919
1589275380716345601,5482,1589275380716175005,,0.50267575753,-0.179837836155,0.211846905335
1589275380719302154,5483,1589275380719191641,,0.502677507587,-0.179833871265,0.211846758342
1589275380725455423,5484,1589275380725225107,,0.502679595696,-0.179831159976,0.211847615265
1589275380728300877,5485,1589275380728182553,,0.502682105116,-0.17982848423,0.211849007065
1589275380731374950,5486,1589275380731219689,,0.502684658732,-0.179822805905,0.211850139836
1589275380737327153,5487,1589275380737222352,,0.502686066864,-0.179821546308,0.211849505055
1589275380740568207,5488,1589275380740475688,,0.502689037561,-0.179817969555,0.211852244042
1589275380743324845,5489,1589275380743209587,,0.502691432866,-0.179815043649,0.21185307385
1589275380749363165,5490,1589275380749227683,,0.502694192554,-0.179810890625,0.211853032729
1589275380752427827,5491,1589275380752199626,,0.502696663923,-0.179807718992,0.211854071843
1589275380755340509,5492,1589275380755185101,,0.502700363476,-0.179806005806,0.21185752239
1589275380761367621,5493,1589275380761213135,,0.502703176105,-0.179802213957,0.211858751948
1589275380764328062,5494,1589275380764203607,,0.502706987371,-0.179798390506,0.211861670364
1589275380767339888,5495,1589275380767252589,,0.502710538809,-0.179794622314,0.211864366355
1589275380773968275,5496,1589275380773864591,,0.502714827103,-0.179790518305,0.211867128368
1589275380776213595,5497,1589275380776086861,,0.502719119094,-0.179785090996,0.211870422094
1589275380779368428,5498,1589275380779212492,,0.502723174559,-0.179781672071,0.211873709511
1589275380785373512,5499,1589275380785194494,,0.502728096104,-0.17977792445,0.211877110661
1589275380788267114,5500,1589275380788139738,,0.502732577756,-0.179774996187,0.211881172301
1589275380791231446,5501,1589275380791131231,,0.502736536843,-0.179771451897,0.211884699505
1589275380797405767,5502,1589275380797276258,,0.502740896988,-0.17976700533,0.211887515012
1589275380803216605,5503,1589275380803099765,,0.502748315162,-0.179758705599,0.211893021566
1589275380809208522,5504,1589275380809094494,,0.502750512004,-0.179756091614,0.211894411632
1589275380812233609,5505,1589275380812085715,,0.502753144179,-0.179750961768,0.211895903332
1589275380815217257,5506,1589275380815105786,,0.502756209545,-0.179746464933,0.211897850611
1589275380821286882,5507,1589275380821147561,,0.502758787869,-0.179742162794,0.211899453078
1589275380824311493,5508,1589275380824178557,,0.50276102309,-0.179737309462,0.211900388827
1589275380830418399,5509,1589275380830253567,,0.502762964807,-0.17973343604,0.211900424942
1589275380836306394,5510,1589275380836140837,,0.502768286952,-0.179723779677,0.211904477637
1589275380839195747,5511,1589275380839094344,,0.502769959164,-0.179719400181,0.211905109638
1589275380845276906,5512,1589275380845097986,,0.502773044836,-0.179712170005,0.211906473191
1589275380848328079,5513,1589275380848151507,,0.502774992161,-0.179707930017,0.21190837909
1589275380851192821,5514,1589275380851094543,,0.502777051752,-0.179702104363,0.211909033
