%time,field.header.seq,field.header.stamp,field.header.frame_id,field.vector.x,field.vector.y,field.vector.z
1589275921022199329,14618,1589275921022078879,,0.0331457006078,-0.370775086879,0.847370715752
1589275921028087546,14619,1589275921028020605,,0.0330932484632,-0.373484296414,0.846324548172
1589275921031016190,14620,1589275921030945170,,0.0333664780382,-0.376703185928,0.846134518854
1589275921037106380,14621,1589275921037029922,,0.0336094537992,-0.377732542778,0.844919489114
1589275921040113535,14622,1589275921040027808,,0.0337451230478,-0.381511796785,0.844354774849
1589275921043236035,14623,1589275921043074573,,0.0338305054401,-0.382209764356,0.843598339408
1589275921049176345,14624,1589275921049082451,,0.0341200034343,-0.385950044383,0.843414012216
1589275921052154438,14625,1589275921052067089,,0.0341357955699,-0.390519100677,0.843095420268
1589275921055067071,14626,1589275921054992057,,0.0345032237104,-0.391149640524,0.842520520494
1589275921061161773,14627,1589275921061081817,,0.0346985083206,-0.395793985931,0.842499037264
1589275921064284981,14628,1589275921064173337,,0.0348781419661,-0.400607869757,0.842065947333
1589275921067090112,14629,1589275921066987516,,0.0351273111504,-0.401605366849,0.841405681017
1589275921073090442,14630,1589275921073018648,,0.0353350644774,-0.406998858443,0.841153994831
1589275921076167689,14631,1589275921076093183,,0.0355395079486,-0.407747562577,0.840330327032
1589275921079169203,14632,1589275921079079832,,0.0359327398056,-0.413657498841,0.840882769152
1589275921085036683,14633,1589275921084963792,,0.0360918600389,-0.420219570178,0.841223498055
1589275921088085460,14634,1589275921087984715,,0.0362470361341,-0.421205623828,0.840114457335
1589275921091205222,14635,1589275921091132590,,0.0364281694037,-0.427778964903,0.840141889258
1589275921097314528,14636,1589275921097217392,,0.0365775866876,-0.429137231988,0.83915815731
1589275921100250927,14637,1589275921100154863,,0.0368641295014,-0.436371007771,0.839491369051
1589275921103376447,14638,1589275921103228684,,0.0369361578726,-0.4376453763,0.838287311163
1589275921109296571,14639,1589275921109194224,,0.0371370041182,-0.445388483933,0.838308318779
1589275921112352378,14640,1589275921112240559,,0.0373374886443,-0.45339542826,0.838783465404
1589275921115343145,14641,1589275921115240611,,0.0373977179083,-0.454386993694,0.837775888989
1589275921121280302,14642,1589275921121203775,,0.0376755798633,-0.463178438243,0.838423514536
1589275921124199453,14643,1589275921124121321,,0.037790058515,-0.46425642561,0.837294893201
1589275921127416713,14644,1589275921127271837,,0.0379576381126,-0.473671201794,0.837811718076
1589275921133281917,14645,1589275921133114449,,0.038184765843,-0.483276808869,0.838690576383
1589275921136192277,14646,1589275921136112586,,0.0383649895628,-0.484788551393,0.837529090455
1589275921139201195,14647,1589275921139049940,,0.0386674067247,-0.494664214651,0.838536851914
1589275921145284192,14648,1589275921145169078,,0.0388392932383,-0.504966497165,0.83949898842
1589275921148278572,14649,1589275921148165003,,0.0392383901172,-0.506047839323,0.83916939432
1589275921151347819,14650,1589275921151237023,,0.0393323449736,-0.516535995491,0.839718143523
1589275921157152625,14651,1589275921157070386,,0.0399394935848,-0.517136362385,0.839302682658
1589275921160169811,14652,1589275921160051759,,0.040373205372,-0.527575161359,0.840558377866
1589275921163190520,14653,1589275921163080330,,0.0406098114477,-0.528366482368,0.839400339109
1589275921169111158,14654,1589275921169040006,,0.0410653753309,-0.539298824297,0.840489077482
1589275921172119345,14655,1589275921172036001,,0.0415520467929,-0.550566342689,0.841995634868
1589275921178227549,14656,1589275921178141627,,0.0419842035927,-0.562134355935,0.843460765414
1589275921181179903,14657,1589275921181116686,,0.0423688299304,-0.562811401236,0.842502724137
1589275921184432689,14658,1589275921184336011,,0.0427019879053,-0.573834904928,0.843698387547
1589275921190347100,14659,1589275921190232153,,0.0431823380364,-0.575273091551,0.842690653869
1589275921193373965,14660,1589275921193278123,,0.0435198376317,-0.587647804107,0.843868812454
1589275921196458226,14661,1589275921196388915,,0.0439672733335,-0.588182482913,0.84307366008
1589275921202183550,14662,1589275921202093727,,0.0443836361876,-0.600593460882,0.844910742982
1589275921205037292,14663,1589275921204967812,,0.0447387530147,-0.613534286356,0.846683111071
1589275921208103248,14664,1589275921207977734,,0.0452353921856,-0.614303885297,0.846163673961
1589275921214417154,14665,1589275921214307217,,0.0454937410751,-0.627338234369,0.847442683716
1589275921217113409,14666,1589275921216985768,,0.045979082487,-0.627721150108,0.846561649124
1589275921220042597,14667,1589275921219949521,,0.0464452146455,-0.641272513854,0.848504904792
1589275921226242240,14668,1589275921226146926,,0.0470033666252,-0.654999839988,0.850331149353
1589275921229226998,14669,1589275921229106327,,0.0473624800696,-0.65531441503,0.849463759161
1589275921235134736,14670,1589275921235062503,,0.04776937369,-0.669603924462,0.85131267659
1589275921238187424,14671,1589275921238078305,,0.0481903172043,-0.684096907105,0.853645737207
1589275921241258482,14672,1589275921241169012,,0.0485558738344,-0.684484933957,0.853062607113
1589275921244179951,14673,1589275921243973197,,0.0489722640107,-0.684809711403,0.852209650519
1589275921250175305,14674,1589275921250095218,,0.0493300830777,-0.699646368837,0.85435059518
1589275921253274748,14675,1589275921253198827,,0.0496078225195,-0.714690073476,0.856258407009
1589275921259164407,14676,1589275921259091927,,0.0500138636266,-0.73012584007,0.858640163614
1589275921262211603,14677,1589275921262101972,,0.050387309727,-0.730614638575,0.857945228346
1589275921265149090,14678,1589275921265016756,,0.0506945387764,-0.746515488033,0.860287979145
1589275921268235505,14679,1589275921268152210,,0.0510259771028,-0.746546380104,0.859510853376
1589275921274159427,14680,1589275921274082888,,0.0513731095822,-0.762979184203,0.861871316057
1589275921277357405,14681,1589275921277245634,,0.0515728263598,-0.763023712835,0.86079542197
1589275921283370881,14682,1589275921283266639,,0.0519739377159,-0.779484895724,0.863147370087
1589275921286249479,14683,1589275921286173446,,0.0523533190384,-0.796398020975,0.865754684376
1589275921289065248,14684,1589275921288987657,,0.052763758287,-0.796639871168,0.865092061099
1589275921292601197,14685,1589275921292533910,,0.0531009420939,-0.813529263764,0.86764219835
1589275921301303392,14686,1589275921301201331,,0.0537850329903,-0.831129582663,0.869593834335
1589275921307134658,14687,1589275921307047082,,0.0540434401292,-0.848900353646,0.871931054101
1589275921310144906,14688,1589275921310074809,,0.0543855292019,-0.849140913375,0.871191168212
1589275921313240697,14689,1589275921313155435,,0.0547303518959,-0.866900426589,0.873683872872
1589275921316275956,14690,1589275921316200127,,0.0551201122993,-0.866932748125,0.872736355089
1589275921322312712,14691,1589275921322168945,,0.055373842354,-0.885282570306,0.875072499015
1589275921325099923,14692,1589275921325032120,,0.0557522777442,-0.90404419953,0.877894722193
1589275921331144383,14693,1589275921331055454,,0.0559436197775,-0.919890361685,0.880058494062
1589275921334136380,14694,1589275921334049122,,0.0563859775769,-0.922768279929,0.879743956674
1589275921337092261,14695,1589275921337013206,,0.0566273574975,-0.922655714086,0.878657130134
1589275921343283599,14696,1589275921343146833,,0.0567803845531,-0.941944613872,0.881592315503
1589275921346357201,14697,1589275921346279513,,0.0571200564671,-0.9612740034,0.884859916501
1589275921349191002,14698,1589275921349099472,,0.0574489212922,-0.961177226341,0.8844195089
1589275921355308912,14699,1589275921355238994,,0.0576745667826,-0.980782647643,0.887442684243
1589275921361122751,14700,1589275921360990180,,0.0581599795259,-1.00029869829,0.88996093701
1589275921367118876,14701,1589275921366996886,,0.058361933216,-1.02068459752,0.893446260225
1589275921370092419,14702,1589275921369957166,,0.0586669259181,-1.02014196624,0.892652763429
1589275921373307029,14703,1589275921373168246,,0.0590260317499,-1.04013981221,0.896279447312
1589275921379135216,14704,1589275921379016511,,0.0594374031852,-1.06044826035,0.900028502977
1589275921382107423,14705,1589275921381989515,,0.0599306467063,-1.05914155237,0.899512528398
1589275921388097613,14706,1589275921388021053,,0.0605622773742,-1.07929363006,0.903252865861
1589275921391114675,14707,1589275921390981288,,0.0613016443973,-1.0774317126,0.902748282518
1589275921394208706,14708,1589275921394137172,,0.0619691062024,-1.09726278668,0.906668038182
1589275921400078999,14709,1589275921399960803,,0.0625767432056,-1.11778790465,0.910693861037
1589275921403058422,14710,1589275921402985936,,0.0631509894626,-1.11609616812,0.910053343649
1589275921406066212,14711,1589275921405991345,,0.0637967097968,-1.13681639394,0.914230542191
1589275921409128955,14712,1589275921409002762,,0.0642763314205,-1.1353682581,0.913964399894
1589275921415145073,14713,1589275921415063742,,0.0647161497132,-1.15638604956,0.917827820667
1589275921418246340,14714,1589275921418153676,,0.0652036000077,-1.17788471693,0.922256963048
1589275921424197606,14715,1589275921424115933,,0.0656611604311,-1.17606558672,0.921742555028
1589275921427108305,14716,1589275921427018291,,0.0663780803197,-1.1964843635,0.925647984591
1589275921430089558,14717,1589275921429992233,,0.0673093076303,-1.19010155957,0.924472253592
1589275921436172404,14718,1589275921436079500,,0.0682470695681,-1.20865321436,0.928046154745
1589275921439173943,14719,1589275921439016526,,0.0688821594016,-1.23058956362,0.932329538459
1589275921442110109,14720,1589275921442037841,,0.0693538931069,-1.22822692905,0.931654505114
1589275921448155922,14721,1589275921448053100,,0.0696334252785,-1.25026532295,0.935571127384
1589275921451220723,14722,1589275921451115002,,0.0698933612038,-1.26763728217,0.938744627094
1589275921454490120,14723,1589275921454387188,,0.069966595498,-1.27039416076,0.938513846716
1589275921460278071,14724,1589275921460201704,,0.0703158714744,-1.29306908233,0.942521015976
1589275921463328672,14725,1589275921463244950,,0.0702818399243,-1.29048124766,0.940597962745
1589275921465986317,14726,1589275921465926312,,0.0701807797534,-1.312746303,0.943873507236
1589275921471946730,14727,1589275921471859471,,0.0700164863002,-1.33553608192,0.947081629497
1589275921474960505,14728,1589275921474894388,,0.069356456107,-1.33323896942,0.944804819719
1589275921477982432,14729,1589275921477903330,,0.0690707184349,-1.35647190627,0.948012249903
1589275921484003535,14730,1589275921483931166,,0.0687457002651,-1.35476100523,0.946091464187
1589275921487108526,14731,1589275921487010961,,0.0686084737129,-1.37842221394,0.949404405822
1589275921491391689,14732,1589275921491318364,,0.0686790675305,-1.40222860324,0.952845802624
1589275921496405627,14733,1589275921496320921,,0.0684111730227,-1.40058173994,0.95082619145
1589275921498979339,14734,1589275921498892026,,0.0682072811382,-1.42451879081,0.954306481739
1589275921502034530,14735,1589275921501972320,,0.0681618307695,-1.42175028436,0.952478836901
1589275921508148139,14736,1589275921508014429,,0.0679796636874,-1.44576328859,0.956036555555
1589275921511021440,14737,1589275921510966578,,0.0678656605215,-1.46332960152,0.958488962887
1589275921513944579,14738,1589275921513894148,,0.0681961717854,-1.46566883119,0.958353797299
1589275921519968190,14739,1589275921519905155,,0.0683432397968,-1.48929951827,0.962006489597
1589275921523397611,14740,1589275921523310016,,0.0687548391018,-1.48482112971,0.960618253776
1589275921526316163,14741,1589275921526241165,,0.0691382551794,-1.50900612197,0.964852534207
1589275921532357563,14742,1589275921532264175,,0.0694600670181,-1.53317954893,0.969187886258
1589275921535407762,14743,1589275921535276422,,0.0696480247104,-1.5293605945,0.967886953903
1589275921537915997,14744,1589275921537867121,,0.0697354051947,-1.55375032926,0.972206779357
1589275921543958220,14745,1589275921543883724,,0.0697195218242,-1.54990507522,0.97091856798
1589275921546996457,14746,1589275921546915971,,0.0697965238838,-1.57475335609,0.975636783142
1589275921549988839,14747,1589275921549911486,,0.0697814771268,-1.57147352088,0.974582647411
1589275921556324339,14748,1589275921556261140,,0.0699016091465,-1.59637105168,0.979207602381
1589275921559389483,14749,1589275921559261169,,0.0699204958444,-1.62186286023,0.983868111812
1589275921562382263,14750,1589275921562312690,,0.070033114247,-1.61823771901,0.982985029876
1589275921568280629,14751,1589275921568179379,,0.0701236023877,-1.64380964258,0.988011040881
1589275921571214838,14752,1589275921571145838,,0.070318419114,-1.66976768077,0.993195176331
1589275921577153353,14753,1589275921577083248,,0.0706249110486,-1.66597480166,0.992364250648
1589275921580235926,14754,1589275921580127927,,0.0707842697883,-1.69242062761,0.997434213067
1589275921583208143,14755,1589275921583140028,,0.0708258673768,-1.68935579331,0.996397958194
1589275921589249570,14756,1589275921589150223,,0.0710135619535,-1.71612237468,1.00169817809
1589275921592236685,14757,1589275921592145306,,0.0709835996663,-1.74335109808,1.00683209496
1589275921595426485,14758,1589275921595329538,,0.0709006190001,-1.74061034227,1.00593306253
1589275921601368525,14759,1589275921601259359,,0.0711955222724,-1.76829790375,1.01133685245
1589275921604260775,14760,1589275921604114989,,0.0715305755307,-1.76490662953,1.01068689981
1589275921607205199,14761,1589275921607153741,,0.0715530453328,-1.79260764325,1.015816802
1589275921613292642,14762,1589275921613235584,,0.0720288426868,-1.82043087707,1.0211924638
1589275921616260414,14763,1589275921616154538,,0.0717958960946,-1.81763002673,1.02010565205
1589275921619055295,14764,1589275921618987823,,0.0718129992782,-1.84599214996,1.02548993232
1589275921624955913,14765,1589275921624885562,,0.0718160077665,-1.87396898835,1.03064901914
1589275921627952876,14766,1589275921627866473,,0.0720827802477,-1.86975899753,1.0300153643
1589275921631346728,14767,1589275921631272381,,0.0723908546853,-1.89707592176,1.03527302579
1589275921637089442,14768,1589275921637028714,,0.0729783878749,-1.89271374568,1.03456840058
1589275921640086675,14769,1589275921640028059,,0.073210441752,-1.92113252662,1.03971170197
1589275921646235784,14770,1589275921646178062,,0.0734242285455,-1.95033387853,1.04538249852
1589275921649245236,14771,1589275921649157342,,0.0736372825754,-1.94719896301,1.04463061748
1589275921652364997,14772,1589275921652271855,,0.0738270609684,-1.97633306901,1.05027938893
1589275921655198026,14773,1589275921655127920,,0.0739491586768,-1.97245333475,1.04922014834
1589275921661329978,14774,1589275921661259398,,0.0742479339054,-2.00092207209,1.05495462563
1589275921664463721,14775,1589275921664371680,,0.0745032305128,-1.99593578406,1.05379568978
1589275921670480499,14776,1589275921670377269,,0.0749386435998,-2.02429372797,1.05958450232
1589275921673091900,14777,1589275921672993938,,0.0752276202156,-2.05435186058,1.06540565352
1589275921676129317,14778,1589275921675994663,,0.075424814772,-2.05094319658,1.06433637359
1589275921679142526,14779,1589275921679041387,,0.0756742097922,-2.08068557196,1.06989536576
1589275921685126400,14780,1589275921685022499,,0.0757137661665,-2.11104570142,1.07566374383
1589275921688152538,14781,1589275921687994954,,0.0756968202738,-2.10771526944,1.0744057039
1589275921694413526,14782,1589275921694251629,,0.0758588425425,-2.13801745024,1.08003558962
1589275921697837392,14783,1589275921697715864,,0.0759268320828,-2.13445345941,1.07923458478
1589275921700408403,14784,1589275921700292122,,0.0760757221441,-2.16465457382,1.08486578217
1589275921703378753,14785,1589275921703278156,,0.07615933296,-2.16140343132,1.08409176002
1589275921709346369,14786,1589275921709247354,,0.076378714098,-2.1914854349,1.09007572653
1589275921712467067,14787,1589275921712326134,,0.0765523228715,-2.222177078,1.0958510916
1589275921721669087,14788,1589275921721537566,,0.0767935555707,-2.2488890187,1.10026276384
1589275921724627517,14789,1589275921724490853,,0.0768578632125,-2.26866702247,1.10390497936
1589275921730321187,14790,1589275921730217951,,0.0770650061743,-2.27498484412,1.104894408
1589275921733414539,14791,1589275921733328665,,0.0773217248613,-2.30500282141,1.1109157615
1589275921736400792,14792,1589275921736287653,,0.0775595686454,-2.29978931857,1.10976905354
1589275921742357125,14793,1589275921742277606,,0.0776946206889,-2.33005502968,1.11568449681
1589275921745335492,14794,1589275921745245728,,0.0779768141577,-2.3603670154,1.12183426903
1589275921748358559,14795,1589275921748292380,,0.0781388658259,-2.35640982975,1.12127147515
1589275921754175767,14796,1589275921754098399,,0.0781474291963,-2.38756867461,1.12707192023
1589275921757454609,14797,1589275921757348561,,0.0783257373624,-2.38262837322,1.12583276352
1589275921760130393,14798,1589275921760053403,,0.0784014562573,-2.41403475512,1.13159081987
1589275921766330533,14799,1589275921766234492,,0.0787903353636,-2.44521715174,1.1378446838
1589275921769250812,14800,1589275921769165596,,0.078737024262,-2.4412120698,1.13672213181
1589275921772321772,14801,1589275921772229301,,0.0789508953197,-2.47338232734,1.14280792695
1589275921781335006,14802,1589275921781231917,,0.0790017353244,-2.50160881134,1.14808807546
1589275921787416851,14803,1589275921787308799,,0.079190669567,-2.5341743774,1.15451828506
1589275921790362296,14804,1589275921790262410,,0.0791709743676,-2.53062442543,1.15340330734
1589275921793804607,14805,1589275921793733429,,0.0791768907911,-2.56329355808,1.15981128533
1589275921796741162,14806,1589275921796615405,,0.0792023738579,-2.55924646481,1.15877716123
1589275921802175592,14807,1589275921802071402,,0.0791840304967,-2.59189735075,1.16468726831
1589275921805320475,14808,1589275921805233353,,0.0793430940828,-2.62507006121,1.17141225427
1589275921811510912,14809,1589275921811430036,,0.0793308726437,-2.64537516699,1.17488352349
1589275921814601016,14810,1589275921814503941,,0.0794760143626,-2.65360418402,1.17637903133
1589275921817813246,14811,1589275921817635883,,0.0796817799432,-2.64812956514,1.17511581747
1589275921820408350,14812,1589275921820316771,,0.0798525026504,-2.68207572189,1.18211590615
1589275921826020556,14813,1589275921825962865,,0.0798847365016,-2.71456218702,1.18836388412
1589275921828983853,14814,1589275921828920526,,0.0800084834259,-2.70918678036,1.18705978407
1589275921835193070,14815,1589275921835125511,,0.0802722483531,-2.74116265361,1.19353493415
1589275921841186497,14816,1589275921841113327,,0.080391255601,-2.76899917211,1.19864874709
1589275921847043012,14817,1589275921846946648,,0.0806495461003,-2.80149497865,1.20465351995
1589275921849952400,14818,1589275921849879816,,0.0809209813004,-2.79612908882,1.20366448998
1589275921853045993,14819,1589275921852974670,,0.0811341382839,-2.8294563516,1.20988855803
1589275921859284855,14820,1589275921859101253,,0.0813234481344,-2.86205920194,1.21611569772
1589275921862148725,14821,1589275921862045774,,0.081677943077,-2.85666914277,1.2148733804
1589275921865172897,14822,1589275921865077513,,0.0816625194577,-2.89062988248,1.22117224547
1589275921871322012,14823,1589275921871205267,,0.08190650192,-2.88661248821,1.22050565923
1589275921874232444,14824,1589275921874149155,,0.0819340181229,-2.92031422864,1.22637514987
1589275921877092435,14825,1589275921876945019,,0.0821417475773,-2.91459940639,1.22504524072
1589275921882968054,14826,1589275921882872969,,0.0822479390681,-2.94949567177,1.23155978725
1589275921886669646,14827,1589275921886527275,,0.0824627660626,-2.98410973696,1.23801392856
1589275921889391894,14828,1589275921889259945,,0.0823756076289,-2.97946638,1.23634209773
1589275921895672065,14829,1589275921895530923,,0.0824846088734,-3.01427763069,1.24305210645
1589275921898318148,14830,1589275921898226210,,0.0826522644912,-3.04871501958,1.24950431608
1589275921901385332,14831,1589275921901309442,,0.0826795454223,-3.04460181074,1.24809082589
1589275921907238881,14832,1589275921907151581,,0.082704598944,-3.0795120122,1.2544051233
1589275921909988832,14833,1589275921909921270,,0.0826574870001,-3.07491954545,1.25232856772
1589275921912966752,14834,1589275921912905003,,0.082765058005,-3.11011066858,1.25882078092
1589275921919484049,14835,1589275921919413466,,0.0829350121708,-3.14483502977,1.26495160729
1589275921922359004,14836,1589275921922277947,,0.0830318055351,-3.13970150878,1.26317697418
1589275921928307758,14837,1589275921928198291,,0.0833257846402,-3.17405695488,1.26952696652
1589275921931450190,14838,1589275921931334273,,0.0834905615305,-3.19264248772,1.27234618528
1589275921934301377,14839,1589275921934227256,,0.083843167572,-3.20316476338,1.27368837725
1589275921937368648,14840,1589275921937245247,,0.0840927762158,-3.19775074563,1.27209109314
1589275921943445321,14841,1589275921943340867,,0.0843834714198,-3.2321799936,1.27824128791
1589275921946343445,14842,1589275921946242435,,0.0845787743384,-3.26688864378,1.28448016522
1589275921952514800,14843,1589275921952358791,,0.0846109190109,-3.30224540731,1.2908477938
1589275921955349590,14844,1589275921955262604,,0.0847669118782,-3.29701277085,1.28935532862
1589275921961431666,14845,1589275921961304354,,0.0851488859902,-3.32675566083,1.29434566112
1589275921967227565,14846,1589275921967146251,,0.0853130868705,-3.36229749112,1.3007584294
1589275921970242086,14847,1589275921970153455,,0.0855121701531,-3.3572760283,1.29867038554
1589275921976284470,14848,1589275921976206922,,0.0857392664962,-3.39266915108,1.30526773276
1589275921979268271,14849,1589275921979193118,,0.0861252432965,-3.42842625494,1.31171897154
1589275921982303500,14850,1589275921982190798,,0.0864324345975,-3.42321271829,1.30993717418
1589275921988454814,14851,1589275921988355442,,0.0867336966148,-3.45974198955,1.31636246936
1589275921991395670,14852,1589275921991284938,,0.0871787032714,-3.49516244667,1.32284863138
1589275921994679267,14853,1589275921994574210,,0.0873525294279,-3.48974785417,1.32084221045
1589275922000235902,14854,1589275922000160251,,0.0877061344228,-3.52571158724,1.3273670764
1589275922003386410,14855,1589275922003280699,,0.0878336062914,-3.52041099489,1.32531961407
1589275922009200866,14856,1589275922009106103,,0.0881730958517,-3.55577660848,1.33169174565
1589275922012179534,14857,1589275922012126925,,0.0885176816959,-3.59200401837,1.33827491396
1589275922015252190,14858,1589275922015179686,,0.0888285965678,-3.58705211213,1.3367249153
1589275922024469332,14859,1589275922024338215,,0.0894801892413,-3.64174599317,1.34631615912
1589275922027382692,14860,1589275922027248827,,0.0899623183109,-3.6550501587,1.34856892756
1589275922033180686,14861,1589275922033112970,,0.0903726244499,-3.69156778268,1.35525188317
1589275922036273791,14862,1589275922036147697,,0.090703439774,-3.68649701765,1.35332915907
1589275922039282948,14863,1589275922039192482,,0.0910707264788,-3.72250868212,1.3600989591
1589275922042215180,14864,1589275922042152731,,0.0913719104645,-3.71713253334,1.35837018231
1589275922048235943,14865,1589275922048152722,,0.0918040715986,-3.75412511145,1.36587674333
1589275922051178810,14866,1589275922051097733,,0.0920460959422,-3.79161727141,1.37293882343
1589275922057229920,14867,1589275922057113903,,0.0925256635427,-3.78555031289,1.37101310569
1589275922060216680,14868,1589275922060151759,,0.0930533096838,-3.82173969713,1.37726794311
1589275922063205465,14869,1589275922063131883,,0.0936650551834,-3.81617947607,1.37563737138
1589275922069146589,14870,1589275922069068393,,0.0940752807603,-3.85222361423,1.38176947081
1589275922072246491,14871,1589275922072141668,,0.0947351024758,-3.88797961423,1.38837271569
1589275922075192760,14872,1589275922075121481,,0.0952343738424,-3.88208003435,1.38652290779
1589275922081200712,14873,1589275922081118077,,0.0953550754453,-3.91894883523,1.39307398965
1589275922084333156,14874,1589275922084261760,,0.0957342345179,-3.91425097728,1.39169887012
1589275922087130814,14875,1589275922087070647,,0.0959782220477,-3.9514500343,1.39837609935
1589275922090231602,14876,1589275922090108260,,0.0962207217677,-3.94546774465,1.39662543672
1589275922096568972,14877,1589275922096489448,,0.0967197804849,-3.9815331229,1.40376586203
1589275922099214382,14878,1589275922099097151,,0.0969332367981,-4.01799442193,1.41036985098
1589275922105197325,14879,1589275922105107393,,0.097229458197,-4.05440803233,1.41740368747
1589275922108158935,14880,1589275922108089690,,0.0977191318526,-4.04779769281,1.41594596747
1589275922111375199,14881,1589275922111277113,,0.0982615351045,-4.08335601282,1.42294681864
1589275922117134745,14882,1589275922117061843,,0.098941775246,-4.07579583695,1.42120091172
1589275922120181322,14883,1589275922120098152,,0.0993118263376,-4.11068494595,1.4276345018
1589275922123227254,14884,1589275922123157441,,0.0998168575126,-4.10290860952,1.42623704528
1589275922129189485,14885,1589275922129082139,,0.100433447314,-4.13760235385,1.43279933448
1589275922132096785,14886,1589275922132008683,,0.101085880243,-4.17123872432,1.43957300625
1589275922135097320,14887,1589275922135016101,,0.101626289755,-4.1622256708,1.43768965032
1589275922141159008,14888,1589275922141076771,,0.102171248365,-4.19668778291,1.44395986673
1589275922144168531,14889,1589275922144093621,,0.103048990967,-4.18771493575,1.4420771962
1589275922147133289,14890,1589275922147061641,,0.103612491517,-4.22125934521,1.44816508433
1589275922153059376,14891,1589275922153001279,,0.104326040265,-4.25481574398,1.45477913607
1589275922156155754,14892,1589275922156075332,,0.105068285765,-4.24740562405,1.45286427369
1589275922159250117,14893,1589275922159139114,,0.105737156424,-4.28114498238,1.45908699275
1589275922165335016,14894,1589275922165208352,,0.106234848268,-4.31491851034,1.46497994419
1589275922168318279,14895,1589275922168223013,,0.106805633298,-4.30631235951,1.46247824341
1589275922174066060,14896,1589275922173997561,,0.107202636761,-4.34157293631,1.46909360179
1589275922177282640,14897,1589275922177208736,,0.107657544719,-4.33388389983,1.46748073471
1589275922180291924,14898,1589275922180236613,,0.108171514122,-4.3680129133,1.47385723151
1589275922183139247,14899,1589275922183074325,,0.108323420245,-4.36011575692,1.47206603281
1589275922189199965,14900,1589275922189112678,,0.108630406387,-4.39536089372,1.47859610804
1589275922192288212,14901,1589275922192164045,,0.109244194175,-4.43037600271,1.48551044197
1589275922201137108,14902,1589275922201090225,,0.110033097373,-4.45767697836,1.48955220288
1589275922204050808,14903,1589275922203953902,,0.110269451247,-4.44987405726,1.48744939466
1589275922207046557,14904,1589275922207001206,,0.110962002375,-4.48355987029,1.49355100625
1589275922213068595,14905,1589275922213008185,,0.111326773877,-4.51782401098,1.50026260136
1589275922216017469,14906,1589275922215942577,,0.111812499665,-4.50910959789,1.49796738658
1589275922219062104,14907,1589275922218981913,,0.112215535546,-4.54290190955,1.50404138924
1589275922225039333,14908,1589275922224979991,,0.112887555117,-4.57708588228,1.51053100724
1589275922228008214,14909,1589275922227946849,,0.113366865818,-4.56910550313,1.50866213648
1589275922234003488,14910,1589275922233955661,,0.11432233259,-4.60180161241,1.51552683708
1589275922237045737,14911,1589275922236973262,,0.115363329177,-4.59077060514,1.51308475784
1589275922240195495,14912,1589275922240141327,,0.115800613848,-4.62564459328,1.52005400839
1589275922243070884,14913,1589275922243008544,,0.116362117148,-4.61580834504,1.51806965378
1589275922249136749,14914,1589275922249066649,,0.117154680697,-4.64798696226,1.5245282342
1589275922252394193,14915,1589275922252317588,,0.118083104536,-4.68098019279,1.5315075479
1589275922261559156,14916,1589275922261430480,,0.119314918716,-4.70672397183,1.53702841231
1589275922264966710,14917,1589275922264883267,,0.120061159148,-4.71732557722,1.53923252023
1589275922270576117,14918,1589275922270491530,,0.120566919454,-4.73200145322,1.54151394594
1589275922273321848,14919,1589275922273259738,,0.121361532161,-4.76649543104,1.54822743462
1589275922276474359,14920,1589275922276354710,,0.121843132759,-4.758242392,1.5463576965
1589275922282354237,14921,1589275922282268290,,0.12212163328,-4.79333795144,1.55327961504
1589275922285459107,14922,1589275922285372042,,0.122820879536,-4.82815129866,1.56027207614
1589275922288619590,14923,1589275922288434504,,0.123187217358,-4.82193957759,1.5583075192
1589275922294695392,14924,1589275922294577999,,0.123714195644,-4.85631596699,1.56486293864
1589275922297785155,14925,1589275922297698127,,0.124364109245,-4.84665045635,1.56271966309
1589275922300506959,14926,1589275922300391465,,0.124503707994,-4.88256950736,1.56954365647
1589275922306412116,14927,1589275922306343091,,0.124930859216,-4.91788501935,1.57617807344
1589275922309436363,14928,1589275922309327308,,0.125129345403,-4.90761360719,1.57327719771
1589275922312377451,14929,1589275922312318617,,0.125869723319,-4.94089419993,1.58005066197
1589275922321492361,14930,1589275922321366904,,0.126347442023,-4.96612475856,1.58417339934
1589275922324413899,14931,1589275922324301392,,0.127131151365,-4.95558994378,1.58248132808
1589275922330480545,14932,1589275922330409884,,0.127424037571,-4.98929751621,1.58837937682
1589275922333422545,14933,1589275922333353475,,0.127927978651,-5.02144046547,1.59455672827
1589275922336123723,14934,1589275922336071758,,0.128518863928,-5.00988642175,1.59213044433
1589275922342306414,14935,1589275922342173204,,0.129315867826,-5.04151159353,1.59846750847
1589275922345362685,14936,1589275922345297492,,0.129762021901,-5.0741442658,1.60487162142
1589275922348478064,14937,1589275922348346593,,0.130361271507,-5.06531342448,1.60303046499
1589275922354175011,14938,1589275922354081155,,0.131249284896,-5.09655098394,1.60885160212
1589275922357322700,14939,1589275922357229482,,0.131611621463,-5.0848219804,1.60597984998
1589275922363459967,14940,1589275922363382023,,0.132108571316,-5.11881065505,1.61256571376
1589275922366444908,14941,1589275922366337760,,0.132700871621,-5.15104345823,1.6188568895
1589275922369489424,14942,1589275922369381919,,0.132915578981,-5.14028798412,1.61635914848
1589275922375524120,14943,1589275922375447345,,0.133297245172,-5.17294889629,1.62278140653
1589275922381552317,14944,1589275922381464480,,0.133917899935,-5.19699830121,1.62669788688
1589275922387328287,14945,1589275922387245717,,0.134017353113,-5.23098683847,1.6325837415
1589275922390352657,14946,1589275922390267638,,0.134591380228,-5.22142982852,1.63006688287
1589275922393913318,14947,1589275922393839570,,0.135068118173,-5.2545916323,1.63600380091
1589275922399496866,14948,1589275922399406334,,0.135292698475,-5.28817682987,1.64176062313
1589275922402498078,14949,1589275922402403031,,0.13600491522,-5.27748677436,1.63933922284
1589275922405462978,14950,1589275922405359448,,0.13604621509,-5.30971686444,1.64508962826
1589275922411514777,14951,1589275922411407669,,0.136549383856,-5.31843640541,1.64659693777
1589275922414353768,14952,1589275922414254868,,0.137044763685,-5.33354566599,1.64913270048
1589275922417484147,14953,1589275922417390583,,0.137504986081,-5.32055540851,1.6458250705
1589275922423502862,14954,1589275922423427184,,0.138447144111,-5.35408273573,1.65291428225
1589275922426303848,14955,1589275922426209233,,0.139029137616,-5.38451247148,1.65848251601
1589275922429370701,14956,1589275922429288214,,0.139535856253,-5.37170550356,1.65539657228
1589275922435529550,14957,1589275922435439405,,0.140429325548,-5.40284348853,1.66162818519
1589275922438755060,14958,1589275922438628935,,0.140847418944,-5.43394858711,1.6679573058
1589275922444458945,14959,1589275922444371084,,0.141364137973,-5.42278049415,1.6652361947
1589275922447414550,14960,1589275922447224010,,0.142237603572,-5.45326826482,1.67165747709
1589275922450344241,14961,1589275922450261722,,0.14287290881,-5.44186226081,1.66900348883
1589275922453359831,14962,1589275922453266065,,0.143521044851,-5.47306268418,1.67453155908
1589275922459385323,14963,1589275922459309027,,0.144044068607,-5.50436285868,1.67988272574
1589275922462380207,14964,1589275922462260240,,0.144481945416,-5.49311403684,1.6767370822
1589275922468516794,14965,1589275922468415664,,0.145156908681,-5.5241038603,1.68285333769
1589275922471314527,14966,1589275922471242461,,0.145453243729,-5.51352169586,1.68016661336
1589275922474358265,14967,1589275922474249316,,0.14597375239,-5.5446394708,1.68622983191
1589275922477331227,14968,1589275922477233613,,0.146217723109,-5.53344339939,1.6828311734
1589275922483300210,14969,1589275922483215055,,0.146782210955,-5.56456993138,1.68875446357
1589275922486169330,14970,1589275922486081289,,0.147331202957,-5.5954212543,1.69437487201
1589275922493583914,14971,1589275922493436841,,0.148008924765,-5.62630707863,1.70007238136
1589275922495517250,14972,1589275922495417339,,0.14845478543,-5.6154573687,1.6974024451
1589275922498756136,14973,1589275922498689427,,0.14908786547,-5.6447233085,1.70294747004
1589275922504261471,14974,1589275922504178311,,0.149632053784,-5.63311702785,1.70046082724
1589275922507215577,14975,1589275922507142958,,0.150064666736,-5.66289270409,1.70601905882
1589275922510229149,14976,1589275922510154028,,0.151022748653,-5.64994903711,1.70369908149
1589275922516253293,14977,1589275922516169261,,0.151468752146,-5.67861806996,1.70883765439
1589275922519191370,14978,1589275922519124606,,0.152064302815,-5.70651892217,1.71477662621
1589275922522435919,14979,1589275922522358645,,0.153095104086,-5.69211250604,1.71248054797
1589275922528464211,14980,1589275922528328692,,0.153685426007,-5.72000262361,1.71761235203
1589275922531493456,14981,1589275922531403962,,0.154542318232,-5.70549447385,1.71499530385
1589275922534373839,14982,1589275922534264968,,0.155381812011,-5.73297864005,1.72099074452
1589275922540411146,14983,1589275922540271547,,0.156132049224,-5.76069169383,1.72600208364
1589275922543379583,14984,1589275922543264035,,0.156584415551,-5.74667330057,1.72280960125
1589275922546323102,14985,1589275922546234908,,0.15765064047,-5.7735607935,1.72875197556
1589275922552402217,14986,1589275922552325570,,0.158131778735,-5.80136193714,1.73405512134
1589275922555114464,14987,1589275922555019633,,0.158606682747,-5.78760923899,1.73133838681
1589275922564187615,14988,1589275922564004164,,0.159554957142,-5.80230243422,1.73383404245
1589275922567265294,14989,1589275922567172924,,0.16010483598,-5.83087728481,1.73883495674
1589275922570240607,14990,1589275922570156674,,0.160727903384,-5.8182586031,1.73638355787
1589275922576274267,14991,1589275922576187500,,0.161004583164,-5.84675336332,1.74167763901
1589275922579305669,14992,1589275922579227571,,0.161876491546,-5.8756022546,1.74696544671
1589275922585268030,14993,1589275922585194207,,0.162112746085,-5.90369435681,1.75207484725
1589275922588270905,14994,1589275922588178959,,0.162684928481,-5.89480766674,1.75076595208
1589275922591313920,14995,1589275922591221416,,0.162969732062,-5.88505384492,1.74853080899
1589275922594743147,14996,1589275922594621874,,0.163412147902,-5.91089201316,1.75356741838
1589275922600485353,14997,1589275922600400412,,0.16446633768,-5.93968280125,1.75929011369
1589275922603575911,14998,1589275922603462839,,0.164579409807,-5.92991247907,1.75668457164
1589275922606509925,14999,1589275922606419489,,0.165370348913,-5.95607868715,1.76266985032
1589275922612529148,15000,1589275922612435167,,0.16629028568,-5.98171925899,1.76795892535
1589275922615344873,15001,1589275922615267533,,0.166772560371,-5.96903115794,1.76573623189
1589275922624406922,15002,1589275922624331046,,0.16796582322,-5.98437132473,1.76970610016
1589275922627278073,15003,1589275922627167576,,0.16828806125,-6.01308029579,1.77524223408
1589275922630280045,15004,1589275922630199379,,0.169417716578,-5.99880550311,1.7718882014
1589275922636345520,15005,1589275922636229998,,0.17011664377,-6.02620505954,1.77728587387
1589275922639472813,15006,1589275922639336817,,0.171095632275,-6.05300359312,1.78297631808
1589275922645198633,15007,1589275922645127825,,0.172135411416,-6.07889134881,1.78844096162
1589275922648102902,15008,1589275922648025677,,0.172718998027,-6.06841135494,1.78578969473
1589275922651548919,15009,1589275922651413808,,0.173492116493,-6.05799250678,1.78428395175
1589275922657428098,15010,1589275922657353907,,0.174563452718,-6.08195562731,1.78935638942
1589275922660283451,15011,1589275922660200201,,0.174939213988,-6.11092683373,1.79448054477
1589275922663245797,15012,1589275922663179534,,0.17587874947,-6.09925478209,1.79297875266
1589275922669238180,15013,1589275922669159965,,0.176568522833,-6.12408905738,1.79815389713
1589275922672314079,15014,1589275922672233542,,0.177090148164,-6.15017423704,1.80316477103
1589275922675243375,15015,1589275922675166132,,0.177629924558,-6.13823369363,1.80075617701
1589275922681516978,15016,1589275922681388073,,0.178100529584,-6.16566551102,1.80632532314
1589275922684152020,15017,1589275922684088122,,0.178494292207,-6.15372230578,1.80357450296
1589275922687309656,15018,1589275922687136559,,0.179267154047,-6.18121276148,1.80927220326
1589275922693264293,15019,1589275922693153984,,0.179658803213,-6.20711473916,1.81347770885
1589275922696327209,15020,1589275922696228630,,0.180850218215,-6.19354431851,1.81088416948
1589275922699532481,15021,1589275922699421507,,0.181461701438,-6.21863087913,1.81628992803
1589275922705410082,15022,1589275922705216395,,0.18199344343,-6.24314884963,1.82088927145
1589275922708286429,15023,1589275922708194660,,0.182924784538,-6.22851943167,1.81831971495
1589275922711909954,15024,1589275922711756843,,0.183638807165,-6.25188512155,1.82352816916
1589275922717545163,15025,1589275922717462673,,0.184203852553,-6.23649223764,1.82148636084
1589275922720398013,15026,1589275922720310825,,0.185156859471,-6.25887229238,1.8265124383
1589275922723158469,15027,1589275922723084878,,0.185935707562,-6.24363009325,1.82373867634
1589275922729423133,15028,1589275922729284137,,0.18666301949,-6.26519844717,1.82892033939
1589275922732416750,15029,1589275922732315272,,0.187829024302,-6.28676563571,1.83383394176
1589275922735401499,15030,1589275922735290611,,0.188836331475,-6.27106387752,1.83168702575
1589275922741445435,15031,1589275922741292994,,0.18933335173,-6.29351575506,1.83611288167
1589275922744584498,15032,1589275922744441406,,0.190257365157,-6.27696606671,1.83292926853
1589275922747513721,15033,1589275922747442316,,0.19127430696,-6.29852250122,1.83785437399
1589275922753383339,15034,1589275922753310271,,0.192110880682,-6.32112972873,1.84272585698
1589275922756328539,15035,1589275922756235675,,0.193016972499,-6.30430003473,1.83908416253
1589275922759378538,15036,1589275922759266320,,0.19386568196,-6.32657598571,1.84395131287
1589275922765355696,15037,1589275922765248087,,0.194366409633,-6.34917603097,1.84827565082
1589275922768326202,15038,1589275922768257530,,0.195547943076,-6.33315768462,1.84616982086
1589275922774564328,15039,1589275922774478394,,0.196141355019,-6.35615077874,1.85078640512
1589275922777681082,15040,1589275922777544228,,0.196455128974,-6.34184363185,1.8474861234
1589275922780317864,15041,1589275922780246735,,0.197511656297,-6.36419892837,1.8531559257
1589275922786369905,15042,1589275922786179268,,0.198347363232,-6.38666662804,1.85810314204
1589275922789299108,15043,1589275922789070077,,0.198623145296,-6.37215503608,1.85532832746
1589275922792225585,15044,1589275922792153052,,0.199685759894,-6.39374907567,1.86079157776
1589275922798524457,15045,1589275922798447765,,0.200354074727,-6.41641521046,1.86592254116
1589275922801153059,15046,1589275922801075429,,0.201159773206,-6.4008796434,1.86350312008
1589275922807402841,15047,1589275922807210285,,0.201657519477,-6.42230911836,1.86823347056
1589275922810833196,15048,1589275922810752923,,0.202809084009,-6.40699642263,1.86630911694
1589275922813575638,15049,1589275922813477088,,0.203900468262,-6.42744544715,1.87115204483
1589275922816551939,15050,1589275922816455320,,0.204508798433,-6.41237939867,1.86803178223
1589275922822659367,15051,1589275922822549332,,0.20576707114,-6.43206898552,1.87276324772
1589275922828459528,15052,1589275922828305043,,0.206559236358,-6.45282028268,1.87694606673
1589275922831670910,15053,1589275922831573971,,0.207422400772,-6.47240282532,1.8812507184
1589275922834381602,15054,1589275922834267806,,0.208472603651,-6.4561825388,1.87907358191
1589275922837416490,15055,1589275922837262338,,0.209462439941,-6.44019438457,1.8763348777
1589275922840548329,15056,1589275922840432316,,0.210237449283,-6.46094094307,1.88128045825
1589275922846720122,15057,1589275922846593254,,0.211330889491,-6.48070779873,1.88573958818
1589275922849459317,15058,1589275922849358173,,0.212091454464,-6.46546693914,1.88325267897
1589275922855291253,15059,1589275922855211321,,0.212990802177,-6.48649823531,1.88755998132
1589275922861449019,15060,1589275922861369095,,0.21478608474,-6.49233135005,1.89027265782
1589275922864560737,15061,1589275922864309971,,0.215674776965,-6.47747207205,1.88748091249
1589275922870707630,15062,1589275922870558608,,0.216131473448,-6.49816551486,1.89205337091
1589275922873662585,15063,1589275922873570290,,0.217070564967,-6.51900192369,1.89721316563
1589275922879527441,15064,1589275922879429668,,0.217538022323,-6.53982839903,1.90097284595
1589275922882441339,15065,1589275922882342822,,0.218385620699,-6.52548876007,1.89854228326
1589275922885298779,15066,1589275922885227337,,0.219069580974,-6.54661764788,1.90333376364
1589275922888316264,15067,1589275922888218705,,0.219964491637,-6.53518867415,1.90162691783
1589275922894767410,15068,1589275922894609216,,0.220707177957,-6.55524303032,1.90551798174
1589275922897683560,15069,1589275922897543853,,0.221398163729,-6.53976589622,1.90145955991
1589275922903284182,15070,1589275922903174743,,0.222454816739,-6.56183844162,1.90675307973
1589275922906599745,15071,1589275922906488102,,0.222996251933,-6.58114929439,1.91138583685
1589275922909562343,15072,1589275922909478271,,0.223990204715,-6.56463771928,1.90812429064
1589275922915670811,15073,1589275922915529325,,0.22495544323,-6.58344340274,1.91296853586
1589275922921596152,15074,1589275922921439513,,0.226384822154,-6.58807186777,1.91520680722
1589275922927702664,15075,1589275922927576734,,0.227264154003,-6.60687323553,1.91922080904
1589275922933492074,15076,1589275922933415530,,0.228655320005,-6.62481842814,1.92414042313
1589275922936540611,15077,1589275922936447552,,0.229686001394,-6.60976418189,1.92178072818
1589275922939565241,15078,1589275922939459284,,0.230504116214,-6.62751837382,1.9253366756
1589275922942605706,15079,1589275922942475533,,0.231609252333,-6.61288784682,1.92365877163
1589275922945696405,15080,1589275922945577148,,0.232677651059,-6.62990727213,1.92868177517
1589275922951891812,15081,1589275922951767231,,0.233204458885,-6.64798842935,1.93178077947
1589275922954304874,15082,1589275922954231021,,0.233928275574,-6.63328732906,1.92970397403
1589275922957464296,15083,1589275922957337454,,0.234738732255,-6.61853227736,1.92790675274
1589275922963291759,15084,1589275922963184134,,0.235683573078,-6.63628409985,1.93151804584
1589275922966321235,15085,1589275922966203599,,0.236384557855,-6.65512437425,1.9353395266
1589275922969303109,15086,1589275922969223178,,0.237433564491,-6.64095301586,1.93337448015
1589275922975324638,15087,1589275922975252903,,0.23837293531,-6.65816837504,1.93679796164
1589275922981493084,15088,1589275922981397459,,0.239959838668,-6.66197500968,1.9382429809
1589275922987576327,15089,1589275922987481462,,0.240875479346,-6.67877221239,1.94157630214
1589275922990489363,15090,1589275922990407326,,0.241772454922,-6.66354037598,1.93917551654
1589275922993540716,15091,1589275922993397663,,0.24257292102,-6.67984082673,1.94285799026
1589275922999589802,15092,1589275922999497494,,0.243433506375,-6.69543488909,1.94598814949
1589275923002245427,15093,1589275923002131930,,0.244438240152,-6.6794607526,1.9441233379
1589275923005410574,15094,1589275923005324514,,0.245386193433,-6.69840660238,1.94871800645
1589275923011577158,15095,1589275923011375504,,0.246663715073,-6.68190468225,1.94657663294
1589275923014338528,15096,1589275923014249126,,0.247712764723,-6.69400311956,1.94940712113
1589275923020341025,15097,1589275923020238203,,0.248902323956,-6.71187503906,1.95406811813
1589275923023234079,15098,1589275923023158783,,0.249987584641,-6.69553943913,1.95256212846
1589275923026393252,15099,1589275923026251430,,0.251088913454,-6.70795007291,1.95662563148
1589275923029238067,15100,1589275923029145155,,0.252163614788,-6.69247423162,1.95464764484
1589275923035208435,15101,1589275923035122888,,0.252898264173,-6.70743990746,1.95947446865
1589275923038570457,15102,1589275923038448274,,0.253773361013,-6.72346326629,1.96397108579
1589275923044255625,15103,1589275923044193109,,0.255227466973,-6.70882790978,1.96262065397
1589275923047263572,15104,1589275923047150208,,0.256050256218,-6.72545107459,1.96696212379
1589275923050252909,15105,1589275923050186685,,0.256836670271,-6.71159128802,1.96468293839
1589275923056238025,15106,1589275923056149373,,0.257902568064,-6.72773738724,1.96864593603
1589275923059258094,15107,1589275923059183946,,0.258473460903,-6.74383822222,1.97276191362
1589275923062185532,15108,1589275923062117715,,0.259370569008,-6.73064291812,1.97113618244
1589275923068193149,15109,1589275923068115319,,0.259816169144,-6.74643424883,1.9748158509
1589275923071611172,15110,1589275923071531542,,0.260562719002,-6.73267637303,1.973068706
1589275923074276014,15111,1589275923074203000,,0.261445127752,-6.74763393412,1.97689291807
1589275923080267445,15112,1589275923080168797,,0.262030056508,-6.7622227151,1.98049872321
1589275923083469553,15113,1589275923083319434,,0.263282996713,-6.74775196672,1.97816374203
1589275923086240996,15114,1589275923086166285,,0.264046747405,-6.76120657906,1.9813663529
1589275923092273667,15115,1589275923092203405,,0.265040874105,-6.77361044057,1.9843223619
1589275923095558327,15116,1589275923095459274,,0.266206708745,-6.75786356554,1.98239915875
1589275923098779417,15117,1589275923098690225,,0.2671018593,-6.76982886316,1.98556047419
1589275923104311015,15118,1589275923104198518,,0.268375667845,-6.75163256788,1.98335332265
1589275923107521888,15119,1589275923107442700,,0.269486357018,-6.76309831651,1.98695825268
1589275923110295559,15120,1589275923110213959,,0.270487158468,-6.74565148052,1.98436450795
1589275923116311690,15121,1589275923116227463,,0.271792470371,-6.75473880219,1.98770246195
1589275923119649643,15122,1589275923119539881,,0.273019963308,-6.7648144438,1.99136041127
1589275923122508202,15123,1589275923122409403,,0.274342535312,-6.74739837088,1.98921619855
1589275923131788971,15124,1589275923131697879,,0.275374063615,-6.78415111981,1.99758480059
1589275923134345078,15125,1589275923134267330,,0.27675051861,-6.76807584579,1.99527463013
1589275923137346510,15126,1589275923137256393,,0.277776123975,-6.7527498323,1.99313398107
1589275923140311692,15127,1589275923140226402,,0.278727352607,-6.76371520357,1.99627232082
1589275923143601880,15128,1589275923143504039,,0.27977313524,-6.74911107556,1.99439554686
1589275923149492745,15129,1589275923149408821,,0.280192338267,-6.76312200816,1.99758229167
1589275923152468935,15130,1589275923152388431,,0.281114357268,-6.77469913261,2.00070260917
1589275923155536835,15131,1589275923155446489,,0.281891107194,-6.76217889348,1.99888411057
1589275923161486904,15132,1589275923161382308,,0.282112812981,-6.77606838439,2.0019537802
1589275923164523582,15133,1589275923164425529,,0.283217718662,-6.76378745316,1.9999514914
1589275923167475080,15134,1589275923167406531,,0.283655634397,-6.77724473169,2.00332130332
1589275923173471537,15135,1589275923173366386,,0.284484737377,-6.78983354262,2.00559934565
1589275923176493929,15136,1589275923176423663,,0.285227828227,-6.77687275052,2.00405797039
1589275923179412650,15137,1589275923179329236,,0.285959817165,-6.78908662412,2.00707168931
1589275923185384240,15138,1589275923185309677,,0.286956216524,-6.79996468593,2.0097248796
1589275923188365608,15139,1589275923188230049,,0.28778550886,-6.78466105164,2.00860620366
1589275923191965086,15140,1589275923191876816,,0.28853465667,-6.79425423858,2.01107602485
1589275923198022328,15141,1589275923197761220,,0.29012177266,-6.77816631796,2.00918764541
1589275923200658659,15142,1589275923200522170,,0.291709019515,-6.78544234192,2.01203689125
1589275923203600237,15143,1589275923203468043,,0.293154164672,-6.76820098171,2.0112655367
1589275923209495451,15144,1589275923209428665,,0.294683246879,-6.77538674355,2.01415861455
1589275923212577471,15145,1589275923212505548,,0.296369322435,-6.78107232567,2.0172525248
1589275923222112717,15146,1589275923221939026,,0.299243004038,-6.76949185037,2.01907269374
1589275923225076633,15147,1589275923224965972,,0.30105430467,-6.77587563854,2.02235867087
1589275923230631302,15148,1589275923230532948,,0.302611111219,-6.75928168991,2.02101856285
1589275923233652005,15149,1589275923233499949,,0.303724654218,-6.76649319365,2.0240258328
1589275923236575135,15150,1589275923236486292,,0.305226239578,-6.7517934002,2.02174567075
1589275923243020002,15151,1589275923242836407,,0.30646346926,-6.76027885245,2.02496758117
1589275923245887643,15152,1589275923245766814,,0.307514497682,-6.77031030147,2.0277863994
1589275923248945553,15153,1589275923248816271,,0.308207790525,-6.76074253638,2.02653258681
1589275923252034410,15154,1589275923251901438,,0.308991756088,-6.77158133102,2.02929265442
1589275923257693561,15155,1589275923257592474,,0.309665322823,-6.75925694466,2.02679655973
1589275923260868454,15156,1589275923260736412,,0.310309678001,-6.77337253145,2.03055953337
1589275923266450925,15157,1589275923266351496,,0.310872600121,-6.78508217862,2.03370048945
1589275923269577878,15158,1589275923269475640,,0.311595301219,-6.77386593584,2.03222280614
1589275923272792851,15159,1589275923272674528,,0.312127019456,-6.7849880332,2.03459093711
1589275923275765771,15160,1589275923275659189,,0.312998987694,-6.77532466665,2.03325076253
1589275923281883303,15161,1589275923281748289,,0.313768398083,-6.78523724406,2.03600691599
1589275923284865606,15162,1589275923284767326,,0.31493041336,-6.77338807867,2.03466812234
1589275923290424781,15163,1589275923290329830,,0.316031938672,-6.78256669158,2.0373828772
1589275923293542143,15164,1589275923293449945,,0.317536795607,-6.78957528052,2.04030728147
1589275923296737703,15165,1589275923296633622,,0.318591872422,-6.77565944592,2.03884410821
1589275923302606717,15166,1589275923302492387,,0.319962125225,-6.78103988513,2.04114980086
1589275923308553422,15167,1589275923308464639,,0.322844595788,-6.76904617723,2.04198095718
1589275923314558280,15168,1589275923314435773,,0.324307006821,-6.77188318735,2.04442120792
1589275923317685250,15169,1589275923317587142,,0.326309134343,-6.75466207944,2.04327321401
1589275923320611937,15170,1589275923320526567,,0.328031575377,-6.75674249371,2.04525455451
1589275923326592691,15171,1589275923326504189,,0.32956204514,-6.75873081949,2.04692829809
1589275923332480282,15172,1589275923332398801,,0.331049663447,-6.76176257928,2.04914480603
1589275923335523831,15173,1589275923335438595,,0.332652324345,-6.74476027181,2.04692487983
1589275923341563873,15174,1589275923341447750,,0.33489472249,-6.73411165305,2.04712855711
1589275923344678427,15175,1589275923344577963,,0.336114165988,-6.7195105777,2.04507169053
1589275923350644672,15176,1589275923350520373,,0.33710214533,-6.72524687736,2.04678668772
1589275923353560761,15177,1589275923353463734,,0.338008077145,-6.73213632642,2.0493577286
1589275923356537489,15178,1589275923356463137,,0.338699133258,-6.72121334125,2.04735782525
1589275923362657310,15179,1589275923362531573,,0.33965502728,-6.7284512135,2.05020847731
1589275923365662225,15180,1589275923365566516,,0.3405003929,-6.73635235267,2.05316272009
1589275923368552811,15181,1589275923368469386,,0.34076620883,-6.72958915308,2.052175493
1589275923374487114,15182,1589275923374375784,,0.341458774457,-6.73694954849,2.05436591594
1589275923377536583,15183,1589275923377440771,,0.342257048491,-6.72569247231,2.05269268378
1589275923380514900,15184,1589275923380397400,,0.342749209653,-6.73467648956,2.05480384302
1589275923386773948,15185,1589275923386662684,,0.343934466376,-6.73992829506,2.05754753495
1589275923389677317,15186,1589275923389564136,,0.34479319855,-6.72709166,2.0559757608
1589275923395927984,15187,1589275923395831416,,0.345529693569,-6.73067964596,2.05721471732
1589275923399054981,15188,1589275923398942653,,0.346880889644,-6.73350871093,2.05940525056
1589275923401697343,15189,1589275923401580826,,0.347915588448,-6.71992271755,2.05854325352
1589275923407685783,15190,1589275923407580174,,0.349206261917,-6.72106075077,2.05962302433
1589275923410651438,15191,1589275923410536025,,0.35068997007,-6.70518709332,2.05806692561
1589275923413570348,15192,1589275923413485097,,0.352214900102,-6.70484129409,2.06015531725
1589275923416536660,15193,1589275923416443986,,0.353691310517,-6.68781662592,2.05781207589
1589275923425814665,15194,1589275923425712185,,0.35533487271,-6.70199593589,2.06264167279
1589275923432087184,15195,1589275923432007242,,0.356768296448,-6.70045367663,2.06424035599
1589275923434570688,15196,1589275923434479558,,0.358062507782,-6.68353319886,2.06229554158
1589275923437636628,15197,1589275923437543388,,0.359604174544,-6.66703897662,2.06075218922
1589275923440764116,15198,1589275923440570740,,0.36089346945,-6.66737094905,2.06230880044
1589275923443626338,15199,1589275923443520921,,0.362011284894,-6.65222035423,2.05999565641
1589275923446650942,15200,1589275923446525020,,0.363183964119,-6.65338841387,2.06146640205
1589275923449568314,15201,1589275923449470618,,0.363892062189,-6.64102510198,2.05970143307
1589275923455642414,15202,1589275923455532539,,0.364245430756,-6.64419514364,2.06094016783
1589275923462019026,15203,1589275923461898646,,0.365763943926,-6.63730130559,2.06178954229
1589275923467514811,15204,1589275923467408067,,0.365902843781,-6.64183709883,2.06258957648
1589275923470601450,15205,1589275923470498908,,0.366309179874,-6.63197190439,2.06094280163
1589275923473488025,15206,1589275923473392721,,0.367155460315,-6.63417082978,2.06241830504
1589275923479620226,15207,1589275923479514660,,0.367525636688,-6.63765983705,2.06338282636
1589275923482688951,15208,1589275923482575533,,0.368206212984,-6.62650752907,2.06188269582
1589275923492024039,15209,1589275923491793707,,0.369540099386,-6.62146403096,2.06129869141
1589275923495091547,15210,1589275923494962863,,0.370654393006,-6.62021629414,2.06226076195
1589275923497801656,15211,1589275923497711308,,0.371384644265,-6.60711067784,2.06059017213
1589275923503523157,15212,1589275923503428007,,0.372308253823,-6.60861062397,2.06192315041
1589275923506374337,15213,1589275923506288867,,0.373439919521,-6.60405930287,2.06275607254
1589275923509660931,15214,1589275923509556235,,0.37446288832,-6.58808241767,2.0608389071
1589275923515515307,15215,1589275923515429306,,0.37519737093,-6.58865971851,2.06248691603
1589275923521501738,15216,1589275923521367342,,0.37730336587,-6.57355758873,2.06164019014
1589275923530563569,15217,1589275923530489856,,0.37837183347,-6.57263502115,2.06238755904
1589275923533457516,15218,1589275923533335860,,0.379294071454,-6.57332531842,2.06308086591
1589275923536637448,15219,1589275923536548697,,0.380224102133,-6.5583723699,2.06111925838
1589275923539668799,15220,1589275923539548053,,0.380842898379,-6.55670039573,2.06164790716
1589275923542627042,15221,1589275923542554148,,0.381508803762,-6.54653499814,2.06073931748
1589275923545601630,15222,1589275923545521771,,0.381642315577,-6.54981128078,2.06174154847
1589275923551744618,15223,1589275923551449811,,0.381809761041,-6.54127816117,2.06069496916
1589275923554572667,15224,1589275923554478208,,0.382153282165,-6.54292318249,2.06132902737
1589275923557601846,15225,1589275923557512599,,0.382267662504,-6.53733948303,2.06013323492
1589275923563640793,15226,1589275923563536285,,0.382467486632,-6.54013031123,2.0609047919
1589275923566523122,15227,1589275923566421861,,0.382750499958,-6.54193516143,2.06155678967
1589275923572783296,15228,1589275923572581937,,0.38289552163,-6.54420420955,2.06216458386
1589275923575501572,15229,1589275923575382196,,0.383179910208,-6.53606601914,2.06139293356
1589275923581754747,15230,1589275923581670053,,0.383470697805,-6.53631985783,2.06190045299
1589275923584858228,15231,1589275923584748777,,0.383789973358,-6.51060381066,2.05681009148
1589275923590798111,15232,1589275923590612896,,0.384530170789,-6.52598576725,2.06040019212
1589275923593656935,15233,1589275923593584232,,0.385354130819,-6.52289225072,2.06098022403
1589275923597054779,15234,1589275923596938868,,0.386106813282,-6.51000381975,2.05918014
1589275923600153232,15235,1589275923600018776,,0.387102302773,-6.50564178185,2.06001723209
1589275923602653884,15236,1589275923602576746,,0.388330407219,-6.4911469527,2.05921732633
1589275923612189901,15237,1589275923611837583,,0.389133840945,-6.4846957659,2.05924389526
1589275923614659295,15238,1589275923614509257,,0.390507996792,-6.47685188306,2.05987743589
1589275923620720803,15239,1589275923620588801,,0.39173450252,-6.46904122319,2.06047476002
1589275923624055818,15240,1589275923623906810,,0.392768429177,-6.453044799,2.05847279888
1589275923626949278,15241,1589275923626822801,,0.394225349621,-6.44511897171,2.05923482393
1589275923632981043,15242,1589275923632861929,,0.395284082622,-6.43715095808,2.05918575486
1589275923644668008,15243,1589275923644395848,,0.397509129139,-6.4152565478,2.05759542165
1589275923650455055,15244,1589275923650390762,,0.398560257166,-6.40811416785,2.05781671954
1589275923653420953,15245,1589275923653323499,,0.398970162379,-6.40252755923,2.0570899812
1589275923656426117,15246,1589275923656336548,,0.399707173839,-6.39030099526,2.05528701102
1589275923659431990,15247,1589275923659341287,,0.400513390417,-6.38623253544,2.05583423098
1589275923665466381,15248,1589275923665398824,,0.401065053364,-6.38254388261,2.05628112224
1589275923671919938,15249,1589275923671834378,,0.401584928633,-6.35463073982,2.05151504607
1589275923677461603,15250,1589275923677374471,,0.401806214362,-6.37099063646,2.05513205854
1589275923680385883,15251,1589275923680315043,,0.402355485531,-6.37124145084,2.05548244564
1589275923686446623,15252,1589275923686362470,,0.402643076949,-6.37070106988,2.05580146721
1589275923689605647,15253,1589275923689523063,,0.403083760351,-6.36212384326,2.0545963307
1589275923692375801,15254,1589275923692265634,,0.403794573667,-6.35949747665,2.05464433502
1589275923695432761,15255,1589275923695306072,,0.404316054389,-6.35331634891,2.05430768103
1589275923698447648,15256,1589275923698359214,,0.404933803241,-6.34810924355,2.05410453977
1589275923704535027,15257,1589275923704449112,,0.405582786225,-6.33782805643,2.05231318397
1589275923710590535,15258,1589275923710502744,,0.406502726654,-6.33273457333,2.05268006706
1589275923716690411,15259,1589275923716554745,,0.407505267233,-6.32784590624,2.05305530841
1589275923722342420,15260,1589275923722281679,,0.408473252804,-6.32222181189,2.05245204381
1589275923725595645,15261,1589275923725533933,,0.409809149513,-6.31485130096,2.05250241879
1589275923732161149,15262,1589275923732047136,,0.410948337998,-6.307934352,2.05198871256
1589275923737469467,15263,1589275923737335547,,0.412130284968,-6.29638149261,2.05063184338
1589275923743522817,15264,1589275923743422835,,0.413681775642,-6.28773196701,2.05054316234
1589275923746629621,15265,1589275923746563892,,0.41488237626,-6.27872973639,2.05014502381
1589275923749554193,15266,1589275923749463101,,0.416134791896,-6.26666724383,2.04924070693
1589275923755655150,15267,1589275923755584304,,0.417400870259,-6.25708943895,2.04909988604
1589275923764527093,15268,1589275923764452811,,0.419970844565,-6.23775145437,2.04816473251
1589275923767468585,15269,1589275923767362777,,0.421235211561,-6.22916941691,2.04815904799
1589275923770493313,15270,1589275923770428200,,0.422096861854,-6.21936187739,2.04689882767
1589275923776772758,15271,1589275923776657600,,0.423514579086,-6.2119081305,2.04706427963
1589275923782456854,15272,1589275923782388238,,0.424292284595,-6.20504161029,2.04665153065
