%time,field.header.seq,field.header.stamp,field.header.frame_id,field.vector.x,field.vector.y,field.vector.z
1589273497206714246,749,1589273497206556713,,0.00974759605548,-1.53398886718,2.20528443799
1589273497212297581,750,1589273497212222143,,0.00942935920965,-1.56198057514,2.21797470955
1589273497221392429,751,1589273497221304611,,0.00910389326887,-1.59020471169,2.23025555467
1589273497227426245,752,1589273497227324078,,0.00901793001042,-1.6182495388,2.24382784703
1589273497233333721,753,1589273497233240197,,0.00872760298156,-1.64650914597,2.25665929414
1589273497239445657,754,1589273497239342876,,0.00852198618757,-1.67493979825,2.27026015527
1589273497245506663,755,1589273497245394026,,0.00822118405859,-1.70309938447,2.28330947021
1589273497251468064,756,1589273497251385231,,0.00800970601902,-1.73189413682,2.2971344275
1589273497257341023,757,1589273497257275332,,0.0076839833058,-1.73149357546,2.29591932438
1589273497263339653,758,1589273497263249841,,0.00732194474016,-1.76017062809,2.30939710492
1589273497269456619,759,1589273497269332565,,0.00694040312921,-1.7885957509,2.32254327497
1589273497275290904,760,1589273497275193576,,0.00665190236304,-1.81745647395,2.33638003366
1589273497281572480,761,1589273497281438584,,0.0062348137245,-1.84571778205,2.34928752774
1589273497287731028,762,1589273497287594773,,0.00591917595281,-1.87522482214,2.36298736268
1589273497293557403,763,1589273497293400772,,0.00556025339551,-1.90374456914,2.37622131733
1589273497299614948,764,1589273497299500321,,0.00546266751513,-1.93325544269,2.39040649988
1589273497305303613,765,1589273497305176861,,0.00509321100772,-1.96218153197,2.40388769765
1589273497308379080,766,1589273497308287052,,0.00494290969983,-1.96173937986,2.40300896562
1589273497314494180,767,1589273497314401808,,0.0045837450217,-1.9907986471,2.41669411632
1589273497320722339,768,1589273497320578673,,0.00438825859335,-2.02038881572,2.43090273461
1589273497326296432,769,1589273497326177033,,0.00408527985305,-2.04925895714,2.4442983943
1589273497332648368,770,1589273497332525338,,0.00391499289936,-2.07846052748,2.45854810365
1589273497338586079,771,1589273497338487072,,0.00369326883647,-2.10635297319,2.47232172795
1589273497344693064,772,1589273497344602345,,0.00386295904817,-2.11879816162,2.47930770546
1589273497350603595,773,1589273497350487334,,0.00384547805481,-2.12864116461,2.4840133324
1589273497356603532,774,1589273497356486895,,0.00402419438239,-2.15619548118,2.4978300775
1589273497362746289,775,1589273497362615427,,0.00443518042523,-2.18472021116,2.51261035381
1589273497368716993,776,1589273497368613823,,0.00514120959052,-2.21149344541,2.52641989446
1589273497374326840,777,1589273497374244703,,0.00531540808897,-2.24111239283,2.54125247379
1589273497380498584,778,1589273497380395599,,0.00540453549898,-2.2695677711,2.5554235105
1589273497387175925,779,1589273497387080708,,0.00530173984936,-2.29949710303,2.57016554674
1589273497392465197,780,1589273497392377713,,0.00510527512285,-2.32818406638,2.58401956108
1589273497398610898,781,1589273497398537153,,0.00496399848526,-2.35869007023,2.59917533212
1589273497404805492,782,1589273497404591590,,0.00463214347464,-2.35572664399,2.59665627781
1589273497410635388,783,1589273497410490099,,0.00450226096465,-2.38593574929,2.61164219977
1589273497416544225,784,1589273497416442463,,0.00396151681106,-2.4143271332,2.62506113127
1589273497422663012,785,1589273497422501967,,0.00385624979995,-2.44478313744,2.64000465468
1589273497428695251,786,1589273497428548279,,0.00360831914823,-2.47387958253,2.65373748018
1589273497434431306,787,1589273497434341394,,0.00344214170018,-2.50463822576,2.66896987705
1589273497440634652,788,1589273497440524483,,0.00334120225347,-2.53412729353,2.68333189415
1589273497446537522,789,1589273497446451906,,0.00323133222495,-2.56522590238,2.69839265468
1589273497452485713,790,1589273497452400393,,0.00299997421345,-2.59643439921,2.71363915846
1589273497458895643,791,1589273497458775312,,0.00290994964782,-2.62758357253,2.72875424059
1589273497464765095,792,1589273497464568672,,0.0027454940815,-2.62545455678,2.72678490243
1589273497470670151,793,1589273497470530769,,0.00264385594331,-2.65670694975,2.74212084798
1589273497476551968,794,1589273497476460994,,0.00231398261934,-2.68696454181,2.75664724431
1589273497483034813,795,1589273497482937197,,0.00200489702142,-2.71851413388,2.77176874956
1589273497488603609,796,1589273497488500455,,0.00173870496856,-2.7480909745,2.78606397643
1589273497494566676,797,1589273497494445223,,0.0016224684249,-2.77916463903,2.80155523483
1589273497500569629,798,1589273497500472253,,0.00143012616496,-2.80920051163,2.81592086245
1589273497506739565,799,1589273497506537206,,0.00131489714739,-2.84092340957,2.83128170427
1589273497512635654,800,1589273497512495146,,0.00125159780038,-2.87147504778,2.84606006707
1589273497518693210,801,1589273497518585545,,0.00126111016696,-2.90302283406,2.86144566141
1589273497524710941,802,1589273497524620400,,0.00104953209104,-2.93400000661,2.87626609573
1589273497530692184,803,1589273497530611077,,0.000881115264373,-2.93302637302,2.8750128324
1589273497536705688,804,1589273497536554583,,0.000775434014155,-2.96385565928,2.88968057794
1589273497542563769,805,1589273497542464915,,0.00055356640345,-2.99625047493,2.90507996734
1589273497548587588,806,1589273497548461231,,0.000373964414857,-3.0266367054,2.91913668268
1589273497554536532,807,1589273497554442205,,0.000307183754567,-3.05854018765,2.93461359989
1589273497560476776,808,1589273497560379931,,6.12831103197e-05,-3.08925239344,2.94844245149
1589273497566607901,809,1589273497566504287,,1.46047618443e-05,-3.12121925821,2.96395093863
1589273497572593449,810,1589273497572483527,,-0.000288235238577,-3.1520138748,2.97772933862
1589273497578761326,811,1589273497578632351,,-0.000459633874872,-3.18442558958,2.99283310158
1589273497584831901,812,1589273497584668191,,-0.000703313172046,-3.21524939804,3.00641053449
1589273497590622362,813,1589273497590483875,,-0.000741978883179,-3.21395462837,3.00479565676
1589273497596609291,814,1589273497596505995,,-0.00106405830119,-3.24459424458,3.01825819451
1589273497602526411,815,1589273497602428564,,-0.00115316337739,-3.27705677708,3.03355834557
1589273497605539849,816,1589273497605455154,,-0.00139032852702,-3.3077170581,3.04743678629
1589273497611816461,817,1589273497611719488,,-0.00165622200662,-3.34009073137,3.0624149436
1589273497617579294,818,1589273497617467372,,-0.00203256746683,-3.33651027228,3.05919012044
1589273497623596300,819,1589273497623504318,,-0.00229377382902,-3.36927362359,3.07460611442
1589273497629758620,820,1589273497629654836,,-0.002931712134,-3.39952319697,3.08825391964
1589273497635552302,821,1589273497635426480,,-0.00319421775351,-3.43190826594,3.10358470313
1589273497641475800,822,1589273497641389253,,-0.00362934113169,-3.46215287691,3.11727735442
1589273497647542045,823,1589273497647449343,,-0.00380071738344,-3.49423200578,3.13265634728
1589273497653725321,824,1589273497653604621,,-0.0039741284814,-3.52593619913,3.14803149874
1589273497659700068,825,1589273497659567483,,-0.00431715690618,-3.5580538254,3.16332071352
1589273497665757449,826,1589273497665652302,,-0.00491015006334,-3.58806393633,3.17687585599
1589273497671926848,827,1589273497671797526,,-0.00502003616729,-3.61991629918,3.19233317032
1589273497677512165,828,1589273497677408606,,-0.00522347855388,-3.61439324212,3.1888198923
1589273497683692561,829,1589273497683618235,,-0.00533329422031,-3.64674803905,3.20444068048
1589273497689649549,830,1589273497689449815,,-0.00601147261357,-3.67621068636,3.21781494838
1589273497695623926,831,1589273497695535726,,-0.00615742803113,-3.70853596858,3.23353424579
1589273497701645178,832,1589273497701538745,,-0.00686969231728,-3.73791650513,3.24695952602
1589273497704750850,833,1589273497704544114,,-0.00696580658017,-3.73530497901,3.2452454115
1589273497710617683,834,1589273497710492994,,-0.00761702917715,-3.76512566348,3.25885515732
1589273497716517393,835,1589273497716448017,,-0.00797120618878,-3.79744176206,3.27435213343
1589273497722643113,836,1589273497722532749,,-0.00857073676054,-3.82705048332,3.28792941058
1589273497728655523,837,1589273497728535162,,-0.00879719404465,-3.85891240602,3.30323651731
1589273497734660455,838,1589273497734574118,,-0.00931113757427,-3.88805040135,3.31671861407
1589273497740745653,839,1589273497740589421,,-0.0095483312717,-3.91986906856,3.33191290223
1589273497746620700,840,1589273497746542752,,-0.00971967219277,-3.95118626158,3.34738228493
1589273497752659208,841,1589273497752541535,,-0.0102180982444,-3.98272317162,3.36231023645
1589273497758836015,842,1589273497758709706,,-0.0107421842165,-4.01046415613,3.37506743941
1589273497764576340,843,1589273497764452484,,-0.0112223559409,-4.00744881351,3.37277859135
1589273497770532901,844,1589273497770424257,,-0.0119779533831,-4.03646191,3.38587009163
1589273497776423015,845,1589273497776343216,,-0.0124913254896,-4.06821749033,3.4009839641
1589273497783013618,846,1589273497782896302,,-0.0132906861808,-4.09627122779,3.41349353083
1589273497788780491,847,1589273497788652280,,-0.0136604539916,-4.12780824113,3.42867601502
1589273497794705911,848,1589273497794624592,,-0.0141257533652,-4.15597887386,3.442103573
1589273497800554770,849,1589273497800467546,,-0.014549419074,-4.18775684664,3.45721038233
1589273497806638686,850,1589273497806508981,,-0.0154185007413,-4.21649379987,3.47067071521
1589273497812590735,851,1589273497812497221,,-0.0159286070849,-4.24784494199,3.48556580889
1589273497818609328,852,1589273497818518952,,-0.0169040703812,-4.27519990732,3.49919879039
1589273497824547880,853,1589273497824361772,,-0.0178313267865,-4.26790834862,3.49620712623
1589273497830666772,854,1589273497830599565,,-0.0185151122565,-4.29856638542,3.51113338818
1589273497836709505,855,1589273497836637974,,-0.0193190486597,-4.32953322471,3.52622355654
1589273497842727754,856,1589273497842631594,,-0.0203584850932,-4.35759547213,3.53896553873
1589273497848684371,857,1589273497848541980,,-0.0207729083689,-4.38841934835,3.55364866215
1589273497854682979,858,1589273497854565130,,-0.0216069700177,-4.41664432536,3.56627159768
1589273497860631182,859,1589273497860533067,,-0.0220016685719,-4.44776156341,3.5810405797
1589273497866689602,860,1589273497866578195,,-0.0233878112686,-4.47570847694,3.59257287725
1589273497872194137,861,1589273497872140200,,-0.0240872302627,-4.50711555602,3.60718172103
1589273497875218167,862,1589273497875106148,,-0.0253980799935,-4.50146324654,3.60209714036
1589273497878387466,863,1589273497878290039,,-0.0260447786646,-4.53297565734,3.61656231093
1589273497881588792,864,1589273497881505554,,-0.0273594823592,-4.52659186269,3.61121576037
1589273497887687593,865,1589273497887582192,,-0.0281773796045,-4.55808695857,3.62556443373
1589273497893504168,866,1589273497893421505,,-0.0287095004467,-4.58943736073,3.64018475164
1589273497899724344,867,1589273497899573699,,-0.03006907808,-4.617046606,3.65190661694
1589273497905519020,868,1589273497905433547,,-0.0316372849866,-4.64481077102,3.66362064868
1589273497908581382,869,1589273497908506716,,-0.0324374766984,-4.64088717169,3.66081563908
1589273497914634951,870,1589273497914560174,,-0.0331324179063,-4.67141738312,3.67573836074
1589273497920721995,871,1589273497920623737,,-0.0345046199057,-4.69725816966,3.68895377393
1589273497926571553,872,1589273497926513449,,-0.035988056288,-4.72361952742,3.70156252842
1589273497932581502,873,1589273497932514548,,-0.036917392427,-4.75341666943,3.71589326107
1589273497938551780,874,1589273497938491033,,-0.0377335420215,-4.78369784962,3.72991392513
1589273497944382523,875,1589273497944292618,,-0.0391271396857,-4.78888748718,3.73087927373
1589273497947559996,876,1589273497947427076,,-0.0406697610945,-4.80338223531,3.73584113906
1589273497953469933,877,1589273497953401404,,-0.0414651971702,-4.8341632725,3.74968984629
1589273497956639316,878,1589273497956533624,,-0.0425805077215,-4.83057702792,3.74617578938
1589273497962520255,879,1589273497962417633,,-0.0441953222122,-4.85765628231,3.75747980374
1589273497968653320,880,1589273497968534284,,-0.0462149123892,-4.88447370118,3.76781728865
1589273497974586462,881,1589273497974468541,,-0.0467956131808,-4.91460338119,3.78193369778
1589273497980689013,882,1589273497980593029,,-0.0476365939423,-4.94427184672,3.79558128842
1589273497987006110,883,1589273497986911113,,-0.0491134569234,-4.96924099814,3.80652228147
1589273497992599571,884,1589273497992504209,,-0.0496713961863,-4.99886179468,3.82101095822
1589273497998614217,885,1589273497998520617,,-0.0510852577877,-5.02301860958,3.83258162131
1589273498005110598,886,1589273498005001774,,-0.0515726353993,-5.02944570567,3.83563692162
1589273498010733768,887,1589273498010605098,,-0.0528368024527,-5.0415225565,3.84104691673
1589273498016902456,888,1589273498016732610,,-0.0534553302368,-5.06987303266,3.85491869323
1589273498022319216,889,1589273498022189874,,-0.0547593138674,-5.09348293514,3.86545388192
1589273498025274308,890,1589273498025190736,,-0.0552073418559,-5.12136488113,3.87887862842
1589273498028248083,891,1589273498028179707,,-0.0558421199017,-5.11613191755,3.87554722161
1589273498031689373,892,1589273498031632601,,-0.0571001720526,-5.13941885776,3.88504352673
1589273498037630873,893,1589273498037555238,,-0.0575658050499,-5.1344851795,3.88189768619
1589273498043713316,894,1589273498043611731,,-0.0589892520249,-5.15793379874,3.8905826387
1589273498049768687,895,1589273498049656664,,-0.0591377065356,-5.18609770571,3.9040100082
1589273498055500932,896,1589273498055419665,,-0.0600097902226,-5.20924340763,3.9134167213
1589273498058260569,897,1589273498058192851,,-0.0604720017219,-5.23748196485,3.92630739032
1589273498061260324,898,1589273498061201908,,-0.0611809949027,-5.22740871056,3.91901323365
1589273498064387759,899,1589273498064204838,,-0.0615715800919,-5.22315216413,3.91584339168
1589273498067375801,900,1589273498067279189,,-0.0625742100985,-5.24610994279,3.92462832841
1589273498070671788,901,1589273498070545063,,-0.0630536414066,-5.24112672229,3.92091830484
1589273498076252537,902,1589273498076180586,,-0.0637066729403,-5.26391242249,3.92996643989
1589273498079296167,903,1589273498079210234,,-0.0642549957718,-5.29154612917,3.94241016474
1589273498082581906,904,1589273498082515067,,-0.0642713273301,-5.28619661069,3.93903048659
1589273498085588208,905,1589273498085536257,,-0.0650183080258,-5.30827810615,3.94792034339
1589273498088248608,906,1589273498088177574,,-0.0657199261326,-5.2978185178,3.94029920711
1589273498092017947,907,1589273498091948600,,-0.0660490072559,-5.32428876391,3.95243323037
1589273498097198034,908,1589273498097152966,,-0.0665436403483,-5.31925021867,3.94852712189
1589273498100509372,909,1589273498100454943,,-0.0668235579446,-5.34612703149,3.96101314524
1589273498103479303,910,1589273498103393180,,-0.0676397066437,-5.33647303612,3.95330311285
1589273498109439669,911,1589273498109354500,,-0.0679516994755,-5.3628534583,3.96549745522
1589273498112371690,912,1589273498112302048,,-0.0685263656305,-5.38367828578,3.97347115461
1589273498115673535,913,1589273498115594644,,-0.0690304816741,-5.37871723171,3.96931794209
1589273498121384067,914,1589273498121313384,,-0.0699784799406,-5.40066393601,3.97724335776
1589273498124668266,915,1589273498124577135,,-0.0706240442021,-5.42767952287,3.98895763048
1589273498130482085,916,1589273498130389991,,-0.0714746413444,-5.41610063415,3.9803903806
1589273498136510916,917,1589273498136424686,,-0.0719388253686,-5.44309895873,3.99237786557
1589273498139446645,918,1589273498139343669,,-0.0727709839612,-5.46407481139,3.9997826284
1589273498142455248,919,1589273498142361411,,-0.0734092121507,-5.45859452521,3.99495656464
1589273498145725449,920,1589273498145550300,,-0.0740676770198,-5.47848111706,4.00187454726
1589273498148206508,921,1589273498148134730,,-0.0746014205378,-5.47263505782,3.99650735864
1589273498154317354,922,1589273498154246613,,-0.0758652231446,-5.48864725897,3.99643835201
1589273498157304812,923,1589273498157207134,,-0.0767854648751,-5.47741354578,3.98758573498
1589273498160316819,924,1589273498160225893,,-0.0775039311105,-5.5037150707,3.99896683926
1589273498163271461,925,1589273498163196300,,-0.0790822111608,-5.49415907033,3.99086065353
1589273498166233530,926,1589273498166158600,,-0.0795023612267,-5.5206759573,4.00307309514
1589273498169197470,927,1589273498169141449,,-0.0810331401568,-5.51110495479,3.99516220363
1589273498172309778,928,1589273498172247319,,-0.0817651065493,-5.53806944415,4.00716287942
1589273498175147733,929,1589273498175091364,,-0.0822385138515,-5.53338806168,4.00348922261
1589273498178388128,930,1589273498178305406,,-0.0835699676031,-5.55485655765,4.01194861688
1589273498181231484,931,1589273498181146374,,-0.0841564572011,-5.5503218213,4.00812724817
1589273498184557020,932,1589273498184474465,,-0.0854600422574,-5.57114840295,4.0161342791
1589273498187177725,933,1589273498187109431,,-0.0863465361372,-5.56623273373,4.0122658864
1589273498190301557,934,1589273498190146657,,-0.0876384342262,-5.55589048166,4.00436993836
1589273498193179778,935,1589273498193108156,,-0.0881522445266,-5.58201604706,4.01627664912
1589273498196275649,936,1589273498196185312,,-0.0888006720785,-5.57744153864,4.01269964173
1589273498199235354,937,1589273498199163848,,-0.0894786375284,-5.60332836219,4.02424609621
1589273498202425245,938,1589273498202356659,,-0.0899436050629,-5.59868700523,4.0208785143
1589273498205217602,939,1589273498205153975,,-0.0905997378231,-5.62467838471,4.03245555846
1589273498208232382,940,1589273498208144780,,-0.0911834713725,-5.62020754596,4.02918659667
1589273498214388079,941,1589273498214312603,,-0.092532902013,-5.63703852184,4.03426789965
1589273498217473794,942,1589273498217399482,,-0.0931746894177,-5.63193849365,4.03022863122
1589273498223523994,943,1589273498223402920,,-0.0945710780163,-5.65288191622,4.03794072733
1589273498226410993,944,1589273498226333597,,-0.0951180095072,-5.67911794686,4.04984125521
1589273498229438983,945,1589273498229363564,,-0.0962603185863,-5.66913179342,4.04260824352
1589273498232520572,946,1589273498232408861,,-0.0970343102791,-5.69468897106,4.05389019324
1589273498235643910,947,1589273498235548469,,-0.0982177666656,-5.68576526137,4.04653024624
1589273498238571617,948,1589273498238503628,,-0.0987646659925,-5.71157778916,4.05807497359
1589273498241563969,949,1589273498241484341,,-0.0998291998227,-5.70727049321,4.05409716074
1589273498247639597,950,1589273498247543220,,-0.100183887185,-5.73286733157,4.06579247954
1589273498253515593,951,1589273498253399873,,-0.100875725894,-5.75830588112,4.0769754755
1589273498256478292,952,1589273498256393389,,-0.102397043092,-5.74920686872,4.06925779605
1589273498259504340,953,1589273498259412960,,-0.103205248717,-5.77449920705,4.08017997465
1589273498262588731,954,1589273498262524923,,-0.104945114686,-5.7655119453,4.07182208826
1589273498265471274,955,1589273498265395909,,-0.105520056723,-5.78995955992,4.08287898022
1589273498268485531,956,1589273498268392647,,-0.107033820547,-5.78027633563,4.07503296106
1589273498274553094,957,1589273498274418359,,-0.109470611994,-5.79414410108,4.0771274533
1589273498277630196,958,1589273498277446269,,-0.110337840563,-5.78892074267,4.07291711771
1589273498283853800,959,1589273498283746259,,-0.111692926872,-5.80801771783,4.07952060673
1589273498289506578,960,1589273498289429098,,-0.112253430408,-5.83223488814,4.09034916425
1589273498292468468,961,1589273498292368768,,-0.113007800464,-5.8558312948,4.10110056321
1589273498295618164,962,1589273498295531666,,-0.113704587191,-5.85083451609,4.09710054966
1589273498301737773,963,1589273498301628019,,-0.114558671584,-5.87553275569,4.10779982477
1589273498304930419,964,1589273498304847481,,-0.11544081891,-5.87516754292,4.10608050004
1589273498310756527,965,1589273498310636783,,-0.116462256134,-5.89559419367,4.11426840187
1589273498316725623,966,1589273498316624337,,-0.118469947895,-5.9149791303,4.12046150808
1589273498322730376,967,1589273498322618980,,-0.119324791118,-5.93969144506,4.13129758564
1589273498328801246,968,1589273498328678405,,-0.120288424884,-5.9635039951,4.14172346608
1589273498334687760,969,1589273498334574598,,-0.121146185112,-5.98735703125,4.1523409921
1589273498340768575,970,1589273498340649895,,-0.122238320334,-6.01116174769,4.16250512043
1589273498346756606,971,1589273498346631429,,-0.123176020058,-6.03480754605,4.17292279103
1589273498352800632,972,1589273498352651059,,-0.124143222423,-6.0580453462,4.18522797471
1589273498358826371,973,1589273498358662542,,-0.125517158454,-6.08010949819,4.20001321957
1589273498364986770,974,1589273498364863716,,-0.126626766089,-6.10312590097,4.20893166777
1589273498370876215,975,1589273498370745839,,-0.127524566025,-6.09862572408,4.20525777584
1589273498376875512,976,1589273498376713716,,-0.128387465882,-6.12172684756,4.21567034689
1589273498383279168,977,1589273498383170404,,-0.128917883068,-6.14391361367,4.22566706326
1589273498388926554,978,1589273498388823904,,-0.129478268769,-6.16636425149,4.23534573627
1589273498394686279,979,1589273498394589709,,-0.129920113338,-6.18860442631,4.24539118283
1589273498400644578,980,1589273498400546683,,-0.130990061187,-6.21066107406,4.25461313768
1589273498406685824,981,1589273498406606725,,-0.132084384486,-6.23200454112,4.26353815207
1589273498412670894,982,1589273498412585466,,-0.132884001974,-6.25358527734,4.27268372875
1589273498419068124,983,1589273498418794100,,-0.13380562814,-6.27450198867,4.28168717674
1589273498424804541,984,1589273498424713637,,-0.134837410656,-6.29505353052,4.29025516001
1589273498430805644,985,1589273498430684376,,-0.135909219679,-6.28949955082,4.2856434737
1589273498436594365,986,1589273498436513925,,-0.137159377627,-6.31064919095,4.29404927166
1589273498439938017,987,1589273498439790812,,-0.138282393708,-6.33153441594,4.30318442958
1589273498445881270,988,1589273498445744596,,-0.139135775573,-6.35309721828,4.31249815484
1589273498454601644,989,1589273498454516832,,-0.140807433125,-6.3689768772,4.31805020716
1589273498457629658,990,1589273498457529412,,-0.141610809109,-6.36395657842,4.31508825523
1589273498463628482,991,1589273498463536867,,-0.142522738607,-6.3852777291,4.32492450505
1589273498466794909,992,1589273498466644586,,-0.143385310696,-6.40588446031,4.33466382078
1589273498472780509,993,1589273498472678996,,-0.144439784837,-6.42679147819,4.34433867026
1589273498478894959,994,1589273498478787506,,-0.145559495515,-6.44719044782,4.35379038909
1589273498485270909,995,1589273498485165856,,-0.146488631836,-6.46707527283,4.36326869087
1589273498490699224,996,1589273498490584849,,-0.147151320736,-6.46362680126,4.36095024372
1589273498496583184,997,1589273498496478716,,-0.14805986983,-6.48372217658,4.37007199413
1589273498499711852,998,1589273498499586870,,-0.149294554081,-6.50290552605,4.37829004795
1589273498505689106,999,1589273498505603032,,-0.150059636858,-6.52278133064,4.38736986855
1589273498508617508,1000,1589273498508529870,,-0.150847581998,-6.51767887519,4.38404065163
1589273498514783351,1001,1589273498514633746,,-0.152655189726,-6.52992804726,4.38892498889
1589273498520730762,1002,1589273498520636352,,-0.153195445671,-6.54818455209,4.3980494072
1589273498526772266,1003,1589273498526699263,,-0.153881845297,-6.56656330417,4.4067827345
1589273498532850788,1004,1589273498532714969,,-0.154417400311,-6.58404498628,4.41584685734
1589273498538716428,1005,1589273498538628908,,-0.15517599712,-6.60126337441,4.42421744526
1589273498541636731,1006,1589273498541557807,,-0.155620828752,-6.59523935253,4.42092072297
1589273498544589487,1007,1589273498544498132,,-0.155915743626,-6.58836158859,4.41756589624
1589273498547600468,1008,1589273498547490285,,-0.156767088829,-6.60549045905,4.42515062767
1589273498550700163,1009,1589273498550630553,,-0.157230283359,-6.59897951175,4.42147837031
1589273498556701270,1010,1589273498556612364,,-0.157765645061,-6.61680822882,4.42985059419
1589273498559532741,1011,1589273498559462115,,-0.158492785015,-6.63289840161,4.43750257549
1589273498562796841,1012,1589273498562667631,,-0.15920975126,-6.62552242351,4.43312630446
1589273498568845726,1013,1589273498568748475,,-0.159575365345,-6.64311374663,4.44143456976
1589273498574995081,1014,1589273498574837308,,-0.160315438917,-6.65979135377,4.44898897696
1589273498580742355,1015,1589273498580631398,,-0.16104936311,-6.67552525653,4.4562498371
1589273498587140444,1016,1589273498586978208,,-0.16153419278,-6.6917372578,4.46435539785
1589273498592889955,1017,1589273498592759096,,-0.162260780191,-6.70804290136,4.47219826703
1589273498598896492,1018,1589273498598777721,,-0.162881845913,-6.72469177535,4.47985685474
1589273498605177388,1019,1589273498605048288,,-0.163310556735,-6.74123394359,4.48791563313
1589273498610902879,1020,1589273498610790221,,-0.163747450997,-6.73544383963,4.48502706387
1589273498616765269,1021,1589273498616597406,,-0.164119959269,-6.75137858182,4.49276726823
1589273498619673646,1022,1589273498619603104,,-0.164622835497,-6.76720683363,4.50010462431
1589273498622677293,1023,1589273498622608544,,-0.16506235193,-6.76078615345,4.49665637747
1589273498625620676,1024,1589273498625511165,,-0.165224948626,-6.77554677948,4.50385354525
1589273498628723958,1025,1589273498628591204,,-0.165603472977,-6.7710851096,4.50134370168
1589273498634630644,1026,1589273498634550151,,-0.166531108334,-6.77770939748,4.50368781843
1589273498637659284,1027,1589273498637566694,,-0.166769654056,-6.77071192195,4.50025924459
1589273498640643768,1028,1589273498640556378,,-0.167225473323,-6.78403829966,4.50660916455
1589273498643715186,1029,1589273498643631085,,-0.167373332142,-6.77518749135,4.50242489214
1589273498646833876,1030,1589273498646714821,,-0.167797902896,-6.78745131232,4.50820284398
1589273498652784122,1031,1589273498652706141,,-0.167835544662,-6.79981036373,4.51448586348
1589273498655883376,1032,1589273498655758631,,-0.168071249974,-6.79142615905,4.50996441523
1589273498661833947,1033,1589273498661753467,,-0.168205574023,-6.80391661918,4.51635235133
1589273498667750297,1034,1589273498667642297,,-0.16847282358,-6.81502610721,4.52175721248
1589273498670641579,1035,1589273498670561462,,-0.168937815849,-6.80692249468,4.51715293781
1589273498676898705,1036,1589273498676780370,,-0.169672591401,-6.81820198309,4.52191480035
1589273498683146637,1037,1589273498683047248,,-0.169693886399,-6.82927845317,4.52770928432
1589273498688810315,1038,1589273498688697083,,-0.169750702577,-6.84022294913,4.53349585844
1589273498694856411,1039,1589273498694695428,,-0.170027658781,-6.85093120626,4.53880977006
1589273498700783012,1040,1589273498700685695,,-0.17071848963,-6.86223831891,4.5436731783
1589273498703756409,1041,1589273498703589566,,-0.170874082583,-6.8542196921,4.53917179508
1589273498706702898,1042,1589273498706626995,,-0.171240758463,-6.86511561696,4.54441464539
1589273498709675035,1043,1589273498709620052,,-0.171799255236,-6.85840905859,4.54034243348
1589273498712634442,1044,1589273498712567497,,-0.172363492718,-6.86952086513,4.5457319413
1589273498715785883,1045,1589273498715687943,,-0.1729666296,-6.86185570638,4.54140171147
1589273498718840492,1046,1589273498718736525,,-0.173087755236,-6.87202276421,4.54674931968
1589273498721791051,1047,1589273498721692826,,-0.1737432852,-6.86476209979,4.54230874252
1589273498724910910,1048,1589273498724812665,,-0.174126919537,-6.8511740119,4.53496501755
1589273498730784362,1049,1589273498730684497,,-0.174013852835,-6.86704871105,4.54326060583
1589273498736396619,1050,1589273498736305642,,-0.17428664724,-6.87663376802,4.54770998118
1589273498739598064,1051,1589273498739492022,,-0.174626893561,-6.88603369673,4.55191162664
1589273498742721755,1052,1589273498742552799,,-0.174794652012,-6.87715002988,4.54760431163
1589273498745613743,1053,1589273498745526807,,-0.174858452442,-6.88653986118,4.55241437177
1589273498748522956,1054,1589273498748441502,,-0.175143455903,-6.87639650071,4.54726551948
1589273498754843231,1055,1589273498754751236,,-0.1749547857,-6.86482058091,4.54162672724
1589273498757785634,1056,1589273498757704875,,-0.175084723134,-6.84488093989,4.53171141409
1589273498763908821,1057,1589273498763774694,,-0.174878813896,-6.85261093761,4.53529239578
1589273498769712797,1058,1589273498769611764,,-0.174507385556,-6.85831512396,4.53905970981
1589273498772682446,1059,1589273498772562664,,-0.174611324458,-6.86505297231,4.54201002484
1589273498775704344,1060,1589273498775602176,,-0.175038946743,-6.85611454809,4.53673444408
1589273498778576638,1061,1589273498778468477,,-0.175200847872,-6.86343052356,4.54029064568
1589273498781677063,1062,1589273498781548557,,-0.175507561055,-6.85407294464,4.53570546057
1589273498787917380,1063,1589273498787772253,,-0.176619202876,-6.84747669411,4.53113672677
1589273498790817182,1064,1589273498790745542,,-0.17705112223,-6.84243366949,4.52759709049
1589273498796599081,1065,1589273498796491253,,-0.177763375865,-6.84373010875,4.52802628873
1589273498799736895,1066,1589273498799650051,,-0.178116665451,-6.85489402802,4.53307257363
1589273498802821807,1067,1589273498802709350,,-0.178681446233,-6.8396935032,4.52723634288
1589273498805761551,1068,1589273498805567842,,-0.178974266644,-6.84877247502,4.53174028355
1589273498808662375,1069,1589273498808517894,,-0.179010245481,-6.84090861875,4.5285561539
1589273498814727638,1070,1589273498814624101,,-0.179255497323,-6.84035840088,4.52898483311
1589273498817813987,1071,1589273498817668576,,-0.179352368313,-6.83145751383,4.52447767345
1589273498823668406,1072,1589273498823573027,,-0.179506496776,-6.83777246882,4.52741182281
1589273498826672202,1073,1589273498826585906,,-0.179545075056,-6.8437073584,4.53017181544
1589273498829649713,1074,1589273498829560195,,-0.179010907686,-6.82258815194,4.52092984253
1589273498832623739,1075,1589273498832536358,,-0.179042572143,-6.82878644886,4.52362102751
1589273498835637808,1076,1589273498835543456,,-0.178760162703,-6.81666831115,4.51795743003
1589273498838625925,1077,1589273498838540722,,-0.178198702365,-6.81846201327,4.51960461249
1589273498841605426,1078,1589273498841529853,,-0.177907444761,-6.80887658462,4.51539080346
1589273498845199738,1079,1589273498844631528,,-0.178071295292,-6.79685572377,4.50961219966
1589273498847671101,1080,1589273498847571550,,-0.178492870068,-6.79989064385,4.5113521196
1589273498850671879,1081,1589273498850585359,,-0.178569905931,-6.78964038172,4.50702583209
1589273498853534971,1082,1589273498853470921,,-0.17892705379,-6.79384990653,4.5093387903
1589273498856729495,1083,1589273498856640107,,-0.179252421044,-6.78549816424,4.50507009946
1589273498859648846,1084,1589273498859581084,,-0.179200620111,-6.791767586,4.50863459505
1589273498862636974,1085,1589273498862536539,,-0.179697241238,-6.78496986399,4.50453815694
1589273498865750209,1086,1589273498865629943,,-0.180273643072,-6.78694803507,4.50539260629
1589273498868708148,1087,1589273498868630342,,-0.180877863683,-6.7748434926,4.49957912943
1589273498874788820,1088,1589273498874708163,,-0.18145876513,-6.76654458501,4.49713898514
1589273498877767851,1089,1589273498877698645,,-0.181452154876,-6.75769523066,4.49314678913
1589273498884106830,1090,1589273498884001420,,-0.181216210803,-6.76180072417,4.4960799624
1589273498889939765,1091,1589273498889771395,,-0.181063993108,-6.76441340538,4.49764631491
1589273498895879151,1092,1589273498895737293,,-0.180860055734,-6.76638583963,4.49927446043
1589273498898935169,1093,1589273498898805032,,-0.180345657163,-6.76813027277,4.50071848181
1589273498901750272,1094,1589273498901667169,,-0.180129795247,-6.75610398354,4.49497000944
1589273498905063917,1095,1589273498904912719,,-0.179546190847,-6.73399437356,4.48471750812
1589273498907635791,1096,1589273498907533393,,-0.178830435737,-6.74266177803,4.49014594825
1589273498910519365,1097,1589273498910420781,,-0.177985884562,-6.72894523086,4.48460816255
1589273498913474914,1098,1589273498913395690,,-0.17756986497,-6.72822366259,4.48482572365
1589273498916483765,1099,1589273498916403813,,-0.176858615389,-6.71466811912,4.47891445605
1589273498919801317,1100,1589273498919706240,,-0.176034268108,-6.71530187668,4.48032623751
1589273498922714174,1101,1589273498922636075,,-0.175498531032,-6.70201796309,4.47459949286
1589273498925766748,1102,1589273498925647442,,-0.175112277556,-6.70074622315,4.47496514142
1589273498928495487,1103,1589273498928416890,,-0.174755465471,-6.69013223427,4.4705336074
1589273498932068904,1104,1589273498931996275,,-0.174527151593,-6.69042466137,4.47175077078
1589273498937540663,1105,1589273498937452324,,-0.174740143188,-6.67899663571,4.46633446345
1589273498940455214,1106,1589273498940379174,,-0.174621675339,-6.68206706841,4.46829998572
1589273498943510885,1107,1589273498943439803,,-0.174678198524,-6.67378750475,4.46433932015
1589273498946462952,1108,1589273498946371515,,-0.17471990264,-6.67789592959,4.46670998715
1589273498949460790,1109,1589273498949389424,,-0.174817942863,-6.66522873101,4.46049309477
1589273498952522042,1110,1589273498952401854,,-0.17503558652,-6.66922419473,4.46252038415
1589273498955503584,1111,1589273498955427544,,-0.17501791683,-6.66238616366,4.45930024124
1589273498958595459,1112,1589273498958522733,,-0.175340791204,-6.66578968197,4.46127323219
1589273498961495285,1113,1589273498961416351,,-0.175485268588,-6.65715323958,4.45749490787
1589273498965114630,1114,1589273498964867163,,-0.175151536463,-6.64830581904,4.45381632448
1589273498970540988,1115,1589273498970456596,,-0.175162995268,-6.64946913007,4.45461569748
1589273498973528894,1116,1589273498973453546,,-0.17514375074,-6.64954100318,4.45452710211
1589273498976572781,1117,1589273498976471917,,-0.174848492374,-6.63853726794,4.44985281739
1589273498979544946,1118,1589273498979407354,,-0.174626589224,-6.6378714301,4.44980430196
1589273498983133540,1119,1589273498983051351,,-0.174197545909,-6.62519453568,4.44435012112
1589273498988741761,1120,1589273498988645422,,-0.173977627543,-6.62291056959,4.44372976714
1589273498992212691,1121,1589273498992128813,,-0.173369850311,-6.61984841089,4.44301502166
1589273498997897358,1122,1589273498997791126,,-0.172928315054,-6.60605333488,4.43707719671
1589273499003849358,1123,1589273499003744358,,-0.172666402447,-6.60208606565,4.435848762
1589273499006653884,1124,1589273499006567323,,-0.171883864021,-6.59798213874,4.4348480906
1589273499009714621,1125,1589273499009612669,,-0.171552692718,-6.58492172499,4.42928718099
1589273499012711393,1126,1589273499012604548,,-0.171445177133,-6.58069040202,4.42790073674
1589273499015836848,1127,1589273499015735317,,-0.171608649674,-6.56885765292,4.42207065163
1589273499018794712,1128,1589273499018628345,,-0.171650408556,-6.56671930431,4.42196099498
1589273499021757158,1129,1589273499021661232,,-0.171875246624,-6.55837709229,4.41774584812
1589273499024865068,1130,1589273499024787517,,-0.172098108136,-6.55702216216,4.41717815261
1589273499027773016,1131,1589273499027673269,,-0.172215203614,-6.54719453024,4.41274190462
1589273499030712810,1132,1589273499030628842,,-0.172356739482,-6.54109849407,4.40993320616
1589273499033754173,1133,1589273499033684757,,-0.172835874061,-6.54190132972,4.41050974579
1589273499036626539,1134,1589273499036524123,,-0.173372005249,-6.53403826672,4.40675175395
1589273499039620855,1135,1589273499039573645,,-0.173698671254,-6.53520964317,4.40734947176
1589273499042589466,1136,1589273499042496255,,-0.174003603139,-6.52881410225,4.40449281142
1589273499045581403,1137,1589273499045492069,,-0.174396331849,-6.53280558212,4.40622289855
1589273499048658057,1138,1589273499048510364,,-0.174390086975,-6.52560465,4.40317948105
1589273499052024868,1139,1589273499051897822,,-0.174756249931,-6.52518684962,4.40291554628
1589273499058111342,1140,1589273499057921415,,-0.174640026056,-6.51878332324,4.40022230972
1589273499063380259,1141,1589273499063278598,,-0.174537580185,-6.51754169365,4.40048626676
1589273499066714718,1142,1589273499066623758,,-0.17481252966,-6.51502433596,4.39930241729
1589273499069645062,1143,1589273499069536650,,-0.174396443324,-6.50462269379,4.39524684297
1589273499072622877,1144,1589273499072555108,,-0.174187629134,-6.50466546303,4.39566988768
1589273499075652829,1145,1589273499075567213,,-0.174200405214,-6.49459197572,4.39123525493
1589273499078808549,1146,1589273499078691778,,-0.173883643759,-6.48973614715,4.39001371334
1589273499081822632,1147,1589273499081751633,,-0.173654735162,-6.48144089054,4.38642733307
1589273499087826813,1148,1589273499087741532,,-0.173168131431,-6.46471921971,4.38070683526
1589273499090849636,1149,1589273499090761153,,-0.1733254337,-6.45440547408,4.37593256754
1589273499093798062,1150,1589273499093718262,,-0.173115387033,-6.44993388358,4.37471453074
1589273499096807895,1151,1589273499096697314,,-0.172791104536,-6.43911798181,4.37043787807
1589273499099462532,1152,1589273499099384582,,-0.172718838331,-6.43485894356,4.36934635148
1589273499102696684,1153,1589273499102408524,,-0.17255349601,-6.4243719216,4.36489856535
1589273499105492781,1154,1589273499105400902,,-0.172809619513,-6.42012227097,4.36326905661
1589273499108503323,1155,1589273499108420961,,-0.172933650825,-6.41002432616,4.35894888486
1589273499112282571,1156,1589273499112205597,,-0.173205895303,-6.40634122868,4.35816172491
1589273499117561293,1157,1589273499117481789,,-0.173472142647,-6.39754751908,4.35453604995
1589273499120497044,1158,1589273499120420648,,-0.173629859325,-6.39660617814,4.35460835093
1589273499123519784,1159,1589273499123420475,,-0.173899380888,-6.38813125572,4.35054797101
1589273499126799996,1160,1589273499126691347,,-0.17432118447,-6.38502597364,4.34922738509
1589273499129781957,1161,1589273499129705998,,-0.174417551653,-6.37945077578,4.34710272793
1589273499132789983,1162,1589273499132686601,,-0.174945207489,-6.37711988536,4.34650727117
1589273499135810161,1163,1589273499135720143,,-0.175381714177,-6.36870110582,4.34261821951
1589273499138627379,1164,1589273499138556176,,-0.175411319667,-6.36595204702,4.34201475903
1589273499141694173,1165,1589273499141583071,,-0.175462475797,-6.35847579408,4.33894760786
1589273499144691368,1166,1589273499144445745,,-0.175797628743,-6.35071758923,4.33502744754
1589273499147784234,1167,1589273499147695697,,-0.175957029247,-6.34768071308,4.33362820707
1589273499150876498,1168,1589273499150767163,,-0.175723572271,-6.33861492781,4.32953739524
1589273499156489742,1169,1589273499156414313,,-0.175829631578,-6.33434297924,4.32733723886
1589273499159403313,1170,1589273499159341228,,-0.175855049729,-6.32911075548,4.32514811098
1589273499162752715,1171,1589273499162636379,,-0.175564956916,-6.31800479745,4.32043049259
1589273499165805164,1172,1589273499165704861,,-0.175267612721,-6.31302622889,4.31825632421
1589273499168827301,1173,1589273499168730638,,-0.175023688405,-6.30105533451,4.31344729316
1589273499171939776,1174,1589273499171832687,,-0.174457909863,-6.29347588081,4.31065836246
1589273499174633865,1175,1589273499174565563,,-0.174233786673,-6.28294798235,4.30600733962
1589273499177690323,1176,1589273499177514954,,-0.174139399724,-6.27130619818,4.30062760623
1589273499180521798,1177,1589273499180426889,,-0.173669374798,-6.26381402327,4.29791208299
1589273499183681128,1178,1589273499183587220,,-0.17323808752,-6.25249572449,4.29389577557
1589273499186803627,1179,1589273499186736257,,-0.173422897656,-6.24615503585,4.29115559543
1589273499189554055,1180,1589273499189483158,,-0.173376706903,-6.23447597305,4.28618961733
1589273499192835997,1181,1589273499192718202,,-0.173435664866,-6.22784840431,4.28392048014
1589273499195719136,1182,1589273499195635073,,-0.173941756894,-6.21879158151,4.27965985371
1589273499198795736,1183,1589273499198708752,,-0.173858814542,-6.21306269552,4.27763868704
1589273499201615945,1184,1589273499201556227,,-0.174223745828,-6.20405585812,4.27397923656
1589273499204817426,1185,1589273499204574865,,-0.174906989088,-6.19700672714,4.26992417003
1589273499207958198,1186,1589273499207850473,,-0.175240496664,-6.19259069086,4.26813074756
1589273499210937828,1187,1589273499210820399,,-0.17553243059,-6.18555855824,4.26520015604
1589273499216948690,1188,1589273499216812311,,-0.175876518142,-6.1814934475,4.26348828481
1589273499219685468,1189,1589273499219564471,,-0.176447861284,-6.17729070021,4.26165263654
1589273499222717987,1190,1589273499222606671,,-0.176760203852,-6.17047694077,4.25848824062
1589273499225878445,1191,1589273499225735106,,-0.177036361897,-6.1661819831,4.25641078221
1589273499228778612,1192,1589273499228680468,,-0.177367523041,-6.15834984262,4.2525764719
1589273499234572892,1193,1589273499234490085,,-0.177596414063,-6.14351043458,4.24650278689
1589273499237543459,1194,1589273499237442771,,-0.17774741813,-6.13413957197,4.24241734663
1589273499240530868,1195,1589273499240468052,,-0.17797401178,-6.12597054075,4.23914081979
1589273499243447277,1196,1589273499243364282,,-0.178156138007,-6.11615158096,4.2347839861
1589273499246580885,1197,1589273499246494135,,-0.178264183033,-6.10777717972,4.23142544937
1589273499249620707,1198,1589273499249556687,,-0.178059541553,-6.09610351466,4.2267109848
1589273499252344417,1199,1589273499252274913,,-0.178032479146,-6.08656110174,4.22292393218
1589273499255495438,1200,1589273499255403332,,-0.178382815715,-6.0751392032,4.21747123311
1589273499258908335,1201,1589273499258819821,,-0.178145214159,-6.06525505964,4.21392718632
1589273499261861576,1202,1589273499261758304,,-0.178101013116,-6.05397303765,4.20932345793
1589273499264984035,1203,1589273499264885759,,-0.178185107514,-6.04183251532,4.20445515745
1589273499267843369,1204,1589273499267758332,,-0.178334341372,-6.03212468008,4.20031567284
1589273499270783583,1205,1589273499270700477,,-0.178623894327,-6.0211051468,4.19546604568
1589273499276840528,1206,1589273499276747636,,-0.178707038175,-6.01231908013,4.19224888614
1589273499279871815,1207,1589273499279776497,,-0.179275571581,-6.00389821176,4.1885854503
1589273499282787101,1208,1589273499282733629,,-0.179770166792,-5.9942227522,4.18494900057
1589273499285761300,1209,1589273499285655492,,-0.180454431349,-5.98756893959,4.18192745032
1589273499288443564,1210,1589273499288342318,,-0.180926352843,-5.98206627071,4.17954931533
1589273499291713368,1211,1589273499291633226,,-0.181644943151,-5.97571714688,4.17654089297
1589273499294677801,1212,1589273499294565082,,-0.182445075506,-5.96893772166,4.17310925237
1589273499297875947,1213,1589273499297764938,,-0.182705944145,-5.96469668727,4.17134788303
1589273499300948110,1214,1589273499300820479,,-0.183377540527,-5.95960832532,4.16910815895
1589273499303845433,1215,1589273499303764323,,-0.184210651103,-5.95338506068,4.16566022737
1589273499310018206,1216,1589273499309934249,,-0.184773925707,-5.94717570355,4.16317744283
1589273499312788424,1217,1589273499312712513,,-0.18537460777,-5.94124313827,4.16043657729
1589273499315799580,1218,1589273499315713535,,-0.185862937855,-5.93448506384,4.15734486319
1589273499318900729,1219,1589273499318766770,,-0.186212723633,-5.92791416815,4.1544788342
1589273499321572505,1220,1589273499321462093,,-0.186792092593,-5.91986563416,4.15062042566
1589273499324733212,1221,1589273499324655817,,-0.18698063958,-5.91120325519,4.14656205722
1589273499327553372,1222,1589273499327437748,,-0.187185472037,-5.90348211161,4.14286177352
1589273499330518472,1223,1589273499330428958,,-0.187476058775,-5.89469050367,4.13887886569
1589273499333539888,1224,1589273499333458347,,-0.18771339953,-5.88418447098,4.13436152076
1589273499336590915,1225,1589273499336520266,,-0.187848027441,-5.8753353983,4.13045911224
1589273499339551188,1226,1589273499339469320,,-0.188220337671,-5.8647162525,4.12560141011
1589273499342576075,1227,1589273499342426727,,-0.188374786961,-5.8558329103,4.12160912368
1589273499345558644,1228,1589273499345488894,,-0.188397997535,-5.84512617458,4.11762532662
1589273499348553584,1229,1589273499348480454,,-0.188809731001,-5.83571119704,4.11358953509
1589273499354971982,1230,1589273499354844568,,-0.189789382672,-5.81605609526,4.10465844122
1589273499358101145,1231,1589273499358003326,,-0.190109148296,-5.78958199978,4.09227755956
1589273499360944816,1232,1589273499360846276,,-0.19054358267,-5.79682811831,4.09650783197
1589273499363863138,1233,1589273499363735870,,-0.191012660749,-5.788133023,4.09282415347
1589273499366744639,1234,1589273499366637884,,-0.191723449674,-5.77869051572,4.08842990651
1589273499369636060,1235,1589273499369566419,,-0.192253740113,-5.77062806014,4.0850083346
1589273499372577247,1236,1589273499372496447,,-0.193096132353,-5.76160410248,4.08085524163
1589273499375606433,1237,1589273499375514648,,-0.193737463461,-5.75409548578,4.07780753862
1589273499378956162,1238,1589273499378890230,,-0.194584003214,-5.74536937671,4.07360444368
1589273499381675400,1239,1589273499381555898,,-0.195750214637,-5.73921641392,4.07052765687
1589273499385171749,1240,1589273499385088381,,-0.196458123071,-5.73118038835,4.06661802409
1589273499387780471,1241,1589273499387702530,,-0.197277122692,-5.72523537942,4.06370052385
1589273499391847625,1242,1589273499391750432,,-0.198041359203,-5.71718279224,4.06021597395
1589273499396761070,1243,1589273499396675456,,-0.198640047067,-5.71076944434,4.05864380247
1589273499399697902,1244,1589273499399614764,,-0.199522233013,-5.70239202727,4.05454038812
1589273499402858793,1245,1589273499402722808,,-0.200186102795,-5.69833774605,4.05266521889
1589273499405640364,1246,1589273499405545643,,-0.200792933838,-5.68942180128,4.04878572679
1589273499408647798,1247,1589273499408491269,,-0.201597375472,-5.6827461409,4.04584735984
1589273499414720287,1248,1589273499414612585,,-0.202930808877,-5.6690596573,4.03966914326
1589273499417884444,1249,1589273499417694593,,-0.203681604594,-5.66272962676,4.03701894773
1589273499423726485,1250,1589273499423643198,,-0.204409755111,-5.65334320166,4.03315877328
1589273499426731871,1251,1589273499426665087,,-0.205065169003,-5.64427494839,4.02907389799
1589273499429724324,1252,1589273499429646206,,-0.205940870604,-5.6377333008,4.0258570603
1589273499432696553,1253,1589273499432562399,,-0.206664083572,-5.62892370169,4.02139386431
1589273499435614183,1254,1589273499435550355,,-0.207124497206,-5.62315436198,4.01890382746
1589273499438724139,1255,1589273499438641587,,-0.207684398362,-5.613437252,4.01440741623
1589273499441525888,1256,1589273499441462059,,-0.20833933577,-5.60704449734,4.01163761973
1589273499444836722,1257,1589273499444688378,,-0.209456274232,-5.60156274036,4.00826371201
1589273499447572885,1258,1589273499447504207,,-0.209905860208,-5.59198186992,4.00420125502
1589273499450585266,1259,1589273499450491231,,-0.210814843126,-5.5862132815,4.00160068908
1589273499453576662,1260,1589273499453493280,,-0.211478961897,-5.57583284394,3.99720547658
1589273499456658019,1261,1589273499456546581,,-0.2123594934,-5.56965839415,3.99474499102
1589273499459603502,1262,1589273499459524652,,-0.213034766625,-5.559797086,3.99068376123
1589273499462578083,1263,1589273499462517050,,-0.213900069196,-5.55425424144,3.9881248133
1589273499465526003,1264,1589273499465462155,,-0.215057971981,-5.54392704624,3.98285038747
1589273499468623466,1265,1589273499468550050,,-0.215707934323,-5.53803962452,3.98053113218
1589273499474625027,1266,1589273499474525823,,-0.217314686193,-5.52310469294,3.97384442698
1589273499477986582,1267,1589273499477722914,,-0.21867218657,-5.51725740647,3.97069189411
1589273499480748336,1268,1589273499480633743,,-0.219236206065,-5.5068869938,3.96647352581
1589273499484176428,1269,1589273499484057951,,-0.219862462734,-5.50090404335,3.96437606447
1589273499489980484,1270,1589273499489840250,,-0.22105581811,-5.49133262161,3.9590257636
1589273499492959406,1271,1589273499492873618,,-0.221639164162,-5.48159666494,3.95455210629
1589273499495978363,1272,1589273499495854657,,-0.222290835204,-5.47696954521,3.95243924621
1589273499499290231,1273,1589273499499185996,,-0.222964522529,-5.46746403576,3.94775596219
1589273499505065253,1274,1589273499504966905,,-0.223765893886,-5.45725871194,3.9428511119
1589273499507900546,1275,1589273499507810537,,-0.224422663095,-5.45173408814,3.94074247055
1589273499510864010,1276,1589273499510803026,,-0.225108818223,-5.44791431934,3.93898963575
1589273499514004986,1277,1589273499513900668,,-0.225911900991,-5.43824343104,3.93416471545
1589273499516944595,1278,1589273499516822242,,-0.226648280802,-5.4331681679,3.93194884866
1589273499519886735,1279,1589273499519793169,,-0.227350442371,-5.42266900689,3.92688418259
1589273499522930846,1280,1589273499522793632,,-0.227901793134,-5.41829669536,3.9251634229
1589273499525832878,1281,1589273499525740450,,-0.228323920838,-5.40800861746,3.92067342753
1589273499529012283,1282,1589273499528867417,,-0.228785890478,-5.40358008007,3.91908046369
1589273499535005820,1283,1589273499534878058,,-0.229885869448,-5.38957485499,3.91219982508
1589273499537943813,1284,1589273499537838087,,-0.230411344155,-5.38523315855,3.91007762577
1589273499540894875,1285,1589273499540762256,,-0.231028181939,-5.37501156626,3.90505032272
1589273499543944531,1286,1589273499543829700,,-0.231626030366,-5.37132461795,3.90332951891
1589273499549859101,1287,1589273499549748729,,-0.231813648592,-5.3616837409,3.89910517246
1589273499552831669,1288,1589273499552746414,,-0.232324089158,-5.35096734845,3.89431841895
1589273499555766907,1289,1589273499555681791,,-0.232931178894,-5.34706249062,3.89235779552
1589273499558924237,1290,1589273499558832338,,-0.233429746679,-5.3370945148,3.88774025165
1589273499561774681,1291,1589273499561695312,,-0.234043098976,-5.33314937999,3.88606428523
1589273499567797586,1292,1589273499567729595,,-0.235135075095,-5.31815398883,3.87944749022
1589273499570750325,1293,1589273499570648694,,-0.23586444964,-5.31466085502,3.87763957987
1589273499573878194,1294,1589273499573752783,,-0.236569503741,-5.30421675399,3.87221692478
1589273499576803883,1295,1589273499576659277,,-0.236840228508,-5.30093731423,3.87125045924
1589273499579746078,1296,1589273499579688381,,-0.237335753456,-5.29073205513,3.86614522644
1589273499582693018,1297,1589273499582626076,,-0.237831575633,-5.28726854477,3.86446204053
1589273499586011007,1298,1589273499585910277,,-0.238247928502,-5.27678597194,3.85917167786
1589273499588751332,1299,1589273499588652565,,-0.238558114432,-5.27318438011,3.858017786
1589273499594766831,1300,1589273499594678797,,-0.23939832538,-5.25944778524,3.85127486124
1589273499598095081,1301,1589273499597918705,,-0.239820616866,-5.25568143346,3.85012622601
1589273499600816464,1302,1589273499600709341,,-0.240143854283,-5.24468073358,3.84504461297
1589273499603769604,1303,1589273499603682989,,-0.240477302046,-5.24153350449,3.84380100388
1589273499606768529,1304,1589273499606690827,,-0.240856228911,-5.23100390021,3.83899716621
1589273499609919666,1305,1589273499609749432,,-0.241132639875,-5.2270958586,3.83747578155
1589273499612797497,1306,1589273499612714969,,-0.241538914655,-5.21615859958,3.83258408959
1589273499615819013,1307,1589273499615725641,,-0.241970185013,-5.21241778078,3.83108249771
1589273499619111261,1308,1589273499619042910,,-0.242642302877,-5.20175302748,3.82547926078
1589273499621724820,1309,1589273499621642745,,-0.24290272547,-5.19861383485,3.82449391707
1589273499625110820,1310,1589273499624782068,,-0.243257947271,-5.19539483752,3.82302390683
1589273499627705082,1311,1589273499627624722,,-0.243660006006,-5.18438750733,3.81759238784
1589273499630717292,1312,1589273499630629758,,-0.244053817245,-5.18111684618,3.81638373899
1589273499636744138,1313,1589273499636657333,,-0.244366330143,-5.16974012651,3.81076387126
1589273499639625856,1314,1589273499639554371,,-0.244604582031,-5.15850564889,3.80548775364
1589273499642769109,1315,1589273499642708045,,-0.244910507309,-5.15602218511,3.80412110027
1589273499645601313,1316,1589273499645531325,,-0.245134274594,-5.14457936255,3.79868922818
1589273499648566844,1317,1589273499648487872,,-0.245605269515,-5.14138675049,3.79726135001
1589273499654809039,1318,1589273499654684813,,-0.246508696259,-5.12747978258,3.79073301409
1589273499657816532,1319,1589273499657619095,,-0.246886375222,-5.12424673767,3.78970558231
1589273499660715216,1320,1589273499660607150,,-0.247300778661,-5.11283556949,3.78444023285
1589273499663969710,1321,1589273499663851143,,-0.247608254557,-5.10966101366,3.78349941254
1589273499666860578,1322,1589273499666767156,,-0.247856249778,-5.09844852418,3.77833649723
1589273499669797341,1323,1589273499669709787,,-0.248074652673,-5.09550988462,3.7772820252
1589273499672484107,1324,1589273499672330045,,-0.248479449128,-5.08425593049,3.77150731278
1589273499675682070,1325,1589273499675534220,,-0.248727037325,-5.08109364565,3.77036450615
1589273499679077204,1326,1589273499679007081,,-0.2488582326,-5.06962148618,3.76514279228
1589273499681857733,1327,1589273499681769993,,-0.249213565673,-5.06674430322,3.7639967465
1589273499685552348,1328,1589273499685453774,,-0.249565827229,-5.05548427052,3.75866737051
1589273499690937548,1329,1589273499690840188,,-0.250008623668,-5.05293132883,3.75756954428
1589273499693837930,1330,1589273499693756419,,-0.250404053643,-5.04102589643,3.75206729055
1589273499696788660,1331,1589273499696686273,,-0.250699287304,-5.03858523671,3.75152973621
1589273499699817560,1332,1589273499699721427,,-0.251103811624,-5.02644973427,3.74610866387
1589273499702803436,1333,1589273499702686554,,-0.251531549555,-5.02384735223,3.74525156244
1589273499706139667,1334,1589273499706042204,,-0.251923472678,-5.01175674759,3.73969548766
1589273499708791202,1335,1589273499708724126,,-0.252332984074,-5.00969913438,3.73902885431
1589273499711908238,1336,1589273499711834395,,-0.252617175906,-4.99784832382,3.7336963854
1589273499714760356,1337,1589273499714665475,,-0.253002336572,-4.9953902564,3.73310564653
1589273499718002482,1338,1589273499717693320,,-0.253475460797,-4.99300943523,3.73223673622
1589273499720751807,1339,1589273499720683201,,-0.253947226645,-4.98103111233,3.72660707706
1589273499723771567,1340,1589273499723656956,,-0.254553973321,-4.97878199052,3.72572584785
1589273499726787843,1341,1589273499726694413,,-0.255094793275,-4.96661558447,3.72019263097
1589273499729886011,1342,1589273499729775039,,-0.255700354836,-4.96434560861,3.71931364965
1589273499732951845,1343,1589273499732843151,,-0.25608141537,-4.95255765768,3.71399363694
1589273499735958129,1344,1589273499735858402,,-0.256772917268,-4.95003261188,3.71313171772
1589273499738841789,1345,1589273499738760426,,-0.25711701717,-4.93798221135,3.7077173225
1589273499741530208,1346,1589273499741394477,,-0.257701299938,-4.93577336576,3.70698881691
1589273499747922887,1347,1589273499747819589,,-0.258864019937,-4.92040527752,3.70036153177
1589273499751054562,1348,1589273499750960280,,-0.259605047127,-4.91812507914,3.69948711054
1589273499756984375,1349,1589273499756844376,,-0.260109584428,-4.90562967833,3.69399131474
1589273499760012142,1350,1589273499759841554,,-0.260719152735,-4.89335398985,3.68803532032
1589273499762992052,1351,1589273499762868182,,-0.26136626862,-4.89105725563,3.68748224662
1589273499766075348,1352,1589273499765969245,,-0.261770295214,-4.87859737908,3.68203273773
1589273499768931443,1353,1589273499768828546,,-0.262277843509,-4.87674516529,3.68177802921
1589273499774585769,1354,1589273499774413762,,-0.263497528597,-4.86242883129,3.67527873127
1589273499777513819,1355,1589273499777434634,,-0.264156271938,-4.86046856334,3.67453021359
1589273499780498232,1356,1589273499780425261,,-0.264893052918,-4.84818555952,3.66881859365
1589273499783872748,1357,1589273499783785207,,-0.265587172287,-4.84631030385,3.66812682194
1589273499786808201,1358,1589273499786729842,,-0.266185970887,-4.83359153299,3.66246960187
1589273499789784417,1359,1589273499789712625,,-0.266802603012,-4.83165525421,3.66183576871
1589273499792439069,1360,1589273499792371669,,-0.267523765898,-4.81928751694,3.65591351512
1589273499795967171,1361,1589273499795847965,,-0.268084175548,-4.81714960605,3.65556020331
1589273499799023497,1362,1589273499798930023,,-0.268784014681,-4.8045343966,3.64945945868
1589273499801911745,1363,1589273499801799718,,-0.269362785192,-4.80226809608,3.64905082138
1589273499805314723,1364,1589273499805001896,,-0.269765963325,-4.80059372621,3.64902511136
1589273499807822963,1365,1589273499807725653,,-0.270325886977,-4.78828798028,3.64344186558
1589273499810752644,1366,1589273499810677092,,-0.270838524119,-4.78651386069,3.64269578452
1589273499816898481,1367,1589273499816792471,,-0.271114914357,-4.7742380285,3.63700837254
1589273499819761052,1368,1589273499819637553,,-0.271583072456,-4.76185613263,3.63068482365
1589273499822784927,1369,1589273499822689767,,-0.271781937459,-4.76054111881,3.63037840994
1589273499825722929,1370,1589273499825648795,,-0.272275913735,-4.74796796194,3.62404911381
1589273499828730092,1371,1589273499828661054,,-0.27269223909,-4.74660942824,3.62339010842
1589273499834820172,1372,1589273499834739255,,-0.273709375633,-4.73257061196,3.61693307214
1589273499837988374,1373,1589273499837578717,,-0.27417279576,-4.73133336055,3.61633384136
1589273499840812347,1374,1589273499840731450,,-0.274583621971,-4.71888017089,3.61052631089
1589273499843880436,1375,1589273499843797025,,-0.274946004187,-4.71784377668,3.61022246261
1589273499846666663,1376,1589273499846571344,,-0.275372372658,-4.70540150391,3.60451996441
1589273499849614181,1377,1589273499849546770,,-0.275616065324,-4.70440096625,3.60427417352
1589273499852749138,1378,1589273499852624857,,-0.275983873759,-4.69217802164,3.59832730566
1589273499855708536,1379,1589273499855583331,,-0.276218699605,-4.69130711152,3.59808743348
1589273499859177036,1380,1589273499859107393,,-0.276582492834,-4.67932756789,3.59221733437
1589273499861664401,1381,1589273499861558906,,-0.276857868057,-4.67850087348,3.59181583694
1589273499867863944,1382,1589273499867794420,,-0.277571875206,-4.66509573347,3.5864295539
1589273499870821305,1383,1589273499870659615,,-0.277911805327,-4.6641742812,3.58706252127
1589273499873658269,1384,1589273499873591320,,-0.278284740595,-4.65199970595,3.58194551695
1589273499876695561,1385,1589273499876636939,,-0.278537722011,-4.65104089496,3.58218994254
1589273499879640321,1386,1589273499879568052,,-0.278957870294,-4.63867244807,3.57638605795
1589273499882627677,1387,1589273499882547991,,-0.279261363606,-4.63818683878,3.57598708692
1589273499885849902,1388,1589273499885771280,,-0.279421759674,-4.62585876729,3.56984277908
1589273499888707513,1389,1589273499888620212,,-0.279570296067,-4.62515653953,3.56968075207
1589273499892020639,1390,1589273499891961466,,-0.27976598825,-4.61274267998,3.56379190041
1589273499894658603,1391,1589273499894589876,,-0.280162978202,-4.61216866865,3.56319088916
1589273499898019481,1392,1589273499897751097,,-0.280286298295,-4.61163484549,3.56325809974
1589273499900551993,1393,1589273499900487224,,-0.280575469294,-4.59924452288,3.55723983834
1589273499903629534,1394,1589273499903557914,,-0.280787960912,-4.59842745213,3.55702993558
1589273499906618490,1395,1589273499906557804,,-0.281068612083,-4.58608179136,3.55085643527
1589273499912609547,1396,1589273499912532977,,-0.281300636888,-4.57404309288,3.54485735491
1589273499915578521,1397,1589273499915495720,,-0.281602963667,-4.57299275509,3.54443840137
1589273499919207533,1398,1589273499919112336,,-0.281759019842,-4.56076796844,3.53855832349
1589273499921639612,1399,1589273499921556688,,-0.282025380616,-4.5600786153,3.53829936726
1589273499927711655,1400,1589273499927627072,,-0.282404101395,-4.54760620376,3.53192383691
1589273499930681708,1401,1589273499930559461,,-0.282525748554,-4.54679478081,3.53188149963
1589273499936576624,1402,1589273499936488725,,-0.282803433322,-4.53440678036,3.5260687527
1589273499939727960,1403,1589273499939636703,,-0.282894302836,-4.5220437606,3.52011805265
1589273499942784340,1404,1589273499942642264,,-0.283117949376,-4.5212903563,3.52001414082
1589273499948510724,1405,1589273499948441472,,-0.283277428442,-4.50883141457,3.51412050928
1589273499954556513,1406,1589273499954494510,,-0.283693864686,-4.49561478453,3.50803453579
1589273499960723395,1407,1589273499960655380,,-0.283707423526,-4.48302263058,3.50226873951
1589273499963781078,1408,1589273499963701555,,-0.283990386989,-4.48227752639,3.50204910701
