%time,field.header.seq,field.header.stamp,field.header.frame_id,field.wrench.force.x,field.wrench.force.y,field.wrench.force.z,field.wrench.torque.x,field.wrench.torque.y,field.wrench.torque.z
1589273497206274534,749,1589273497206160607,,-0.0772016298943,-0.776262928054,1.65605113814,0.380802518411,0.0228752512412,0.0380690099593
1589273497212093892,750,1589273497211946927,,-0.0772022484792,-0.776266158759,1.65604959492,0.380757413719,0.0222107972468,0.0407584532787
1589273497221271752,751,1589273497221030469,,-0.0772165325253,-0.776273104464,1.65604567318,0.384415727198,0.0222036486026,0.0408340141791
1589273497227159446,752,1589273497227052231,,-0.0540169254249,-0.776066616184,1.63316457272,0.384566006561,0.0235196171196,0.040992321437
1589273497233106853,753,1589273497232965454,,-0.0540245981105,-0.776069877138,1.63316276935,0.384565932501,0.0235184714597,0.040993673514
1589273497239150733,754,1589273497239049089,,-0.100107356268,-0.776232819566,1.65564773545,0.386235094585,0.0228636234228,0.0416313275252
1589273497245171704,755,1589273497245021877,,-0.0772404381312,-0.776275428359,1.65604346902,0.387152173427,0.022862435491,0.0418016831854
1589273497251189665,756,1589273497251057653,,-0.100556017177,-0.776479124619,1.67883258191,0.388801709462,0.022196512555,0.0434890184502
1589273497257180938,757,1589273497256959744,,-0.100561177819,-0.776480651849,1.67883156644,0.38880166111,0.0221956835944,0.043489873803
1589273497263097909,758,1589273497263000876,,-0.1004915083,-0.906268870893,1.65697760553,0.389875058837,0.0228568920588,0.0435096999851
1589273497269155158,759,1589273497269035601,,-0.100486426509,-0.906252302109,1.65698697576,0.389875149751,0.0228576848861,0.0435084688147
1589273497275043896,760,1589273497274937041,,-0.100929335678,-0.906508096204,1.68014861345,0.390615407435,0.0228553742956,0.0453289771566
1589273497281176944,761,1589273497281072263,,-0.101740317268,-1.03703977965,1.70468183284,0.392307855307,0.0228544658827,0.044453996696
1589273497287295276,762,1589273497287112129,,-0.101364730579,-0.906704015188,1.70334435758,0.393213490082,0.0228506965115,0.0453785933961
1589273497293149877,763,1589273497293035139,,-0.101360926966,-0.906670074702,1.70336265029,0.395014824023,0.0228480889346,0.0472089376236
1589273497299249443,764,1589273497299033613,,-0.101368229759,-0.906655596057,1.70336992236,0.395015004501,0.0228453152754,0.0472087698011
1589273497305012778,765,1589273497304921290,,-0.10137802713,-0.906632945816,1.70338139518,0.395924534814,0.0228427274093,0.0472280985198
1589273497308086133,766,1589273497307974987,,-0.101375215986,-0.906613290591,1.70339202393,0.395913440044,0.0234944984125,0.0481240295383
1589273497314231020,767,1589273497314093420,,-0.101819467699,-0.906849002392,1.72666674324,0.396671105527,0.0234932961826,0.0490480058121
1589273497320250299,768,1589273497320151068,,-0.124640613614,-0.906795675424,1.7262816993,0.396657188086,0.0228363813148,0.0498009707755
1589273497326010112,769,1589273497325927188,,-0.124594477559,-1.03683894783,1.70438490002,0.397694711234,0.0221699721614,0.0516156354633
1589273497332248723,770,1589273497332138112,,-0.124581005358,-1.03683451946,1.70438857874,0.397694906023,0.0221717040134,0.0516133906885
1589273497338172627,771,1589273497338061184,,-0.124543278442,-1.03684371401,1.70438574257,0.399523813275,0.022178461484,0.0516477598594
1589273497344301074,772,1589273497344172111,,-0.12484227238,-1.16740698455,1.70577871139,0.403156107682,0.0228631436493,0.0535220741695
1589273497350171363,773,1589273497350067800,,-0.124844668809,-1.16740044555,1.70578301116,0.403156034349,0.0228633360966,0.0535225443394
1589273497356178070,774,1589273497356087481,,-0.125730217663,-1.16794576827,1.75211493799,0.405615302836,0.0228608190382,0.0535763516784
1589273497362332626,775,1589273497362223735,,-0.17111000747,-1.16764719395,1.72819105342,0.40571927229,0.0228585773405,0.0559921833239
1589273497368288718,776,1589273497368120873,,-0.171604561674,-1.16793641417,1.75129179651,0.406474197708,0.0228454081614,0.0569107026519
1589273497374118398,777,1589273497373988314,,-0.172039983687,-1.29871115532,1.7526448236,0.408275987679,0.0228411972542,0.0587547717432
1589273497380195177,778,1589273497380026735,,-0.172055789403,-1.29871978952,1.75263687404,0.408275676686,0.0228395424918,0.0587575759769
1589273497386632020,779,1589273497386513081,,-0.172050462879,-1.29872452191,1.75263389019,0.410093235889,0.0234935018845,0.0596949762127
1589273497392145230,780,1589273497392039020,,-0.172458857003,-1.42971908527,1.75396696474,0.410093392915,0.0234967556061,0.059692616807
1589273497398279528,781,1589273497398181260,,-0.172914202794,-1.42997246565,1.77706231257,0.412690574351,0.0234914110282,0.0597481313818
1589273497404173938,782,1589273497404029397,,-0.195456423428,-1.29898609347,1.77533465752,0.415414224587,0.0234868111344,0.0614601052344
1589273497410204949,783,1589273497410101461,,-0.195445764621,-1.29898762489,1.77533471045,0.415414121389,0.0234896701458,0.0614597101233
1589273497416206203,784,1589273497416068056,,-0.196318250021,-1.29950192539,1.82166660318,0.417830871865,0.0228357754616,0.0642152266294
1589273497422186936,785,1589273497422099124,,-0.196753427163,-1.43047474598,1.82295657054,0.420542100637,0.022832929037,0.0660805890127
1589273497428220368,786,1589273497428071925,,-0.196744871177,-1.43048762931,1.82294738435,0.420542340496,0.022832864508,0.0660790848135
1589273497434117227,787,1589273497434030896,,-0.220105679273,-1.43070885051,1.84566800499,0.422205159052,0.0228312245222,0.0677709623178
1589273497440269882,788,1589273497440170997,,-0.220111446871,-1.43070756301,1.8456683152,0.422205141298,0.0228301640235,0.0677714301807
1589273497446197764,789,1589273497446107400,,-0.243922103865,-1.43115878927,1.89152153127,0.426441081978,0.023479969005,0.0713255078064
1589273497452206265,790,1589273497452040867,,-0.243929018115,-1.43114345231,1.89153224374,0.426440961448,0.0234797587357,0.0713262976474
1589273497458472922,791,1589273497458356483,,-0.24439179434,-1.56227365491,1.89276836789,0.430074508699,0.0241378439277,0.0732023054407
1589273497464281099,792,1589273497464164732,,-0.244417881761,-1.56225329196,1.89278180657,0.431902849563,0.0241326071817,0.0732436210026
1589273497470187497,793,1589273497470095950,,-0.244425354607,-1.56225358761,1.89278059756,0.431902515439,0.024132830274,0.0732455177304
1589273497476221013,794,1589273497476101933,,-0.244890879149,-1.5624958721,1.91598047224,0.434502137881,0.0241293272509,0.0733043307383
1589273497482687698,795,1589273497482541602,,-0.244889264039,-1.56251524334,1.91596488114,0.434502274451,0.0241281905579,0.073303895389
1589273497488275668,796,1589273497488114953,,-0.221499340934,-1.56232456,1.89312999392,0.437408315157,0.0241296692631,0.0726126338977
1589273497494171608,797,1589273497494069764,,-0.199438446429,-1.56283225883,1.93983633536,0.439015275493,0.0247988056246,0.068281511648
1589273497500224048,798,1589273497500120611,,-0.199445581601,-1.56282682527,1.93983997931,0.439014183285,0.0248036969845,0.0682867571333
1589273497506308388,799,1589273497506111646,,-0.19900247236,-1.56258808236,1.91673134103,0.440058688349,0.0241370880777,0.0692175765733
1589273497512203736,800,1589273497512090807,,-0.1990280381,-1.56256711628,1.91674577866,0.439149665664,0.0234745401787,0.0682940334615
1589273497518370822,801,1589273497518185736,,-0.199045299495,-1.43167311436,1.93864353205,0.438088999477,0.0234775793646,0.06827298103
1589273497524365728,802,1589273497524180940,,-0.221539630903,-1.43140133626,1.91513249575,0.435493597018,0.0234798715143,0.0680769465756
1589273497530397221,803,1589273497530233095,,-0.22154922908,-1.43139973723,1.91513258057,0.435493764749,0.0234768939656,0.0680769004819
1589273497536293918,804,1589273497536176183,,-0.221558252098,-1.56229933744,1.89314391525,0.431973337338,0.0234813438167,0.0680068479797
1589273497542178996,805,1589273497542060126,,-0.221121037621,-1.56206278459,1.87003778076,0.430306852451,0.0228265005409,0.0670717074851
1589273497548247147,806,1589273497548116283,,-0.197724506335,-1.56184987419,1.84733216036,0.424986568613,0.0228369894167,0.065302404759
1589273497554183983,807,1589273497554090717,,-0.19728067878,-1.43070622329,1.84606854886,0.421316944259,0.0221776815598,0.0652231098215
1589273497560188049,808,1589273497560043616,,-0.196821424956,-1.43045992222,1.82296086235,0.417810510793,0.0221843213764,0.0651479629312
1589273497566265804,809,1589273497566150209,,-0.196364058884,-1.56111543029,1.77796139289,0.409894211004,0.0228584033892,0.0631729210915
1589273497572511517,810,1589273497572137461,,-0.196352140884,-1.56112228477,1.7779566906,0.409894203904,0.0228604513387,0.0631722260949
1589273497578398563,811,1589273497578274409,,-0.173323287786,-1.6922429834,1.75654481766,0.405493455817,0.0228623860447,0.0614212463502
1589273497584418405,812,1589273497584282256,,-0.173309838269,-1.69225263914,1.75653684239,0.403652642919,0.0222008394353,0.0613798418651
1589273497590214794,813,1589273497590107104,,-0.17374735275,-1.69250171076,1.77960264424,0.402621940453,0.022863904684,0.0595501743083
1589273497596341987,814,1589273497596145227,,-0.12733487137,-1.69233821748,1.75732347104,0.400967444884,0.022865952041,0.057999458082
1589273497602176442,815,1589273497602075010,,-0.150792884428,-1.69255030129,1.77998829166,0.400818935849,0.0228640923649,0.057853438919
1589273497605198394,816,1589273497605086549,,-0.127758943988,-1.692583861,1.78039417666,0.402672791509,0.0228632771202,0.0562355757933
1589273497611470327,817,1589273497611252748,,-0.127754261775,-1.69259178624,1.78038697826,0.402673277999,0.0228612224778,0.0562329275398
1589273497617286306,818,1589273497617095976,,-0.151188329198,-1.82402551615,1.7812227367,0.405423695347,0.0228589315187,0.0561402890207
1589273497623226345,819,1589273497623128794,,-0.15119934675,-1.82402749943,1.78121977057,0.40634323411,0.0228556893934,0.0561596014566
1589273497629235518,820,1589273497629129937,,-0.129008629457,-1.82453639115,1.82785987804,0.411566648593,0.0228506495241,0.0546104906037
1589273497635187209,821,1589273497635093059,,-0.129008841761,-1.82453084604,1.82786539807,0.411566999493,0.022848896799,0.0546085794042
1589273497641129936,822,1589273497641021337,,-0.152059840824,-1.82446396406,1.82748986432,0.413382566879,0.0221803696596,0.0553997669949
1589273497647208331,823,1589273497647096803,,-0.152053201074,-1.82446202955,1.82749234808,0.414306069453,0.0221794934418,0.0545180500026
1589273497653304837,824,1589273497653116954,,-0.12942544954,-1.82474005131,1.85096441947,0.416925085501,0.0221778921386,0.0538143777513
1589273497659269863,825,1589273497659126089,,-0.129862426878,-1.82498392072,1.87403044318,0.421382183814,0.0228352041559,0.0520975456762
1589273497665365366,826,1589273497665234727,,-0.129871386698,-1.82499216686,1.87402179192,0.421382331133,0.0228326849713,0.0520974582498
1589273497671589767,827,1589273497671468020,,-0.130305560746,-1.82520976751,1.89711636231,0.423977179318,0.0221667727462,0.0521522674062
1589273497677216340,828,1589273497677117626,,-0.107327950088,-1.82525367448,1.89752057002,0.426739929743,0.0228312930601,0.0514526932854
1589273497683470207,829,1589273497683320077,,-0.153792298607,-1.82537992339,1.91991719128,0.432961159949,0.0228226485025,0.0539929896409
1589273497689233579,830,1589273497689118179,,-0.154592272013,-1.95718331273,1.9441283604,0.435559181975,0.0228198213744,0.0540421388523
1589273497695283965,831,1589273497695186690,,-0.154584525507,-1.9571862752,1.944125994,0.435559427524,0.0228195669079,0.054040267238
1589273497701307887,832,1589273497701161168,,-0.154552531798,-1.95721535871,1.94409925839,0.437374945717,0.0228177812909,0.0549813813526
1589273497704240824,833,1589273497704114171,,-0.154539499754,-1.9572113744,1.94410430554,0.440121460024,0.0221507061504,0.0550346871978
1589273497710239611,834,1589273497710162565,,-0.177913029147,-2.08885187312,1.94479554738,0.441017599422,0.0228146058577,0.0567077948519
1589273497716181208,835,1589273497716094404,,-0.177943016824,-1.9573891898,1.96679428582,0.442681612639,0.02281271278,0.0576419369777
1589273497722292789,836,1589273497722176559,,-0.178776185335,-2.08927127074,1.99096295025,0.446196336605,0.022142653188,0.0577138624338
1589273497728226248,837,1589273497728145713,,-0.179185700859,-2.08946938206,2.01416450538,0.449702713174,0.0221408921693,0.0586931295445
1589273497734281056,838,1589273497734188298,,-0.179211855214,-2.08945552566,2.01417655282,0.451531685087,0.0221353252142,0.0587321677778
1589273497740297091,839,1589273497740207021,,-0.202744980843,-2.08962277046,2.03686932154,0.455944398443,0.0214630322993,0.0595800244899
1589273497746251442,840,1589273497746157106,,-0.226170902549,-2.08979496309,2.05956625947,0.461293027016,0.0214579526965,0.0595331224993
1589273497752255639,841,1589273497752138843,,-0.226145359864,-2.0898051083,2.05955877012,0.461293409284,0.0214596941135,0.0595295326857
1589273497758439620,842,1589273497758326150,,-0.203494133895,-2.2215986919,2.06097485895,0.465854758417,0.0214596545146,0.0606742762653
1589273497764277846,843,1589273497764139798,,-0.20475733005,-2.35383128403,2.1082347383,0.470119839315,0.0214509699922,0.0616612860611
1589273497770215805,844,1589273497770090623,,-0.204766680175,-2.35384271134,2.10822107157,0.471042055808,0.0221113028432,0.0616779542525
1589273497776163097,845,1589273497776088920,,-0.228232047836,-2.35400611602,2.1309044643,0.4736139715,0.0221055866761,0.0633872526128
1589273497782634044,846,1589273497782491165,,-0.228625131345,-2.48591454753,2.1318387309,0.476318616948,0.0214341116958,0.0661537385002
1589273497788317618,847,1589273497788213113,,-0.228631902457,-2.48592279386,2.13182838874,0.476318273418,0.0214345100239,0.0661560828742
1589273497794316268,848,1589273497794235119,,-0.205620180915,-2.48597484463,2.13221068147,0.480006049205,0.0227590945232,0.0645772687069
1589273497800242622,849,1589273497800130980,,-0.229103356553,-2.48611832703,2.15490493824,0.481678284719,0.0214210157635,0.0653659243366
1589273497806297341,850,1589273497806196285,,-0.229133378738,-2.48609880679,2.15492426653,0.481678529253,0.0214157784363,0.0653658384856
1589273497812285124,851,1589273497812177069,,-0.206520357069,-2.48630884256,2.17853728087,0.486108583208,0.0220741617469,0.0655996860011
1589273497818372934,852,1589273497818255049,,-0.229984283912,-2.61822137305,2.17905025631,0.487924138872,0.022078029349,0.0664037986642
1589273497824180749,853,1589273497824087883,,-0.23001122551,-2.61822153686,2.17904721581,0.487921622442,0.0220862603303,0.0664195499054
1589273497830279664,854,1589273497830171823,,-0.23042777268,-2.61839603744,2.20214771543,0.490490561434,0.0220849938533,0.0682867047789
1589273497836339654,855,1589273497836238751,,-0.230443354475,-2.61839511617,2.20214718034,0.490490049279,0.0220851619799,0.0682903290211
1589273497842271507,856,1589273497842190327,,-0.23047363391,-2.61838537343,2.20215559581,0.490489190738,0.0220850763246,0.0682965228374
1589273497848292186,857,1589273497848146801,,-0.230840886832,-2.75042586093,2.20300882179,0.491408437857,0.0220883403779,0.068315709412
1589273497854284086,858,1589273497854188226,,-0.207778620829,-2.75046174865,2.20341858337,0.491408033766,0.0227550311514,0.0684628481705
1589273497860261419,859,1589273497860128217,,-0.20856491335,-2.88272293803,2.22734167384,0.493072086201,0.0227541266384,0.0693974301491
1589273497866263821,860,1589273497866170816,,-0.231619096181,-2.88268809617,2.22693061629,0.494901804605,0.022086169959,0.0692851348126
1589273497872021980,861,1589273497871966647,,-0.232026578525,-2.882849738,2.25003327799,0.497497549459,0.0227507373857,0.0702386340737
1589273497875054059,862,1589273497874934155,,-0.232050250311,-2.88285884189,2.25001917241,0.499296307111,0.0220765259866,0.0720901115155
1589273497878131433,863,1589273497878003571,,-0.232055768487,-2.88284417923,2.25003738985,0.500191665382,0.0220750782703,0.0730116450386
1589273497881372505,864,1589273497881276328,,-0.232433938257,-3.01498113737,2.25083338927,0.50202327028,0.0227379240041,0.0730463307682
1589273497887361656,865,1589273497887201620,,-0.232442813791,-3.01498008542,2.25083388179,0.502023807109,0.0227344722956,0.0730437156386
1589273497893169090,866,1589273497893083226,,-0.232876324096,-3.01513367788,2.27403781269,0.50368689142,0.0227307121515,0.074893091146
1589273497899257803,867,1589273497899164023,,-0.279984924412,-3.01536049394,2.31944484345,0.506987546637,0.0227280120823,0.0791953769249
1589273497905165087,868,1589273497905088165,,-0.280012638633,-3.01534536152,2.31946117042,0.506987924859,0.022723085116,0.0791943694565
1589273497908222516,869,1589273497908150532,,-0.27959923855,-2.88322919479,2.31866853991,0.508818618207,0.0233809285968,0.0792332773335
1589273497914230379,870,1589273497914131724,,-0.27962713382,-2.88322624474,2.3186688443,0.508817265717,0.0233827268496,0.0792414316317
1589273497920340437,871,1589273497920268743,,-0.256841552478,-3.01538747647,2.31986131007,0.509732254355,0.0233892662998,0.0794144094628
1589273497926174528,872,1589273497926091897,,-0.280005882001,-3.01533899873,2.31947025783,0.511545824429,0.0227399121741,0.0802193339327
1589273497932272493,873,1589273497932157949,,-0.280000595892,-2.88335655589,2.34182161758,0.513209619048,0.0227449249171,0.0811555696858
1589273497938188073,874,1589273497938114101,,-0.303471937819,-3.01543486791,2.34220926533,0.515049270566,0.0220751092849,0.0810445104484
1589273497944176791,875,1589273497943996423,,-0.280352667798,-3.01544137926,2.34265523109,0.516878588508,0.0227415806153,0.0812231805177
1589273497947222470,876,1589273497947126769,,-0.257110832401,-3.01547100455,2.34307850293,0.522377864238,0.0227383642271,0.0805689035723
1589273497953258338,877,1589273497953174924,,-0.257103809783,-3.0154085539,2.34315964339,0.522379023205,0.0227366561552,0.080561870998
1589273497956313877,878,1589273497956213316,,-0.281090477889,-3.14768361563,2.36673384113,0.524940809725,0.0227317779883,0.0831864981265
1589273497962219855,879,1589273497962102505,,-0.281085225219,-3.1476688511,2.3667541012,0.524941288014,0.022731119238,0.083183659886
1589273497968279064,880,1589273497968169157,,-0.281487144881,-3.14779383157,2.38989783106,0.527554795078,0.0227237021728,0.0823119453232
1589273497974245354,881,1589273497974136134,,-0.305471066033,-3.14803760526,2.43573503437,0.531802442585,0.0233713939999,0.0849749305715
1589273497980289577,882,1589273497980183770,,-0.329111769291,-3.14814885579,2.45854436634,0.535311375286,0.0233632966256,0.0858057862101
1589273497986584716,883,1589273497986485981,,-0.32910248428,-3.14815908703,2.45853250817,0.535311821493,0.0233624382259,0.0858032361654
1589273497992242654,884,1589273497992111654,,-0.329527804813,-3.28036768997,2.45923565553,0.539846617823,0.0233526786994,0.0886217805627
1589273497998228548,885,1589273497998134614,,-0.329941759968,-3.28052474737,2.48233505633,0.546978259098,0.0233466814425,0.0914950240554
1589273498004557349,886,1589273498004320549,,-0.330331990343,-3.41276764461,2.48301956513,0.550621296127,0.0233437791028,0.0924781687592
1589273498010259372,887,1589273498010172000,,-0.330344346037,-3.41282259149,2.4829423982,0.550620196735,0.0233441240256,0.0924846273125
1589273498016504730,888,1589273498016330151,,-0.329921265323,-3.28059933007,2.48223921273,0.554289646052,0.0226863013406,0.091655645431
1589273498022078187,889,1589273498022008697,,-0.329998015402,-3.28064469936,2.4821690477,0.554288349309,0.0226785707357,0.0916654001116
1589273498025182740,890,1589273498025005005,,-0.331232639875,-3.41316478852,2.52908743747,0.556760853878,0.0233343792729,0.0908015162684
1589273498028128446,891,1589273498027995547,,-0.307994720936,-3.41322545801,2.52946665119,0.558600899853,0.0233357610712,0.0900802005659
1589273498031512499,892,1589273498031456149,,-0.308425520295,-3.413412396,2.55262404974,0.561214939738,0.0233332706268,0.0892335086167
1589273498037267155,893,1589273498037182694,,-0.308880180468,-3.41355163418,2.57574426579,0.565624028575,0.0226689420561,0.090235233716
1589273498043349169,894,1589273498043151193,,-0.308860858749,-3.41355141893,2.57574686802,0.565625498064,0.0226657375418,0.090226827056
1589273498049339605,895,1589273498049239521,,-0.309276785375,-3.54579659004,2.57641805968,0.569277847679,0.0226596819511,0.0912239346674
1589273498055318226,896,1589273498055222483,,-0.332968123311,-3.54591164387,2.59910308551,0.573690759853,0.022653749519,0.0920860500035
1589273498058104930,897,1589273498058016378,,-0.332612367763,-3.41365655872,2.59844559153,0.57642880664,0.0226476855708,0.0921449145495
1589273498061086873,898,1589273498061014696,,-0.333029680495,-3.54589757121,2.59911439778,0.578225772867,0.0233032514342,0.0949051797921
1589273498064084497,899,1589273498064012773,,-0.333477198457,-3.54601532588,2.62236116636,0.57990600422,0.0233027179984,0.0949451313451
1589273498067156014,900,1589273498067078532,,-0.333485536422,-3.54601850624,2.62235580547,0.581721875759,0.0239695955742,0.0959013620101
1589273498070246122,901,1589273498070161915,,-0.333962014068,-3.54617460228,2.64544842528,0.585234810619,0.0232957125401,0.0959849892664
1589273498076058274,902,1589273498075966100,,-0.333981720283,-3.54614569714,2.64548468389,0.585233300664,0.0232998860277,0.0959931823257
1589273498079090372,903,1589273498079009615,,-0.334776762517,-3.67857886839,2.66922019128,0.593286651121,0.023955510812,0.0988837306972
1589273498082385090,904,1589273498082303166,,-0.334789654905,-3.67858823354,2.66920566767,0.593285384595,0.0239581458308,0.0988906910098
1589273498085420322,905,1589273498085358750,,-0.33482751058,-3.67860813603,2.66917349023,0.593296753866,0.0239640378531,0.0979927658039
1589273498088051321,906,1589273498087975012,,-0.335710858471,-3.67886104242,2.7155438886,0.594833819174,0.0232947925091,0.0980309955746
1589273498091713986,907,1589273498091649910,,-0.382113785385,-3.5466803878,2.73719206719,0.594688862795,0.0239698104703,0.0977416980315
1589273498097016152,908,1589273498096964202,,-0.382097862011,-3.54666891122,2.73720916062,0.594689231393,0.0239710280613,0.0977391567377
1589273498100231189,909,1589273498100166606,,-0.405262850922,-3.54663238538,2.73679854633,0.599209100969,0.0232924212782,0.101321566962
1589273498103106108,910,1589273498103052425,,-0.382580037657,-3.67893272705,2.73782496802,0.600116322546,0.0232797244328,0.10148796912
1589273498109150578,911,1589273498109091585,,-0.359297502624,-3.67896209137,2.7382529152,0.601047400811,0.0232859089692,0.100744603379
1589273498112095088,912,1589273498112037905,,-0.336186272811,-3.67903423125,2.73861402356,0.597429314675,0.0232904194576,0.0980960166763
1589273498115225900,913,1589273498115134077,,-0.336213826929,-3.67903515709,2.73860939716,0.596508448626,0.022626935893,0.0980752409182
1589273498121184430,914,1589273498121120707,,-0.35894508331,-3.678854439,2.71507861789,0.59666256253,0.0226217167661,0.0979292307059
1589273498124340840,915,1589273498124202331,,-0.358570535313,-3.5465680065,2.71447160409,0.59667672566,0.0226228198091,0.0970249983257
1589273498130190866,916,1589273498130129503,,-0.358101529408,-3.54643579463,2.69124104926,0.597747931097,0.0226287937121,0.0961332187223
1589273498136202782,917,1589273498136131698,,-0.35854727283,-3.546566424,2.71447674447,0.602179659448,0.0232790536582,0.096223991421
1589273498139127896,918,1589273498139080260,,-0.358480383768,-3.54653977369,2.71452039798,0.602181037826,0.0232840946892,0.0962141451873
1589273498142145514,919,1589273498142062217,,-0.335745896756,-3.54671002689,2.73806952919,0.602975404969,0.0226230891503,0.0945569265267
1589273498145291558,920,1589273498145204750,,-0.335658472446,-3.54671044017,2.73807971254,0.602962864025,0.0226276022626,0.0954491587754
1589273498148065645,921,1589273498147982282,,-0.335558224276,-3.54671316264,2.73808847352,0.604823566899,0.0226279695054,0.0936568636061
1589273498154175713,922,1589273498154013198,,-0.335376237202,-3.54673123207,2.73808736451,0.603907654947,0.0226210278124,0.0944944157487
1589273498157131283,923,1589273498157043631,,-0.358101023189,-3.41444484881,2.73705982995,0.602990723067,0.021950222575,0.094316985187
1589273498160099482,924,1589273498160008969,,-0.358119193136,-3.41443637423,2.73706802454,0.602991260814,0.0219453847022,0.094314672994
1589273498163095160,925,1589273498163011608,,-0.335362655557,-3.5467143649,2.73811087647,0.602093120038,0.0219489700436,0.0935400353088
1589273498166052350,926,1589273498165982517,,-0.335358275339,-3.54668439302,2.73815023551,0.602094892665,0.0226201349574,0.0935406000947
1589273498169022545,927,1589273498168962726,,-0.312095724547,-3.54671340061,2.73857499059,0.602108475684,0.0226177552107,0.0927683673264
1589273498172163669,928,1589273498172026987,,-0.312496559867,-3.67897379483,2.73921266117,0.603003017276,0.0226141138571,0.093696778534
1589273498175025201,929,1589273498174942444,,-0.312571344354,-3.6789629799,2.7392186538,0.602987587585,0.0226081906399,0.0946106127278
1589273498178234271,930,1589273498178148315,,-0.312975619879,-3.67912452512,2.76231370913,0.603741828952,0.0226077294985,0.0955397785313
1589273498181066352,931,1589273498180991656,,-0.336229890786,-3.67908370953,2.76190396881,0.605557741175,0.0219308104672,0.0963354698125
1589273498184314915,932,1589273498184235581,,-0.336192801771,-3.67911651972,2.76186477738,0.60647657733,0.0219362657873,0.0963567085013
1589273498187051083,933,1589273498186952196,,-0.336240681138,-3.54698830974,2.78437287034,0.607273654425,0.0219375803603,0.0945523619075
1589273498190094408,934,1589273498189995323,,-0.359720485238,-3.67924175441,2.78455501132,0.609107676959,0.0226048912001,0.0944388158964
1589273498193030549,935,1589273498192957590,,-0.33656961258,-3.67928526548,2.78495607457,0.610918158187,0.0219329854062,0.0955264846039
1589273498196079117,936,1589273498196023271,,-0.313776204745,-3.67945193292,2.80860528641,0.613544886088,0.0219285133806,0.0939141505605
1589273498199088547,937,1589273498199014968,,-0.337035709657,-3.6794239635,2.80817836122,0.614451436304,0.0219281660162,0.0947012167716
1589273498202268926,938,1589273498202206824,,-0.337013966018,-3.67941426772,2.80819367467,0.615346216312,0.021931424211,0.09562637112
1589273498205064497,939,1589273498205006619,,-0.337005049203,-3.67941340785,2.80819587141,0.616265878476,0.0219307031382,0.0956438599772
1589273498208045976,940,1589273498207990871,,-0.33668144297,-3.54716158475,2.80756015771,0.61627879237,0.0219308034928,0.0947478968718
1589273498214138908,941,1589273498214046242,,-0.313829975896,-3.81156148714,2.78603466557,0.614598527194,0.02260407214,0.093969799299
1589273498217237435,942,1589273498217150274,,-0.290304044999,-3.67930256081,2.78584422721,0.609195836205,0.0226180214714,0.0885623197271
1589273498223291570,943,1589273498223148607,,-0.290307601926,-3.67934196989,2.78579180766,0.609195167744,0.0226192291415,0.0885666093474
1589273498226194485,944,1589273498226077230,,-0.289539874972,-3.54693987676,2.7620342491,0.604796779411,0.0226286565076,0.0866625908237
1589273498229210960,945,1589273498229114185,,-0.289520075301,-3.54695607276,2.76201552597,0.604794426981,0.0226417781899,0.0866755796234
1589273498232219165,946,1589273498232122297,,-0.266240259393,-3.54700273893,2.76242412634,0.603902486177,0.0226460595132,0.0849829706931
1589273498235298223,947,1589273498235195999,,-0.243197198663,-3.54700538546,2.76287659733,0.599375988257,0.0213095635488,0.0814160407203
1589273498238296711,948,1589273498238211572,,-0.242882151913,-3.41478945658,2.76220649842,0.597575673802,0.0213108737201,0.0795735931011
1589273498241320795,949,1589273498241198614,,-0.242848736909,-3.41478747028,2.76221189199,0.597576068753,0.0213137983608,0.0795698437256
1589273498247307551,950,1589273498247226695,,-0.241669602205,-3.28230402359,2.7152752348,0.594253290869,0.0213211477688,0.0767833873956
1589273498253185295,951,1589273498253094096,,-0.241731060576,-3.2822880341,2.71528909257,0.594252470451,0.0213167676836,0.0767909526513
1589273498256204597,952,1589273498256120074,,-0.241711285484,-3.28228948089,2.71528910408,0.594253525335,0.0213141164792,0.0767835249034
1589273498259195844,953,1589273498259128375,,-0.264408005067,-3.28209050158,2.69166248411,0.593499050126,0.0213154849749,0.0757072711159
1589273498262265861,954,1589273498262188373,,-0.264428983033,-3.28209251846,2.69165796401,0.593500879137,0.0213026337291,0.0756965491976
1589273498265253517,955,1589273498265141702,,-0.265194166188,-3.41444130736,2.71555810144,0.593351252982,0.0206470608174,0.0756927227129
1589273498268203037,956,1589273498268127797,,-0.241701888088,-3.28229507641,2.71528317663,0.593378821025,0.0206467225652,0.0740254786377
1589273498274228473,957,1589273498274147517,,-0.218824858985,-3.41452915162,2.71638511371,0.594328430993,0.0206451997873,0.0723571303993
1589273498277268261,958,1589273498277139707,,-0.241928396923,-3.41449513258,2.71596570755,0.59523543004,0.020648473809,0.0731351994001
1589273498283549190,959,1589273498283449005,,-0.242349246645,-3.41456770549,2.73918324657,0.596004346733,0.0206479380846,0.0731475970847
1589273498289224433,960,1589273498289142136,,-0.242691319987,-3.54683059179,2.73980045082,0.597820933514,0.0213024373727,0.0740873188567
1589273498292165555,961,1589273498292088848,,-0.242654473308,-3.54684640144,2.73978324785,0.597820661341,0.0213085506775,0.0740877570301
1589273498295306601,962,1589273498295213984,,-0.242667948808,-3.54685243373,2.73977424507,0.598730340191,0.0213048771628,0.0741060595669
1589273498301313981,963,1589273498301220120,,-0.266256613202,-3.54695442981,2.76248457883,0.602204548327,0.0206331135817,0.0767430943561
1589273498304506107,964,1589273498304286600,,-0.266246827676,-3.546976038,2.76245777743,0.602205117289,0.020630993369,0.0767391996067
1589273498310284185,965,1589273498310210725,,-0.267114681013,-3.54725377741,2.80882024476,0.60738994876,0.0206159381913,0.0777530055669
1589273498316327421,966,1589273498316215504,,-0.267105528421,-3.54725818266,2.80881555175,0.607389854305,0.0206176159976,0.0777532985394
1589273498322341220,967,1589273498322215045,,-0.266703652971,-3.54710991265,2.78559236312,0.608477226924,0.0206117656495,0.0759526302329
1589273498328375426,968,1589273498328265530,,-0.243984689702,-3.54729943012,2.80922554729,0.611133433706,0.0199414614679,0.0725195556105
1589273498334304689,969,1589273498334201119,,-0.2439675199,-3.54730913401,2.80921478501,0.611133776282,0.0199417682619,0.0725165842522
1589273498340408989,970,1589273498340240337,,-0.220039261688,-3.41499587731,2.78573606352,0.609495049505,0.0199449471062,0.0699085894614
1589273498346359653,971,1589273498346250713,,-0.1964047671,-3.41488820372,2.76302593607,0.608829355086,0.0199457177953,0.0636801189581
1589273498352438605,972,1589273498352276946,,-0.196518167006,-3.41485447428,2.7630595595,0.60882711025,0.0199442003505,0.0637020527183
1589273498358357064,973,1589273498358264986,,-0.173979695085,-3.41499381501,2.78665439469,0.609633522272,0.0199540548798,0.0611952580707
1589273498364482330,974,1589273498364237003,,-0.173966217613,-3.41495517793,2.78670258445,0.609635057142,0.0199468974623,0.0611822995604
1589273498370405892,975,1589273498370300371,,-0.173551738871,-3.41482991103,2.76354851291,0.609806611215,0.0199465852756,0.0593664596617
1589273498376428086,976,1589273498376325734,,-0.151020509682,-3.54722384154,2.78778263221,0.612413449471,0.0206230102009,0.0595628628455
1589273498382806467,977,1589273498382677541,,-0.198190619528,-3.54736418646,2.83337670806,0.617555278555,0.0199503447069,0.0630003043392
1589273498388499755,978,1589273498388377206,,-0.175497688123,-3.54752259949,2.85695589161,0.621087903548,0.0206095812302,0.062308165356
1589273498394389147,979,1589273498394221630,,-0.175558962661,-3.54752127246,2.85695377476,0.621087843279,0.0206014707857,0.0623114481764
1589273498400294788,980,1589273498400195751,,-0.199455461826,-3.67987481576,2.88029166368,0.627258157743,0.0212462220083,0.067727238151
1589273498406412434,981,1589273498406222487,,-0.199397239732,-3.67986287069,2.88031095587,0.627258602551,0.0212519218518,0.0677213299895
1589273498412312962,982,1589273498412219287,,-0.223030169735,-3.67987088309,2.90323775713,0.632566637108,0.0212453670155,0.0704024157725
1589273498418512971,983,1589273498418424853,,-0.246154318332,-3.54770152968,2.92536077889,0.635136317785,0.0205895986381,0.0721057925326
1589273498424307630,984,1589273498424170603,,-0.24606589221,-3.54773403233,2.92532880054,0.635137495095,0.0205947453279,0.0720939515325
1589273498430317811,985,1589273498430228188,,-0.245996009679,-3.5477766345,2.92528301087,0.636982941859,0.0205950210344,0.0712136991789
1589273498436254756,986,1589273498436153921,,-0.222806072366,-3.5478646271,2.92564330776,0.63702713333,0.0205936741614,0.0686210201298
1589273498439475411,987,1589273498439324775,,-0.222358534734,-3.54780490255,2.90241045896,0.635362363148,0.0199272457655,0.067679605985
1589273498445473176,988,1589273498445286645,,-0.175542827651,-3.54777217786,2.87997795633,0.629223361207,0.0192642983502,0.0596658439711
1589273498454315132,989,1589273498454212185,,-0.174300350957,-3.41524567722,2.83309630752,0.623170747491,0.0199530204626,0.0559091286892
1589273498457405458,990,1589273498457188339,,-0.174298674941,-3.41522949217,2.8331159213,0.623170137918,0.0199579496628,0.0559141634738
1589273498463319007,991,1589273498463198964,,-0.151101991843,-3.41523002004,2.83358244429,0.620476372877,0.0206282529309,0.0532800084596
1589273498466361555,992,1589273498466232068,,-0.151136982516,-3.41522642278,2.83358491384,0.620476414202,0.0206231832859,0.0532814897501
1589273498472391274,993,1589273498472287850,,-0.175164466281,-3.54754767895,2.85694519975,0.622155587946,0.0199439596661,0.0531720655978
1589273498478506260,994,1589273498478405720,,-0.175215376981,-3.54757760579,2.85690491644,0.622155434514,0.0199376254137,0.0531762362118
1589273498484797014,995,1589273498484678421,,-0.175656942308,-3.54772938686,2.88002371092,0.628358701934,0.0192577591055,0.0569341531182
1589273498490384262,996,1589273498490224477,,-0.175758523857,-3.54771898008,2.88003033299,0.62835787148,0.0192496397045,0.0569460630291
1589273498496279343,997,1589273498496171306,,-0.246642774136,-3.54799384458,2.9483088759,0.632399817737,0.0205732055714,0.062952533276
1589273498499292863,998,1589273498499201427,,-0.246602101196,-3.54803343724,2.94826463175,0.632400140591,0.0205759716973,0.062948385817
1589273498505339480,999,1589273498505243870,,-0.200588938061,-3.68033531515,2.94974337894,0.63690195602,0.0218867387879,0.0678713439464
1589273498508321291,1000,1589273498508200189,,-0.200586209329,-3.68036709794,2.94970390932,0.63690269205,0.0218819545436,0.0678659794775
1589273498514404522,1001,1589273498514247476,,-0.248064467482,-3.81282484609,2.99585451853,0.640232842847,0.0218863477114,0.0703602176125
1589273498520330015,1002,1589273498520234920,,-0.248476444364,-3.8129563982,3.01899743267,0.643694951519,0.0218835849814,0.0731493096335
1589273498526429124,1003,1589273498526344607,,-0.272506078426,-3.8131424145,3.06501312475,0.652517688644,0.0211992931111,0.075909558753
1589273498532430337,1004,1589273498532266750,,-0.272507277866,-3.81309587421,3.06507091737,0.652516119586,0.021209221121,0.0759202723374
1589273498538373157,1005,1589273498538269865,,-0.201372874608,-3.54847644075,3.01869989968,0.643835990932,0.0205757694496,0.0643710223667
1589273498541328611,1006,1589273498541190868,,-0.201382005145,-3.548425287,3.01875942071,0.643835812721,0.0205767492129,0.0643724916256
1589273498544244146,1007,1589273498544159162,,-0.177770771265,-3.54826230437,2.99611474681,0.641311319268,0.0205929244478,0.059929625745
1589273498547248347,1008,1589273498547166155,,-0.153322571263,-3.41586190359,2.94946237211,0.637102886495,0.0192634346768,0.0554439946234
1589273498550340684,1009,1589273498550238086,,-0.129746624311,-3.41575279593,2.92675270921,0.632709005664,0.0192748368174,0.0527776352694
1589273498556340179,1010,1589273498556260896,,-0.0815499034776,-3.15110262046,2.85670561064,0.61776608605,0.0199683824124,0.0418980788315
1589273498559377014,1011,1589273498559270299,,-0.0814897754032,-3.15109037353,2.85672083545,0.617766051521,0.0199771316439,0.0418944170381
1589273498562448703,1012,1589273498562293297,,-0.0814323309259,-3.15114453867,2.85666272584,0.613232356557,0.0193239789677,0.0390798805615
1589273498568406574,1013,1589273498568306177,,-0.0805993516473,-3.15086322374,2.81036426521,0.608081379315,0.0186716964706,0.0362557139747
1589273498574586690,1014,1589273498574413750,,-0.0574413061291,-3.15091078229,2.8107833782,0.603596525039,0.0193436778967,0.0308727429245
1589273498580373095,1015,1589273498580258684,,-0.0338614327258,-3.15089928931,2.78786454239,0.601943716315,0.0193541096758,0.0291686086363
1589273498586724374,1016,1589273498586566866,,-0.0569994544604,-3.15090066409,2.78738884493,0.601928464989,0.0186941495394,0.0299316914922
1589273498592513284,1017,1589273498592236696,,-0.0569252001774,-3.28292956398,2.76491287047,0.600241377683,0.0193527546851,0.0299086702715
1589273498598496425,1018,1589273498598387364,,-0.0806360394009,-3.15101564348,2.81019231674,0.603503715477,0.0193359718133,0.0361789258568
1589273498604686952,1019,1589273498604355402,,-0.0806485009254,-3.15100002428,2.81020947256,0.603503780918,0.0193338933271,0.03617894502
1589273498610502526,1020,1589273498610271278,,-0.0817860823158,-3.28342880471,2.85718446499,0.607729414299,0.0199956992426,0.0398903610299
1589273498616344611,1021,1589273498616258480,,-0.10615432028,-3.4158401625,2.90381423556,0.611959193713,0.0199775473267,0.0434634130277
1589273498619330344,1022,1589273498619250216,,-0.130236151289,-3.54815130143,2.92716333077,0.616311484482,0.0199546836869,0.0479478721219
1589273498622361568,1023,1589273498622224388,,-0.130731675496,-3.54829621304,2.95029335586,0.617953050129,0.0199431082954,0.0507124234137
1589273498625361877,1024,1589273498625194167,,-0.155161310604,-3.68072214981,2.99692075746,0.622206251881,0.0205914965978,0.0524671048864
1589273498628355465,1025,1589273498628248899,,-0.178639642383,-3.5485286875,3.01908076788,0.629338540264,0.0205658040122,0.0552005153101
1589273498634377973,1026,1589273498634219043,,-0.17863976597,-3.54852986867,3.01907937226,0.63021254408,0.0205598550645,0.0579312104963
1589273498637351680,1027,1589273498637207947,,-0.155796307827,-3.68080993794,3.02011049185,0.632069377743,0.0205544426566,0.0563096782575
1589273498640297085,1028,1589273498640225802,,-0.17831064617,-3.54839372878,2.99592701227,0.631301409029,0.0198826061087,0.0561519742772
1589273498643370319,1029,1589273498643259328,,-0.17826858325,-3.5484120369,2.9959078311,0.631301185633,0.0198896954296,0.0561519751789
1589273498646415800,1030,1589273498646332955,,-0.178205257634,-3.54840099996,2.99592467086,0.631317121669,0.0198952189709,0.0552387558433
1589273498652389273,1031,1589273498652309355,,-0.153782607061,-3.41599430689,2.9492850735,0.628932043436,0.0198991053768,0.0507940440599
1589273498655497472,1032,1589273498655293241,,-0.130184385678,-3.41584194109,2.92662922653,0.622765961213,0.0199179574238,0.0453656479759
1589273498661469028,1033,1589273498661368218,,-0.105368793577,-3.28335167068,2.85678490568,0.613172426623,0.019936596775,0.0426134055278
1589273498667396114,1034,1589273498667225365,,-0.105276176722,-3.28334047722,2.856801185,0.613172472499,0.0199486771726,0.0426070914412
1589273498670326916,1035,1589273498670214614,,-0.0820490963933,-3.28334167495,2.85727704943,0.609605564177,0.0199679717346,0.0372242401817
1589273498676446336,1036,1589273498676313034,,-0.0815901732044,-3.28324109393,2.83408746443,0.606991626491,0.0199735850332,0.0380848672462
1589273498682874493,1037,1589273498682655745,,-0.103987338213,-3.15092361871,2.80981726347,0.603489465178,0.019316850851,0.0369656452026
1589273498688406652,1038,1589273498688303059,,-0.104311682157,-3.283065719,2.81050991693,0.60165943589,0.0193224523692,0.0369370907422
1589273498694415551,1039,1589273498694322890,,-0.0826960180517,-3.41574884375,2.88098549397,0.606682494176,0.0199898578004,0.0389962353371
1589273498700456335,1040,1589273498700293344,,-0.0826434361469,-3.41576025847,2.88097346927,0.606682996112,0.0199916282253,0.0389875179379
1589273498703398673,1041,1589273498703198974,,-0.105763137051,-3.41573471702,2.88052967688,0.609357321724,0.0199798567656,0.0434193436786
1589273498706333353,1042,1589273498706259873,,-0.12943583962,-3.4158499501,2.90332686068,0.613730685916,0.0206352441738,0.0469893683735
1589273498709325354,1043,1589273498709255233,,-0.129462552136,-3.41585685028,2.90331755136,0.61373065603,0.0206318679276,0.0469912412222
1589273498712260155,1044,1589273498712190787,,-0.129940349632,-3.41600326782,2.92645176794,0.616296940897,0.0206268328318,0.0488631742955
1589273498715500548,1045,1589273498715315825,,-0.153892310683,-3.54831632455,2.94979534418,0.619724219718,0.0206104439279,0.054241731569
1589273498718418271,1046,1589273498718331370,,-0.153935550037,-3.54832726866,2.94977992328,0.619723730981,0.0206080209646,0.054248235713
1589273498721387321,1047,1589273498721303315,,-0.177611972997,-3.54839672151,2.9725316661,0.622309148841,0.0206010131943,0.0550596808356
1589273498724522801,1048,1589273498724263378,,-0.178401694097,-3.68074920489,2.99641239568,0.625768548423,0.0205902914412,0.0587624342134
1589273498730458724,1049,1589273498730282906,,-0.201726578832,-3.5486095357,3.01851982271,0.629264770868,0.0212365956873,0.0595993539879
1589273498736226189,1050,1589273498736138801,,-0.202602836229,-3.54887855811,3.06492095294,0.635324940813,0.0218877215799,0.0633482650683
1589273498739274611,1051,1589273498739170857,,-0.225845732847,-3.5488632636,3.06446987237,0.637157115827,0.0218826377296,0.0632387375971
1589273498742363192,1052,1589273498742261311,,-0.202554298328,-3.54889422535,3.06490601989,0.638089574831,0.0218886888354,0.0624919943713
1589273498745305884,1053,1589273498745223587,,-0.225855996669,-3.54883035067,3.06450723093,0.638091642023,0.0218852137147,0.0623462656182
1589273498748271270,1054,1589273498748168152,,-0.202207642931,-3.41665680244,3.06433566351,0.638117654864,0.0212289528507,0.0606762581609
1589273498754465235,1055,1589273498754361896,,-0.155184189311,-3.5485592663,3.01952944844,0.633976426612,0.0205915829805,0.0517914689928
1589273498757405350,1056,1589273498757291375,,-0.15506071775,-3.54849899227,3.01960662417,0.633976676874,0.0206072108112,0.0517821889451
1589273498763470695,1057,1589273498763373025,,-0.130295903309,-3.41584533866,2.94994519757,0.628113446125,0.0199534317485,0.045449017538
1589273498769376038,1058,1589273498769243833,,-0.130225428918,-3.41582153927,2.94997586739,0.628112920708,0.01996778496,0.0454499751327
1589273498772365515,1059,1589273498772219149,,-0.0833003954933,-3.41575028647,2.92770346158,0.622872186165,0.020662046498,0.0392782282216
1589273498775349809,1060,1589273498775255000,,-0.0825197969876,-3.28344192276,2.90388461205,0.618505765155,0.0200082990333,0.0355584665103
1589273498778251110,1061,1589273498778163959,,-0.0824672598752,-3.28347552909,2.90384810518,0.618505572207,0.0200164908649,0.0355572122415
1589273498781389641,1062,1589273498781282817,,-0.0824071316122,-3.2835693365,2.90374373769,0.619431378313,0.0200214147352,0.0346549791458
1589273498787418908,1063,1589273498787303120,,-0.0833443667403,-3.28396994365,2.9499041603,0.620969517223,0.0199981978664,0.0346836854976
1589273498790424437,1064,1589273498790289834,,-0.0834091406452,-3.28394438914,2.94993077776,0.620970034824,0.0199849223636,0.0346820703901
1589273498796284164,1065,1589273498796200318,,-0.130252241502,-3.28405237989,2.97217671094,0.622600197377,0.0199745242399,0.0380629330936
1589273498799348902,1066,1589273498799243982,,-0.13038658315,-3.28400627732,2.97222176003,0.622600546019,0.0199542883211,0.038067843943
1589273498802425219,1067,1589273498802327121,,-0.107289137431,-3.28410843786,2.97257459888,0.624428728721,0.020609845038,0.0382627202006
1589273498805310639,1068,1589273498805204902,,-0.107804975729,-3.28420461025,2.99587235665,0.628796898589,0.0205884726857,0.0419825585091
1589273498808297533,1069,1589273498808209274,,-0.107840736028,-3.2842355826,2.99583711602,0.628796546703,0.020586626129,0.0419887339634
1589273498814422646,1070,1589273498814323698,,-0.131545164263,-3.28435967394,3.0185344045,0.631335525778,0.0212398457958,0.0455379976073
1589273498817436696,1071,1589273498817358086,,-0.155865491366,-3.41673521804,3.06518200924,0.635565364432,0.021230392132,0.0491072564487
1589273498823392717,1072,1589273498823261254,,-0.155881446414,-3.41668788608,3.06523395765,0.635565116116,0.0212310891055,0.0491101688492
1589273498826376943,1073,1589273498826273790,,-0.203438565225,-3.54900173621,3.11139538905,0.641562038632,0.0212179898485,0.0562007614581
1589273498829337018,1074,1589273498829245748,,-0.203396919071,-3.54892381079,3.11148699483,0.641561478068,0.0212293246609,0.0562028800728
1589273498832298474,1075,1589273498832195914,,-0.203784945907,-3.5488789604,3.13484575297,0.644129023127,0.0212307033894,0.058059287979
1589273498835301256,1076,1589273498835205733,,-0.22682997948,-3.68073131886,3.11212988647,0.645180512032,0.0225870410281,0.0588363811962
1589273498838317983,1077,1589273498838222131,,-0.227068833263,-3.68083686018,3.13532218225,0.647716085151,0.0219318082166,0.0625036850691
1589273498841298767,1078,1589273498841223121,,-0.226980276971,-3.68084543847,3.13531852365,0.647715340422,0.0219488132795,0.0625054333597
1589273498845180091,1079,1589273498844275040,,-0.227216829395,-3.68101297825,3.15853945461,0.648517943111,0.0219732419324,0.060699648096
1589273498847373747,1080,1589273498847279828,,-0.227313549669,-3.81340032013,3.1589973262,0.651237051364,0.0219914016438,0.0625506113434
1589273498850368234,1081,1589273498850287753,,-0.227218664379,-3.8134355509,3.15896162308,0.651237237942,0.022002084367,0.0625449118375
1589273498853252028,1082,1589273498853175972,,-0.226643996805,-3.81339520627,3.13561574033,0.650465937952,0.0220170257135,0.0625182208943
1589273498856441996,1083,1589273498856364421,,-0.203005374099,-3.68127327863,3.13532997663,0.650523809939,0.0213527274877,0.0590182231463
1589273498859328145,1084,1589273498859229621,,-0.202997663099,-3.68133539598,3.13525754082,0.650523761001,0.0213529592157,0.0590186787237
1589273498862285655,1085,1589273498862218153,,-0.2262968653,-3.68134413097,3.13478237697,0.650526644542,0.0213428092333,0.0588748150784
1589273498865351749,1086,1589273498865275164,,-0.203012654257,-3.54925260212,3.13447282699,0.648741179234,0.0213040439293,0.0562758410224
1589273498868359903,1087,1589273498868271095,,-0.156082131178,-3.5490273964,3.08902649228,0.644525050043,0.0206122535044,0.0519604757535
1589273498874428257,1088,1589273498874324716,,-0.133162921266,-3.4168699817,3.08880877726,0.64368924478,0.0205551870778,0.0475947984329
1589273498877412499,1089,1589273498877318983,,-0.109911007018,-3.54895945671,3.06671500525,0.640231505491,0.0205511771254,0.044044587864
1589273498883713070,1090,1589273498883613030,,-0.10963542928,-3.54885102558,3.04342800073,0.638571226808,0.020536893221,0.0422020995319
1589273498889495941,1091,1589273498889373963,,-0.10998225533,-3.68109509496,3.04402355124,0.636773271658,0.0205371187465,0.0403575721802
1589273498895479376,1092,1589273498895302364,,-0.109967969233,-3.68111109334,3.04400472066,0.636773224144,0.0205390872638,0.0403573200843
1589273498898540985,1093,1589273498898438648,,-0.0868623520146,-3.68112774093,3.04446454971,0.636786878139,0.0205305512684,0.0395957539109
1589273498901432421,1094,1589273498901276892,,-0.0872769955519,-3.68125457359,3.06772023224,0.638446846618,0.0205299270131,0.0414408978958
1589273498904517088,1095,1589273498904405612,,-0.0872324856136,-3.6811752308,3.06781670679,0.638446304251,0.0205414095443,0.0414435635616
1589273498907324223,1096,1589273498907216544,,-0.110350684119,-3.68106195532,3.06747310672,0.640262533945,0.0205440992014,0.0422367059485
1589273498910248069,1097,1589273498910176622,,-0.110239226067,-3.68101026094,3.06753914804,0.641150298652,0.0205592907225,0.0440718604036
1589273498913236990,1098,1589273498913158882,,-0.110091831956,-3.68091806688,3.06765506964,0.641150391599,0.0205783306877,0.0440616208826
1589273498916311151,1099,1589273498916158865,,-0.133343496844,-3.54872690014,3.08982222704,0.641874589904,0.0205899533998,0.0466434273742
1589273498919440265,1100,1589273498919318233,,-0.15673763544,-3.68084244338,3.09010652261,0.643628044934,0.0205975028824,0.0510785792209
1589273498922367766,1101,1589273498922281928,,-0.156626472426,-3.68083739714,3.09011816996,0.643627941823,0.0206129830152,0.0510736335196
1589273498925415746,1102,1589273498925261619,,-0.156900052907,-3.68101759867,3.11321637024,0.64527646444,0.0212928532895,0.0529155646153
1589273498928275974,1103,1589273498928187569,,-0.20362120442,-3.68106724841,3.13553193477,0.646001444465,0.0206492282904,0.0553577948188
1589273498931862172,1104,1589273498931767695,,-0.180676318966,-3.81345980139,3.13644004654,0.648674023816,0.0219847293485,0.0601033239999
1589273498937325617,1105,1589273498937210519,,-0.180558585109,-3.81355739878,3.13632815855,0.648674031523,0.0219982822206,0.0600982816844
1589273498940235171,1106,1589273498940140904,,-0.204925064613,-3.94608845463,3.18284315607,0.652920408362,0.0219816055132,0.0627635376145
1589273498943274715,1107,1589273498943197098,,-0.228618649727,-3.94623577553,3.20549960666,0.655506580121,0.0219693540487,0.063570247365
1589273498946218671,1108,1589273498946137812,,-0.22906586932,-3.94640098327,3.22860341932,0.658076187508,0.0226282014993,0.0654315633894
1589273498949222633,1109,1589273498949153100,,-0.25260448423,-3.94636788098,3.22814979275,0.659845683317,0.0225821366019,0.0689813382169
1589273498952280679,1110,1589273498952186578,,-0.275920390308,-3.94633918737,3.22770609871,0.661677069888,0.0225625333125,0.0688813879089
1589273498955239532,1111,1589273498955166172,,-0.252531462059,-3.94621047355,3.20500689099,0.661823479289,0.0218681153929,0.0690410622268
1589273498958386633,1112,1589273498958303231,,-0.252673496346,-3.9462045221,3.20500302436,0.661823300456,0.0218502558453,0.0690484306506
1589273498961267751,1113,1589273498961167773,,-0.252855052424,-3.8140775255,3.2275587518,0.662607091959,0.0218371321459,0.0681627406636
1589273498964340051,1114,1589273498964219154,,-0.252586821391,-3.81393970763,3.20440181644,0.66094873428,0.0218249809379,0.0663211588844
1589273498970348587,1115,1589273498970180879,,-0.229462685015,-3.81400336912,3.20479431434,0.660992568858,0.0218197541772,0.0637492549027
1589273498973280999,1116,1589273498973197742,,-0.205330226153,-3.81372545842,3.15898816748,0.655828194597,0.0224937201043,0.0619564536334
1589273498976313551,1117,1589273498976226497,,-0.204579104538,-3.68139030103,3.13509027583,0.65232022619,0.0218299140586,0.0609859546636
1589273498979198138,1118,1589273498979130120,,-0.204290013141,-3.54913785704,3.13451976177,0.648692506126,0.0218295933198,0.0590946648597
1589273498982749462,1119,1589273498982637355,,-0.204222950966,-3.54910449497,3.13456190634,0.647787744011,0.0218452064895,0.058171475986
1589273498988399715,1120,1589273498988278390,,-0.180605126541,-3.54897077546,3.11188057722,0.645232037639,0.0211852157701,0.0555438925246
1589273498991970704,1121,1589273498991877805,,-0.156040883908,-3.5486041031,3.04276148146,0.638404357753,0.0211999751423,0.0519139786775
1589273498997479421,1122,1589273498997365001,,-0.155867173838,-3.54857311858,3.04280651986,0.638404435414,0.0212231335047,0.051903560331
1589273499003500164,1123,1589273499003388021,,-0.179105938719,-3.4163978431,3.06508792207,0.63642169204,0.0205865614103,0.05262774199
1589273499006335961,1124,1589273499006212090,,-0.179035487279,-3.41636809723,3.06512519291,0.636421811625,0.0205958680319,0.0526226542971
1589273499009361316,1125,1589273499009231171,,-0.179238664598,-3.54851949995,3.0658182118,0.6364079567,0.0212731915636,0.0535229932727
1589273499012381308,1126,1589273499012293666,,-0.179517877323,-3.54869983591,3.08892353989,0.638024279154,0.0212887972149,0.0571816821897
1589273499015462857,1127,1589273499015311912,,-0.179432734285,-3.54873899075,3.08888350353,0.638024486077,0.0212981674732,0.057175883755
1589273499018392811,1128,1589273499018250572,,-0.202521533278,-3.54874682111,3.08841318323,0.639840402752,0.021307207933,0.0579738517121
1589273499021411311,1129,1589273499021320282,,-0.226241457977,-3.54878846219,3.11120275099,0.643316682118,0.0219613545342,0.0606246274484
1589273499024422214,1130,1589273499024242952,,-0.226193823185,-3.54883143896,3.11115719253,0.643317482772,0.0219614235488,0.0606161057192
1589273499027490523,1131,1589273499027302774,,-0.225737309088,-3.54875384146,3.08794252286,0.643437845959,0.021964126337,0.0624299519012
1589273499030363089,1132,1589273499030280069,,-0.250162342972,-3.68118528894,3.13445408868,0.646716300575,0.022617589429,0.067814524249
1589273499033416272,1133,1589273499033339835,,-0.250183923089,-3.68124176835,3.13438603413,0.64671683687,0.0226099698502,0.0678119506631
1589273499036306871,1134,1589273499036206524,,-0.250275947647,-3.68131398363,3.13429387061,0.647611772226,0.0225910876949,0.0687371405383
1589273499039365277,1135,1589273499039262001,,-0.274285663529,-3.81363400171,3.15773580499,0.651089894479,0.0225705519975,0.0713892978784
1589273499042296787,1136,1589273499042199413,,-0.298116561888,-3.81373528758,3.18044260532,0.652736460791,0.0232097777572,0.0740084281269
1589273499045396795,1137,1589273499045183117,,-0.275840825928,-3.94611255846,3.20464628455,0.654365526014,0.023185444574,0.0769299810859
1589273499048310128,1138,1589273499048218625,,-0.299171005131,-3.94606234689,3.20423184896,0.655272344214,0.0231760478941,0.0777152075103
1589273499051623506,1139,1589273499051533967,,-0.3232208894,-3.94628436626,3.25020637432,0.658584745161,0.023162156204,0.0812681829155
1589273499057491946,1140,1589273499057371688,,-0.323339033778,-3.94622434459,3.25026749819,0.658583717024,0.0231531176132,0.0812790896132
1589273499063195588,1141,1589273499063121285,,-0.324146686416,-4.07863404821,3.27398705004,0.662055428952,0.0231459730623,0.0840819874203
1589273499066484811,1142,1589273499066315079,,-0.347425811015,-4.07865251551,3.27349294558,0.664797339863,0.0231359464865,0.0839904292234
1589273499069387965,1143,1589273499069251594,,-0.324095245234,-4.07870902874,3.27389873213,0.665729867643,0.0231408485154,0.0832411937225
1589273499072360691,1144,1589273499072269558,,-0.323370354853,-3.94624002402,3.25024534533,0.665886074525,0.0231345531584,0.0823299587513
1589273499075433160,1145,1589273499075274976,,-0.323303365001,-3.94621642645,3.25028065991,0.665885652802,0.0231467520073,0.0823299408996
1589273499078425000,1146,1589273499078329123,,-0.299578694085,-3.94613394032,3.22745322327,0.664233497555,0.0238385504856,0.080626086361
1589273499081457179,1147,1589273499081363218,,-0.275585703071,-3.81373930869,3.20418511402,0.659892960231,0.0231722820929,0.0752345582062
1589273499087429821,1148,1589273499087315189,,-0.274922007342,-3.81358898848,3.18107874793,0.657314886944,0.0232142035241,0.0733550079684
1589273499090568224,1149,1589273499090370281,,-0.273634703503,-3.68105766889,3.13411463148,0.654005577501,0.0225656019536,0.0696397302845
1589273499093396499,1150,1589273499093310930,,-0.273540978548,-3.68104239966,3.13414074682,0.654006070998,0.0225759914988,0.0696317279253
1589273499096460375,1151,1589273499096314681,,-0.250315624714,-3.68104306129,3.13460888028,0.651308684577,0.0219213428665,0.0669915731899
1589273499099259295,1152,1589273499099160449,,-0.227104542768,-3.68108820838,3.13502449139,0.650401738376,0.0219308224814,0.0662111603864
1589273499102301701,1153,1589273499102206851,,-0.227031569168,-3.68105239763,3.13507182458,0.647684847635,0.0226169013785,0.0643431900224
1589273499105266786,1154,1589273499105174409,,-0.226905536941,-3.68104597241,3.13508849303,0.646789147717,0.0219628842093,0.0634094077099
1589273499108252100,1155,1589273499108180842,,-0.203320770296,-3.54896028412,3.1347838268,0.645898241589,0.0219617898082,0.0617087861043
1589273499112081455,1156,1589273499111992807,,-0.204047212573,-3.68132801146,3.15863211902,0.646654333327,0.0219646484511,0.0626420249329
1589273499117383468,1157,1589273499117234154,,-0.204086639457,-3.68136839848,3.15858250081,0.64665451226,0.0219572640547,0.0626427666174
1589273499120303783,1158,1589273499120224713,,-0.203877977306,-3.54916521945,3.1579496863,0.645759989497,0.0219457942996,0.0617170548275
1589273499123270179,1159,1589273499123185029,,-0.204244940263,-3.6813672831,3.15857356848,0.646638857759,0.0219377431698,0.0635589412806
1589273499126398826,1160,1589273499126232320,,-0.227210292798,-3.54915563522,3.1574898119,0.647530116342,0.0219318269508,0.0652504603533
1589273499129422639,1161,1589273499129316862,,-0.227660313503,-3.68134915802,3.15811568476,0.647516012053,0.0225887121907,0.0661671540524
1589273499132394274,1162,1589273499132302225,,-0.228155833663,-3.68151338672,3.18122635665,0.650994607309,0.0232337245869,0.0680631481894
1589273499135433819,1163,1589273499135328542,,-0.228200807543,-3.68152251908,3.18121256225,0.65099473725,0.0232265061692,0.0680643690154
1589273499138324265,1164,1589273499138243762,,-0.251400067146,-3.68147995674,3.18079301716,0.651901339735,0.0232209943696,0.0688468476963
1589273499141376525,1165,1589273499141268675,,-0.251937011536,-3.68162815371,3.20392009953,0.651702323642,0.0225462669173,0.071579066813
1589273499144311269,1166,1589273499144215077,,-0.275100183214,-3.68161547182,3.2034696323,0.651674934977,0.0225409753587,0.0732422481853
1589273499147411614,1167,1589273499147303127,,-0.275895128148,-3.81397503657,3.22722251487,0.654252812214,0.022530568876,0.0751139732829
1589273499150507716,1168,1589273499150414470,,-0.299624943082,-3.81405766081,3.25006179936,0.655908303087,0.0231823841442,0.076819279835
1589273499156289291,1169,1589273499156206348,,-0.323534555313,-3.94635418376,3.27344057834,0.656634870045,0.0231817879784,0.0794004323694
1589273499159229477,1170,1589273499159116195,,-0.347567318749,-4.07874265109,3.29671910628,0.661908812859,0.0231725160189,0.0839131086046
1589273499162336043,1171,1589273499162258285,,-0.34750864376,-4.07875339499,3.29671199924,0.661908575673,0.0231813834707,0.0839125303222
1589273499165456209,1172,1589273499165354561,,-0.347926493765,-4.07881103755,3.31994927773,0.664492293179,0.0231752834946,0.0848642509034
1589273499168455880,1173,1589273499168349616,,-0.371408049714,-4.07887546947,3.34282727267,0.668002306666,0.0238568943683,0.0856906393714
1589273499171585962,1174,1589273499171465071,,-0.37131395112,-4.07880592742,3.3429225785,0.668002389315,0.0238709666686,0.0856860759746
1589273499174317167,1175,1589273499174222429,,-0.371280659599,-4.07873973721,3.34300703523,0.668881318135,0.0238792780118,0.0875204166617
1589273499177311486,1176,1589273499177164071,,-0.371122543355,-4.07868073058,3.34309658334,0.669802307334,0.023893832523,0.0875238439323
1589273499180345541,1177,1589273499180247542,,-0.394328208554,-4.07863632569,3.3426977156,0.671587278959,0.0232297706977,0.0901441596827
1589273499183485724,1178,1589273499183403617,,-0.394252109774,-4.07863031664,3.34271402386,0.671585973277,0.0232471271836,0.0901494126793
1589273499186614164,1179,1589273499186538254,,-0.417738604898,-4.21090031676,3.34286132125,0.671560374684,0.0239221048577,0.0918158438953
1589273499189358843,1180,1589273499189281625,,-0.417551545714,-4.21090116432,3.34288362404,0.671560987889,0.0239442205201,0.0918055934345
1589273499192426110,1181,1589273499192325366,,-0.394752934095,-4.21108890826,3.36641570009,0.67234125247,0.0239520126888,0.091063316168
1589273499195325557,1182,1589273499195255710,,-0.417463305311,-4.21095691957,3.34282441105,0.6724932327,0.023285866121,0.0909172850669
1589273499198599442,1183,1589273499198525376,,-0.393966439603,-4.07870221542,3.34265997577,0.671585096165,0.0232891178041,0.0901451087562
1589273499201434947,1184,1589273499201338060,,-0.393954732639,-4.0788203508,3.34251720201,0.671584613523,0.0232900180226,0.0901484718181
