%time,field.header.seq,field.header.stamp,field.header.frame_id,field.wrench.force.x,field.wrench.force.y,field.wrench.force.z,field.wrench.torque.x,field.wrench.torque.y,field.wrench.torque.z
1588858433572897926,1892,1588858433572788162,,-0.0555196015699,-0.123704253383,0.64972940966,0.151661125407,0.00474340929382,-0.0122662087309
1588858433579101945,1893,1588858433579011144,,-0.0555221415494,-0.123700922561,0.649729826771,0.153471675574,0.00538029426121,-0.0113699428985
1588858433584969319,1894,1588858433584880391,,-0.0565120784844,-0.248604796494,0.675228596478,0.154243412258,0.0053801845993,-0.0113597962258
1588858433591011257,1895,1588858433590881312,,-0.0555278912956,-0.12369672846,0.649730133899,0.154412241213,0.00537972491692,-0.0122312132406
1588858433597021688,1896,1588858433596862764,,-0.0341680008032,-0.248110422941,0.652354817331,0.153489286213,0.00537889671816,-0.0120945882688
1588858433602908780,1897,1588858433602816712,,-0.0773921144026,-0.123666873158,0.649468835819,0.153496184783,0.0053790682172,-0.0123786719704
1588858433608946834,1898,1588858433608844552,,-0.0565130931318,-0.248597460906,0.67523121232,0.154282741792,0.00474046805905,-0.0130988778568
1588858433615004123,1899,1588858433614921048,,-0.056512720422,-0.248591225379,0.675233539193,0.155183840187,0.00537793765343,-0.0122233023621
1588858433620910337,1900,1588858433620804152,,-0.0565122912451,-0.248592789659,0.675232999211,0.155183835245,0.00537746935468,-0.0122235711346
1588858433626839359,1901,1588858433626760766,,-0.0346288258608,-0.248614550505,0.675564271829,0.15520150209,0.00537742062798,-0.0129495984702
1588858433632924068,1902,1588858433632838902,,-0.0346285796639,-0.248615304314,0.675564007039,0.156107972388,0.00473760430557,-0.01293911559
1588858433638896949,1903,1588858433638805880,,-0.0570576100141,-0.374507109558,0.678294836629,0.157033559394,0.00537692281565,-0.0130665602172
1588858433644901851,1904,1588858433644836052,,-0.0570580040018,-0.374504551859,0.678296215664,0.157033560078,0.00537628759293,-0.0130668133792
1588858433651000050,1905,1588858433650825727,,-0.0555199341825,-0.123678840953,0.649734219084,0.156240896607,0.00537521615958,-0.0122116294884
1588858433656841946,1906,1588858433656764345,,-0.0555200394213,-0.123680721341,0.649733852151,0.156261900572,0.00537558573295,-0.0130767917172
1588858433662920254,1907,1588858433662774244,,-0.0565109204248,-0.24858489302,0.6752360211,0.157033512176,0.00537610266059,-0.01306746512
1588858433668891722,1908,1588858433668818160,,-0.0555185956696,-0.123678626712,0.649734374241,0.156261856077,0.00537637322965,-0.0130769996634
1588858433674940062,1909,1588858433674855434,,-0.0565077111756,-0.248581796938,0.675237429475,0.157030610897,0.00473574996526,-0.0130687189456
1588858433681091162,1910,1588858433681014228,,-0.0565109010496,-0.248582578762,0.6752368747,0.157030672681,0.00473586439121,-0.0130679350786
1588858433686978716,1911,1588858433686896635,,-0.056508866112,-0.248581759842,0.675237346479,0.157033474627,0.00537543264602,-0.0130681919699
1588858433693036041,1912,1588858433692894991,,-0.0560420208561,-0.123976904291,0.673068016767,0.157921933198,0.00537488583253,-0.0121911799828
1588858433699025427,1913,1588858433698911643,,-0.0560427638454,-0.123976989481,0.673067939211,0.157921936676,0.00537538770675,-0.0121909136465
1588858433704926846,1914,1588858433704839204,,-0.0560407235389,-0.123975885053,0.673068312524,0.157919067412,0.00473605162493,-0.0121915293802
1588858433710905180,1915,1588858433710829672,,-0.0560428382142,-0.123974873618,0.67306832275,0.157921933272,0.00537558752185,-0.0121908696273
1588858433714065797,1916,1588858433713999378,,-0.0342296126348,-0.124008443985,0.673387460453,0.158898422592,0.00473772153919,-0.0146388221418
1588858433717252524,1917,1588858433717181232,,-0.0565080916072,-0.248581076836,0.675237662736,0.158862124746,0.00537619654648,-0.0130458707409
1588858433722924896,1918,1588858433722825582,,-0.0342302103731,-0.124010454472,0.673387059822,0.157960569818,0.0053775689682,-0.0137832224297
1588858433728935260,1919,1588858433728825713,,-0.0565522670249,-0.124253374373,0.696308463764,0.158708242079,0.00473721069366,-0.0130485553809
1588858433735155612,1920,1588858433735060534,,-0.0560361948235,-0.123971844024,0.673069433901,0.157939866643,0.00473740446807,-0.0130581416464
1588858433740890997,1921,1588858433740825506,,-0.0551588995965,-0.000174540363158,0.648923306098,0.15813324393,0.00537794349214,-0.0147974533443
1588858433747113806,1922,1588858433747043494,,-0.0551576316314,-0.000176462158341,0.648923413355,0.158133207031,0.00537822041718,-0.0147977470175
1588858433751215454,1923,1588858433751108000,,-0.0551552405811,-0.000174923871021,0.648923617003,0.158133140728,0.00537852910829,-0.014798343339
1588858433755855583,1924,1588858433755785601,,-0.0551520698732,-0.000176606512737,0.648923886034,0.158130261985,0.00473862231098,-0.0147992711537
1588858433761883955,1925,1588858433761814797,,-0.0555038442833,-0.123671864286,0.649736921757,0.158087370281,0.0047377794549,-0.0130585147111
1588858433767954999,1926,1588858433767817212,,-0.0560269756989,-0.12397064532,0.67307042216,0.158838205184,0.00473651734702,-0.0121832055466
1588858433773852513,1927,1588858433773791728,,-0.0555028971851,-0.123669912159,0.64973737423,0.158087346392,0.00473807852726,-0.0130586954057
1588858433779871273,1928,1588858433779808664,,-0.0555040088121,-0.123670667963,0.649737135411,0.158087372872,0.00473780531811,-0.0130584739649
1588858433785928898,1929,1588858433785836423,,-0.0555048574333,-0.12366993663,0.649737202118,0.158087384512,0.00473816804041,-0.0130582014449
1588858433791913221,1930,1588858433791822526,,-0.0337408894575,-0.123703531802,0.65004996222,0.157167430867,0.00537809955433,-0.0129306943991
1588858433797840312,1931,1588858433797766696,,-0.0551529608046,-0.000174344211749,0.648923810925,0.157149927082,0.00537851365554,-0.0122033987664
1588858433803820735,1932,1588858433803759785,,-0.0560282390355,-0.123971171929,0.673070220003,0.15884098411,0.00537899438175,-0.0121822428437
1588858433809955531,1933,1588858433809872799,,-0.0551513168271,-0.000173811238166,0.64892395079,0.158066451267,0.00473914054662,-0.0121926147596
1588858433813302025,1934,1588858433813233535,,-0.0564903134865,-0.248577231974,0.675240565711,0.15789791942,0.004739922359,-0.011319071834
1588858433816277516,1935,1588858433816206227,,-0.0564901703539,-0.248576189312,0.675240961521,0.157897919008,0.00473936025219,-0.0113193129508
1588858433821867339,1936,1588858433821796549,,-0.077941088262,-0.123947606071,0.672799395506,0.159763544723,0.00538037428866,-0.0123072270114
1588858433827882735,1937,1588858433827797488,,-0.0779389315363,-0.123945836276,0.672799971391,0.159763504539,0.00538037906114,-0.0123077465433
1588858433833930315,1938,1588858433833811652,,-0.077937826484,-0.123949997382,0.672799332814,0.157883519447,0.00537962182917,-0.0105901913147
1588858433840055083,1939,1588858433839945456,,-0.0554980728556,-0.123673906891,0.64973702596,0.158069127516,0.00538092849576,-0.0121932395133
1588858433845990319,1940,1588858433845861925,,-0.0554956894667,-0.123676512135,0.649736733637,0.158069086789,0.00538077202471,-0.0121938365211
1588858433851920286,1941,1588858433851834876,,-0.0564853588546,-0.248583395156,0.675238711304,0.158840843549,0.005379954345,-0.0121836515959
1588858433858123743,1942,1588858433858030003,,-0.0564857766955,-0.248584721189,0.675238188181,0.15883805722,0.00474047381942,-0.012183595796
1588858433863939968,1943,1588858433863832127,,-0.0564856274321,-0.248586399893,0.675237582661,0.158820087171,0.00537944342912,-0.0113082551779
1588858433870224012,1944,1588858433870079515,,-0.0564883751068,-0.248585467575,0.675237696033,0.158820143333,0.00537811016187,-0.0113081005742
1588858433875923474,1945,1588858433875805175,,-0.056491248997,-0.24858548607,0.675237448797,0.158820191901,0.00537805325689,-0.0113074454962
1588858433882139644,1946,1588858433882063277,,-0.0564939452363,-0.248585563798,0.675237194605,0.158841006244,0.00537862104211,-0.0121821190858
1588858433888010809,1947,1588858433887922914,,-0.0564946120577,-0.248585611005,0.675237121436,0.15976041804,0.00537762443825,-0.0121707937655
1588858433894017548,1948,1588858433893918360,,-0.057043601786,-0.374504282052,0.678297575986,0.159739801339,0.00537674191979,-0.0112938863123
1588858433900050094,1949,1588858433899971962,,-0.0570468048074,-0.37450266527,0.678298199272,0.159739853154,0.00537643487444,-0.0112932996045
1588858433906174444,1950,1588858433906060661,,-0.0570496673834,-0.374501489061,0.678298607924,0.159757834879,0.00473608390456,-0.0121688588532
1588858433912225638,1951,1588858433912108614,,-0.0570131027502,-0.249065175419,0.698355018294,0.161456494401,0.00473570074486,-0.0130131841979
1588858433915249941,1952,1588858433915105912,,-0.0570144639799,-0.249064151377,0.698355272382,0.161456520272,0.00473481933919,-0.0130131839333
1588858433921110650,1953,1588858433921019181,,-0.0355252169828,-0.375111920118,0.701621457763,0.162396255001,0.00537581679181,-0.0137288608657
1588858433927203933,1954,1588858433927071465,,-0.0355263995595,-0.375110510114,0.701622151722,0.162396271465,0.00537523969227,-0.0137288920759
1588858433933114675,1955,1588858433933040284,,-0.057063891693,-0.374494766356,0.678301123105,0.162559392868,0.00473446606523,-0.014742906422
1588858433939111352,1956,1588858433939026418,,-0.0570680612691,-0.374495033461,0.678300624845,0.162559484462,0.00473451787915,-0.0147418798068
1588858433945163435,1957,1588858433945046019,,-0.0575510425549,-0.375085522862,0.701276042198,0.163330495703,0.00537429679344,-0.0147332785962
1588858433951165446,1958,1588858433951057502,,-0.0575498692975,-0.37508320789,0.701277376666,0.163330473385,0.0053743990416,-0.014733488701
1588858433957055880,1959,1588858433956991902,,-0.0576499008405,-0.501822139369,0.681719835679,0.163460162296,0.00537329893009,-0.0138538140529
1588858433963243996,1960,1588858433963132290,,-0.0576503386915,-0.501818991782,0.681722115618,0.16346014728,0.00537243065671,-0.0138543279539
1588858433969099728,1961,1588858433969021150,,-0.0580383529129,-0.375651706709,0.724273737164,0.164955534694,0.00537189781577,-0.0120988489596
1588858433975204657,1962,1588858433975097017,,-0.0580378284612,-0.375650088341,0.72427461857,0.164955523991,0.00537151845387,-0.0120991633008
1588858433981051661,1963,1588858433980969584,,-0.0580389263077,-0.375650139184,0.724274504226,0.165924794016,0.00473120693354,-0.0147012972594
1588858433987187045,1964,1588858433987089688,,-0.0581205927737,-0.502437902919,0.704572746111,0.166075814636,0.00473140485057,-0.0146990107541
1588858433993187632,1965,1588858433993066758,,-0.0581220566023,-0.502435394837,0.704574413889,0.166075828143,0.00473086427336,-0.0146990321367
1588858433999116153,1966,1588858433999042632,,-0.0368929347646,-0.631600020909,0.731041725187,0.167805359785,0.00537295579794,-0.0162763402586
1588858434005064809,1967,1588858434004976440,,-0.0368906513732,-0.63160335406,0.731038960654,0.167805355229,0.00537391946876,-0.0162760690874
1588858434011144548,1968,1588858434011055584,,-0.0368894875947,-0.631602308207,0.731039922976,0.168696028052,0.00601509219842,-0.0153964245834
1588858434014261886,1969,1588858434014160779,,-0.0595932142544,-0.632143640704,0.753487890352,0.169443871304,0.0053716301256,-0.0146574177386
1588858434017402294,1970,1588858434017280260,,-0.0595928895873,-0.632145512718,0.753486345487,0.169446713721,0.00601505290799,-0.0146563849893
1588858434023339032,1971,1588858434023251673,,-0.0150625127491,-0.632214427918,0.754250992799,0.169482322677,0.00601560324581,-0.0161153838486
1588858434029140260,1972,1588858434029063853,,-0.037764635778,-0.632733835962,0.776797864013,0.170236068383,0.00601458742389,-0.0153762964401
1588858434035180155,1973,1588858434035061004,,-0.0377640568083,-0.632734374141,0.776797453791,0.170236079158,0.00601517700777,-0.0153759465103
1588858434041109137,1974,1588858434041031888,,-0.0146537114704,-0.631646337543,0.731429573673,0.169652117953,0.00537382857481,-0.0169821574578
1588858434047101118,1975,1588858434046931887,,-0.0596044290754,-0.63214873744,0.753482727315,0.17038729609,0.00601468977904,-0.0155126146903
1588858434052969012,1976,1588858434052895984,,-0.0373363927059,-0.632174843129,0.753855806313,0.171314430122,0.00601540103794,-0.0162313800268
1588858434059016150,1977,1588858434058922643,,-0.0596112212006,-0.632150350145,0.753480836978,0.172171342592,0.00537064185753,-0.0137392645399
1588858434065021093,1978,1588858434064909546,,-0.059610266204,-0.632152712956,0.75347893019,0.172171342036,0.0053711534539,-0.0137390715116
1588858434071052477,1979,1588858434070953131,,-0.0591585387507,-0.631586724484,0.730658669182,0.171402986101,0.005372045936,-0.0137480992704
1588858434077047714,1980,1588858434076934950,,-0.0596210787009,-0.63215191198,0.7534787467,0.174021283644,0.00537169050883,-0.0145922718213
1588858434082984023,1981,1588858434082912380,,-0.0596202135284,-0.63214630826,0.75348351652,0.174940670043,0.0053717508922,-0.0145803452426
1588858434089039729,1982,1588858434088945467,,-0.0600808176907,-0.632699050233,0.776427770215,0.175712447031,0.00537094699945,-0.0145695650623
1588858434095137749,1983,1588858434094994912,,-0.0600845976948,-0.632689982495,0.77643486678,0.176663694555,0.005370906711,-0.0162999113072
1588858434100989166,1984,1588858434100924184,,-0.0382368977369,-0.762140429954,0.779758797985,0.177579695667,0.00536993984598,-0.0161478622414
1588858434107214450,1985,1588858434107118417,,-0.0382466883528,-0.762135591981,0.779763046456,0.177579825115,0.00536859527907,-0.0161468857302
1588858434113655587,1986,1588858434113560820,,-0.0610662340876,-0.762611556269,0.802196207241,0.179260884244,0.00536672134119,-0.0162662416825
1588858434116461797,1987,1588858434116341288,,-0.0610624421627,-0.762611016255,0.802197009254,0.179260835723,0.00536721058477,-0.0162666149779
1588858434122370333,1988,1588858434122131423,,-0.0390823342003,-0.892748092006,0.805283535916,0.179257298167,0.00536928584476,-0.0161276688713
1588858434128126538,1989,1588858434128060654,,-0.0614842224086,-0.763101310694,0.825041493519,0.180927454333,0.00536865743009,-0.0153751186173
1588858434134029511,1990,1588858434133973246,,-0.0614858661268,-0.763094135983,0.825048007034,0.180927484126,0.0053685066921,-0.0153748206639
1588858434140290916,1991,1588858434140214348,,-0.0614846773534,-0.763089504655,0.825052379156,0.181878626306,0.0053692988276,-0.0171080820922
1588858434146244578,1992,1588858434146169885,,-0.0390815369211,-0.763119146293,0.825437095802,0.181875281343,0.00537032716516,-0.0169671102593
1588858434152212643,1993,1588858434152123659,,-0.0170162027828,-0.893240442499,0.828500879314,0.181874444888,0.00601608402331,-0.0168272824421
1588858434158180193,1994,1588858434158112465,,-0.0394939682665,-0.89319846323,0.828096887927,0.182797194623,0.0060156623809,-0.016955381488
1588858434164216831,1995,1588858434164079362,,-0.0170203952999,-0.893245962409,0.828494841916,0.183755427177,0.00601585196238,-0.018550094765
1588858434170037008,1996,1588858434169901815,,-0.0394963369397,-0.893205097444,0.828089619128,0.184623289975,0.00536963474427,-0.0169321452994
1588858434176169914,1997,1588858434176025750,,-0.0399214055586,-0.893668634003,0.851001234622,0.186314277045,0.00536913138016,-0.016910655275
1588858434182083389,1998,1588858434182012518,,-0.0394897912322,-0.893202402722,0.828092837911,0.186451998543,0.00537049967113,-0.0169082388597
1588858434188133507,1999,1588858434188044063,,-0.039492522476,-0.893204380739,0.828090574114,0.186452051863,0.00537050476571,-0.0169076492524
1588858434194166050,2000,1588858434194082458,,-0.0399178706013,-0.893670695719,0.850999235353,0.187223668901,0.0053700845965,-0.0168982648135
1588858434200359522,2001,1588858434200214317,,-0.0174302059816,-0.893714458153,0.851401700393,0.18814226131,0.00601620792039,-0.0167453846066
1588858434205980389,2002,1588858434205885905,,-0.0174322213909,-0.893713038542,0.85140314929,0.188142305443,0.0060162530033,-0.0167448725509
1588858434212257527,2003,1588858434212110915,,-0.0628408652732,-0.894098989638,0.873434931746,0.188873656632,0.0053694454517,-0.0152676781564
1588858434215312378,2004,1588858434215105897,,-0.062840351663,-0.894097109066,0.873436893757,0.188873649868,0.00536945310346,-0.0152677591391
1588858434221135833,2005,1588858434221073710,,-0.0403410665064,-0.894131721328,0.873826105931,0.189820822234,0.00536983723202,-0.0168640757002
1588858434227323935,2006,1588858434227090981,,-0.0403450436412,-0.89413247078,0.873825155445,0.189820867916,0.00536935749933,-0.0168637142585
1588858434233109023,2007,1588858434233033519,,-0.0182621300176,-0.894628795243,0.897075830037,0.191526033424,0.00536899297261,-0.0175759362727
1588858434239107038,2008,1588858434239027503,,-0.0182615971259,-0.894630708694,0.89707393265,0.191526044534,0.00536936929685,-0.0175757002426
1588858434245287882,2009,1588858434245131905,,-0.0185883657283,-1.0251531952,0.899447441231,0.191525957701,0.00537030301453,-0.0175763611845
1588858434251211437,2010,1588858434250968351,,-0.0407337615024,-1.02469071563,0.876218924953,0.190740210792,0.00537083393147,-0.0168516028419
1588858434257028409,2011,1588858434256937564,,-0.0411542573841,-1.02510859026,0.899042381636,0.191508593061,0.00537102076565,-0.0168414817553
1588858434263106189,2012,1588858434262974900,,-0.0411432177485,-1.02511166575,0.899039380164,0.193314455585,0.00472384207638,-0.0159436392533
1588858434269236243,2013,1588858434269134925,,-0.0411395468408,-1.02510929159,0.899042255235,0.193314459541,0.00472478837798,-0.0159433108932
1588858434275228368,2014,1588858434275126049,,-0.0415133449378,-1.15606868201,0.901209806583,0.194195697403,0.00537110898611,-0.0141717920019
1588858434281239405,2015,1588858434281155770,,-0.04150672794,-1.1560687444,0.901210031331,0.194195670188,0.0053722711079,-0.0141717244363
1588858434293011027,2016,1588858434292925408,,-0.0418756963163,-1.28737663177,0.903168451169,0.196024666289,0.00537173493183,-0.0141468836304
1588858434299088815,2017,1588858434298937771,,-0.0415023306666,-1.15607308256,0.901204668841,0.196934226534,0.00537106087102,-0.0141338995924
1588858434305234869,2018,1588858434305108236,,-0.041512504251,-1.15607420575,0.901202759438,0.196934257384,0.0053690987956,-0.0141342152282
1588858434311277193,2019,1588858434311135373,,-0.0641354491185,-1.15604304558,0.900797934304,0.196917661344,0.00536904011007,-0.013399347414
1588858434314388116,2020,1588858434314287370,,-0.0415094786057,-1.15607605854,0.901200522006,0.198763207592,0.00536654828679,-0.0141109457518
1588858434317583974,2021,1588858434317433818,,-0.0415105975785,-1.15607914086,0.901196516408,0.198763165761,0.00536567333214,-0.014111867664
1588858434323224453,2022,1588858434323109995,,-0.0645747881891,-1.28734276226,0.902760329576,0.199666275093,0.00536309979294,-0.013363250351
1588858434329303753,2023,1588858434329169507,,-0.0427445670926,-1.28807932416,0.948906984631,0.20122308059,0.00536107533059,-0.0140780006027
1588858434335186455,2024,1588858434335076386,,-0.0654330437195,-1.28804546013,0.948498940839,0.201206590803,0.00535993527816,-0.0133431782756
1588858434341104544,2025,1588858434341026828,,-0.0654394356827,-1.28804745313,0.948495793397,0.201204309057,0.00471119002521,-0.01334322199
1588858434347276140,2026,1588858434347146888,,-0.0637095982058,-1.02510075808,0.898617066431,0.184184077894,0.00472832245722,-0.0170817096365
1588858434353230719,2027,1588858434353132248,,-0.0637043030435,-1.02510152512,0.89861656683,0.184184012767,0.00472877754377,-0.0170822858899
1588858434359221433,2028,1588858434359138190,,0.0283548438814,-0.892940521614,0.806497692759,0.178560522524,0.00602621300734,-0.024461859222
1588858434365245816,2029,1588858434365144902,,0.02835794,-0.892938930724,0.806499345302,0.1785603899,0.00602583490048,-0.0244629204413
1588858434371388985,2030,1588858434371174568,,-0.0160717538786,-1.02262877996,0.762523762632,0.176977376121,0.00473802274111,-0.0230155250991
1588858434377390053,2031,1588858434377274735,,0.0285682619875,-1.0231881457,0.786190783528,0.179711251045,0.00538435656483,-0.0279554791321
1588858434383176318,2032,1588858434383082083,,0.0285720433945,-1.0231906912,0.786187333262,0.179711113074,0.00538442661929,-0.027956352573
1588858434389214999,2033,1588858434389133977,,-0.0389947522515,-1.02302378887,0.784949940676,0.175994322423,0.00474141635552,-0.0257938989788
1588858434395236329,2034,1588858434395085484,,-0.0389923445982,-1.02302747025,0.78494526232,0.175994244422,0.00474154408543,-0.0257944077043
1588858434401145855,2035,1588858434401053219,,0.00605832060768,-1.02312884561,0.785757809182,0.172297993487,0.00474338343645,-0.024669029811
1588858434407310215,2036,1588858434407207063,,0.00605628328474,-1.0231321258,0.785753553763,0.172297993041,0.00474308063555,-0.0246690911456
1588858434413839584,2037,1588858434413628839,,-0.0164685364189,-1.02308087373,0.785335506526,0.172254966149,0.00474167372352,-0.0230674225422
1588858434416538499,2038,1588858434416460029,,-0.0168806655464,-1.02350918236,0.808094270327,0.172070528746,0.00538366906008,-0.0213176606358
1588858434422223369,2039,1588858434422117094,,-0.0176314643567,-1.1550087733,0.833064035956,0.174644052136,0.0053808983001,-0.0204193058859
1588858434428190312,2040,1588858434428062289,,-0.0176317426596,-1.15500587155,0.833068053209,0.174644088367,0.00538105062446,-0.0204189558619
1588858434434239948,2041,1588858434434123774,,0.00537180152114,-1.15467722654,0.810710273078,0.175745353226,0.00538094639879,-0.0220104135252
1588858434440402827,2042,1588858434440194587,,-0.0172256415869,-1.15462090382,0.81029903642,0.178496119055,0.00537941192847,-0.0221304960203
1588858434446310023,2043,1588858434446155080,,-0.0172266337108,-1.15462107467,0.810298771878,0.178496135835,0.00537934637518,-0.022130376614
1588858434452225884,2044,1588858434452110154,,-0.0172177303496,-1.15462230717,0.81029720488,0.179427509186,0.00538003326262,-0.0229942231905
1588858434458263193,2045,1588858434458167488,,-0.0172196181049,-1.15462325692,0.810295811426,0.179427481,0.0053795260234,-0.0229945617977
1588858434464214676,2046,1588858434464134432,,0.00496922284212,-1.15506330897,0.833477577255,0.179328590768,0.00538023158989,-0.024601263029
1588858434470253738,2047,1588858434470122242,,-0.0176258278649,-1.15500902471,0.833063806658,0.17838779764,0.00473648859223,-0.0238794053253
1588858434476190784,2048,1588858434476099146,,-0.0176278114359,-1.15500443564,0.833070127216,0.178410794537,0.00473625048257,-0.0247523900685
1588858434482161905,2049,1588858434482048973,,-0.0176251580378,-1.15500753819,0.833065881826,0.17932957933,0.00473608349273,-0.0247431199282
1588858434488227340,2050,1588858434488133562,,0.00457183960843,-1.15544623373,0.856363305459,0.181950127146,0.0053788662564,-0.025450395279
1588858434494342180,2051,1588858434494254301,,0.00457441813715,-1.15544894045,0.856359639632,0.181950078038,0.0053791197561,-0.0254506927833
1588858434500196012,2052,1588858434500057746,,0.00429415100538,-1.28681980379,0.858330237991,0.183800879097,0.00537746222205,-0.0263164675246
1588858434506178973,2053,1588858434506057512,,0.00429936245392,-1.28681557701,0.858336548714,0.183800871818,0.00537815580526,-0.0263163766247
1588858434512197144,2054,1588858434512072632,,-0.0183625024769,-1.28676272398,0.857921057871,0.183802104085,0.00473313411584,-0.0264571108437
1588858434518242897,2055,1588858434518147963,,0.00390107964614,-1.28715983283,0.881137256531,0.18459429624,0.00602378044598,-0.0271840273717
1588858434524329826,2056,1588858434524133398,,0.00390496820419,-1.28716108809,0.881135405632,0.184594229251,0.00602410967118,-0.0271844093013
1588858434530311182,2057,1588858434530212756,,-0.0183519986564,-1.28675732792,0.857929375909,0.184723171397,0.00537865963643,-0.0264485440002
1588858434536343717,2058,1588858434536244891,,-0.0183475407454,-1.28675794671,0.857928543168,0.184722989132,0.00537843794631,-0.0264498620372
1588858434542292494,2059,1588858434542170401,,0.00391170711157,-1.28715649218,0.881142089393,0.185533645858,0.0053793136409,-0.0280500981009
1588858434548294374,2060,1588858434548112397,,-0.0187628681351,-1.28710646774,0.880722919666,0.185511577013,0.00473233051968,-0.0273167092378
1588858434554260065,2061,1588858434554157401,,-0.0184410650002,-1.15577079049,0.878754327639,0.187409703382,0.00473143401335,-0.0299322195247
1588858434560359606,2062,1588858434560210921,,0.00417266481098,-1.15582612405,0.879166227075,0.189233086824,0.00472912504346,-0.0297742153316
1588858434566327739,2063,1588858434566180857,,0.00417206485993,-1.15582748737,0.879164437581,0.189232964494,0.00472838628126,-0.0297751101291
1588858434572365012,2064,1588858434572250342,,-0.0188543608273,-1.15615582381,0.901563081743,0.19183163247,0.00472610788012,-0.0298912679753
1588858434578335304,2065,1588858434578160643,,-0.0192685608827,-1.15653800145,0.924387513909,0.193484922261,0.00472385196026,-0.0289982144746
1588858434584218839,2066,1588858434584129717,,-0.0195948608815,-1.28780765668,0.926343537227,0.196207837121,0.00472027595654,-0.0280858275419
1588858434590369613,2067,1588858434590172641,,-0.0195949190206,-1.28780515029,0.926347020381,0.196207796447,0.0047199581227,-0.0280861651058
1588858434596369286,2068,1588858434596229096,,-0.0195924152918,-1.28780691103,0.926344625559,0.196185113648,0.00471970162871,-0.0272097429221
1588858434602289886,2069,1588858434602185309,,-0.0195856049356,-1.28780682709,0.926344886268,0.198010532352,0.00407052328223,-0.0271913678304
1588858434608380509,2070,1588858434608275063,,-0.0422722111833,-1.28775534225,0.92594542923,0.199797704232,0.00406704272978,-0.0255573437375
1588858434614453192,2071,1588858434614345717,,-0.0203303779541,-1.41965887969,0.951059154915,0.20152868245,0.00406592375542,-0.0271529990968
1588858434617587351,2072,1588858434617418453,,0.00239765282233,-1.41971387791,0.951470927869,0.202424288762,0.00471244079341,-0.0261233456644
1588858434623248611,2073,1588858434623098972,,-0.0203342278731,-1.41966269752,0.951053373663,0.202405890244,0.00471200908134,-0.0253866616314
1588858434629265556,2074,1588858434629182857,,-0.0211637638579,-1.42029597992,0.996750546646,0.206745063339,0.0047076935205,-0.0279733236715
1588858434635230187,2075,1588858434635105336,,-0.0211612680054,-1.42029932753,0.996745829527,0.206745043531,0.00470808208508,-0.0279734046754
1588858434641233059,2076,1588858434641092171,,0.0015718695363,-1.42034994407,0.99716398782,0.207636350899,0.00405618721365,-0.0269433938821
1588858434653170028,2077,1588858434653065436,,-0.0215724342818,-1.42060500168,1.01962503499,0.212983192629,0.0040496944993,-0.0270239969719
1588858434659398716,2078,1588858434659268164,,-0.0215719591505,-1.4206043555,1.01962594534,0.212983154694,0.00404951717593,-0.027024322518
1588858434665288567,2079,1588858434665147977,,-0.0218946441399,-1.55225410242,1.02123900554,0.213892227897,0.00404894147824,-0.0270138691295
1588858434671265174,2080,1588858434671141477,,0.000477528288222,-1.55259944488,1.04462486811,0.216510124257,0.00404627786386,-0.0277211514597
1588858434677275848,2081,1588858434677131812,,0.000474528338895,-1.55260007148,1.04462393818,0.216510009257,0.0040451604262,-0.027722212706
1588858434683250565,2082,1588858434683140334,,0.000470477489842,-1.55260168234,1.04462154583,0.218348235575,0.00404217424886,-0.0277004837473
1588858434689426221,2083,1588858434689313900,,-0.0227376946449,-1.55283847099,1.06709064553,0.21909638437,0.00339831518714,-0.0269527699705
1588858434695190656,2084,1588858434695093336,,-0.0227404936898,-1.55283622614,1.0670938526,0.219096458655,0.00339828037096,-0.0269521704949
1588858434701255013,2085,1588858434701159733,,-0.0227421096061,-1.55284154711,1.06708607503,0.220903581094,0.00339491628682,-0.0260492665258
1588858434713851720,2086,1588858434713521092,,-0.0227408030388,-1.55283830442,1.06709082168,0.221812783561,0.00339349854362,-0.0260383179828
1588858434716493027,2087,1588858434716383854,,-0.0231688030624,-1.55312057794,1.08999397576,0.224430660293,0.00338776424487,-0.0268873807921
1588858434722325503,2088,1588858434722122549,,4.43305486889e-05,-1.55289359809,1.06750252598,0.224601482567,0.00403170133213,-0.0276243384761
1588858434728200692,2089,1588858434728116351,,-0.0239051044443,-1.68515871402,1.11436219308,0.227050658303,0.00402832727023,-0.0277349409757
1588858434734348692,2090,1588858434734226816,,-0.0463806007086,-1.55337366549,1.11246906761,0.227052392981,0.0033865280973,-0.027885863941
1588858434740232230,2091,1588858434740153289,,-0.000378135068411,-1.5531912746,1.09038406757,0.22721977448,0.00402931278035,-0.0284707178862
1588858434746349194,2092,1588858434746119223,,-0.0235030332546,-1.68490106822,1.09144454927,0.228140746625,0.0033863705201,-0.0286100300045
1588858434752820151,2093,1588858434752750386,,-0.000798543996423,-1.55348490592,1.11327999197,0.229838165633,0.00402634386703,-0.0293283736598
1588858434758095872,2094,1588858434757989048,,-0.000790936478409,-1.55348867861,1.11327473293,0.229838335671,0.00402875064031,-0.029326710564
1588858434764408371,2095,1588858434764200108,,-0.0247437739089,-1.68572065663,1.16025072671,0.232277534524,0.00338324919598,-0.0285550272549
1588858434770334982,2096,1588858434770214397,,-0.024729071061,-1.68572200209,1.16024908536,0.232277618121,0.00338599069833,-0.0285540222809
1588858434776378735,2097,1588858434776198780,,-0.0242833150147,-1.68545301394,1.13733343326,0.232376247051,0.00338900117485,-0.0267774839468
1588858434782239045,2098,1588858434782157667,,-0.00142789732904,-1.68545261406,1.13782720415,0.234243726721,0.00339136858871,-0.0283743971181
1588858434788317057,2099,1588858434788210832,,-0.0242895841062,-1.68526709858,1.13760876515,0.237914812224,0.00338170541819,-0.0284756754354
1588858434794381384,2100,1588858434794239514,,-0.0242195749419,-1.68530795134,1.13754973577,0.237913930329,0.00338805309572,-0.0284822883634
1588858434800373540,2101,1588858434800231283,,-0.0246227197885,-1.68561517175,1.16040654505,0.238681889373,0.00338763639485,-0.0284750768304
1588858434806173513,2102,1588858434806073256,,-0.0245643694768,-1.68567815764,1.16031628273,0.241397744376,0.00338729643284,-0.0275545499946
1588858434812266295,2103,1588858434812212604,,-0.0252746796994,-1.81780507068,1.18457232031,0.243085109291,0.00338573584555,-0.0275349528915
1588858434818137696,2104,1588858434818080662,,-0.0252889875718,-1.81783927406,1.18451952592,0.243085100051,0.00338439838225,-0.0275351988847
1588858434824209309,2105,1588858434824142442,,-0.00286645195549,-1.8181571166,1.20784099379,0.245743003373,0.00402158890346,-0.0300219399606
1588858434830110611,2106,1588858434830016880,,-0.00294399368173,-1.8181642593,1.20783005534,0.246662885023,0.00401269575202,-0.0300060229758
1588858434836156018,2107,1588858434836067021,,-0.00296350826033,-1.81814642241,1.20785685732,0.248491680716,0.00400826663945,-0.0299805487337
1588858434842101287,2108,1588858434842010584,,-0.00300313785263,-1.81812356185,1.20789116996,0.251281898479,0.00400179395881,-0.0317215532589
1588858434848098824,2109,1588858434847967779,,-0.00384420988171,-1.81862701719,1.25386893063,0.253732783343,0.00464926561672,-0.0316913719196
1588858434854113050,2110,1588858434854037809,,-0.026740612454,-1.81857864855,1.25344624911,0.255564717482,0.00464463355575,-0.0318096665506
1588858434860091744,2111,1588858434860013234,,-0.00426815245954,-1.81887945796,1.27681647337,0.257267486592,0.00398705376921,-0.0325340854182
1588858434866214040,2112,1588858434866089756,,-0.0274230939944,-1.95071932061,1.27767690819,0.260884031345,0.0033377882582,-0.0308617063202
1588858434872101143,2113,1588858434872002631,,-0.0274095814779,-1.95072011988,1.27767597784,0.260883876491,0.00333882714535,-0.0308629029542
1588858434878148206,2114,1588858434878067641,,-0.00444084463602,-1.9507889699,1.27806686691,0.263648627013,0.0033419286995,-0.0315735774767
1588858434884164131,2115,1588858434884084838,,-0.0048280322585,-1.95102591881,1.30112007491,0.265329463035,0.00334229999687,-0.031551983689
1588858434890296421,2116,1588858434890203109,,-0.0273090234353,-1.95074397223,1.27764171333,0.264540737109,0.00334520357994,-0.0308170591242
1588858434896338944,2117,1588858434896245980,,-0.0273995250412,-1.81908715412,1.29944649657,0.267161351207,0.00334235340853,-0.0316703684755
1588858434902108726,2118,1588858434902031505,,-0.02738899092,-1.81908790644,1.29944566548,0.267161345538,0.00334400398749,-0.0316702420553
1588858434908309965,2119,1588858434908216081,,-0.00478020527188,-1.95102426607,1.30112272978,0.267178521937,0.00334654434397,-0.0324147420187
1588858434914485621,2120,1588858434914410217,,0.0179849463792,-1.819463852,1.32321560241,0.268883302013,0.00334431595374,-0.0331378219427
1588858434917619297,2121,1588858434917505500,,0.0179731811032,-1.81945657079,1.3232257741,0.26888326196,0.00334199860923,-0.033138380717
1588858434923315358,2122,1588858434923141700,,0.0176498066327,-1.95132066308,1.32449409537,0.269802638232,0.00333255406132,-0.0331264142903
1588858434929250936,2123,1588858434929166770,,0.0174987595239,-1.81971005615,1.34619110962,0.272420104665,0.00332694850991,-0.033979820246
1588858434935256746,2124,1588858434935161332,,-0.00496691300838,-1.81939861057,1.32281093101,0.27163462463,0.00333019317411,-0.0332441329082
1588858434941229233,2125,1588858434941151832,,-0.00526251055267,-1.9512747318,1.32406159467,0.272523528098,0.00332797734691,-0.0323442987018
1588858434953568235,2126,1588858434953394214,,-0.00570823239026,-1.95148826301,1.34706057416,0.274211865837,0.00332352807226,-0.0323163618118
1588858434959393873,2127,1588858434959289451,,-0.00610922948819,-1.95172941075,1.37002486716,0.275869595861,0.0033236031024,-0.0314030501322
1588858434965236139,2128,1588858434965128439,,-0.00610986931583,-1.95174544898,1.37000201605,0.275869892217,0.00332584633544,-0.0314002090782
1588858434971294455,2129,1588858434971195270,,-0.0289027783603,-2.08343704287,1.34777671195,0.277811019181,0.00266953170507,-0.0297274660446
1588858434977289088,2130,1588858434977209073,,-0.0288842782987,-2.08344227943,1.34776901368,0.277811070746,0.00267259049041,-0.0297267093124
1588858434983292562,2131,1588858434983193928,,-0.0284928378353,-2.0832224458,1.32479838588,0.278851766858,0.00266784232496,-0.028822338245
1588858434989284313,2132,1588858434989188182,,-0.0291922496733,-2.21551827529,1.34885572393,0.282388201417,0.00266420732485,-0.0296638409577
1588858434995254977,2133,1588858434995159838,,-0.0292025433258,-2.2155425495,1.34881562951,0.282388395339,0.00266454264832,-0.0296619647121
1588858435001303909,2134,1588858435001204723,,-0.0292230400152,-2.21553687881,1.34882450013,0.282388414654,0.00266177885903,-0.029662028972
1588858435013726317,2135,1588858435013644517,,-0.0300833925337,-2.21596038435,1.39486815873,0.284848200341,0.002654709386,-0.0296264270061
1588858435016426660,2136,1588858435016354087,,-0.0300934156675,-2.21594886805,1.39488623774,0.284848148617,0.00265277144286,-0.0296270979021
1588858435022154471,2137,1588858435022074730,,-0.0297132025611,-2.21573178165,1.37181943725,0.285905557298,0.0026470777513,-0.0296103811311
1588858435028289980,2138,1588858435028195928,,-0.0301320068295,-2.21594167019,1.39489683927,0.28758685911,0.00264435503804,-0.0295859105853
1588858435034243319,2139,1588858435034154128,,-0.0301795763248,-2.2159391926,1.39489974679,0.287586890124,0.00263797645948,-0.0295861785432
1588858435040431155,2140,1588858435040290364,,-0.0305915522886,-2.21613933981,1.41789760663,0.29012533561,0.00263143951658,-0.0268719043158
1588858435046342515,2141,1588858435046205338,,-0.030596826406,-2.21614101138,1.4178948802,0.29012551245,0.00263203671397,-0.0268699364875
1588858435052418795,2142,1588858435052311231,,-0.0535418247394,-2.21608734038,1.4174874112,0.291028870089,0.00263251310014,-0.0261087958718
1588858435058447014,2143,1588858435058285589,,-0.0535574560129,-2.21608827278,1.41748536297,0.291029005269,0.00263137021904,-0.0261074042213
1588858435064343072,2144,1588858435064208410,,-0.0310037831591,-2.21635702382,1.4408730666,0.292705818472,0.00328806029954,-0.0259384739737
1588858435070357918,2145,1588858435070186376,,-0.0310118360594,-2.21636362552,1.44086273849,0.292706027727,0.00328869222533,-0.0259360323748
1588858435076360958,2146,1588858435076250173,,-0.0309960763733,-2.21637109148,1.44085159326,0.294562494943,0.00262870166526,-0.026801945121
1588858435082387129,2147,1588858435082279590,,-0.0313279217202,-2.34848680189,1.44186482108,0.295472327767,0.00262662639439,-0.0267856722348
1588858435088318693,2148,1588858435088201857,,-0.0310243088721,-2.21635248209,1.44087961089,0.296371016726,0.00196544085227,-0.0258814089271
1588858435094548470,2149,1588858435094430390,,-0.0317860695811,-2.34866305097,1.46489308282,0.299899709775,0.00261683076934,-0.026714201642
1588858435100543082,2150,1588858435100279339,,-0.0318202735961,-2.34865237083,1.46490946357,0.299899984531,0.00261403855543,-0.0267113903912
1588858435106387364,2151,1588858435106274629,,-0.0318683014494,-2.34863431525,1.46493736722,0.301720076706,0.00260449462244,-0.0257922439503
1588858435112255664,2152,1588858435112128291,,-0.0318911281685,-2.34861766426,1.46496356553,0.301720114132,0.00260136870525,-0.0257921216028
1588858435118434697,2153,1588858435118250318,,-0.0318949859682,-2.34861380413,1.46496967005,0.301719970511,0.0025996566847,-0.0257939742508
1588858435124391370,2154,1588858435124264583,,-0.0323238412903,-2.34882031512,1.48805331983,0.305232487064,0.00325126331549,-0.0257398651831
1588858435130273861,2155,1588858435130159917,,-0.0322527102964,-2.34884975183,1.48800839785,0.305230512903,0.0026012995791,-0.0257419987548
1588858435136322244,2156,1588858435136216279,,-0.0556411039076,-2.3490121634,1.51057314696,0.305964118768,0.00260130810516,-0.0240911355929
1588858435142484545,2157,1588858435142305341,,-0.0556455452208,-2.34900651874,1.51058176104,0.305964394525,0.00260301165546,-0.0240874491209
1588858435148251571,2158,1588858435148139868,,-0.0322257421717,-2.3488566532,1.48799808815,0.306132978185,0.00326318819303,-0.024833871755
1588858435154520241,2159,1588858435154411987,,-0.0322366789567,-2.34886088683,1.48799116831,0.307060013664,0.00260266406298,-0.0257105878688
1588858435160459480,2160,1588858435160221921,,-0.0322222341443,-2.34885903074,1.48799441108,0.307059960484,0.00260421695631,-0.0257110657385
1588858435166267822,2161,1588858435166166655,,-0.0325546109476,-2.48102683286,1.48895137783,0.307979839963,0.0026020115376,-0.0256940020132
1588858435172299635,2162,1588858435172175853,,-0.0330513327905,-2.48117819707,1.51201305494,0.30874872067,0.0025919655573,-0.0256795805556
1588858435178385014,2163,1588858435178282427,,-0.0560977282414,-2.34917518931,1.53363281178,0.311349402354,0.00259168008921,-0.0257852555504
1588858435184417442,2164,1588858435184257642,,-0.056105464028,-2.3491592277,1.53365697806,0.311349427718,0.00259053112757,-0.0257850647462
1588858435190317381,2165,1588858435190214920,,-0.0338228269547,-2.48155918244,1.55802452722,0.313963254857,0.00259055000514,-0.0264933087853
1588858435196402977,2166,1588858435196279447,,-0.0338059671518,-2.4815846846,1.5579842736,0.313963181426,0.00259267112354,-0.0264939714962
1588858435202234984,2167,1588858435202145149,,-0.0341159458169,-2.61379475603,1.55888015071,0.314844723701,0.0025893335649,-0.0246980246415
1588858435208296472,2168,1588858435208185245,,-0.0340885984441,-2.61379821656,1.55887494663,0.315793342749,0.00324652098421,-0.0264752946249
1588858435214559817,2169,1588858435214450327,,-0.0345140611119,-2.6139771624,1.58199153548,0.317465831303,0.00324178990966,-0.0255584605089
1588858435217585071,2170,1588858435217482361,,-0.0344904776063,-2.61395881283,1.58202236901,0.319311835148,0.00257857476733,-0.0264289448698
1588858435223333839,2171,1588858435223241224,,-0.0121861374846,-2.74643727084,1.60631598607,0.321034842534,0.00257390006506,-0.0280582706212
1588858435229306248,2172,1588858435229197032,,-0.0121878136019,-2.74642712778,1.60633331557,0.321034627092,0.00257199363515,-0.0280609103449
1588858435235293304,2173,1588858435235213821,,-0.0121603467423,-2.74641511081,1.60635406957,0.322882516695,0.00256969952606,-0.0289298696428
1588858435241279948,2174,1588858435241186714,,-0.0352195120681,-2.74635835785,1.60594318073,0.324675237862,0.00190318659303,-0.0272599072881
1588858435247810943,2175,1588858435247704473,,-0.0352190737493,-2.74635583636,1.60594750239,0.325623020295,0.00190379457763,-0.0290290156874
1588858435253483240,2176,1588858435253323990,,-0.0348754025106,-2.61412681319,1.60506119578,0.326544271765,0.00256616902857,-0.029014555839
1588858435259373414,2177,1588858435259247501,,-0.0349058701119,-2.61411318234,1.60508273352,0.326544577872,0.00256413857618,-0.029011290087
1588858435265467285,2178,1588858435265272894,,-0.0586054642628,-2.74647676336,1.62855639824,0.328253265474,0.00190856113691,-0.0300334787786
1588858435271465906,2179,1588858435271307552,,-0.0360023193,-2.74669993194,1.65199595932,0.329018912059,0.0019062801299,-0.0298767851738
1588858435277467937,2180,1588858435277348976,,-0.0359649052732,-2.74669470985,1.65200545676,0.329018881502,0.00191062718365,-0.0298768440075
1588858435283415720,2181,1588858435283291260,,-0.0362259545385,-2.87898284209,1.65281209037,0.328079828019,0.00191610436167,-0.0289899885133
1588858435289301554,2182,1588858435289208649,,-0.0362126384289,-2.8789906455,1.65279878958,0.329000888212,0.0025749739691,-0.028977625626
1588858435295414094,2183,1588858435295288981,,-0.0362197759424,-2.87897621753,1.65282376483,0.329891578313,0.00257195267191,-0.0280705304948
1588858435301459124,2184,1588858435301335419,,-0.0362082131758,-2.87897671927,1.65282314422,0.330811251315,0.00257204559032,-0.0280557537682
1588858435314158825,2185,1588858435313946742,,-0.036623635769,-2.87912724292,1.67597690996,0.333393728269,0.00256838053454,-0.0271205054764
1588858435319385625,2186,1588858435319273839,,-0.0603685190979,-3.01155420526,1.69937592065,0.335073443621,0.00190987730764,-0.0272374343294
1588858435325544924,2187,1588858435325409866,,-0.0377312510187,-3.01176236653,1.7228269255,0.336779107283,0.00256696971292,-0.0279607619949
1588858435331430794,2188,1588858435331320553,,-0.0603450292134,-3.01154229058,1.6993978694,0.335073515322,0.00191291658014,-0.027236338965
1588858435337418681,2189,1588858435337318853,,-0.0603102879984,-3.01155715331,1.69937276385,0.335054714697,0.00191646331087,-0.0263430914631
1588858435343396532,2190,1588858435343256541,,-0.0600151654696,-2.87922934517,1.69861819072,0.336911073654,0.00125956461843,-0.027210716357
1588858435349359484,2191,1588858435349259027,,-0.0599673434805,-2.87925222775,1.69858109219,0.336910851401,0.00126400374452,-0.0272132622334
1588858435355365651,2192,1588858435355258419,,-0.0376076206123,-3.01178151264,1.72279615799,0.337715610827,0.00191725401931,-0.0288443085141
1588858435361379666,2193,1588858435361265041,,-0.0606923324614,-3.01172844568,1.72238695051,0.338609470189,0.0019129683145,-0.0280799326683
1588858435367789227,2194,1588858435367713784,,-0.0380266380375,-3.01193274242,1.74594805308,0.339397008543,0.00191326767532,-0.0288200569688
1588858435373397513,2195,1588858435373234301,,-0.0380440182282,-3.01192600459,1.74595929782,0.339396774891,0.00190946779365,-0.0288230604088
1588858435379438862,2196,1588858435379313365,,-0.0380841286111,-3.01190822946,1.7459890866,0.341245373145,0.00190342233587,-0.0296957094633
1588858435385525643,2197,1588858435385366909,,-0.061185256429,-3.01186876359,1.74555498257,0.342149279657,0.00189800986031,-0.0289302131765
1588858435391517650,2198,1588858435391328297,,-0.0380936564147,-3.14410624029,1.72357607573,0.342321672873,0.00188739212268,-0.0305742064822
1588858435397464761,2199,1588858435397350261,,-0.061318688118,-3.01185128632,1.74558045632,0.342147807453,0.00123161303021,-0.0289304478345
1588858435403405886,2200,1588858435403296712,,-0.0613142107571,-3.01183886128,1.74560205177,0.343019590804,0.00122815952801,-0.0271206393998
1588858435409502990,2201,1588858435409338486,,-0.0616681558262,-3.14417115578,1.74636258588,0.343002379314,0.0018734098481,-0.0262284143935
1588858435415796397,2202,1588858435415490616,,-0.0621282610873,-3.14432692494,1.76939619795,0.34377114987,0.00186842566003,-0.0262147714507
1588858435421374798,2203,1588858435421275999,,-0.0616760982238,-3.14419416749,1.74632087421,0.343940807454,0.00187244423741,-0.0271064945865
1588858435433409031,2204,1588858435433259395,,-0.039662971173,-3.27696383822,1.79345108408,0.347322831307,0.0018744754497,-0.0278067180809
1588858435439416508,2205,1588858435439309285,,-0.0392480637521,-3.27683894635,1.77036468528,0.347530458417,0.00187601538367,-0.0304963540125
1588858435445438912,2206,1588858435445313590,,-0.0392264501742,-3.27685226093,1.7703405196,0.347530318557,0.001877722293,-0.0304978427429
1588858435451426749,2207,1588858435451239495,,-0.039232400797,-3.27686073301,1.77032470606,0.347547545767,0.0012256516585,-0.0313939107028
1588858435457346527,2208,1588858435457231002,,-0.0161438068758,-3.27690340209,1.77075938162,0.347544546114,0.00122591702698,-0.0312497656849
1588858435463258099,2209,1588858435463171590,,-0.0393672813699,-3.14462844835,1.79268746046,0.347415841752,0.00122626913022,-0.0322866103552
1588858435469309667,2210,1588858435469151530,,-0.0394487217907,-3.14462061756,1.79269940644,0.349262731221,0.000552825753958,-0.0331634468667
1588858435475377294,2211,1588858435475254257,,-0.0390649370658,-3.1444567137,1.76967241795,0.349413693041,0.000548028962099,-0.0331619798454
1588858435481339508,2212,1588858435481240041,,-0.039429582388,-3.2768506879,1.77033891868,0.349433047889,0.000544415913898,-0.0340536721286
1588858435493545198,2213,1588858435493179924,,-0.0167323334604,-3.27707065753,1.79376704236,0.350219475252,0.00120940047622,-0.0347899029739
1588858435499390262,2214,1588858435499273807,,-0.0402229860724,-3.27716092839,1.81640633714,0.351881549869,0.00120719556883,-0.0340135910868
1588858435505315463,2215,1588858435505204073,,-0.0171626073726,-3.2772231292,1.81680708304,0.353736907226,0.0012020795982,-0.0347351196787
1588858435511396330,2216,1588858435511223264,,-0.0171867327047,-3.27719992377,1.81684871314,0.353736931048,0.00119912047768,-0.0347349793632
1588858435517589901,2217,1588858435517468792,,-0.0171559892841,-3.27719566985,1.81685667683,0.352817477816,0.00120495625726,-0.0347475052467
1588858435523244477,2218,1588858435523149613,,0.00633664273705,-3.27710901341,1.79421559878,0.352084178096,0.00120578578496,-0.036405584225
1588858435529193608,2219,1588858435529110454,,-0.0171568709413,-3.27718643706,1.81687332225,0.353773974157,0.00054312560922,-0.0365224376459
1588858435535280375,2220,1588858435535193966,,-0.017256413392,-3.27718700144,1.81687136154,0.353774097813,0.000532982275037,-0.0365213892745
1588858435541191198,2221,1588858435541114973,,0.00581468214316,-3.27724162798,1.81729153472,0.354738845282,0.000531307364521,-0.0390574522088
1588858435550274342,2222,1588858435550156897,,0.0282741930724,-3.40982203746,1.84156703077,0.355586320147,0.000530820679709,-0.0424914471152
1588858435556312813,2223,1588858435556205409,,0.027820670584,-3.40996278329,1.86462459398,0.355464857424,0.000527287443696,-0.0433896476044
1588858435562230868,2224,1588858435562148275,,0.0050492007142,-3.40977153359,1.84113298902,0.357494109521,-0.00078868686273,-0.046199452963
1588858435568259853,2225,1588858435568166367,,0.00506188862832,-3.40977554663,1.84112552203,0.357494073527,-0.000787416654423,-0.0461997531505
1588858435574395366,2226,1588858435574318510,,0.0285449823879,-3.27741254235,1.84092582325,0.358490334431,-0.000788042479461,-0.0496373531258
1588858435580333633,2227,1588858435580217890,,0.0509619829102,-3.41003370218,1.86502196663,0.359316214869,-0.00078475581859,-0.0521778605152
1588858435586435177,2228,1588858435586330386,,0.0512832466384,-3.27763280983,1.86437456965,0.36024541316,-0.000782765158454,-0.0530630282907
1588858435592325908,2229,1588858435592248955,,0.0516992761329,-3.27750652766,1.84128244749,0.358629112997,-0.000777071729143,-0.0557831444483
1588858435598320731,2230,1588858435598255253,,0.0517139732109,-3.27749012799,1.84131122609,0.358628974634,-0.000776463926223,-0.0557840424345
1588858435604294331,2231,1588858435604199128,,0.0739680010617,-3.54251595087,1.86607640669,0.35939386793,-0.00077658175776,-0.0556225950444
1588858435610324892,2232,1588858435610248535,,0.07399599398,-3.54252421313,1.86605961191,0.359393654811,-0.000774223448432,-0.05562400493
1588858435619272951,2233,1588858435619167492,,0.0739810340911,-3.54253462214,1.86604044449,0.360323685269,-0.000776378552831,-0.0565160238942
1588858435625305143,2234,1588858435625207652,,0.0503188411454,-3.54259980145,1.88870037592,0.361973818986,-0.000783724343296,-0.0548291549088
1588858435631296367,2235,1588858435631172012,,0.0503325854749,-3.54259304005,1.88871269188,0.361952923325,-0.000785163117617,-0.0539373369838
1588858435637267746,2236,1588858435637181923,,0.0503540457641,-3.54262549891,1.88865123662,0.361951497702,-0.0014341590692,-0.0539376025094
1588858435643323789,2237,1588858435643235080,,0.0503962266723,-3.54260773331,1.8886834349,0.361932744041,-0.000778592390062,-0.0530412906692
1588858435649302630,2238,1588858435649225193,,0.0499836133235,-3.54274946984,1.91173624157,0.360852632168,-0.000774880440018,-0.0521579453045
1588858435655251038,2239,1588858435655188873,,0.0504411816786,-3.54260077868,1.88869527959,0.361913459726,-0.000124672966515,-0.0521491935014
1588858435661431336,2240,1588858435661291949,,0.0504367840748,-3.54259584826,1.88870464492,0.36004466472,-0.000121435152449,-0.0503719661575
1588858435673475868,2241,1588858435673312883,,0.0273585333857,-3.54253724485,1.88828637525,0.360917106852,-0.000121758007245,-0.0487126605236
1588858435679214549,2242,1588858435679102585,,0.0274010756079,-3.54253954906,1.88828143555,0.360916985192,-0.000117842301446,-0.048713571535
1588858435685290526,2243,1588858435685200251,,0.00458899301563,-3.54235423811,1.86478789037,0.361959987907,-0.000771473943473,-0.0479373783704
1588858435691418618,2244,1588858435691323634,,0.0273672609198,-3.54253005369,1.88829973975,0.363684585438,-0.000775045780177,-0.0495630101434
1588858435697369022,2245,1588858435697296245,,0.026933219903,-3.54264156325,1.91140850154,0.365392851444,-0.00077820834295,-0.0504306581795
1588858435703461649,2246,1588858435703203603,,0.0269349520277,-3.5426389127,1.91141338972,0.365393355855,-0.000776141270499,-0.0504270352187
1588858435709334528,2247,1588858435709207773,,0.026916747547,-3.54263497118,1.9114209514,0.367222107189,-0.000781866058587,-0.0504006289619
1588858435715656500,2248,1588858435715566677,,0.0273320739485,-3.54250388371,1.88834934456,0.368262348564,-0.000785571416518,-0.0494907761427
1588858435721247294,2249,1588858435721115895,,0.0273095869413,-3.54249840658,1.88835994483,0.366453769009,-0.000782799963084,-0.0504113977374
1588858435727411664,2250,1588858435727300807,,0.0495855092652,-3.54280050163,1.93505793852,0.366162073696,-0.000781608144131,-0.0502700379951
1588858435733448411,2251,1588858435733370993,,0.0495478367865,-3.54278981052,1.93507847719,0.367031219578,-0.000790230297515,-0.0484678430882
1588858435739418286,2252,1588858435739326179,,0.0495379293718,-3.54279723769,1.93506513292,0.367031721987,-0.000788998290322,-0.0484640584316
1588858435745410314,2253,1588858435745300972,,0.026426717141,-3.54273153499,1.93465955463,0.366995024225,-0.00079039957354,-0.0468066395501
1588858435751425213,2254,1588858435751339807,,0.00321207380793,-3.54264982609,1.93428446851,0.368826312748,-0.0014456285158,-0.0469265079664
1588858435757382291,2255,1588858435757283137,,0.0264249297133,-3.54272103659,1.93467880349,0.369724073446,-0.000795199477691,-0.0458668577393
1588858435763142877,2256,1588858435763053474,,0.00293555736087,-3.67510842312,1.9348576607,0.370617200397,-0.000795744451415,-0.045096333158
1588858435769250413,2257,1588858435769195643,,0.0028991381702,-3.6750875799,1.93489730513,0.371517068832,-0.000802382641569,-0.0441867167895
1588858435775143262,2258,1588858435775043003,,0.00288718355596,-3.67506890381,1.93493279541,0.371497342021,-0.000804443455454,-0.0432807954513
1588858435781255859,2259,1588858435781103552,,0.00284737997024,-3.54281394369,1.95730027135,0.371326873829,-0.000794099767587,-0.0423870311155
1588858435787688963,2260,1588858435787618804,,-0.0210126989554,-3.67530783926,1.9805927051,0.372060956491,-0.000148960510123,-0.0407289066481
1588858435793394824,2261,1588858435793297816,,-0.0208245670016,-3.67538989877,1.98044241012,0.372060986137,-0.000128139436262,-0.040728706666
1588858435799441889,2262,1588858435799299436,,0.00269235327085,-3.67533182217,1.95775207885,0.372187737228,-0.000784622329248,-0.0396793311487
1588858435805339656,2263,1588858435805281517,,0.00230043619646,-3.67547023338,1.98081125364,0.37209454028,-0.000781653764414,-0.0423830136256
1588858435811500437,2264,1588858435811422833,,0.00227159427714,-3.67545893159,1.98083225769,0.373033575107,-0.000785719759708,-0.0432645242032
1588858435817795320,2265,1588858435817718276,,0.00227244812323,-3.67544322659,1.98086139726,0.373993714345,-0.000134142521191,-0.0450526564686
1588858435823480482,2266,1588858435823391597,,0.00214532103159,-3.6754399805,1.98086756204,0.374013717813,-0.000144742895828,-0.0459454406457
1588858435829365631,2267,1588858435829285677,,0.00208294287901,-3.67542962419,1.98088684432,0.374013540877,-0.000152095537202,-0.0459468571983
1588858435835493839,2268,1588858435835333518,,0.00205207441825,-3.67542574616,1.980894072,0.374012256461,-0.00080721021189,-0.0459457148421
1588858435841432400,2269,1588858435841342996,,0.0252009410513,-3.67546834076,1.9813421276,0.37404882832,-0.000813046573655,-0.047606251899
1588858435847637995,2270,1588858435847536359,,0.0254573155842,-3.54304157846,1.98073066869,0.374027640999,-0.00146843029636,-0.0466991554932
1588858435853470189,2271,1588858435853333100,,0.025191037516,-3.67550936556,1.98126614901,0.374029462154,-0.000811292808379,-0.0466959268971
1588858435859402763,2272,1588858435859286644,,0.0254672767479,-3.54308641421,1.98065033834,0.374008064874,-0.00146658667592,-0.0458024242123
1588858435865177061,2273,1588858435865111104,,0.00225132056169,-3.54303785417,1.98021337597,0.373991293847,-0.00146864439039,-0.0450490114098
1588858435871438381,2274,1588858435871318706,,0.00198649904418,-3.67546375102,1.98082362158,0.373991483237,-0.00146499766822,-0.0450475578314
1588858435877326224,2275,1588858435877203418,,0.00198904177589,-3.67547144201,1.98080934814,0.373053852949,-0.000810681356939,-0.0441650626692
1588858435883343445,2276,1588858435883218473,,0.0251909311532,-3.67554535378,1.98119938604,0.373070016464,-0.000812829456215,-0.0449230551937
1588858435889415408,2277,1588858435889295452,,0.00194169569935,-3.67549855293,1.98075908891,0.373994156066,-0.00016451090931,-0.0450488888128
1588858435895364710,2278,1588858435895267790,,0.0250927662393,-3.67553831566,1.98121368891,0.374011128607,-0.000169182328298,-0.0458005740793
1588858435901411978,2279,1588858435901319763,,0.0251333135605,-3.67555354913,1.98118491361,0.373090387796,-0.000814499533092,-0.0458128813061
1588858435914136874,2280,1588858435914034316,,0.0251645130199,-3.67557452084,1.98114560974,0.374029664497,-0.00081156863292,-0.0466943013303
1588858435919343555,2281,1588858435919258100,,0.0251790408109,-3.67558743996,1.98112145641,0.374029774742,-0.000809324838455,-0.046693457185
1588858435925336477,2282,1588858435925239408,,0.0251674527689,-3.67559264515,1.98111194639,0.374031627355,-0.000156060722559,-0.0466900527504
1588858435931347380,2283,1588858435931265215,,0.025194193548,-3.67557865388,1.98113756456,0.374011541734,-0.000156114822387,-0.0457972467325
1588858435937277118,2284,1588858435937198101,,0.0251773444037,-3.67557064479,1.98115263784,0.373990810608,-0.000809735546143,-0.0448985292156
1588858435943521193,2285,1588858435943405667,,0.0247269822569,-3.67569730849,2.0042376407,0.374779194133,-0.000812628225769,-0.0457806951016
1588858435949454897,2286,1588858435949354364,,0.0246968901426,-3.67568121844,2.00426751999,0.374779185285,-0.000816078268469,-0.0457807061631
1588858435955417619,2287,1588858435955289572,,0.0482354012668,-3.67558710859,1.98165188275,0.374994029052,-0.00147025896532,-0.0492352679062
1588858435961460283,2288,1588858435961368680,,0.0714900685405,-3.6756568054,1.98205579281,0.375948933985,-0.00212849849676,-0.0508719849854
1588858435967696170,2289,1588858435967603621,,0.0714659012818,-3.67564202902,1.9820840664,0.376899732862,-0.00147023783866,-0.0526622116872
1588858435973419096,2290,1588858435973294040,,0.0715246007659,-3.67567142671,1.982027432,0.376899913502,-0.00146280661276,-0.0526611257838
1588858435979437354,2291,1588858435979309557,,0.0711095116128,-3.67581405967,2.0050823089,0.378607684552,-0.00146514581455,-0.0535331472725
1588858435985299216,2292,1588858435985217832,,0.0942263735239,-3.67587686666,2.00550059351,0.38051372403,-0.00146729726913,-0.0569600648807
1588858435991661135,2293,1588858435991270957,,0.0942611386557,-3.67587951373,2.00549410799,0.380513886105,-0.00146306152323,-0.0569590911033
1588858435997349242,2294,1588858435997273506,,0.0942517990429,-3.67589220234,2.00547128976,0.380532499422,-0.00212649891859,-0.0578575296873
1588858436003336547,2295,1588858436003221682,,0.093788540996,-3.67601081285,2.02867534839,0.382223392964,-0.00213510986796,-0.05783327044
1588858436009247497,2296,1588858436009186425,,0.116919133294,-3.67605531548,2.02913747714,0.381341313877,-0.00214220127059,-0.0595000608076
1588858436015521701,2297,1588858436015377563,,0.0936136349317,-3.67597566399,2.02874711605,0.382245146306,-0.00149046752898,-0.0587289011309
1588858436021324472,2298,1588858436021251730,,0.0936552938482,-3.67596559034,2.02876344612,0.383173339339,-0.00215125129376,-0.059624109812
1588858436033287464,2299,1588858436033205823,,0.116152360518,-3.80863389823,2.05278953299,0.385787454519,-0.00215956565811,-0.0603422603875
1588858436039563088,2300,1588858436039385114,,0.139307593189,-3.80868635797,2.05323245637,0.38489536355,-0.00215435258787,-0.0611076235809
1588858436045442818,2301,1588858436045352368,,0.139325301855,-3.80871002903,2.05318734503,0.385845387416,-0.00215277971978,-0.0628895071199
1588858436051379006,2302,1588858436051279440,,0.138920633628,-3.80885402784,2.07623916467,0.387553169479,-0.00215460375499,-0.0637639657229
1588858436057348976,2303,1588858436057241599,,0.138945856892,-3.80882440855,2.07629181244,0.387553459992,-0.00215200998592,-0.0637622875686
1588858436063285367,2304,1588858436063182020,,0.138898649189,-3.8087591017,2.07641476763,0.387534677756,-0.00149557338486,-0.0628631006623
1588858436069281055,2305,1588858436069208693,,0.138977909483,-3.80880895375,2.07631801786,0.387534336278,-0.00148716130181,-0.0628654053118
1588858436075386239,2306,1588858436075266108,,0.138956434111,-3.80881179849,2.07631423678,0.388462330227,-0.00215449640935,-0.0637516313645
1588858436081280073,2307,1588858436081192084,,0.115861493502,-3.80876405108,2.07586025694,0.388445436248,-0.00215022101461,-0.0629970142523
1588858436090287333,2308,1588858436090215758,,0.115918387285,-3.80874620968,2.0758898156,0.388425564652,-0.00214388978034,-0.0620966616584
1588858436096570314,2309,1588858436096439231,,0.115927974097,-3.80873510497,2.07590965453,0.388425231721,-0.00214437778811,-0.062098727317
1588858436102400154,2310,1588858436102286198,,0.115995192448,-3.80877370187,2.07583508307,0.388426461896,-0.0014739330298,-0.0620997794016
1588858436108440961,2311,1588858436108290979,,0.0927929001968,-3.80869691714,2.07543770925,0.388406568813,-0.00279839309287,-0.0613438475219
1588858436114870877,2312,1588858436114701434,,0.115601643994,-3.80890397108,2.09891429292,0.390112098744,-0.0021398194338,-0.062079203725
1588858436120643218,2313,1588858436120538591,,0.115566697788,-3.80890149144,2.09892071717,0.390112235567,-0.00214296697354,-0.0620782353343
1588858436126294568,2314,1588858436126219956,,0.138229496319,-3.80909219106,2.12253378375,0.391819969585,-0.002151609953,-0.0628083370273
