%time,field.header.seq,field.header.stamp,field.header.frame_id,field.vector.x,field.vector.y,field.vector.z
1588858433572805110,1892,1588858433572675144,,0.499594281857,-0.199953077453,0.213671066198
1588858433578963971,1893,1588858433578828622,,0.499593999723,-0.199961520571,0.213669674148
1588858433584826231,1894,1588858433584723260,,0.499593680508,-0.199967496517,0.213668635923
1588858433590792011,1895,1588858433590699771,,0.499592743882,-0.199974972476,0.213666347784
1588858433596825083,1896,1588858433596726952,,0.499592332426,-0.199981451961,0.213664152871
1588858433602833091,1897,1588858433602704689,,0.499591710382,-0.199987357215,0.213661436874
1588858433608879902,1898,1588858433608737951,,0.499591502851,-0.199992031159,0.213658693841
1588858433614931981,1899,1588858433614813740,,0.499591668238,-0.199998375624,0.213656547114
1588858433620833011,1900,1588858433620678731,,0.499591255015,-0.200002613872,0.213653951111
1588858433626776648,1901,1588858433626652060,,0.499591075423,-0.200007148545,0.213651503088
1588858433632858412,1902,1588858433632729891,,0.499591219586,-0.200012301287,0.213650474212
1588858433638830604,1903,1588858433638694808,,0.499591335787,-0.200013987778,0.213648622364
1588858433644851638,1904,1588858433644724154,,0.499591026949,-0.200018713272,0.213646419018
1588858433650830683,1905,1588858433650695766,,0.499590738491,-0.20002254601,0.213643321478
1588858433656748497,1906,1588858433656652139,,0.499591138736,-0.200024554446,0.213641568088
1588858433662803892,1907,1588858433662647272,,0.499590998512,-0.200026137919,0.213639819216
1588858433668832013,1908,1588858433668704892,,0.49959061632,-0.200028825698,0.213637197765
1588858433674921564,1909,1588858433674710113,,0.499590222717,-0.200032611544,0.21363453217
1588858433680861699,1910,1588858433680751374,,0.499590556636,-0.200034410146,0.213632908196
1588858433686817064,1911,1588858433686718089,,0.499590612595,-0.200036855557,0.21363110833
1588858433692896215,1912,1588858433692760735,,0.499590719745,-0.200038541005,0.213629414043
1588858433698931163,1913,1588858433698799791,,0.499590876285,-0.200039878979,0.213628094006
1588858433704852286,1914,1588858433704712971,,0.499590195248,-0.200041787834,0.213625277163
1588858433710882684,1915,1588858433710697879,,0.49959058582,-0.200044610185,0.213624965914
1588858433714037633,1916,1588858433713866298,,0.499590731094,-0.200045936567,0.213622512224
1588858433717134776,1917,1588858433717048965,,0.499590957275,-0.200047998339,0.213620438153
1588858433722796465,1918,1588858433722714523,,0.499591529337,-0.200049493927,0.2136195224
1588858433728808530,1919,1588858433728716887,,0.499591857178,-0.200051910289,0.213616201949
1588858433734942926,1920,1588858433734757431,,0.499592157671,-0.200053699897,0.213613682789
1588858433740785623,1921,1588858433740703654,,0.499592540976,-0.200056091018,0.213611498349
1588858433746969441,1922,1588858433746869130,,0.499592768356,-0.200057640502,0.213609159556
1588858433751069534,1923,1588858433750986032,,0.499593246471,-0.200059778172,0.21360690328
1588858433755800575,1924,1588858433755676202,,0.499593020398,-0.200061816451,0.213604153849
1588858433761810647,1925,1588858433761719734,,0.499592895823,-0.200063853911,0.213600953856
1588858433767812997,1926,1588858433767693792,,0.499593813666,-0.200066332996,0.213599941728
1588858433773763730,1927,1588858433773696710,,0.499594091171,-0.200067636394,0.213597800151
1588858433779824985,1928,1588858433779709762,,0.499594604427,-0.200070246748,0.213596649846
1588858433785796506,1929,1588858433785726218,,0.499595474553,-0.200071818934,0.213596078283
1588858433791790600,1930,1588858433791672910,,0.499595068468,-0.200074471851,0.21359316511
1588858433797814873,1931,1588858433797669740,,0.499595965672,-0.200075660271,0.213592590506
1588858433803775750,1932,1588858433803656247,,0.499596180849,-0.200077645096,0.213590451827
1588858433809816525,1933,1588858433809721697,,0.499596022117,-0.200081223517,0.213588402747
1588858433813178089,1934,1588858433813084321,,0.49959662526,-0.200082413267,0.213587109348
1588858433816183957,1935,1588858433816058006,,0.499597005388,-0.2000853657,0.213585048348
1588858433821779141,1936,1588858433821699769,,0.499597623358,-0.200087700552,0.213583364931
1588858433827824547,1937,1588858433827702592,,0.49959816689,-0.200090158614,0.213580628022
1588858433833808474,1938,1588858433833716988,,0.499598667277,-0.200093457884,0.213579290425
1588858433839855367,1939,1588858433839745168,,0.499598998213,-0.200095758668,0.21357692944
1588858433845866782,1940,1588858433845710699,,0.499599832565,-0.200098585871,0.213574921438
1588858433851846162,1941,1588858433851687969,,0.499601003008,-0.200102378074,0.213574867391
1588858433857929369,1942,1588858433857782476,,0.499601660008,-0.200104376836,0.213573397478
1588858433863826931,1943,1588858433863698613,,0.499601635231,-0.20010719886,0.213571187432
1588858433870055572,1944,1588858433869842646,,0.499602891908,-0.200111206503,0.213570700814
1588858433875908981,1945,1588858433875712664,,0.499603799826,-0.20011388307,0.213570531114
1588858433881984828,1946,1588858433881834761,,0.499604802658,-0.200115904109,0.213570211106
1588858433887838341,1947,1588858433887751241,,0.499605309379,-0.200119355175,0.213568908951
1588858433893855810,1948,1588858433893752889,,0.499605934054,-0.200122079992,0.21356880524
1588858433899970031,1949,1588858433899771030,,0.499606758285,-0.200123999345,0.213568590704
1588858433905921512,1950,1588858433905766937,,0.499607378797,-0.200126431525,0.213567819134
1588858433911997105,1951,1588858433911854781,,0.499608298648,-0.200128969205,0.213567739456
1588858433915047817,1952,1588858433914875409,,0.499609116925,-0.200130566756,0.213566269464
1588858433920878989,1953,1588858433920788159,,0.499609630156,-0.200131608822,0.213566632066
1588858433926914512,1954,1588858433926774258,,0.499610256248,-0.200133393546,0.213565375321
1588858433932971724,1955,1588858433932797253,,0.499611031616,-0.200134711043,0.21356506648
1588858433938937676,1956,1588858433938804204,,0.499611459523,-0.20013389373,0.213564627978
1588858433944940386,1957,1588858433944802399,,0.499611706551,-0.200135692761,0.213562551176
1588858433950899505,1958,1588858433950802844,,0.499612438619,-0.200136198182,0.213561654502
1588858433956903048,1959,1588858433956791081,,0.499612535258,-0.200136425767,0.213561512844
1588858433963140455,1960,1588858433962888832,,0.499613424082,-0.200138197016,0.213560457556
1588858433968914245,1961,1588858433968797676,,0.499613891227,-0.200136422185,0.213560172137
1588858433974909371,1962,1588858433974809393,,0.499614356963,-0.200136871527,0.213558994831
1588858433980919358,1963,1588858433980774571,,0.499615032292,-0.200136732386,0.213558682178
1588858433986930911,1964,1588858433986823898,,0.499615457984,-0.200135225342,0.213557674597
1588858433993012642,1965,1588858433992827189,,0.49961576753,-0.200134711986,0.21355596369
1588858433998911966,1966,1588858433998807578,,0.49961635858,-0.200133907293,0.213555904185
1588858434004896738,1967,1588858434004789939,,0.499616473617,-0.200130973731,0.213554786868
1588858434010974117,1968,1588858434010847112,,0.499617410521,-0.200130031642,0.213554118425
1588858434014055819,1969,1588858434013973528,,0.499617830373,-0.20012884414,0.213553193796
1588858434017170233,1970,1588858434017076741,,0.499618602448,-0.200125241155,0.213552348532
1588858434023064050,1971,1588858434022960360,,0.499619412292,-0.200123121467,0.213551319378
1588858434028997130,1972,1588858434028837824,,0.499620030786,-0.200121048484,0.213550162856
1588858434034943311,1973,1588858434034852815,,0.499620507671,-0.200117730226,0.213548873861
1588858434040951286,1974,1588858434040832561,,0.499621536416,-0.200113591453,0.213547419655
1588858434046858048,1975,1588858434046773051,,0.499622694299,-0.200111401698,0.213546338356
1588858434052846318,1976,1588858434052747598,,0.499624198476,-0.20010578716,0.213544840643
1588858434058898416,1977,1588858434058764894,,0.49962584289,-0.200100461267,0.213544359238
1588858434064891872,1978,1588858434064764294,,0.499627764189,-0.200093341739,0.213541455644
1588858434070959596,1979,1588858434070803166,,0.499629598764,-0.2000862437,0.213540697452
1588858434076916705,1980,1588858434076788028,,0.499632064235,-0.200079073088,0.213540211869
1588858434082890963,1981,1588858434082777897,,0.499633403824,-0.200071656985,0.213537551419
1588858434088983043,1982,1588858434088812176,,0.499635116057,-0.200064468212,0.213534746889
1588858434094998987,1983,1588858434094863851,,0.499636055052,-0.200059398232,0.213532202906
1588858434100870642,1984,1588858434100784671,,0.499637998952,-0.200051088763,0.213530032237
1588858434106907059,1985,1588858434106819088,,0.499639517872,-0.200043998329,0.213527927303
1588858434113394083,1986,1588858434113288551,,0.499640797059,-0.200036105296,0.213524420414
1588858434116319458,1987,1588858434116151414,,0.499642068564,-0.200023589376,0.213520257594
1588858434122053008,1988,1588858434121892979,,0.499641796026,-0.20000926961,0.21351351303
1588858434127931180,1989,1588858434127826343,,0.499642575503,-0.199997678609,0.213508095699
1588858434133853541,1990,1588858434133772127,,0.499644077002,-0.199988431216,0.21350455697
1588858434139985171,1991,1588858434139870291,,0.499644720263,-0.199980313531,0.213501155866
1588858434145995046,1992,1588858434145887626,,0.499646245428,-0.199971947693,0.213498434158
1588858434152021668,1993,1588858434151887345,,0.499646635869,-0.199963898784,0.213494746823
1588858434157949260,1994,1588858434157845759,,0.49964801307,-0.199955954578,0.213492310317
1588858434163969707,1995,1588858434163839942,,0.499648688704,-0.19994974928,0.213489581746
1588858434169995240,1996,1588858434169794806,,0.499650147526,-0.199941858728,0.213487393087
1588858434175948584,1997,1588858434175818361,,0.499651144463,-0.19993442209,0.213484914697
1588858434181938789,1998,1588858434181853975,,0.499651790011,-0.199927995075,0.213483034585
1588858434187963585,1999,1588858434187839305,,0.499652619165,-0.199921606553,0.213480354993
1588858434193989934,2000,1588858434193837338,,0.49965296843,-0.199915119033,0.213476995507
1588858434199978830,2001,1588858434199833394,,0.499653521214,-0.199908904642,0.21347461334
1588858434205885138,2002,1588858434205747480,,0.499654693217,-0.199903638883,0.213472915574
1588858434211948197,2003,1588858434211841395,,0.49965486678,-0.199897017259,0.213469419699
1588858434215055172,2004,1588858434214928096,,0.499655811057,-0.199890563121,0.213466463789
1588858434221000248,2005,1588858434220917678,,0.499656373503,-0.199883892956,0.213462752079
1588858434226913843,2006,1588858434226814217,,0.499657322104,-0.199878298082,0.213459551071
1588858434232923139,2007,1588858434232819249,,0.499657649388,-0.199871871499,0.213456457694
1588858434238900930,2008,1588858434238821571,,0.499658730399,-0.199863826817,0.213453385143
1588858434244961883,2009,1588858434244874712,,0.499659200015,-0.199856311755,0.213449282773
1588858434250996108,2010,1588858434250831712,,0.499659781028,-0.199849171302,0.213445557766
1588858434256944919,2011,1588858434256808023,,0.499660308782,-0.199841365035,0.213441926321
1588858434262962811,2012,1588858434262834928,,0.499660805757,-0.199833556518,0.213437625077
1588858434269017024,2013,1588858434268896055,,0.499660706484,-0.1998260184,0.213433652737
1588858434274909530,2014,1588858434274819573,,0.499660223072,-0.199817719853,0.213428526243
1588858434280985561,2015,1588858434280874211,,0.499660414577,-0.199809698341,0.213424482123
1588858434292964949,2016,1588858434292783225,,0.499659868649,-0.19979538373,0.213415734796
1588858434299067683,2017,1588858434298804423,,0.499660522397,-0.199789302734,0.213412711567
1588858434304982768,2018,1588858434304841023,,0.499659735313,-0.199785011338,0.213407555327
1588858434310992184,2019,1588858434310863804,,0.499660021617,-0.199777061452,0.213403365829
1588858434314159427,2020,1588858434314035260,,0.499658703627,-0.199773842405,0.213396686765
1588858434317340498,2021,1588858434317171813,,0.499658388289,-0.199768496002,0.213392227777
1588858434322993352,2022,1588858434322856906,,0.499657970615,-0.199762985377,0.213388046663
1588858434329025781,2023,1588858434328883461,,0.49965836497,-0.199756935569,0.213384560353
1588858434334987459,2024,1588858434334842804,,0.499657676305,-0.199750555757,0.213378951191
1588858434340925026,2025,1588858434340820741,,0.499657445443,-0.199744277346,0.213374860761
1588858434346996638,2026,1588858434346859497,,0.499656563601,-0.199739339111,0.21336934405
1588858434353021674,2027,1588858434352895155,,0.499656442999,-0.19973132473,0.213364468589
1588858434359048567,2028,1588858434358889074,,0.499655835,-0.199724709128,0.213360190464
1588858434365030823,2029,1588858434364886035,,0.499654829832,-0.199717788134,0.213353931692
1588858434371047368,2030,1588858434370893252,,0.499654302965,-0.199710240092,0.21334860434
1588858434377093733,2031,1588858434376899008,,0.499654390567,-0.199702822716,0.213343592578
1588858434383027984,2032,1588858434382863356,,0.499653518851,-0.199696924626,0.213338344736
1588858434388984159,2033,1588858434388889490,,0.499653844222,-0.199689617122,0.213333705212
1588858434395039202,2034,1588858434394875822,,0.499654123272,-0.199682658555,0.213329384785
1588858434400994525,2035,1588858434400849704,,0.4996538675,-0.19967607977,0.213324608769
1588858434407033980,2036,1588858434406906794,,0.49965414516,-0.199670033687,0.213320541698
1588858434413550774,2037,1588858434413331858,,0.499654704296,-0.199662063383,0.21331633815
1588858434416297384,2038,1588858434416164755,,0.499654993098,-0.199654821708,0.213312235557
1588858434422111104,2039,1588858434421865224,,0.499655414531,-0.199649022058,0.213308844885
1588858434427947462,2040,1588858434427856428,,0.49965603921,-0.199641435655,0.213305645219
1588858434433990048,2041,1588858434433891915,,0.499656570711,-0.199634156008,0.213301430651
1588858434440067211,2042,1588858434439940930,,0.499657171502,-0.199626342947,0.213298091822
1588858434446111958,2043,1588858434445916610,,0.499657486205,-0.199618084569,0.213294235371
1588858434451982428,2044,1588858434451879901,,0.499657313658,-0.199608965041,0.213288885332
1588858434458088177,2045,1588858434457898496,,0.499657140135,-0.199599864508,0.213283827107
1588858434463991772,2046,1588858434463882782,,0.499657534525,-0.199591639989,0.213279949559
1588858434470099405,2047,1588858434469880268,,0.499656963616,-0.19958129051,0.213273570754
1588858434476019966,2048,1588858434475878884,,0.499656843392,-0.19957319023,0.213269033367
1588858434482009243,2049,1588858434481831089,,0.499657762857,-0.199561811316,0.21326489326
1588858434488042855,2050,1588858434487885474,,0.499657348905,-0.199553758953,0.213259623852
1588858434494130057,2051,1588858434494018601,,0.499657700793,-0.199543706459,0.21325512959
1588858434499992922,2052,1588858434499846419,,0.499657594956,-0.19953465659,0.213249826845
1588858434505982094,2053,1588858434505845392,,0.499657904189,-0.199524058676,0.213246165075
1588858434512029141,2054,1588858434511866095,,0.49965801108,-0.199513693248,0.213241042046
1588858434518076909,2055,1588858434517896045,,0.49965847646,-0.199504355122,0.213236094376
1588858434524044280,2056,1588858434523896364,,0.499658428926,-0.199493899315,0.213231631032
1588858434529990801,2057,1588858434529890567,,0.499658752955,-0.199484747075,0.213228135913
1588858434536071968,2058,1588858434535944065,,0.49965878446,-0.199476265416,0.213223053801
1588858434542036345,2059,1588858434541905536,,0.499659725461,-0.199465967263,0.213219576573
1588858434548009564,2060,1588858434547881215,,0.49966092439,-0.199456443966,0.213216345661
1588858434554025093,2061,1588858434553917502,,0.499661857072,-0.199446217998,0.21321256104
1588858434560069170,2062,1588858434559912543,,0.499662859137,-0.199436919868,0.213208988909
1588858434566031891,2063,1588858434565912298,,0.499662878523,-0.199428531438,0.213205054235
1588858434572175855,2064,1588858434571958936,,0.499663522445,-0.199417708319,0.213200778521
1588858434578058259,2065,1588858434577888774,,0.499664170301,-0.199407647462,0.213197152567
1588858434584134690,2066,1588858434583905598,,0.499664334403,-0.199397169609,0.213192026645
1588858434590123166,2067,1588858434589896479,,0.499664191994,-0.199388130986,0.213187903315
1588858434596071157,2068,1588858434595962063,,0.499665048074,-0.199377233479,0.21318444485
1588858434602042358,2069,1588858434601913327,,0.499664594894,-0.199366033382,0.213178692903
1588858434608086974,2070,1588858434607961905,,0.499666167633,-0.19935543192,0.213175842952
1588858434614235393,2071,1588858434614121153,,0.499666659651,-0.199344859314,0.21317120035
1588858434617378751,2072,1588858434617222518,,0.499667625088,-0.199334021837,0.213168167127
1588858434623040672,2073,1588858434622895425,,0.499669078572,-0.199322035992,0.213164025921
1588858434629078111,2074,1588858434628943552,,0.499669803552,-0.19931063072,0.213159113033
1588858434635008483,2075,1588858434634913051,,0.499670536503,-0.199296741987,0.213155099076
1588858434641066235,2076,1588858434640886940,,0.499671175276,-0.199286181021,0.213150401639
1588858434653021826,2077,1588858434652871896,,0.499672278591,-0.199259402468,0.213141011292
1588858434659047082,2078,1588858434658881345,,0.499672961013,-0.199246126288,0.213136680408
1588858434665019244,2079,1588858434664898951,,0.49967389977,-0.199232621103,0.213131893388
1588858434670998301,2080,1588858434670859376,,0.499675049877,-0.199218432648,0.213128946895
1588858434677083039,2081,1588858434676922198,,0.499675617072,-0.199204727822,0.213123598452
1588858434683040196,2082,1588858434682917248,,0.499676449265,-0.199190748777,0.213119225706
1588858434689179099,2083,1588858434689018028,,0.499677266021,-0.199175959513,0.213114330691
1588858434694988758,2084,1588858434694876754,,0.499678617167,-0.199161839256,0.213110692238
1588858434701060540,2085,1588858434700939568,,0.499678876124,-0.199147709665,0.213106725156
1588858434713469646,2086,1588858434713308537,,0.499678954649,-0.199118390502,0.213097513682
1588858434716370727,2087,1588858434716183815,,0.499678954617,-0.199107334888,0.213093383605
1588858434722047296,2088,1588858434721883345,,0.499679529527,-0.199090273663,0.213090987294
1588858434728011345,2089,1588858434727903876,,0.499679999464,-0.199078271914,0.213089193275
1588858434734190952,2090,1588858434734008051,,0.499680554835,-0.199067055696,0.213087416483
1588858434740033817,2091,1588858434739935272,,0.499681118348,-0.199053395997,0.213086243936
1588858434746029202,2092,1588858434745909829,,0.499681483099,-0.199041108942,0.213084397901
1588858434752784361,2093,1588858434752644688,,0.499682266915,-0.199028316802,0.213082937821
1588858434758019074,2094,1588858434757865155,,0.499682632544,-0.199013593781,0.213081742782
1588858434764081672,2095,1588858434763906556,,0.499683019426,-0.198998357815,0.213078969544
1588858434770095214,2096,1588858434769949201,,0.499683387956,-0.19898414973,0.21307675832
1588858434776065221,2097,1588858434775922162,,0.499683413376,-0.198970252595,0.213073224842
1588858434782053003,2098,1588858434781935064,,0.499682521732,-0.198955284476,0.213071051639
1588858434788158843,2099,1588858434787972929,,0.499683129561,-0.198938776994,0.213063236404
1588858434794146806,2100,1588858434794026363,,0.499684038782,-0.198905778842,0.213049036479
1588858434800253800,2101,1588858434799958237,,0.499682061616,-0.198890471731,0.213042438681
1588858434805989955,2102,1588858434805881041,,0.499678798617,-0.198858730119,0.213026080315
1588858434812050352,2103,1588858434811971455,,0.499678861256,-0.198841534986,0.213020161189
1588858434817957510,2104,1588858434817879611,,0.49968157237,-0.198814588733,0.213013770174
1588858434824057334,2105,1588858434823909875,,0.499682606583,-0.198803493106,0.2130123367
1588858434829980873,2106,1588858434829894519,,0.499686634664,-0.198777683837,0.213009094371
1588858434836081107,2107,1588858434835903919,,0.499688826248,-0.198763844563,0.2130065737
1588858434842009118,2108,1588858434841869759,,0.499691901208,-0.198731342914,0.212999670566
1588858434848080786,2109,1588858434847872684,,0.499691565079,-0.19871350384,0.212992963185
1588858434853959119,2110,1588858434853882223,,0.499692046401,-0.198692295822,0.212986730999
1588858434859985256,2111,1588858434859868603,,0.499693038945,-0.198669577771,0.212977571634
1588858434866025604,2112,1588858434865887475,,0.499693156798,-0.198618363292,0.212956335309
1588858434871964509,2113,1588858434871843467,,0.499693621159,-0.198590586152,0.212946161448
1588858434878039813,2114,1588858434877910121,,0.499694062696,-0.198529765023,0.212926878553
1588858434884060077,2115,1588858434883912596,,0.499695374999,-0.198500939125,0.212918227226
1588858434890068354,2116,1588858434889964885,,0.499698866618,-0.198445920559,0.212902100618
1588858434896130021,2117,1588858434895965514,,0.499699540545,-0.198420421596,0.212893721266
1588858434901981695,2118,1588858434901869714,,0.499701930992,-0.198366950542,0.212877273546
1588858434908129635,2119,1588858434907983810,,0.499703288026,-0.198339924385,0.212869296698
1588858434914273635,2120,1588858434914178253,,0.499704787991,-0.198290381533,0.212852206391
1588858434917395756,2121,1588858434917250082,,0.499704499714,-0.198268199421,0.212842015351
1588858434923091872,2122,1588858434922939743,,0.499706038756,-0.19822137407,0.212823194578
1588858434929012930,2123,1588858434928925986,,0.499707448166,-0.198197965265,0.212814467038
1588858434935030010,2124,1588858434934898017,,0.499707848599,-0.198173012757,0.212804493632
1588858434941023598,2125,1588858434940900006,,0.499708857311,-0.198120414349,0.212785322157
1588858434953207286,2126,1588858434953098806,,0.499712939583,-0.198038035641,0.212759616293
1588858434959097777,2127,1588858434958954855,,0.499713645829,-0.198006543998,0.212750372079
1588858434965006707,2128,1588858434964888040,,0.499716657508,-0.197947437954,0.212734410934
1588858434971098524,2129,1588858434970938256,,0.499719232323,-0.197883226577,0.212717011368
1588858434977081121,2130,1588858434976942710,,0.499720443313,-0.197852404565,0.212708315715
1588858434983077185,2131,1588858434982955945,,0.499722554072,-0.19782462755,0.212699670087
1588858434989119177,2132,1588858434988946948,,0.499723389505,-0.197765089825,0.212678948082
1588858434995093800,2133,1588858434994985546,,0.499727212291,-0.197705391458,0.212662492395
1588858435001067761,2134,1588858435000957193,,0.499727659155,-0.197678746263,0.212653069118
1588858435013551202,2135,1588858435013351987,,0.499729821889,-0.19759902948,0.21262888366
1588858435016331432,2136,1588858435016205385,,0.499730161829,-0.197572582769,0.212618762531
1588858435022063217,2137,1588858435021918921,,0.499733703512,-0.197515986586,0.212602173879
1588858435028170346,2138,1588858435027973208,,0.499734580749,-0.197485369298,0.21259328137
1588858435034035476,2139,1588858435033952667,,0.499737216676,-0.197426798247,0.212574925614
1588858435040153961,2140,1588858435039997088,,0.499737189693,-0.197394163145,0.212562684387
1588858435046133173,2141,1588858435045986535,,0.49973976455,-0.197326497435,0.212545451247
1588858435052208442,2142,1588858435052031210,,0.499740119132,-0.197291641028,0.212537029196
1588858435058141402,2143,1588858435057991763,,0.499740140451,-0.197255414078,0.21252783076
1588858435064165461,2144,1588858435063951541,,0.499740211483,-0.197218604788,0.212518632684
1588858435070090193,2145,1588858435069907504,,0.499742156079,-0.197145879806,0.212500117956
1588858435076068272,2146,1588858435075972054,,0.499742787638,-0.197076261948,0.212479071417
1588858435082109130,2147,1588858435081951164,,0.49974502042,-0.19704129018,0.21247182735
1588858435088092195,2148,1588858435087951257,,0.499744561025,-0.197009491892,0.212461819251
1588858435094289778,2149,1588858435094146574,,0.499746393325,-0.196938836064,0.21244697846
1588858435100082182,2150,1588858435099956262,,0.499746076491,-0.196875766065,0.212430093223
1588858435106121610,2151,1588858435105996230,,0.499747336922,-0.196853102287,0.212424427502
1588858435112059501,2152,1588858435111940985,,0.499746656178,-0.19682990005,0.212416202975
1588858435118204649,2153,1588858435117984609,,0.499748676782,-0.196770256925,0.212398564094
1588858435124195132,2154,1588858435124007557,,0.499749689987,-0.19671506377,0.212384164594
1588858435130101617,2155,1588858435129936015,,0.499749264834,-0.196677944894,0.21237341075
1588858435136157558,2156,1588858435135971948,,0.49975019929,-0.196645509255,0.212367533859
1588858435142174851,2157,1588858435141997708,,0.499751153911,-0.196588861014,0.212355459497
1588858435148059329,2158,1588858435147917704,,0.499751385725,-0.196531742794,0.212340657163
1588858435154279393,2159,1588858435154173377,,0.499751957264,-0.196501415548,0.212334599334
1588858435160058902,2160,1588858435159971987,,0.499752234158,-0.196468076509,0.212327364773
1588858435166108669,2161,1588858435165936818,,0.499753360249,-0.196434638517,0.2123218024
1588858435172154360,2162,1588858435171954590,,0.499754329772,-0.196387803653,0.21231231281
1588858435178175134,2163,1588858435178042613,,0.499754948415,-0.196351245649,0.212304233415
1588858435184172228,2164,1588858435183997520,,0.49975522246,-0.196296976182,0.212292729911
1588858435190111269,2165,1588858435189974491,,0.4997564289,-0.196260238162,0.212286240705
1588858435196178889,2166,1588858435196009921,,0.499757451053,-0.196227469284,0.212279371462
1588858435202105071,2167,1588858435201960514,,0.499757431624,-0.196170968773,0.212265469352
1588858435208131170,2168,1588858435207978757,,0.499756584463,-0.196113418194,0.212249043704
1588858435214339358,2169,1588858435214215301,,0.499757165162,-0.196083870469,0.212243363762
1588858435217381061,2170,1588858435217251835,,0.499756892982,-0.196020565372,0.212229371098
1588858435223186144,2171,1588858435222975591,,0.499757299226,-0.195983683781,0.212221758559
1588858435229070768,2172,1588858435228951554,,0.499757868712,-0.195948033215,0.212213828461
1588858435235104238,2173,1588858435234993818,,0.499759465026,-0.195872475626,0.212198726375
1588858435241160576,2174,1588858435240957317,,0.499760309845,-0.195797232079,0.212183979559
1588858435247613849,2175,1588858435247510948,,0.499760179864,-0.195757901105,0.21217811794
1588858435253250789,2176,1588858435253024642,,0.499760568091,-0.195711154672,0.212169141888
1588858435259126215,2177,1588858435259001461,,0.49976209901,-0.195634583206,0.21215396962
1588858435265170424,2178,1588858435265009268,,0.499761238539,-0.195589787401,0.212143731642
1588858435271186478,2179,1588858435271032562,,0.499763164843,-0.195506157554,0.212128005784
1588858435277149080,2180,1588858435276992776,,0.499763295995,-0.19546471,0.212119152755
1588858435283260451,2181,1588858435283064512,,0.499762840637,-0.195380643347,0.212100399461
1588858435289124824,2182,1588858435288997265,,0.499763310525,-0.19533758072,0.212091180311
1588858435295153970,2183,1588858435295002611,,0.499764209882,-0.195259440821,0.212075345059
1588858435301180863,2184,1588858435301026661,,0.499764488074,-0.195219009858,0.212067804531
1588858435313554453,2185,1588858435313422650,,0.499765372815,-0.195097151801,0.212044688152
1588858435319130137,2186,1588858435319021960,,0.499765997835,-0.195012300818,0.212029051681
1588858435325254033,2187,1588858435325081978,,0.499767013306,-0.19497295166,0.212022451673
1588858435331227935,2188,1588858435331059214,,0.499767164599,-0.194933692547,0.212014123058
1588858435337203139,2189,1588858435337052927,,0.499768158616,-0.194845353743,0.211998223704
1588858435343160425,2190,1588858435343033138,,0.499769805972,-0.194762991197,0.21198154734
1588858435349174123,2191,1588858435349035765,,0.499769389094,-0.194720658218,0.211973765772
1588858435355146458,2192,1588858435355028426,,0.499768687562,-0.194676965009,0.211966324542
1588858435361128684,2193,1588858435361029248,,0.499770026563,-0.194636206949,0.2119608278
1588858435367601162,2194,1588858435367508570,,0.499769590619,-0.194553669745,0.211946910594
1588858435373217040,2195,1588858435373028489,,0.499769190413,-0.194515604718,0.211937845586
1588858435379159726,2196,1588858435378994616,,0.499770007132,-0.194437005967,0.211926430816
1588858435385135344,2197,1588858435385043651,,0.499771093094,-0.194396517683,0.211920795827
1588858435391117421,2198,1588858435390994935,,0.499771234279,-0.194321039091,0.211905058559
1588858435397150900,2199,1588858435397043616,,0.499771781732,-0.194281231846,0.21190004072
1588858435403129993,2200,1588858435403009437,,0.499773634052,-0.194192666745,0.211884607695
1588858435409224113,2201,1588858435409053507,,0.499773510617,-0.194156503233,0.211876151714
1588858435415343287,2202,1588858435415184202,,0.499774006715,-0.194079410162,0.211866074846
1588858435421136327,2203,1588858435421013731,,0.49977477205,-0.194029153826,0.211857892815
1588858435433247402,2204,1588858435433075443,,0.49977657603,-0.193899884556,0.211838923282
1588858435439186442,2205,1588858435439070805,,0.499778522032,-0.193815271963,0.211827617897
1588858435445209480,2206,1588858435445049341,,0.499778125996,-0.193773934397,0.21182136948
1588858435451091659,2207,1588858435450978793,,0.499779530296,-0.193694790113,0.211807988446
1588858435457158432,2208,1588858435456983564,,0.499779671988,-0.193655904199,0.211802802375
1588858435463168487,2209,1588858435463007586,,0.499780989164,-0.193610534307,0.211798672715
1588858435469177934,2210,1588858435468994962,,0.499781128261,-0.1935325176,0.211784846158
1588858435475113923,2211,1588858435475014037,,0.499780776816,-0.193501288026,0.211778527491
1588858435481103257,2212,1588858435480994721,,0.499781894234,-0.193460355496,0.211774282538
1588858435493197304,2213,1588858435493015782,,0.499782652549,-0.193297923849,0.211747734633
1588858435499204356,2214,1588858435499041083,,0.499781845704,-0.193258323749,0.211739547573
1588858435505085968,2215,1588858435504995070,,0.499782403502,-0.193219440543,0.211734289651
1588858435511187138,2216,1588858435510989201,,0.49978196478,-0.193144593056,0.211720652526
1588858435517459526,2217,1588858435517329201,,0.499782060703,-0.19310067002,0.211713379419
1588858435523155756,2218,1588858435522999501,,0.499781503951,-0.193018838242,0.211698784138
1588858435529103264,2219,1588858435528981769,,0.499781238503,-0.192974174375,0.21169175901
1588858435535136964,2220,1588858435535015122,,0.499781627707,-0.192887624387,0.211678426672
1588858435541092597,2221,1588858435540975779,,0.499781168439,-0.192843377473,0.211672851513
1588858435550089586,2222,1588858435549982497,,0.499781493642,-0.192707272331,0.21165074388
1588858435556210943,2223,1588858435556038379,,0.499781517249,-0.192615949168,0.211635758669
1588858435562085736,2224,1588858435561998981,,0.499781410492,-0.192570257192,0.211629125652
1588858435568161039,2225,1588858435567998527,,0.499781352354,-0.192479072385,0.211616053053
1588858435574267276,2226,1588858435574140591,,0.499780394505,-0.192431876966,0.21160849115
1588858435580135192,2227,1588858435580030493,,0.49978062523,-0.192337036788,0.211594491842
1588858435586224583,2228,1588858435586079638,,0.49977932771,-0.192291871214,0.21158593027
1588858435592197142,2229,1588858435592083656,,0.49977975894,-0.192198519157,0.211571775758
1588858435598193935,2230,1588858435598081252,,0.499778265695,-0.192153480724,0.211563424248
1588858435604154554,2231,1588858435604026521,,0.499778167783,-0.192060142812,0.211550322704
1588858435610184747,2232,1588858435610062380,,0.499776943108,-0.192011630168,0.211541858929
1588858435619103357,2233,1588858435619000132,,0.499776890013,-0.191873192028,0.211521558153
1588858435625262510,2234,1588858435625052876,,0.499778083785,-0.191776603728,0.211508916985
1588858435631156893,2235,1588858435631010121,,0.499777497353,-0.191729324487,0.211498376662
1588858435637246226,2236,1588858435637023963,,0.499776512961,-0.191629991462,0.211482578497
1588858435643181601,2237,1588858435643035485,,0.499774992556,-0.191578126912,0.211473666263
1588858435649132225,2238,1588858435649035760,,0.499773542045,-0.191478452048,0.2114588415
1588858435655101538,2239,1588858435654994778,,0.499771929827,-0.191430470764,0.211446200886
1588858435661164172,2240,1588858435661052645,,0.499772080523,-0.191381486479,0.211438411213
1588858435673194588,2241,1588858435673084859,,0.499771430417,-0.191231710305,0.21141614988
1588858435679138633,2242,1588858435678980317,,0.499769631423,-0.191183696813,0.211408418477
1588858435685184441,2243,1588858435685049904,,0.499769422446,-0.191087116439,0.211397523446
1588858435691182678,2244,1588858435691074048,,0.499768576,-0.191039578176,0.211390056324
1588858435697132698,2245,1588858435697050834,,0.499769784788,-0.190947386286,0.211379885682
1588858435703250538,2246,1588858435703058638,,0.499770268704,-0.190901206139,0.211375476652
1588858435709243495,2247,1588858435709050652,,0.499769375521,-0.190813080121,0.211363245255
1588858435715502722,2248,1588858435715331644,,0.49976920745,-0.190767886716,0.211355059477
1588858435721089683,2249,1588858435720959258,,0.499767778537,-0.190681631509,0.211341786361
1588858435727167365,2250,1588858435727080036,,0.499767298738,-0.190635047671,0.211334231785
1588858435733180076,2251,1588858435733066833,,0.49976709848,-0.190548977298,0.211321266535
1588858435739212750,2252,1588858435739051069,,0.499767920655,-0.190502032756,0.211315495585
1588858435745229239,2253,1588858435745069958,,0.499767923247,-0.19045583402,0.211308229182
1588858435751208292,2254,1588858435751129010,,0.499767771876,-0.190364982613,0.211294985006
1588858435757209812,2255,1588858435757075917,,0.499767663994,-0.190271545347,0.211283152545
1588858435763055742,2256,1588858435762954217,,0.499767551619,-0.190223486539,0.211277751831
1588858435769115071,2257,1588858435769025406,,0.499767472114,-0.190142386932,0.211267239624
1588858435775026358,2258,1588858435774943938,,0.499766390004,-0.190108486982,0.21126231521
1588858435781159481,2259,1588858435780975678,,0.49976643166,-0.190019339694,0.211250627504
1588858435787585018,2260,1588858435787508158,,0.499765726404,-0.189991807496,0.211244737679
1588858435793234528,2261,1588858435793046079,,0.499764698289,-0.189901737823,0.211232723653
1588858435799223123,2262,1588858435799062844,,0.499763888925,-0.189867334142,0.211225245102
1588858435805174667,2263,1588858435805059578,,0.499762145295,-0.189805322413,0.211213416015
1588858435811288230,2264,1588858435811116598,,0.499760862385,-0.189773117256,0.211208679978
1588858435817559327,2265,1588858435817444407,,0.499760594488,-0.189738229318,0.211204238657
1588858435823260104,2266,1588858435823095325,,0.499760623198,-0.189667455212,0.211196001997
1588858435829186996,2267,1588858435829037395,,0.499759259903,-0.189591817497,0.211186401428
1588858435835231522,2268,1588858435835099810,,0.499759520326,-0.189550532431,0.211182604072
1588858435841260963,2269,1588858435841086072,,0.499758051996,-0.189467123142,0.211170811283
1588858435847367211,2270,1588858435847233330,,0.499757540278,-0.189423959291,0.211164405576
1588858435853281877,2271,1588858435853084584,,0.499756627206,-0.189330370307,0.211152835382
1588858435859194982,2272,1588858435859046356,,0.499756924849,-0.189284335,0.211146592879
1588858435865165446,2273,1588858435864996055,,0.499755579305,-0.189240945855,0.211140819437
1588858435871226872,2274,1588858435871097976,,0.499756797924,-0.189143390334,0.211127748681
1588858435877168304,2275,1588858435877018123,,0.499754882498,-0.189054812766,0.211115346012
1588858435883216209,2276,1588858435883040760,,0.499753969546,-0.189008422562,0.211106863216
1588858435889232858,2277,1588858435889090812,,0.499754056523,-0.18896319148,0.211100973789
1588858435895188468,2278,1588858435895069265,,0.49975358125,-0.188888451555,0.211093273481
1588858435901327610,2279,1588858435901097409,,0.499754552869,-0.188839434037,0.21108737939
1588858435913884795,2280,1588858435913562699,,0.499753141824,-0.18872228144,0.211069720405
1588858435919233005,2281,1588858435919063161,,0.49975087542,-0.188644759599,0.211057347448
1588858435925214744,2282,1588858435925067117,,0.499751740241,-0.188606522573,0.211052591295
1588858435931234756,2283,1588858435931088476,,0.49974962056,-0.188533255569,0.211039613703
1588858435937133084,2284,1588858435937034445,,0.499749353579,-0.188494147425,0.211036018768
1588858435943243737,2285,1588858435943087985,,0.499750277174,-0.188409090498,0.211025262585
1588858435949345837,2286,1588858435949189517,,0.499750248093,-0.188372985129,0.211020838296
1588858435955263525,2287,1588858435955111265,,0.49974918894,-0.18829709537,0.211007299325
1588858435961224647,2288,1588858435961092902,,0.499749877851,-0.188247465943,0.211002986786
1588858435967466767,2289,1588858435967375202,,0.499749663931,-0.188171410789,0.210991219397
1588858435973179291,2290,1588858435973044596,,0.499749789724,-0.188124465147,0.210985019038
1588858435979222850,2291,1588858435979082624,,0.499749958798,-0.18804015537,0.210973001411
1588858435985177890,2292,1588858435985030387,,0.499750010105,-0.187999715503,0.210967292903
1588858435991165290,2293,1588858435991072566,,0.499749348897,-0.187960347705,0.210961647358
1588858435997253595,2294,1588858435997091454,,0.499749532195,-0.187920574001,0.210954346622
1588858436003226187,2295,1588858436003048748,,0.49974962183,-0.187839163851,0.210942995328
1588858436009174847,2296,1588858436009037822,,0.499750595884,-0.187800833984,0.210936321702
1588858436015378815,2297,1588858436015220500,,0.499751907433,-0.187730502208,0.21092667859
1588858436021187477,2298,1588858436021041999,,0.499752935886,-0.187683437673,0.210919754652
1588858436033157598,2299,1588858436033064349,,0.499755573775,-0.187568985744,0.21090629463
1588858436039345389,2300,1588858436039129295,,0.499755850954,-0.187488794193,0.21089333866
1588858436045313976,2301,1588858436045138844,,0.499756865222,-0.187448512008,0.210888941172
1588858436051235480,2302,1588858436051106567,,0.499758076688,-0.18736915353,0.210877179171
1588858436057280802,2303,1588858436057084956,,0.499758896175,-0.18732683959,0.210871412485
1588858436063207058,2304,1588858436063026752,,0.499759604014,-0.187286899291,0.2108635466
1588858436069192189,2305,1588858436069059291,,0.499761419485,-0.187196039848,0.210849466653
1588858436075194127,2306,1588858436075085728,,0.499761940984,-0.18715468175,0.210843386105
1588858436081157106,2307,1588858436081042058,,0.49976318552,-0.187107641521,0.210838245408
1588858436090229580,2308,1588858436090072353,,0.499767113345,-0.186981749498,0.210821688276
1588858436096282548,2309,1588858436096152159,,0.499769988299,-0.186904154093,0.210810566128
1588858436102254731,2310,1588858436102107929,,0.499771336066,-0.186855924682,0.210803851482
1588858436108229402,2311,1588858436108124818,,0.499774621812,-0.186778094911,0.210790192824
1588858436114477908,2312,1588858436114364680,,0.499777386104,-0.186700770897,0.210775759513
1588858436120215414,2313,1588858436120100310,,0.499779901525,-0.186663504067,0.210770268693
1588858436126252889,2314,1588858436126078852,,0.499781818836,-0.186624810641,0.210764504616
1588858436132284687,2315,1588858436132116036,,0.499784672914,-0.186561315344,0.210751576888
1588858436138393530,2316,1588858436138180965,,0.499786099636,-0.186534030227,0.210745228536
1588858436144279156,2317,1588858436144088633,,0.499790017709,-0.186458736945,0.210734193692
1588858436150243142,2318,1588858436150087611,,0.499790822258,-0.186431902837,0.210730590689
1588858436156262380,2319,1588858436156116438,,0.49979479761,-0.186346579445,0.210722439911
1588858436162292052,2320,1588858436162106010,,0.499796462818,-0.186311491867,0.210718432483
1588858436168267564,2321,1588858436168099234,,0.499798129644,-0.186242705962,0.210705761721
1588858436174193288,2322,1588858436174110767,,0.499799511065,-0.186212528634,0.210699869483
1588858436180250079,2323,1588858436180114322,,0.499800762419,-0.186140756335,0.210684260967
1588858436186264014,2324,1588858436186097143,,0.499801355511,-0.186102223925,0.210676506021
1588858436192455278,2325,1588858436192198908,,0.499802699195,-0.186017654292,0.210664222092
1588858436198337657,2326,1588858436198206070,,0.499803404096,-0.185971806874,0.210655489099
1588858436204328173,2327,1588858436204173684,,0.499804775913,-0.185883605504,0.210643055029
1588858436210300446,2328,1588858436210160567,,0.499804745289,-0.18583631581,0.210635815828
1588858436219270326,2329,1588858436219126539,,0.49980955299,-0.185696728098,0.210619085819
1588858436225283186,2330,1588858436225138000,,0.499809504503,-0.185606563626,0.210606156067
1588858436231347732,2331,1588858436231203785,,0.499811243238,-0.185557254759,0.210598757083
1588858436237275559,2332,1588858436237115790,,0.499810804481,-0.185465254575,0.210583770141
1588858436243303294,2333,1588858436243174007,,0.499811863121,-0.18541899223,0.210575366
1588858436249376336,2334,1588858436249203677,,0.499811825975,-0.18532945813,0.210561032025
1588858436255288286,2335,1588858436255147041,,0.499811178755,-0.185282760813,0.210552304917
1588858436261346156,2336,1588858436261147848,,0.499811908154,-0.185193651031,0.210538822025
1588858436273307981,2337,1588858436273193960,,0.499813155244,-0.185065951608,0.210522848175
1588858436279280113,2338,1588858436279117450,,0.499814107284,-0.185024396154,0.210517035236
1588858436285251198,2339,1588858436285099231,,0.499814914583,-0.184940907832,0.210508521757
1588858436291236703,2340,1588858436291135349,,0.499815764554,-0.184899507414,0.210505151061
1588858436297360425,2341,1588858436297211028,,0.499816803097,-0.184812690935,0.210494801198
1588858436303349764,2342,1588858436303168579,,0.499816753676,-0.18476811106,0.210488570869
1588858436309323915,2343,1588858436309141336,,0.499818059713,-0.184681041406,0.210476660629
1588858436315468752,2344,1588858436315295153,,0.499818039266,-0.184636243421,0.210469596654
1588858436321291232,2345,1588858436321136756,,0.499819093598,-0.184543804155,0.210454126004
1588858436333270133,2346,1588858436333157323,,0.499819422765,-0.18440979992,0.210431097427
1588858436339224230,2347,1588858436339113148,,0.499820369636,-0.184366921602,0.210426431368
1588858436345250505,2348,1588858436345142517,,0.499820183672,-0.184319899264,0.210420095011
1588858436351295307,2349,1588858436351189634,,0.499822572617,-0.184230668687,0.210409362489
1588858436357333442,2350,1588858436357219872,,0.499823377243,-0.184187051034,0.210404105266
1588858436363387349,2351,1588858436363229891,,0.499826256386,-0.184097232347,0.210396104911
1588858436369338096,2352,1588858436369175309,,0.499827748607,-0.184057828543,0.210390759418
1588858436375328446,2353,1588858436375160308,,0.499828684414,-0.183995692063,0.210382672596
1588858436381301743,2354,1588858436381185300,,0.499830704973,-0.183915402816,0.210375058406
1588858436393388195,2355,1588858436393194567,,0.499831996599,-0.183845419978,0.210363518248
1588858436399383624,2356,1588858436399173581,,0.499833823839,-0.183770498917,0.21035032154
1588858436405379553,2357,1588858436405206206,,0.499836230821,-0.183712256824,0.210341813532
1588858436411310892,2358,1588858436411195112,,0.499836981425,-0.183681125445,0.210336172113
1588858436417698477,2359,1588858436417514112,,0.499836471573,-0.183648455538,0.210331626658
1588858436423299123,2360,1588858436423155994,,0.499839207795,-0.183580921671,0.210321914637
1588858436429295219,2361,1588858436429178913,,0.499840560239,-0.183544823046,0.210317618013
1588858436435376643,2362,1588858436435164212,,0.499844877588,-0.183466954733,0.210309850917
1588858436441286935,2363,1588858436441166563,,0.499845811735,-0.183426376326,0.210303961164
1588858436447564597,2364,1588858436447441019,,0.499848672239,-0.183345360216,0.210292375494
1588858436453263408,2365,1588858436453127359,,0.499850119376,-0.183303778651,0.210286649708
1588858436459390160,2366,1588858436459194971,,0.499852127326,-0.183215150035,0.21027404349
1588858436465323755,2367,1588858436465191140,,0.499853829293,-0.183172478203,0.210267222521
1588858436471273526,2368,1588858436471165160,,0.49985704575,-0.183082655821,0.210250862695
1588858436477274677,2369,1588858436477139365,,0.499858718511,-0.183036487024,0.21024292247
1588858436483522983,2370,1588858436483171056,,0.499863759515,-0.182950787385,0.210230382614
1588858436489284987,2371,1588858436489154301,,0.499864984048,-0.182904803994,0.210223724295
1588858436495298878,2372,1588858436495154236,,0.499867556666,-0.182837508988,0.210215164781
1588858436501208713,2373,1588858436501119885,,0.499870147624,-0.182788616066,0.210209732042
1588858436510279930,2374,1588858436510122977,,0.499875485008,-0.182674978084,0.210194622553
1588858436516633459,2375,1588858436516505634,,0.499881351579,-0.18260082629,0.210184465424
1588858436522346374,2376,1588858436522152066,,0.499882300805,-0.182566115221,0.210178404279
1588858436528316470,2377,1588858436528175955,,0.49988505828,-0.182532458973,0.210173951414
1588858436534417273,2378,1588858436534322539,,0.499886704924,-0.182494502151,0.210166546978
1588858436540247128,2379,1588858436540113589,,0.499891362871,-0.182422933561,0.21015699061
1588858436546422617,2380,1588858436546251494,,0.499894934282,-0.182384420672,0.210152154737
1588858436552252175,2381,1588858436552144580,,0.499899453886,-0.182322443354,0.210142634762
1588858436558393439,2382,1588858436558232573,,0.499903122315,-0.182276256046,0.210137503881
1588858436564250843,2383,1588858436564141342,,0.499907840298,-0.182213507167,0.210131263332
1588858436570433723,2384,1588858436570187392,,0.499911087027,-0.182172734866,0.210127824857
1588858436576272348,2385,1588858436576181147,,0.499916132075,-0.182105751948,0.210120968686
1588858436582340832,2386,1588858436582186145,,0.499918734734,-0.182071636154,0.21011663392
1588858436588220385,2387,1588858436588110064,,0.499924295072,-0.182007380262,0.210109666118
1588858436594741451,2388,1588858436594586609,,0.499926315101,-0.181972623811,0.210104315682
1588858436600309668,2389,1588858436600208146,,0.499929913576,-0.18190547547,0.210094459242
1588858436606301756,2390,1588858436606171512,,0.499932128791,-0.18186725695,0.210088483016
1588858436612419256,2391,1588858436612215874,,0.49993742585,-0.181797243773,0.21008051528
1588858436618283213,2392,1588858436618174610,,0.499939053949,-0.181759255446,0.210075331193
1588858436624373444,2393,1588858436624256458,,0.499944643202,-0.181684251452,0.210068256505
1588858436630305305,2394,1588858436630202926,,0.49994561166,-0.181646508165,0.210063494664
1588858436636455318,2395,1588858436636276166,,0.499951002299,-0.181568068847,0.210057148193
1588858436642332273,2396,1588858436642232510,,0.499953627322,-0.181528512303,0.210052463644
1588858436648291466,2397,1588858436648181680,,0.499957747337,-0.181454731364,0.210041905708
1588858436654288602,2398,1588858436654190313,,0.499959393981,-0.181416115601,0.210038041115
1588858436660300065,2399,1588858436660221538,,0.499961442313,-0.181376219472,0.210034452038
1588858436666314477,2400,1588858436666197150,,0.499962827397,-0.181338730152,0.210028976133
1588858436672292944,2401,1588858436672168091,,0.499964960173,-0.181266098284,0.210017350849
1588858436678327136,2402,1588858436678210709,,0.499965749314,-0.181233360809,0.210011317354
1588858436684443127,2403,1588858436684302992,,0.499968048197,-0.18117512779,0.21000309477
1588858436690355556,2404,1588858436690220948,,0.499968233084,-0.181141069239,0.209996680715
1588858436696404035,2405,1588858436696268228,,0.49996877302,-0.181086123303,0.209988379808
1588858436702437096,2406,1588858436702239898,,0.499970554972,-0.181050668722,0.20998416747
1588858436708423539,2407,1588858436708194950,,0.499973456097,-0.180991739405,0.209978333494
1588858436714544165,2408,1588858436714436585,,0.499974603153,-0.180964303067,0.20997526101
1588858436726402644,2409,1588858436726212269,,0.49997908735,-0.180882160491,0.209964452507
1588858436732409793,2410,1588858436732254594,,0.499981920129,-0.18083575792,0.209959654781
1588858436738378362,2411,1588858436738220181,,0.499982390382,-0.180817962014,0.209957244341
1588858436744456912,2412,1588858436744281825,,0.499985154223,-0.180767875679,0.20995091056
1588858436750480205,2413,1588858436750324286,,0.499985375529,-0.180747799212,0.209946385487
1588858436754926569,2414,1588858436754840541,,0.4999889106,-0.180692456833,0.209941048848
1588858436759330209,2415,1588858436759249892,,0.49998834963,-0.180669118991,0.209936327844
1588858436765345532,2416,1588858436765199037,,0.499989788197,-0.180624483207,0.20993064212
1588858436771337244,2417,1588858436771184876,,0.499991268839,-0.180601326403,0.209929247387
1588858436777428652,2418,1588858436777281401,,0.499992796162,-0.180553091786,0.209922490621
1588858436783335988,2419,1588858436783240627,,0.499993539137,-0.180523502114,0.209919757747
1588858436789357499,2420,1588858436789262169,,0.499995989985,-0.180475422624,0.209912928333
1588858436795346481,2421,1588858436795226671,,0.499996826707,-0.180455723117,0.209910740069
1588858436801341252,2422,1588858436801211645,,0.499999029042,-0.180399794512,0.209905392306
1588858436810419883,2423,1588858436810256730,,0.500002213239,-0.18032137724,0.209897711992
1588858436816688122,2424,1588858436816574493,,0.500002979851,-0.180296945417,0.209894123326
1588858436822362788,2425,1588858436822216268,,0.500004177073,-0.180276446627,0.209890915402
1588858436828395479,2426,1588858436828264105,,0.500005417853,-0.180233193954,0.209883785835
1588858436834393642,2427,1588858436834233174,,0.500007327447,-0.18019037544,0.209877270911
1588858436840355270,2428,1588858436840214634,,0.500008562466,-0.180166456545,0.209874289536
1588858436846395053,2429,1588858436846218630,,0.500010056141,-0.180140536443,0.209873409339
1588858436852369895,2430,1588858436852258085,,0.500010926173,-0.180106049986,0.209869403414
1588858436858464654,2431,1588858436858268444,,0.500012888972,-0.180053391311,0.209862771101
1588858436864364910,2432,1588858436864244267,,0.500013254446,-0.180036265743,0.209860761382
1588858436870459708,2433,1588858436870281682,,0.500013945541,-0.180005960338,0.209858465769
1588858436876436147,2434,1588858436876295514,,0.500015804994,-0.179945213723,0.209852505781
1588858436882413155,2435,1588858436882286631,,0.500015982211,-0.179896870425,0.209849052573
1588858436888369444,2436,1588858436888253462,,0.500015849846,-0.179871417504,0.209846720394
1588858436894706771,2437,1588858436894563801,,0.500015646056,-0.179847172675,0.209844078347
1588858436901310887,2438,1588858436901220139,,0.500016761166,-0.179794934802,0.209837241572
1588858436906451347,2439,1588858436906240772,,0.50001742182,-0.179767960065,0.20983057426
1588858436912423324,2440,1588858436912247411,,0.500019965438,-0.179717817766,0.20982317075
1588858436918430841,2441,1588858436918284483,,0.50002039471,-0.179690781357,0.209819685855
1588858436924377866,2442,1588858436924201994,,0.50002230601,-0.179639762106,0.209813371296
1588858436930291177,2443,1588858436930199920,,0.500022306954,-0.179611650841,0.209810645501
1588858436936491328,2444,1588858436936273434,,0.500023742542,-0.17955682979,0.209805371355
1588858436942452858,2445,1588858436942288363,,0.500024022907,-0.17953114358,0.209802504409
1588858436948449914,2446,1588858436948318228,,0.500025565195,-0.179503320792,0.209799854251
1588858436954951571,2447,1588858436954833376,,0.500026822912,-0.179446590064,0.209794739543
1588858436961531513,2448,1588858436961338061,,0.50002833443,-0.179418933735,0.209794849107
1588858436966653546,2449,1588858436966311569,,0.500029761526,-0.179365928541,0.209789381799
1588858436972429394,2450,1588858436972255290,,0.500029797586,-0.179346814545,0.209788113747
1588858436978447460,2451,1588858436978291345,,0.500031181516,-0.179289295624,0.209784889247
1588858436984424220,2452,1588858436984291337,,0.500031947434,-0.179270244447,0.20978290734
1588858436990613259,2453,1588858436990350528,,0.500032403338,-0.1792422438,0.209780912734
1588858436996382223,2454,1588858436996254090,,0.500033999221,-0.179192648204,0.209777062509
1588858437002507336,2455,1588858437002252471,,0.500034305805,-0.179172301089,0.209775943972
1588858437008386991,2456,1588858437008271951,,0.500033936306,-0.179133114363,0.209774118441
1588858437014778316,2457,1588858437014643279,,0.500033635931,-0.179111980033,0.209772067288
1588858437026510192,2458,1588858437026294085,,0.50003360095,-0.179049476127,0.2097716059
1588858437032459793,2459,1588858437032323751,,0.500033149058,-0.179010385717,0.209766274182
1588858437038493287,2460,1588858437038301591,,0.500034438365,-0.178969803203,0.209760272646
1588858437044383557,2461,1588858437044257725,,0.500034745156,-0.178950415791,0.209757247133
1588858437050417731,2462,1588858437050230589,,0.500035015052,-0.178927974153,0.209754299961
1588858437056490046,2463,1588858437056301631,,0.500034849756,-0.178885703757,0.209752550684
1588858437062413666,2464,1588858437062283003,,0.500034352063,-0.178863546781,0.209749493462
1588858437068550349,2465,1588858437068410537,,0.500033687275,-0.178813768482,0.209748098709
1588858437074733709,2466,1588858437074636552,,0.500033673152,-0.178793394337,0.209746111715
1588858437086430970,2467,1588858437086252565,,0.500034384703,-0.178724480006,0.209741449513
1588858437092346562,2468,1588858437092252645,,0.500034632872,-0.178681679217,0.209739632424
1588858437098361489,2469,1588858437098228329,,0.500033760994,-0.178660775661,0.209738596548
1588858437104459057,2470,1588858437104285608,,0.50003270805,-0.178618200724,0.20973789673
1588858437110459985,2471,1588858437110251154,,0.500032499871,-0.178596869771,0.209735707316
1588858437116716641,2472,1588858437116590273,,0.500031239001,-0.178550690742,0.209731695559
1588858437122369807,2473,1588858437122222034,,0.500031473471,-0.178532269612,0.209731113884
1588858437128322588,2474,1588858437128231129,,0.500030161429,-0.178494592812,0.209727704566
1588858437134774037,2475,1588858437134663396,,0.5000297535,-0.178474305963,0.209725996042
1588858437146482751,2476,1588858437146272313,,0.500027833627,-0.178417111196,0.209722708301
1588858437152407891,2477,1588858437152255460,,0.500026156003,-0.178379614489,0.209719607995
1588858437158358637,2478,1588858437158258149,,0.500025578841,-0.178362140521,0.209718930252
1588858437164397591,2479,1588858437164237513,,0.500024724708,-0.178330864821,0.209715728292
1588858437170490134,2480,1588858437170273419,,0.500024670097,-0.178316170458,0.209712363774
1588858437176276503,2481,1588858437176186663,,0.50002583781,-0.178285224839,0.209709217047
1588858437182444243,2482,1588858437182241344,,0.500025793543,-0.178271826642,0.209705736532
1588858437188384168,2483,1588858437188270076,,0.500026550334,-0.178246985756,0.20970573882
1588858437194455447,2484,1588858437194384329,,0.500026677069,-0.178232595183,0.209706352278
1588858437206424935,2485,1588858437206258207,,0.50002630259,-0.178203113263,0.209708765241
1588858437212408683,2486,1588858437212239336,,0.500026824668,-0.17817067778,0.209708279745
1588858437218418954,2487,1588858437218270718,,0.500027519977,-0.178156971769,0.209708368935
1588858437224361298,2488,1588858437224287105,,0.500027958383,-0.178129731305,0.209706025364
1588858437230298006,2489,1588858437230211106,,0.500028188474,-0.178114185024,0.209704288125
1588858437236315180,2490,1588858437236225347,,0.500027955765,-0.178086810373,0.209701956224
1588858437242334126,2491,1588858437242204321,,0.500028106693,-0.178074941261,0.209700261658
1588858437248378241,2492,1588858437248271116,,0.500028116021,-0.178060587166,0.209698455102
1588858437254745842,2493,1588858437254632557,,0.500029359068,-0.178036770316,0.209697482985
1588858437263320161,2494,1588858437263247068,,0.500030512246,-0.178012526505,0.209696572296
1588858437269481220,2495,1588858437269295570,,0.500033468494,-0.177990754815,0.20969747451
1588858437275322421,2496,1588858437275200270,,0.500033840208,-0.177982350951,0.209697279791
1588858437278323983,2497,1588858437278194879,,0.500036117087,-0.177960936277,0.20969793778
1588858437281398736,2498,1588858437281319436,,0.500036518834,-0.177952682538,0.209697458633
1588858437290372430,2499,1588858437290246646,,0.500038962174,-0.177910863321,0.209697005646
1588858437296371617,2500,1588858437296256573,,0.500039177154,-0.177899865688,0.209696260134
1588858437302334218,2501,1588858437302220505,,0.500039777322,-0.177889728628,0.209698336488
1588858437308396906,2502,1588858437308264617,,0.500039781269,-0.177866357053,0.209698955625
1588858437314617422,2503,1588858437314504211,,0.500040259991,-0.177854313099,0.209700084606
1588858437323361817,2504,1588858437323249446,,0.500041710588,-0.177818143071,0.209700079474
1588858437329441730,2505,1588858437329342133,,0.500042598863,-0.177789540792,0.209701907408
1588858437335443946,2506,1588858437335380751,,0.500041829893,-0.177777735723,0.209701099932
1588858437341379748,2507,1588858437341248161,,0.500042967041,-0.177751609191,0.209701542307
1588858437348234824,2508,1588858437348130380,,0.500043375491,-0.177738654423,0.209701151086
1588858437353390892,2509,1588858437353269829,,0.500043903825,-0.177712445297,0.209700361097
1588858437359401154,2510,1588858437359264268,,0.500044955859,-0.177699113444,0.209701733774
1588858437365331044,2511,1588858437365244824,,0.500045138124,-0.177668913257,0.209701504188
1588858437371424726,2512,1588858437371255391,,0.500046690131,-0.177654955899,0.209704175016
1588858437377320716,2513,1588858437377225960,,0.500047889313,-0.177628339256,0.209705554273
1588858437383451444,2514,1588858437383334982,,0.500051041781,-0.177585741661,0.209707031145
1588858437389498605,2515,1588858437389341748,,0.500051858806,-0.177572847527,0.209707066137
1588858437395392156,2516,1588858437395297963,,0.500053848739,-0.177546050563,0.209707471313
1588858437401465573,2517,1588858437401362966,,0.500054041604,-0.177531907999,0.209707016873
1588858437410397219,2518,1588858437410279792,,0.500057530025,-0.177496767962,0.209708782016
1588858437416825506,2519,1588858437416668232,,0.500058368368,-0.177474229956,0.209710453628
1588858437422471025,2520,1588858437422321130,,0.500058775104,-0.177463275891,0.209711421345
1588858437428372880,2521,1588858437428289439,,0.500059072857,-0.177442938703,0.209713971663
1588858437434616984,2522,1588858437434526625,,0.500059201854,-0.177432202347,0.209715948017
1588858437446431119,2523,1588858437446345232,,0.500060360377,-0.177401998429,0.209721356094
1588858437452547018,2524,1588858437452430985,,0.500060670175,-0.177381687786,0.209723996178
1588858437458439144,2525,1588858437458281589,,0.500061437994,-0.177371364062,0.209725135483
1588858437464414207,2526,1588858437464261056,,0.50006165369,-0.177353671257,0.209727280046
1588858437470519374,2527,1588858437470393295,,0.500061765059,-0.17734700492,0.20972729767
1588858437476484449,2528,1588858437476350652,,0.500062395758,-0.177330746213,0.209730342975
1588858437482578148,2529,1588858437482380894,,0.50006274055,-0.177322560123,0.2097322004
1588858437488458110,2530,1588858437488352295,,0.500062501892,-0.177313731687,0.209732018368
1588858437494731957,2531,1588858437494636578,,0.500063215033,-0.177296631376,0.209734599523
1588858437506488385,2532,1588858437506296795,,0.50006294256,-0.177272845567,0.209736053522
1588858437512538465,2533,1588858437512437226,,0.500062430865,-0.177266232303,0.20973667942
1588858437518529252,2534,1588858437518362430,,0.500062147442,-0.177248575657,0.209739611756
1588858437524496946,2535,1588858437524367205,,0.500062660721,-0.177232731009,0.209742985279
1588858437530485113,2536,1588858437530357172,,0.5000622792,-0.177225465851,0.209743675009
1588858437536461817,2537,1588858437536396760,,0.500062223093,-0.177209143873,0.209746581524
1588858437542419396,2538,1588858437542275577,,0.500062092641,-0.177202698076,0.209747193133
1588858437548367600,2539,1588858437548294241,,0.500062036537,-0.177194733771,0.209749435735
1588858437554834501,2540,1588858437554746481,,0.50006173624,-0.177178592541,0.20975199859
1588858437562052290,2541,1588858437561952365,,0.5000623564,-0.17717019536,0.209754030709
1588858437566528842,2542,1588858437566338389,,0.500061501969,-0.177156618376,0.209754753924
1588858437572452473,2543,1588858437572390543,,0.500061345263,-0.17715005578,0.209755921478
1588858437578428664,2544,1588858437578326834,,0.500060620257,-0.177135723089,0.209756953053
