%time,field.header.seq,field.header.stamp,field.header.frame_id,field.vector.x,field.vector.y,field.vector.z
1588764819587610601,11303,1588764819587505365,,-0.23526912988,-32.6192613075,23.8970418876
1588764819593597476,11304,1588764819593487886,,-0.233137767775,-32.9191645001,24.0904960396
1588764819599643713,11305,1588764819599538263,,-0.233245323916,-33.1845312882,24.2472139528
1588764819605692333,11306,1588764819605586436,,-0.232160730792,-33.4821401781,24.4366063037
1588764819614632503,11307,1588764819614487143,,-0.232587718001,-33.7039361024,24.548737218
1588764819620473042,11308,1588764819620379835,,-0.231107301785,-33.951074205,24.6946148216
1588764819623962456,11309,1588764819623838996,,-0.231701809052,-33.9163957327,24.6578711987
1588764819629422555,11310,1588764819629330051,,-0.230785976074,-34.1565035914,24.7936568654
1588764819632430325,11311,1588764819632352828,,-0.230471890977,-34.4299636658,24.9702080672
1588764819635488739,11312,1588764819635404457,,-0.229912813184,-34.3888684406,24.9338839434
1588764819638497606,11313,1588764819638387881,,-0.229179086646,-34.6564225981,25.1051978213
1588764819641468146,11314,1588764819641382223,,-0.228817974666,-34.6128562989,25.0678514044
1588764819647531739,11315,1588764819647427645,,-0.224597064078,-34.7849455166,25.1676415394
1588764819650529978,11316,1588764819650420923,,-0.223130604564,-34.6920394191,25.0913517167
1588764819656645880,11317,1588764819656544549,,-0.221166769398,-34.947328552,25.2564674855
1588764819662779794,11318,1588764819662611723,,-0.21887333983,-35.1991752418,25.4185387327
1588764819668695370,11319,1588764819668603541,,-0.217609640333,-35.446468815,25.5760706901
1588764819674614071,11320,1588764819674512451,,-0.216211562092,-35.6888985967,25.7326841564
1588764819677733594,11321,1588764819677652678,,-0.215220144186,-35.9287316581,25.8838130102
1588764819683721970,11322,1588764819683570279,,-0.214724497883,-35.8761824903,25.8406473131
1588764819689636330,11323,1588764819689519648,,-0.212607222287,-36.1113931356,25.9907847834
1588764819695764256,11324,1588764819695594345,,-0.214152014219,-36.3426619773,26.13358637
1588764819701622329,11325,1588764819701517607,,-0.212398774646,-36.5764659795,26.2821939431
1588764819704609050,11326,1588764819704525311,,-0.212313844879,-36.7976777595,26.4212960635
1588764819707577959,11327,1588764819707475654,,-0.212711232832,-36.7389309312,26.371251947
1588764819710490896,11328,1588764819710373407,,-0.211257905464,-36.6424328817,26.2925868651
1588764819713627779,11329,1588764819713510699,,-0.211318392401,-36.851652898,26.4262230369
1588764819719689793,11330,1588764819719561489,,-0.211600498063,-37.0101403294,26.5191166354
1588764819722485489,11331,1588764819722396341,,-0.211986750098,-36.9582177393,26.478377874
1588764819725644285,11332,1588764819725543820,,-0.211845371099,-37.1642871258,26.6119270177
1588764819728535570,11333,1588764819728446996,,-0.212351218151,-37.110848763,26.5678459198
1588764819731479150,11334,1588764819731407863,,-0.211494757617,-37.3088218421,26.6958938811
1588764819734564845,11335,1588764819734472074,,-0.211300340912,-37.2500390348,26.6501040006
1588764819737650703,11336,1588764819737544185,,-0.211236761163,-37.2568740403,26.6474411652
1588764819740442663,11337,1588764819740358805,,-0.208562445429,-37.3158571219,26.678183267
1588764819743484062,11338,1588764819743373258,,-0.209361074303,-37.1882531846,26.5739876309
1588764819746491448,11339,1588764819746392107,,-0.208365095249,-37.366712775,26.6875975399
1588764819749455909,11340,1588764819749347834,,-0.208445520171,-37.2989375248,26.6356214707
1588764819752414685,11341,1588764819752333902,,-0.209153083854,-37.4039906469,26.6868855823
1588764819755423710,11342,1588764819755327934,,-0.210165840279,-37.3340458114,26.6322107211
1588764819758452027,11343,1588764819758335435,,-0.206798594051,-37.4988665945,26.7396261806
1588764819761507165,11344,1588764819761325321,,-0.208182324721,-37.3531663947,26.6254674096
1588764819767591731,11345,1588764819767470553,,-0.206990807524,-37.3712423765,26.6152910717
1588764819770742366,11346,1588764819770631519,,-0.206081038877,-37.2986225536,26.5592578426
1588764819776445076,11347,1588764819776350545,,-0.205422523765,-37.3727407034,26.599913026
1588764819779502436,11348,1588764819779378291,,-0.205824051486,-37.5222298379,26.6945137898
1588764819782493717,11349,1588764819782418908,,-0.206565172852,-37.4466142721,26.6366121633
1588764819785381197,11350,1588764819785308036,,-0.205381644558,-37.5860637363,26.7258168152
1588764819788458011,11351,1588764819788386636,,-0.207131268179,-37.4325854519,26.6060127087
1588764819791684247,11352,1588764819791590394,,-0.207687355905,-37.5679925411,26.6890017336
1588764819794628881,11353,1588764819794512427,,-0.210252388254,-37.404887736,26.5666253899
1588764819797363497,11354,1588764819797223494,,-0.210678633692,-37.3256987435,26.5069178606
1588764819800464237,11355,1588764819800372032,,-0.213516999462,-37.3675413661,26.5207355862
1588764819803578345,11356,1588764819803464395,,-0.212192621421,-37.2819108657,26.4635394438
1588764819806582819,11357,1588764819806492114,,-0.213718188007,-37.3112711413,26.472429204
1588764819809544613,11358,1588764819809474728,,-0.215174755353,-37.2259685196,26.4066879498
1588764819812671440,11359,1588764819812519806,,-0.214374474355,-37.2442816409,26.4131550158
1588764819815576893,11360,1588764819815495006,,-0.214696901064,-37.1535469135,26.3520235331
1588764819818550084,11361,1588764819818461468,,-0.216976498502,-37.1699383019,26.3543575437
1588764819821269736,11362,1588764819821207490,,-0.218276409704,-37.0808868794,26.2900833643
1588764819824558492,11363,1588764819824485370,,-0.219699852291,-37.0911489757,26.2893786697
1588764819827655521,11364,1588764819827531757,,-0.219038702538,-37.0000836451,26.2246707766
1588764819830315650,11365,1588764819830225374,,-0.220240055599,-36.8184335531,26.0962337451
1588764819833310257,11366,1588764819833227733,,-0.221241094686,-36.9119277001,26.1514640011
1588764819836485373,11367,1588764819836409019,,-0.221295694919,-36.8209343442,26.0881410844
1588764819839559596,11368,1588764819839457304,,-0.223600172305,-36.9083739711,26.1408247783
1588764819842499660,11369,1588764819842428171,,-0.226969091562,-36.7243172307,26.0150527176
1588764819845549813,11370,1588764819845456195,,-0.228903349026,-36.8049796796,26.0688713786
1588764819848506573,11371,1588764819848423633,,-0.226233694685,-36.6146473467,25.9396507921
1588764819851508000,11372,1588764819851419619,,-0.223744193395,-36.6876278028,25.988726635
1588764819854430357,11373,1588764819854214518,,-0.22616917916,-36.4968806051,25.8524562326
1588764819857290454,11374,1588764819857130953,,-0.22740603826,-36.4002703874,25.7853123949
1588764819860369041,11375,1588764819860254044,,-0.2308876981,-36.3650767491,25.7531059382
1588764819863491448,11376,1588764819863421922,,-0.233139452459,-36.2650450465,25.681977706
1588764819866395628,11377,1588764819866315969,,-0.234997466093,-36.2249005693,25.6405921973
1588764819869449238,11378,1588764819869322297,,-0.236074712806,-36.1272423371,25.5668766754
1588764819872332105,11379,1588764819872276861,,-0.236646714753,-36.1788581922,25.5994692296
1588764819875582757,11380,1588764819875485300,,-0.239057626868,-35.9806790165,25.4573990633
1588764819878689665,11381,1588764819878581456,,-0.240713791542,-36.0270676217,25.484646489
1588764819881629318,11382,1588764819881529807,,-0.240876577769,-35.9281539788,25.4158762947
1588764819887617313,11383,1588764819887541413,,-0.240225541239,-35.8666883525,25.3701851041
1588764819890533900,11384,1588764819890454229,,-0.239384521023,-35.7614412658,25.3002061392
1588764819893407529,11385,1588764819893340281,,-0.240574982453,-35.8031057376,25.3228058956
1588764819896657100,11386,1588764819896571521,,-0.240081106721,-35.6948150395,25.2523348784
1588764819899615838,11387,1588764819899540034,,-0.239659498077,-35.7224652633,25.2726447825
1588764819902817018,11388,1588764819902675040,,-0.242426079418,-35.6212730259,25.1973277142
1588764819908635704,11389,1588764819908563168,,-0.24321107059,-35.6399286022,25.2084869314
1588764819911488566,11390,1588764819911413117,,-0.244654224059,-35.6646353456,25.2195858552
1588764819914396938,11391,1588764819914329512,,-0.244420841093,-35.59164114,25.161608646
1588764819917464556,11392,1588764819917239508,,-0.246580987132,-35.4841395931,25.0839817742
1588764819920253702,11393,1588764819920186691,,-0.248196722686,-35.4877345982,25.0815538389
1588764819923691854,11394,1588764819923630004,,-0.247310863869,-35.4159599327,25.0262570403
1588764819929357176,11395,1588764819929280460,,-0.253450480919,-35.3133421005,24.9570276589
1588764819932239561,11396,1588764819932167177,,-0.255154764438,-35.3247311447,24.9653431254
1588764819935424643,11397,1588764819935345563,,-0.25996126262,-35.1350338892,24.8431361194
1588764819938370072,11398,1588764819938281274,,-0.260710002765,-35.1453014404,24.8479666013
1588764819941507292,11399,1588764819941435460,,-0.25860367256,-35.0473027955,24.7854967174
1588764819947715544,11400,1588764819947644415,,-0.258775245377,-34.952092557,24.7166228939
1588764819950719681,11401,1588764819950555997,,-0.258127373519,-34.8491656984,24.6490090511
1588764819953569556,11402,1588764819953498054,,-0.258636192866,-34.8413732836,24.6410318262
1588764819956608404,11403,1588764819956528972,,-0.260509671103,-34.7378755603,24.5680113565
1588764819959557467,11404,1588764819959402424,,-0.261216178295,-34.7165233498,24.5517921693
1588764819962613439,11405,1588764819962550809,,-0.263073256342,-34.6115638778,24.4783682868
1588764819965639697,11406,1588764819965517541,,-0.26438326674,-34.5812540875,24.4572255401
1588764819968338643,11407,1588764819968284823,,-0.265877392822,-34.4735570328,24.3809632832
1588764819971332415,11408,1588764819971289691,,-0.267138957172,-34.4392582898,24.3524322489
1588764819974389808,11409,1588764819974295124,,-0.268320747984,-34.3303874303,24.2760438073
1588764819977454700,11410,1588764819977391036,,-0.266006845379,-34.2197386176,24.2041879531
1588764819980425860,11411,1588764819980330624,,-0.268409154712,-34.1772587577,24.1722518531
1588764819983497156,11412,1588764819983427318,,-0.268271814209,-34.0682057517,24.1003500574
1588764819986445128,11413,1588764819986363502,,-0.26796894716,-34.0215773793,24.0707447181
1588764819989526488,11414,1588764819989432605,,-0.268232828547,-33.9103142905,24.0001154764
1588764819992433077,11415,1588764819992359436,,-0.268016695245,-33.8613358818,23.9676950057
1588764819995290802,11416,1588764819995208586,,-0.269538324048,-33.7556440597,23.8965969773
1588764819998207307,11417,1588764819998146250,,-0.266487618384,-33.7322328474,23.8806864971
1588764820001290077,11418,1588764820001214611,,-0.268014981648,-33.624800607,23.8075878618
1588764820007397747,11419,1588764820007324549,,-0.266052011985,-33.4739839336,23.704768567
1588764820010692147,11420,1588764820010558637,,-0.266882579259,-33.3714903397,23.6362969988
1588764820013501110,11421,1588764820013420319,,-0.27021302202,-33.292358305,23.5809008336
1588764820016678636,11422,1588764820016547464,,-0.268720181027,-33.1935251292,23.5157128337
1588764820019371476,11423,1588764820019292418,,-0.269372081699,-33.1359720093,23.4759411185
1588764820022291766,11424,1588764820022219167,,-0.268535404145,-33.0365099571,23.4085569539
1588764820025442275,11425,1588764820025357680,,-0.266658712471,-32.9723954181,23.3629995098
1588764820028282336,11426,1588764820028218593,,-0.265243138017,-32.8757953695,23.2937096901
1588764820031456543,11427,1588764820031321578,,-0.26127444406,-32.7984814357,23.2445984553
1588764820034232112,11428,1588764820034092452,,-0.258905479152,-32.6975365792,23.1778769005
1588764820037335718,11429,1588764820037190725,,-0.255582283747,-32.5933498695,23.110106431
1588764820040267179,11430,1588764820040183131,,-0.253433659365,-32.5098032208,23.05801002
1588764820043255272,11431,1588764820043110293,,-0.249539060628,-32.4065277631,22.9916550073
1588764820046302383,11432,1588764820046166578,,-0.247064266297,-32.3138838158,22.9344450759
1588764820049211410,11433,1588764820049148691,,-0.24513632382,-32.2090009842,22.8648353012
1588764820052179127,11434,1588764820052106556,,-0.241129799504,-32.1129140117,22.8009765278
1588764820055328208,11435,1588764820055191537,,-0.240254106202,-32.0119187847,22.728340793
1588764820058219767,11436,1588764820058154988,,-0.238108451139,-31.9073176102,22.6602048572
1588764820061145394,11437,1588764820061082465,,-0.235064335118,-31.7981922566,22.5854745324
1588764820067201422,11438,1588764820067127676,,-0.232632728039,-31.5792500243,22.4358690631
1588764820070216877,11439,1588764820070103674,,-0.228935551529,-31.4647517248,22.3602756012
1588764820073190766,11440,1588764820073127885,,-0.228587462911,-31.3472822322,22.2788883963
1588764820076273489,11441,1588764820076203619,,-0.224073709826,-31.237261328,22.205405906
1588764820079229061,11442,1588764820079151373,,-0.220960748359,-31.1119004682,22.1231256161
1588764820082219762,11443,1588764820082149577,,-0.216119479852,-31.0012533735,22.0518240731
1588764820085408650,11444,1588764820085334161,,-0.212369640728,-30.8747361659,21.969994258
1588764820088272236,11445,1588764820088211912,,-0.207939845054,-30.7982770278,21.9151674428
1588764820091228524,11446,1588764820091168008,,-0.20355412443,-30.6692986777,21.8317062722
1588764820094195213,11447,1588764820094125129,,-0.19952618443,-30.553260147,21.7576750729
1588764820097656859,11448,1588764820097587080,,-0.195601994873,-30.2972278047,21.5828679589
1588764820100437864,11449,1588764820100335440,,-0.193480176321,-30.359328361,21.6262209916
1588764820103491053,11450,1588764820103384213,,-0.191204625763,-30.2537650289,21.5589091948
1588764820109429369,11451,1588764820109346815,,-0.188189800677,-30.135700023,21.4784204229
1588764820112626286,11452,1588764820112556503,,-0.186305379099,-30.0138563364,21.3888023388
1588764820115737534,11453,1588764820115609979,,-0.179914693206,-29.9267756471,21.3253105205
1588764820118545025,11454,1588764820118468421,,-0.177655519238,-29.7995856762,21.2380435043
1588764820121523335,11455,1588764820121462431,,-0.177250950997,-29.70692162,21.1682446512
1588764820124989959,11456,1588764820124815820,,-0.175857529249,-29.5643492976,21.0626697478
1588764820130477736,11457,1588764820130401414,,-0.169394257888,-29.4733099772,21.0001833189
1588764820133511748,11458,1588764820133440102,,-0.165468516124,-29.31227792,20.891688986
1588764820136543487,11459,1588764820136445659,,-0.162007313494,-29.2113820118,20.8243303038
1588764820139510405,11460,1588764820139448455,,-0.158866478846,-29.0754944615,20.7341393101
1588764820142513617,11461,1588764820142431318,,-0.154051683334,-28.965221024,20.6636787114
1588764820145533268,11462,1588764820145482951,,-0.143409298736,-28.7852147372,20.5532279359
1588764820148649102,11463,1588764820148538446,,-0.136008144599,-28.7070865677,20.505190004
1588764820151588093,11464,1588764820151497555,,-0.129983592253,-28.5295220565,20.4001614167
1588764820154583821,11465,1588764820154476718,,-0.128134538157,-28.4164573051,20.3323902867
1588764820157695845,11466,1588764820157634907,,-0.123846382935,-28.2494887514,20.2281651311
1588764820160639316,11467,1588764820160550042,,-0.113251923104,-28.1614555181,20.1753919427
1588764820163642919,11468,1588764820163533394,,-0.109722997135,-28.0703375875,20.1156949468
1588764820166525248,11469,1588764820166459400,,-0.107098370977,-27.9059363986,20.006490634
1588764820169580045,11470,1588764820169518455,,-0.10172890231,-27.8155028135,19.9474139136
1588764820172570461,11471,1588764820172497340,,-0.100211074504,-27.644397856,19.8248897115
1588764820175710304,11472,1588764820175579152,,-0.0886856311979,-27.5602380726,19.7639546604
1588764820178500330,11473,1588764820178436590,,-0.0840454530411,-27.383177907,19.6435372324
1588764820181589400,11474,1588764820181493445,,-0.0807088256052,-27.2884228293,19.5789760305
1588764820187615543,11475,1588764820187516149,,-0.0778137864372,-27.0352722755,19.3960918993
1588764820190516857,11476,1588764820190372166,,-0.0680124595377,-26.9356823715,19.325632674
1588764820193674892,11477,1588764820193570155,,-0.0626383450035,-26.7712773279,19.2138902905
1588764820196641974,11478,1588764820196569466,,-0.060061790411,-26.6709207366,19.1522309225
1588764820199238418,11479,1588764820199192448,,-0.0603537075264,-26.4692013517,19.017564488
1588764820202270798,11480,1588764820202201005,,-0.0565396224267,-26.3774807719,18.9634512989
1588764820205246766,11481,1588764820205177865,,-0.0532125456612,-26.182735874,18.8398019613
1588764820208426701,11482,1588764820208315825,,-0.0499682609378,-26.0946142978,18.7844526596
1588764820211167830,11483,1588764820211124748,,-0.0451997349962,-25.8959173447,18.6569194787
1588764820214807073,11484,1588764820214712502,,-0.0319848535063,-25.8159424749,18.6010846577
1588764820217826244,11485,1588764820217766841,,-0.0249732512578,-25.4738884335,18.3812290106
1588764820220706396,11486,1588764820220628905,,-0.0179652612146,-25.5145889003,18.4155352975
1588764820224261981,11487,1588764820224162691,,-0.0152567243205,-25.173783301,18.1857595323
1588764820229669048,11488,1588764820229613592,,-0.0129754471255,-25.2172396347,18.2139937447
1588764820232250196,11489,1588764820232183905,,-0.00888026008833,-25.0310821315,18.0904134957
1588764820235293983,11490,1588764820235233358,,0.0130818844711,-24.9537977654,18.0347645867
1588764820238657597,11491,1588764820238590266,,0.0183221326805,-24.7302946618,17.8855493401
1588764820241593951,11492,1588764820241533523,,0.0185089976655,-24.6607323378,17.8392742722
1588764820247261414,11493,1588764820247208995,,0.0246553754237,-24.3574031276,17.6298117009
1588764820250260799,11494,1588764820250178259,,0.0223787796969,-24.2729688512,17.5778339843
1588764820253181011,11495,1588764820253132974,,0.0254322212168,-24.0569993943,17.4393729022
1588764820256426178,11496,1588764820256353477,,0.0251610202189,-23.9839936273,17.3866574099
1588764820259341802,11497,1588764820259261206,,0.0261154306003,-23.7638334766,17.2432144681
1588764820262348065,11498,1588764820262280981,,0.0326928459183,-23.6830356424,17.1972201066
1588764820265270889,11499,1588764820265154361,,0.0598252241466,-23.4823860647,17.0520901486
1588764820268194453,11500,1588764820268132845,,0.0692156986407,-23.3956347977,16.994380629
1588764820271338854,11501,1588764820271256263,,0.0748544212361,-23.1589312904,16.8425076818
1588764820274216608,11502,1588764820274140145,,0.0808617278795,-23.0774856026,16.7847683458
1588764820277775915,11503,1588764820277700708,,0.0834321281533,-22.7232717809,16.5492352118
1588764820280643973,11504,1588764820280534671,,0.0853872487401,-22.7436475577,16.5746121586
1588764820283648898,11505,1588764820283552378,,0.0878233832099,-22.6515964053,16.5185609559
1588764820286576788,11506,1588764820286513944,,0.0912473499098,-22.4100332569,16.3623039213
1588764820289492733,11507,1588764820289398121,,0.0962102274006,-22.3167901111,16.3038928841
1588764820292502123,11508,1588764820292434063,,0.103561824469,-22.0682076065,16.1410558214
1588764820295560716,11509,1588764820295473606,,0.113780827158,-21.9783172795,16.0831754308
1588764820298776451,11510,1588764820298666060,,0.144165577277,-21.7554722968,15.9243061119
1588764820301757858,11511,1588764820301642950,,0.158712361881,-21.6618023182,15.871724481
1588764820307667347,11512,1588764820307582713,,0.169148593957,-21.3254827872,15.6548969442
1588764820310607072,11513,1588764820310532158,,0.171672076667,-21.2460541711,15.6029094473
1588764820313600645,11514,1588764820313514419,,0.170354254578,-20.9961510705,15.4411001583
1588764820316678496,11515,1588764820316601858,,0.171930885973,-20.9249573512,15.3908907566
1588764820319683631,11516,1588764820319581068,,0.173991886417,-20.6918655833,15.2295659672
1588764820322585007,11517,1588764820322511072,,0.173679023996,-20.6489889394,15.1912055494
1588764820325733665,11518,1588764820325650735,,0.173750200643,-20.4097779884,15.0299543553
1588764820328676985,11519,1588764820328562719,,0.177885374732,-20.3412766423,14.9850888342
1588764820331765903,11520,1588764820331624192,,0.180195062259,-20.126012022,14.8337767896
1588764820334660524,11521,1588764820334568144,,0.215109057756,-20.0927491946,14.8019491447
1588764820337737607,11522,1588764820337683883,,0.223093635922,-19.7415310932,14.569193144
1588764820340721822,11523,1588764820340614552,,0.225248724799,-19.7779838628,14.5954069199
1588764820343649183,11524,1588764820343567684,,0.232573314846,-19.7238837714,14.5562899661
1588764820349407230,11525,1588764820349301636,,0.23209933697,-19.4810834561,14.3931575573
1588764820352444480,11526,1588764820352357731,,0.230410809837,-19.2242781328,14.227632636
1588764820355444032,11527,1588764820355330713,,0.234717593639,-19.1565579948,14.1865629196
1588764820358406384,11528,1588764820358329337,,0.238545379762,-18.9044908198,14.0181940107
1588764820361562407,11529,1588764820361436470,,0.241813028613,-18.8251904691,13.9724250172
1588764820367654171,11530,1588764820367563357,,0.255737741766,-18.4873916517,13.7546743769
1588764820370787488,11531,1588764820370713779,,0.263563134075,-18.4100442556,13.7097093504
1588764820373737015,11532,1588764820373558080,,0.270324715719,-18.1338658611,13.5373922781
1588764820376799700,11533,1588764820376689543,,0.279980048974,-18.0494846922,13.4998905688
1588764820379615119,11534,1588764820379525117,,0.288355404484,-17.7793851438,13.3218248045
1588764820382506190,11535,1588764820382424798,,0.328859871847,-17.7256681492,13.284835022
1588764820385663449,11536,1588764820385519989,,0.342089962284,-17.4478534442,13.1101887169
1588764820388577603,11537,1588764820388503857,,0.345545782307,-17.3682257503,13.0589638104
1588764820391797483,11538,1588764820391712482,,0.352837420438,-17.1089486894,12.8823088826
1588764820394713173,11539,1588764820394581636,,0.354476408162,-17.0401882369,12.8388270993
1588764820397374375,11540,1588764820397226800,,0.349788896491,-16.9737712021,12.7884865079
1588764820400755866,11541,1588764820400660179,,0.353575451106,-16.7191518847,12.6182581171
1588764820403659003,11542,1588764820403581807,,0.355531976791,-16.6680346943,12.5808875361
1588764820406735858,11543,1588764820406648300,,0.354328536102,-16.4174492652,12.4079938208
1588764820409761512,11544,1588764820409666508,,0.358853747718,-16.3693425385,12.377465652
1588764820412514699,11545,1588764820412427785,,0.362568898426,-16.1332835956,12.2154223655
1588764820415740828,11546,1588764820415636442,,0.365792446676,-16.0918263416,12.1835817428
1588764820418580635,11547,1588764820418404117,,0.369718544522,-15.8327107698,12.0185607349
1588764820421601601,11548,1588764820421512916,,0.373897341749,-15.7970737983,11.996870942
1588764820424988079,11549,1588764820424898043,,0.379207992016,-15.539402378,11.8300558377
1588764820430815515,11550,1588764820430685392,,0.384574965368,-15.4878989492,11.8025634785
1588764820433647264,11551,1588764820433577922,,0.390117763336,-15.2314223878,11.6306391972
1588764820436629403,11552,1588764820436558748,,0.432357695147,-15.2188648899,11.6064249043
1588764820439731086,11553,1588764820439616727,,0.440103868866,-14.9537986046,11.4277968758
1588764820442651377,11554,1588764820442566548,,0.442775766547,-14.8976529921,11.388118336
1588764820445589402,11555,1588764820445512623,,0.446616737501,-14.6404273471,11.2019237357
1588764820448437668,11556,1588764820448362329,,0.445149327569,-14.5878202467,11.1624513671
1588764820451388856,11557,1588764820451290575,,0.443475636257,-14.3146675946,10.9837976727
1588764820454559875,11558,1588764820454484735,,0.447754129245,-14.2619699615,10.9465031697
1588764820457568368,11559,1588764820457471856,,0.451585402648,-14.2097200892,10.9102726114
1588764820460579481,11560,1588764820460501251,,0.455446661822,-13.9461902642,10.7391562099
1588764820463507621,11561,1588764820463373213,,0.464607862612,-13.8849411808,10.7088015415
1588764820466759259,11562,1588764820466641277,,0.473213889901,-13.6098358723,10.5364927742
1588764820469692314,11563,1588764820469615955,,0.480315290129,-13.5664668011,10.5183211408
1588764820472588668,11564,1588764820472520680,,0.488766154902,-13.2953965077,10.3548073578
1588764820475565600,11565,1588764820475481013,,0.497409002176,-13.2428207024,10.3356737527
1588764820478448579,11566,1588764820478370117,,0.503273260353,-12.9785207437,10.1698920766
1588764820481499012,11567,1588764820481385436,,0.508597084814,-12.9362875899,10.1492494095
1588764820487516193,11568,1588764820487431586,,0.515793867568,-12.6480710389,9.96060293844
1588764820490609203,11569,1588764820490508536,,0.518775493417,-12.6157122643,9.93735126667
1588764820493531343,11570,1588764820493443916,,0.519842331268,-12.3688012477,9.7660231368
1588764820496758596,11571,1588764820496647641,,0.52153964757,-12.3430045776,9.73974529078
1588764820499607593,11572,1588764820499539459,,0.564385164906,-12.1338232471,9.57681802137
1588764820502606527,11573,1588764820502475879,,0.569174586311,-12.0996819029,9.5535800824
1588764820505562378,11574,1588764820505427165,,0.570629813651,-11.8433559169,9.37962614347
1588764820508551761,11575,1588764820508475278,,0.572904875187,-11.8078192091,9.35228861312
1588764820511784224,11576,1588764820511715411,,0.571095805388,-11.5567614795,9.18328045612
1588764820514668329,11577,1588764820514550177,,0.572447887745,-11.5187549226,9.16381640648
1588764820517871452,11578,1588764820517701839,,0.578059257843,-11.4847189648,9.14655819571
1588764820520647222,11579,1588764820520549366,,0.583191093904,-11.2305082947,8.98291673909
1588764820524068337,11580,1588764820523991434,,0.588601573018,-11.196757412,8.96796900902
1588764820529330325,11581,1588764820529226570,,0.596192923254,-10.9420980985,8.80933567999
1588764820532383361,11582,1588764820532323729,,0.601460802959,-10.6890562503,8.64778945712
1588764820535243899,11583,1588764820535185891,,0.606847260581,-10.6561723049,8.63258619193
1588764820538275399,11584,1588764820538193140,,0.612161818917,-10.4058886739,8.4741679749
1588764820541385125,11585,1588764820541311578,,0.618108024541,-10.3747347912,8.45818730895
1588764820547477591,11586,1588764820547400950,,0.627837880804,-10.0989461979,8.27597571009
1588764820550442807,11587,1588764820550339197,,0.630692864008,-10.0745610721,8.2546025388
1588764820553273801,11588,1588764820553193480,,0.633370722238,-9.83637549697,8.09247443531
1588764820556315968,11589,1588764820556233136,,0.637641381081,-9.80756023649,8.07662646846
1588764820559339873,11590,1588764820559265759,,0.641096970096,-9.56687076098,7.91877202521
1588764820562275836,11591,1588764820562208267,,0.643445184834,-9.54824372612,7.90584308139
1588764820565583032,11592,1588764820565514632,,0.64746842003,-9.3127084185,7.75076121596
1588764820568302893,11593,1588764820568226169,,0.652570532204,-9.28915113844,7.73942745597
1588764820571664345,11594,1588764820571552550,,0.655538331358,-9.05790283888,7.58525197126
1588764820574699957,11595,1588764820574583455,,0.660530561425,-9.03825583406,7.57632502247
1588764820577891670,11596,1588764820577753923,,0.66566914212,-9.01791245915,7.56745162984
1588764820583829255,11597,1588764820583702615,,0.670009767075,-8.79044416761,7.41959269965
1588764820586660541,11598,1588764820586534694,,0.675287818222,-8.5654082957,7.27208333555
1588764820589829805,11599,1588764820589664620,,0.718294097847,-8.5844837597,7.2706789525
1588764820592802278,11600,1588764820592664315,,0.725325887168,-8.35592612592,7.12248862746
1588764820595784239,11601,1588764820595675409,,0.730109221407,-8.33165763135,7.10707176102
1588764820598696229,11602,1588764820598568892,,0.730907978574,-8.1076022805,6.95005941093
1588764820601699169,11603,1588764820601616772,,0.729068910131,-8.09516081408,6.9368595481
1588764820607857739,11604,1588764820607734619,,0.733046754933,-7.86422775891,6.78586193755
1588764820610749322,11605,1588764820610649612,,0.732925683031,-7.84905439758,6.77697622415
1588764820613665191,11606,1588764820613573910,,0.735813231492,-7.63949283819,6.63842898573
1588764820616637440,11607,1588764820616557796,,0.73912700254,-7.62599090739,6.63236365795
1588764820619666340,11608,1588764820619553541,,0.738947501575,-7.41654928307,6.49516123567
1588764820622631578,11609,1588764820622525369,,0.742559412852,-7.40405824595,6.49384486344
1588764820625827333,11610,1588764820625730168,,0.744483379652,-7.20166525334,6.36301937094
1588764820628664245,11611,1588764820628584140,,0.747318047502,-7.18871569971,6.36070257371
1588764820631594473,11612,1588764820631520867,,0.748458138036,-6.99129650129,6.22812860181
1588764820634720547,11613,1588764820634615817,,0.750755689624,-6.98336757492,6.2220247231
1588764820637788416,11614,1588764820637698434,,0.753676014112,-6.7669995865,6.07787421565
1588764820640612343,11615,1588764820640518825,,0.7548401273,-6.78474076478,6.08543448227
1588764820643785037,11616,1588764820643707040,,0.757301470284,-6.77864148531,6.080468191
1588764820646476684,11617,1588764820646401361,,0.75938285959,-6.58964848305,5.9538619733
1588764820649302708,11618,1588764820649217773,,0.761171450564,-6.5862624171,5.94919780726
1588764820652615729,11619,1588764820652532344,,0.764073346636,-6.40128187969,5.82519337314
1588764820655515667,11620,1588764820655392784,,0.766233003898,-6.39826337551,5.82293111179
1588764820658325490,11621,1588764820658250582,,0.768987244787,-6.21820018771,5.70439317565
1588764820661342697,11622,1588764820661250248,,0.772756015526,-6.21299859392,5.70570854725
1588764820667348991,11623,1588764820667228592,,0.778591896932,-6.03453273927,5.59302697004
1588764820670515382,11624,1588764820670431672,,0.781449098887,-6.03108606851,5.59296757926
1588764820673320915,11625,1588764820673227575,,0.784528154113,-5.86049072078,5.48162934841
1588764820676290679,11626,1588764820676219758,,0.789486843418,-5.85873477148,5.48371980561
1588764820679442868,11627,1588764820679342095,,0.793568608309,-5.69466541923,5.37483572088
1588764820685679314,11628,1588764820685583597,,0.798274594878,-5.53669409798,5.27199193373
1588764820688651634,11629,1588764820688547532,,0.80308985274,-5.53585981095,5.27374592904
1588764820694788986,11630,1588764820694701036,,0.808889057191,-5.38316569199,5.17671349955
1588764820698105677,11631,1588764820698003340,,0.813060912249,-5.2352722965,5.08082405089
1588764820704127917,11632,1588764820703895709,,0.818199929622,-5.23517475998,5.0853230037
1588764820709657329,11633,1588764820709584181,,0.824734927596,-5.09466904778,4.99751284516
1588764820712704898,11634,1588764820712621242,,0.830143217983,-4.95884656376,4.91190677019
1588764820715728903,11635,1588764820715650524,,0.836805531109,-4.95929542575,4.91956446956
1588764820718633946,11636,1588764820718552586,,0.842858615764,-4.82983428106,4.83872843453
1588764820721606804,11637,1588764820721536981,,0.849153425216,-4.83077828582,4.8460095548
1588764820724975202,11638,1588764820724882141,,0.85497729503,-4.70718540727,4.76838676608
1588764820730721951,11639,1588764820730591827,,0.859734771387,-4.7096432378,4.77353966597
1588764820733737921,11640,1588764820733662161,,0.865094265134,-4.5934589459,4.70131892768
1588764820736649281,11641,1588764820736566059,,0.869801372141,-4.59410497633,4.70590412044
1588764820739673878,11642,1588764820739592116,,0.874412710868,-4.48540070403,4.6414117638
1588764820745606798,11643,1588764820745506780,,0.879724977333,-4.38183762443,4.57646843979
1588764820748621599,11644,1588764820748545384,,0.885153669618,-4.38399366061,4.58266180974
1588764820754832185,11645,1588764820754737409,,0.889751791627,-4.28919526234,4.52222261878
1588764820757942290,11646,1588764820757730963,,0.895050745689,-4.29231043883,4.52829035606
1588764820760589865,11647,1588764820760486086,,0.899134133982,-4.20446565007,4.47215370866
1588764820766563494,11648,1588764820766413275,,0.904599329598,-4.12495927852,4.42509425035
1588764820769578211,11649,1588764820769473812,,0.910062268545,-4.12981379331,4.43388884961
1588764820772716287,11650,1588764820772583417,,0.914881110203,-4.05775151217,4.39089961168
1588764820778547377,11651,1588764820778458920,,0.920331692006,-3.99446994411,4.35489082788
1588764820781537325,11652,1588764820781460486,,0.925253956018,-3.99651854913,4.36258147437
1588764820790887621,11653,1588764820790715752,,0.934387043198,-3.94731913859,4.34057258594
1588764820793595981,11654,1588764820793493164,,0.938637665801,-3.9023051552,4.31462577119
1588764820796718584,11655,1588764820796627384,,0.943100703375,-3.90884025197,4.32212413425
1588764820802644741,11656,1588764820802543702,,0.948902576654,-3.8740829817,4.30504707483
1588764820805550022,11657,1588764820805466946,,0.952946625796,-3.84971565038,4.29130963579
1588764820808499388,11658,1588764820808423418,,0.957154881669,-3.8573395427,4.29932317516
1588764820814862706,11659,1588764820814746011,,0.960693480574,-3.84169904575,4.28983003534
1588764820818313633,11660,1588764820818211189,,0.962953977724,-3.84895761091,4.29620586461
1588764820824511827,11661,1588764820824415875,,0.968109007379,-3.84181891603,4.29635536407
1588764820829829182,11662,1588764820829678306,,0.971213099302,-3.84291935843,4.30003509102
1588764820832791327,11663,1588764820832698566,,0.974263634756,-3.85013334746,4.30696156107
1588764820835864473,11664,1588764820835754815,,0.978746828468,-3.85837691293,4.31693710427
1588764820838826510,11665,1588764820838717388,,0.982589692708,-3.8613427496,4.3279978749
1588764820841849544,11666,1588764820841742236,,0.986536552848,-3.86939739891,4.3365823126
1588764820851113910,11667,1588764820850936953,,0.993431331312,-3.87132218946,4.36311821038
1588764820856770406,11668,1588764820856671862,,0.996611106907,-3.85573653711,4.38780378802
1588764820859801868,11669,1588764820859698704,,0.999502507591,-3.82919650136,4.41773003098
1588764820862798581,11670,1588764820862711694,,1.00164266385,-3.83671872592,4.4238698936
1588764820865771044,11671,1588764820865670879,,1.00484810319,-3.80114797672,4.46123195573
1588764820872225517,11672,1588764820872114707,,1.00805974987,-3.75677178942,4.50318439305
1588764820878186018,11673,1588764820878092204,,1.01026429964,-3.70219566343,4.55124444569
1588764820883751139,11674,1588764820883669329,,1.0124729055,-3.70974212786,4.55716673575
1588764820886677555,11675,1588764820886608443,,1.01545807382,-3.64701281155,4.61226298387
1588764820889713863,11676,1588764820889646019,,1.01806934996,-3.65531939031,4.61862847246
1588764820892683051,11677,1588764820892549220,,1.01963002497,-3.58244383123,4.67766113617
1588764820895767776,11678,1588764820895676133,,1.0234660739,-3.59287728287,4.68662212677
1588764820898675538,11679,1588764820898585732,,1.02599394321,-3.51172120497,4.75145726204
1588764820901703462,11680,1588764820901577098,,1.02956212069,-3.52026952629,4.75977259896
1588764820907932066,11681,1588764820907809770,,1.03164589961,-3.4315265151,4.83177208604
1588764820910874691,11682,1588764820910784296,,1.0339200099,-3.43808045166,4.83718309129
1588764820916707627,11683,1588764820916630569,,1.03591791151,-3.341524948,4.91475231083
1588764820919703086,11684,1588764820919586605,,1.03797296751,-3.23333962638,4.99689694717
1588764820922667731,11685,1588764820922564645,,1.04038001418,-3.24077435837,5.00300847948
1588764820925681206,11686,1588764820925611461,,1.04220197176,-3.12454838902,5.0897854609
1588764820931769243,11687,1588764820931684282,,1.04499631505,-3.00004556517,5.18268972755
1588764820934642465,11688,1588764820934544358,,1.04691747749,-3.00794943779,5.18871532696
1588764820940719580,11689,1588764820940629079,,1.04891760278,-2.87703908435,5.28554351732
1588764820943848687,11690,1588764820943742260,,1.0507825889,-2.88468455099,5.29129037857
1588764820949564632,11691,1588764820949422408,,1.0532992099,-2.74523109145,5.39436424519
1588764820952544094,11692,1588764820952464569,,1.05548125555,-2.59837754993,5.50186751264
1588764820955607626,11693,1588764820955491961,,1.05885093322,-2.60572001964,5.5088259462
1588764820958562250,11694,1588764820958447135,,1.06088018299,-2.45069749016,5.61944094662
1588764820967754207,11695,1588764820967485370,,1.06576917744,-2.29557345589,5.74005851725
1588764820970479329,11696,1588764820970403375,,1.0683471791,-2.30113260546,5.74271044506
1588764820973504935,11697,1588764820973421652,,1.07192569864,-2.13009323639,5.86544562069
1588764820979696111,11698,1588764820979597733,,1.07411020169,-1.95117656128,5.98987417524
1588764820982573617,11699,1588764820982489092,,1.07776033081,-1.95858695182,5.99497894034
1588764820988575993,11700,1588764820988466477,,1.08033715807,-1.77500241393,6.12447159344
1588764820992000268,11701,1588764820991907099,,1.08317019807,-1.58240798966,6.25868843375
1588764820994573915,11702,1588764820994486870,,1.0858007287,-1.59018545522,6.26070165202
1588764821000657202,11703,1588764821000480011,,1.08898702762,-1.39255165684,6.40027617578
1588764821003570912,11704,1588764821003487088,,1.09085012283,-1.39946227019,6.40032308335
1588764821006502789,11705,1588764821006423905,,1.09279320186,-1.19566092587,6.54379776315
1588764821012598190,11706,1588764821012528390,,1.0955696657,-0.982949873003,6.68916940381
1588764821015446987,11707,1588764821015373462,,1.09690404037,-0.993315650338,6.69055523035
1588764821018523374,11708,1588764821018460789,,1.09930973193,-0.77479233752,6.84065701446
1588764821024983582,11709,1588764821024914676,,1.10145856096,-0.550835955174,6.99464770579
1588764821027865182,11710,1588764821027766578,,1.10290678537,-0.558798664633,6.99354073083
1588764821030570591,11711,1588764821030460940,,1.10543146334,-0.566442343027,6.99339914083
1588764821036518254,11712,1588764821036452397,,1.10819962951,-0.33632554735,7.14961124833
1588764821039621777,11713,1588764821039543704,,1.11095592348,-0.10168300763,7.31094111282
1588764821042743553,11714,1588764821042627330,,1.11249096093,-0.110501430118,7.30916747063
1588764821048500552,11715,1588764821048443990,,1.11548690585,0.13093680018,7.47301491391
1588764821051696828,11716,1588764821051628042,,1.11830771976,0.376594702057,7.64026533425
1588764821054660215,11717,1588764821054500927,,1.12031013021,0.367306945417,7.63720117468
1588764821060789451,11718,1588764821060672557,,1.12306882736,0.619471505554,7.80896747562
1588764821063754976,11719,1588764821063665208,,1.12570908664,0.609392869286,7.8056391798
1588764821066536002,11720,1588764821066436425,,1.12862954685,0.864737108509,7.97909648104
1588764821072917432,11721,1588764821072821060,,1.13051562488,1.12659490077,8.15479131309
1588764821075827562,11722,1588764821075733860,,1.13332570424,1.11565096494,8.15031065362
1588764821081787027,11723,1588764821081707541,,1.13568698884,1.38001105153,8.32975524941
1588764821084745516,11724,1588764821084673842,,1.13842763833,1.6497222069,8.51132203485
1588764821087941331,11725,1588764821087843787,,1.1408825957,1.63753969907,8.50879734019
1588764821090970028,11726,1588764821090867350,,1.14344433224,1.62602025576,8.50175761866
1588764821096724145,11727,1588764821096651851,,1.14565719828,1.90000524814,8.6861039017
1588764821099764956,11728,1588764821099675777,,1.14777208,2.17796574004,8.87370334764
1588764821105927988,11729,1588764821105787922,,1.15047035851,2.46214615317,9.0653709179
1588764821108795972,11730,1588764821108694012,,1.15157597749,2.44489040746,9.05504213293
1588764821111754425,11731,1588764821111661453,,1.15325365469,2.73244942863,9.246372262
1588764821114721869,11732,1588764821114624420,,1.15561675888,2.71728896837,9.24126362669
1588764821120723308,11733,1588764821120641569,,1.15829944607,3.00838635095,9.43608807366
1588764821124276096,11734,1588764821124164884,,1.16041375091,2.99115623887,9.42552177131
1588764821129636663,11735,1588764821129549997,,1.16235239117,3.28671846113,9.62318844801
1588764821132678726,11736,1588764821132586981,,1.16531189539,3.5860875989,9.82324690663
1588764821135661037,11737,1588764821135565172,,1.16795460058,3.56938139907,9.81226639073
1588764821138669535,11738,1588764821138578376,,1.17089006206,3.87003328632,10.0152193713
1588764821144953398,11739,1588764821144855154,,1.17242805719,4.17587789809,10.2182461205
1588764821147708903,11740,1588764821147623580,,1.17457080501,4.15809337551,10.2051945625
1588764821153719859,11741,1588764821153626698,,1.17741221311,4.46645207354,10.4117672066
1588764821156749866,11742,1588764821156671805,,1.17924372371,4.45018528303,10.3989325405
1588764821159899419,11743,1588764821159767349,,1.18212548707,4.76188811602,10.6069549943
1588764821165656577,11744,1588764821165555802,,1.18507581717,5.07675104671,10.8166144701
1588764821168590840,11745,1588764821168505492,,1.18701537603,5.05687709545,10.8030190288
1588764821172098356,11746,1588764821171972888,,1.18859486637,5.37334803954,11.0115509037
1588764821180751810,11747,1588764821180648171,,1.19247180293,5.67094338315,11.2102149095
1588764821183904443,11748,1588764821183824044,,1.19431319824,5.65037763961,11.1959215235
1588764821189747152,11749,1588764821189674367,,1.19667529914,5.97157787879,11.4093841867
1588764821192816241,11750,1588764821192715001,,1.19883084389,6.29562701746,11.6264853906
1588764821195738948,11751,1588764821195645762,,1.20119978485,6.27347239321,11.6084519467
1588764821201899377,11752,1588764821201805913,,1.20301847215,6.60105872221,11.8224655023
1588764821207690144,11753,1588764821207611609,,1.20833278924,6.91241773753,12.0252479308
1588764821213767968,11754,1588764821213697316,,1.21065102265,7.24637131246,12.2415568781
1588764821216745044,11755,1588764821216655685,,1.21303364703,7.22077770291,12.2225258304
1588764821219666295,11756,1588764821219582807,,1.21386297718,7.5585436772,12.4444873241
1588764821225837039,11757,1588764821225732842,,1.21632991478,7.89285361128,12.6647457866
1588764821228681301,11758,1588764821228608891,,1.21903718437,7.8674125764,12.6406020158
1588764821231957371,11759,1588764821231858764,,1.22087078704,8.20397308846,12.8663890277
1588764821237905963,11760,1588764821237683539,,1.22303576416,8.18302441382,12.8462992791
1588764821240585333,11761,1588764821240504634,,1.22534406727,8.52559101517,13.0737364057
1588764821243642583,11762,1588764821243570092,,1.22784502848,8.49991314841,13.0511910419
1588764821249600517,11763,1588764821249524447,,1.22959320003,8.84753666585,13.2826234797
1588764821252652817,11764,1588764821252560285,,1.23104882519,9.18904522662,13.5081617979
1588764821255571936,11765,1588764821255484206,,1.23298612766,9.15980936229,13.4849190163
1588764821261625738,11766,1588764821261555772,,1.23501110479,9.50635325881,13.7095951994
1588764821270916995,11767,1588764821270806627,,1.24123279781,9.82621127004,13.9170519101
1588764821273704222,11768,1588764821273641392,,1.24410944099,10.1755543437,14.1455648223
1588764821276813529,11769,1588764821276741901,,1.24603433761,10.1480035347,14.1220245573
1588764821282857404,11770,1588764821282775990,,1.24847928125,10.496436619,14.3507556831
1588764821285720045,11771,1588764821285642283,,1.25120409959,10.8439289447,14.5793155013
1588764821288795708,11772,1588764821288683116,,1.2530996267,10.8139379974,14.5500417118
1588764821294474988,11773,1588764821294366365,,1.25612111125,11.1650029944,14.7767426195
1588764821297756243,11774,1588764821297600386,,1.25777035275,11.1359091938,14.7497596391
1588764821300706004,11775,1588764821300615265,,1.26054895103,11.4834181454,14.9758597714
1588764821306664127,11776,1588764821306586165,,1.26376095094,11.8321898955,15.2019158079
1588764821309899704,11777,1588764821309756270,,1.26479026837,11.8045027459,15.1779619416
1588764821312651042,11778,1588764821312544738,,1.26645649697,12.1532283748,15.4023948393
1588764821318543958,11779,1588764821318478786,,1.26976545506,12.5019409145,15.629402399
1588764821321376581,11780,1588764821321307010,,1.27120400569,12.4614312314,15.6029133244
1588764821327694257,11781,1588764821327632974,,1.27313553467,12.8138921216,15.8298866447
1588764821330575124,11782,1588764821330498082,,1.27629553919,12.7775393029,15.8005164438
1588764821336393530,11783,1588764821336340021,,1.2786262932,13.128821188,16.030374417
1588764821339623267,11784,1588764821339555292,,1.28063594425,13.4835182762,16.2572539134
1588764821342454074,11785,1588764821342387636,,1.28374112301,13.4483378028,16.2268064272
1588764821345904230,11786,1588764821345802466,,1.28627476657,13.7962007988,16.4529562879
1588764821351839586,11787,1588764821351786815,,1.28848817999,14.1439639682,16.6764183576
1588764821354675486,11788,1588764821354612555,,1.29180588939,14.1072123208,16.6405648346
1588764821358029948,11789,1588764821357807316,,1.29676021948,14.0695484767,16.6054722438
1588764821361006695,11790,1588764821360803827,,1.29980604779,14.4176226938,16.8300860975
1588764821366762779,11791,1588764821366655814,,1.30161968304,14.7670255668,17.051075095
1588764821369624961,11792,1588764821369562094,,1.30354628871,14.724929926,17.0143707901
1588764821375742520,11793,1588764821375602476,,1.30773282804,15.0737330114,17.2394422808
1588764821378663638,11794,1588764821378578051,,1.31090201257,15.4202002943,17.4624842842
1588764821381686888,11795,1588764821381585066,,1.31348033622,15.3779852334,17.4255280608
1588764821387660268,11796,1588764821387544940,,1.31775204078,15.7250146084,17.6490495678
1588764821390608840,11797,1588764821390544505,,1.32105064353,15.6823287577,17.6111291066
1588764821393574495,11798,1588764821393486988,,1.32531467197,16.0285534438,17.8354467195
1588764821399772403,11799,1588764821399707287,,1.32965958388,16.3717623265,18.0578660063
1588764821402573502,11800,1588764821402507709,,1.33293487144,16.3275864112,18.0244329219
1588764821405623961,11801,1588764821405555156,,1.33666645351,16.6730011713,18.2461080432
1588764821411568978,11802,1588764821411506355,,1.34006618308,17.0091300933,18.4662157179
1588764821414567194,11803,1588764821414512495,,1.34173210088,16.9618193622,18.4280284928
1588764821423972380,11804,1588764821423892187,,1.34599996887,17.2556539311,18.5991805014
1588764821426998058,11805,1588764821426938298,,1.3495541378,17.5894766708,18.8159784482
1588764821429852182,11806,1588764821429762150,,1.35064905041,17.5378795749,18.7765810848
1588764821435670056,11807,1588764821435569326,,1.35164739474,17.8713626601,18.9918488815
1588764821438581112,11808,1588764821438518588,,1.35419669762,18.2007211931,19.2075165084
1588764821441694452,11809,1588764821441610460,,1.35423893237,18.1476821337,19.1612298122
1588764821447678175,11810,1588764821447597779,,1.35440872559,18.4758874202,19.373649484
1588764821450735769,11811,1588764821450612555,,1.35582791134,18.4263787974,19.3358347325
1588764821453663228,11812,1588764821453592376,,1.35688140589,18.7525678697,19.5445050333
1588764821459604337,11813,1588764821459521347,,1.35783967471,19.0708131477,19.7497988279
1588764821462942662,11814,1588764821462870264,,1.35785865139,19.0180702786,19.7125286156
1588764821465488791,11815,1588764821465374756,,1.35884549809,19.3353579443,19.9130138538
1588764821471439540,11816,1588764821471377149,,1.35934310062,19.6485009445,20.1103838557
1588764821474463702,11817,1588764821474331902,,1.35936524725,19.5879305944,20.0634937835
1588764821478022793,11818,1588764821477920085,,1.35961306577,19.9067855571,20.2651413644
1588764821483540348,11819,1588764821483482555,,1.35903287087,19.8537430511,20.2166395926
1588764821486529652,11820,1588764821486474671,,1.36033739101,20.1759255083,20.4213431763
1588764821492435612,11821,1588764821492387558,,1.3600124885,20.4937625862,20.6207498687
1588764821495391929,11822,1588764821495332371,,1.36188040898,20.4427404336,20.5704477604
1588764821498869614,11823,1588764821498746947,,1.36443823371,20.7686883989,20.7737107307
1588764821501870346,11824,1588764821501754266,,1.36852053926,20.7254001368,20.7286019026
1588764821507997573,11825,1588764821507838038,,1.37373667658,21.0539222142,20.9327674941
1588764821510975219,11826,1588764821510809555,,1.3815857906,21.0136811844,20.8941171193
1588764821513875708,11827,1588764821513737294,,1.38974641021,21.3428876934,21.0969840804
1588764821519922560,11828,1588764821519812081,,1.39837126411,21.6651063486,21.300509072
1588764821522872065,11829,1588764821522803397,,1.40629799197,21.6208145148,21.2620522202
1588764821529079674,11830,1588764821528919006,,1.41185001243,21.9364318019,21.4619814415
1588764821532317125,11831,1588764821532192046,,1.41768337665,22.2468332775,21.6615215493
1588764821535207336,11832,1588764821535100802,,1.42338115786,22.1962729392,21.6143005158
1588764821544311021,11833,1588764821544240303,,1.42918651049,22.6363931171,21.8899544185
1588764821547191143,11834,1588764821547104117,,1.43034699393,22.732796918,21.9388747805
1588764821553179945,11835,1588764821553061720,,1.43037434168,23.0171757491,22.117577143
1588764821556137452,11836,1588764821556059221,,1.43027151586,22.9449668052,22.0627164636
1588764821559022307,11837,1588764821558910887,,1.43008826572,23.2181648032,22.2363653994
1588764821568021435,11838,1588764821567958113,,1.42284670877,23.4169761021,22.3566390952
1588764821571308019,11839,1588764821571143161,,1.41893396853,23.6891662904,22.5326084745
1588764821577064471,11840,1588764821576989799,,1.41333655652,23.5982926159,22.4914295992
1588764821580007881,11841,1588764821579858685,,1.39850279337,23.8669392646,22.7333988824
1588764821583044428,11842,1588764821582949201,,1.39696175282,23.7983059294,22.6617107245
1588764821588732448,11843,1588764821588630919,,1.39543933357,24.0591832862,22.8296232931
1588764821591762695,11844,1588764821591695824,,1.3953166827,24.3261822346,23.0123474065
1588764821595031555,11845,1588764821594914561,,1.39871005989,24.286867108,22.9458231044
1588764821600977189,11846,1588764821600911473,,1.40298133987,24.5738167012,23.1272586674
1588764821603987182,11847,1588764821603921499,,1.4100988338,24.5208746695,23.0812253806
1588764821607006746,11848,1588764821606914754,,1.4165201518,24.823113267,23.2664135599
1588764821612914040,11849,1588764821612823179,,1.42508530296,25.1095165971,23.4530614246
1588764821615713358,11850,1588764821615656184,,1.43179337922,25.0565628078,23.4096195898
1588764821618580992,11851,1588764821618522082,,1.44193553891,25.3333884277,23.595439429
1588764821624881766,11852,1588764821624794050,,1.44937699096,25.6059043869,23.7633396409
1588764821628178714,11853,1588764821628117850,,1.45907039944,25.5485196227,23.7200377459
1588764821630929185,11854,1588764821630871695,,1.46622044891,25.4915733478,23.6698982118
1588764821636973276,11855,1588764821636818294,,1.47023644099,25.74933599,23.8224969453
1588764821639759794,11856,1588764821639682384,,1.47445703846,25.9964285593,23.97442671
1588764821645592130,11857,1588764821645513997,,1.47333762744,26.2341035042,24.1184560107
1588764821648587338,11858,1588764821648525229,,1.47419130393,26.1624540639,24.0509812269
1588764821651617830,11859,1588764821651554444,,1.47551147019,26.3924964891,24.1874395294
1588764821658103739,11860,1588764821657922774,,1.4748592457,26.3097954285,24.1220668315
1588764821660904409,11861,1588764821660830207,,1.47281788987,26.5245626976,24.2534151133
1588764821663870954,11862,1588764821663788947,,1.47203806217,26.4311950386,24.1903880153
1588764821669844350,11863,1588764821669772226,,1.46925546999,26.6246612182,24.3253206416
1588764821672785058,11864,1588764821672709965,,1.46694270344,26.807206702,24.4532418248
1588764821675886834,11865,1588764821675781397,,1.46055114318,26.6957936108,24.4107425133
1588764821681661332,11866,1588764821681524815,,1.4420075554,26.8841811257,24.6271076978
1588764821684913316,11867,1588764821684818690,,1.43742814392,27.0688757245,24.7218351474
1588764821687693052,11868,1588764821687618938,,1.43344432421,26.9715373898,24.6593111793
1588764821693821547,11869,1588764821693741929,,1.42888292045,27.1728488169,24.7887164538
1588764821696868686,11870,1588764821696774592,,1.43299232796,27.0930362568,24.6881104935
1588764821699928188,11871,1588764821699808846,,1.43903836379,27.3060907153,24.8228697864
1588764821705850197,11872,1588764821705751221,,1.44371196743,27.5213163187,24.9261464656
1588764821708593407,11873,1588764821708459705,,1.45706114838,27.4656711423,24.8600316587
1588764821711659651,11874,1588764821711590723,,1.46813307137,27.6885414867,24.994528913
1588764821717900219,11875,1588764821717722281,,1.47610468837,27.6322853705,24.934132154
1588764821720520455,11876,1588764821720456527,,1.48571946585,27.8395811219,25.0699494196
1588764821724429070,11877,1588764821724260056,,1.49484378821,27.7747872532,25.0195242258
1588764821729763604,11878,1588764821729678684,,1.5039888443,27.9753425959,25.1385346686
1588764821732793453,11879,1588764821732670281,,1.51389293024,28.1639962459,25.2534254192
1588764821735784532,11880,1588764821735701509,,1.52077316685,28.086685485,25.1893867474
1588764821741542699,11881,1588764821741480898,,1.52345105716,28.2650221954,25.2919390663
1588764821744972588,11882,1588764821744900898,,1.52601223001,28.4331160048,25.3892986856
1588764821747545135,11883,1588764821747476008,,1.52603764409,28.3461700052,25.3220803045
1588764821753650153,11884,1588764821753570909,,1.52212564546,28.5040111992,25.406068652
1588764821756759197,11885,1588764821756682489,,1.51771254732,28.4123658728,25.3279059615
1588764821762782000,11886,1588764821762669749,,1.51332797731,28.558683305,25.4094504563
1588764821765517471,11887,1588764821765405377,,1.5069724264,28.6879880269,25.4888753881
1588764821768955422,11888,1588764821768841521,,1.4999786447,28.5772548865,25.4146431292
1588764821772103895,11889,1588764821771978577,,1.49165225982,28.6825205775,25.4849509664
1588764821778062706,11890,1588764821777843562,,1.48408209413,28.5558118978,25.3941607131
1588764821780902633,11891,1588764821780797892,,1.47550240867,28.6635352378,25.4781274121
1588764821786816138,11892,1588764821786715624,,1.46704870588,28.7683224015,25.5560807159
1588764821789854746,11893,1588764821789742239,,1.45838490409,28.6505419443,25.4787843609
1588764821792783491,11894,1588764821792642266,,1.45271181461,28.7635679819,25.542347095
1588764821798953069,11895,1588764821798825417,,1.45169641981,28.8835755618,25.6153739194
1588764821801673722,11896,1588764821801590129,,1.45347156459,28.8016190678,25.5397335229
1588764821805163424,11897,1588764821805031187,,1.45999004995,28.9459695327,25.6064728736
1588764821811057100,11898,1588764821810954265,,1.46568702647,28.9015131449,25.5526605475
1588764821813859482,11899,1588764821813776147,,1.47597011089,29.0390002171,25.6142753689
1588764821816867244,11900,1588764821816749550,,1.48728537912,28.9859207554,25.559196566
1588764821822828367,11901,1588764821822633644,,1.49141550534,29.1283321303,25.6702306136
1588764821826216379,11902,1588764821826115519,,1.4832272561,29.2713054812,25.8855184081
1588764821829269481,11903,1588764821829150120,,1.49062084931,29.2012194822,25.788654195
1588764821834947115,11904,1588764821834843562,,1.49343212104,29.3212788418,25.8683204436
1588764821838333400,11905,1588764821838041506,,1.49768546746,29.2500513768,25.8157514362
1588764821840944778,11906,1588764821840812250,,1.4997142539,29.3471120847,25.8165844967
1588764821846753660,11907,1588764821846675696,,1.49911161981,29.4481976992,25.8877267002
1588764821849906722,11908,1588764821849836006,,1.49967976551,29.3648835022,25.8003163409
1588764821852889927,11909,1588764821852809032,,1.50067629233,29.4506396921,25.8234513939
1588764821858533044,11910,1588764821858466786,,1.50187301292,29.5327138614,25.8853277772
1588764821861702044,11911,1588764821861594510,,1.50398999023,29.441400771,25.8078964841
1588764821871264913,11912,1588764821870905481,,1.50456926319,29.3982593793,25.8041735269
1588764821876874951,11913,1588764821876766486,,1.50497616511,29.4370392261,25.8496472543
1588764821879872394,11914,1588764821879790316,,1.50065574,29.4610926514,25.8766298257
1588764821882778214,11915,1588764821882686723,,1.49911094575,29.3205381244,25.8073656873
1588764821885543581,11916,1588764821885461370,,1.49224469343,29.3367381601,25.8382313052
1588764821888618787,11917,1588764821888498193,,1.48066054927,29.2073960345,25.7597335137
1588764821894757354,11918,1588764821894696667,,1.47174681976,29.2481494758,25.7890551719
1588764821897877057,11919,1588764821897706644,,1.46156332554,29.151413602,25.7097547332
1588764821900890747,11920,1588764821900806362,,1.4524439461,29.1833091967,25.7094232305
1588764821906961572,11921,1588764821906860018,,1.45080207867,29.2467823636,25.7280742366
1588764821909634505,11922,1588764821909559589,,1.45373057519,29.1973675293,25.6606581667
1588764821912614819,11923,1588764821912499505,,1.46239430611,29.2623638826,25.6765165273
1588764821918850681,11924,1588764821918742800,,1.47437278391,29.3281711892,25.7022815566
1588764821921822548,11925,1588764821921714099,,1.48845791196,29.2849460981,25.6597570567
1588764821928399488,11926,1588764821928050060,,1.50378221035,29.3569106835,25.7019812085
1588764821931525756,11927,1588764821931152073,,1.51663239722,29.3066828626,25.6701374111
1588764821934361356,11928,1588764821933752994,,1.52817931602,29.3678989955,25.7134008239
1588764821937053012,11929,1588764821936916812,,1.53684056011,29.3143549214,25.6726968846
1588764821942711843,11930,1588764821942591628,,1.54353472405,29.3532994551,25.6987471136
1588764821945692993,11931,1588764821945603760,,1.54913329247,29.3841856636,25.7079769998
1588764821952039522,11932,1588764821951944176,,1.55293663702,29.4113347319,25.6952513912
1588764821954859844,11933,1588764821954758794,,1.5562205811,29.3347887656,25.6150845495
1588764821964063048,11934,1588764821963978189,,1.55014213171,29.2629416841,25.492737075
1588764821967056664,11935,1588764821966939727,,1.54434309293,29.2666608883,25.4598141508
1588764821969953801,11936,1588764821969865056,,1.53784931413,29.1793554187,25.3679675079
1588764821975988570,11937,1588764821975914758,,1.53052149541,29.1672751815,25.3355862914
1588764821978889633,11938,1588764821978816431,,1.52607125916,29.141936625,25.3132515283
1588764821982016223,11939,1588764821981913687,,1.52221467133,29.0317035464,25.2445397403
1588764821987988953,11940,1588764821987874936,,1.51368889042,28.9738634067,25.226295664
1588764821991026121,11941,1588764821990896766,,1.50656465576,28.8522729882,25.1622537639
1588764821993971423,11942,1588764821993831175,,1.49795344003,28.770295248,25.1268684854
1588764821999961393,11943,1588764821999868766,,1.48785064425,28.6806319977,25.1102310093
1588764822003072654,11944,1588764822002954109,,1.47488327609,28.5661529994,25.0539262823
1588764822005937404,11945,1588764822005834922,,1.46599816173,28.4896313314,25.0163576076
1588764822012363170,11946,1588764822012219975,,1.45891177279,28.4146281608,24.971816006
1588764822015008961,11947,1588764822014883231,,1.45322455501,28.3179641248,24.9072223241
1588764822019004336,11948,1588764822018923870,,1.45423701971,28.283022719,24.8638928935
1588764822023998418,11949,1588764822023867793,,1.45289278629,28.2221454073,24.7853496284
1588764822027219951,11950,1588764822027064118,,1.4577434121,28.2117271919,24.7522318473
1588764822029573769,11951,1588764822029451667,,1.46529721793,28.1738537731,24.6945138753
1588764822035961960,11952,1588764822035875681,,1.4746822903,28.1622328381,24.662170298
1588764822038929334,11953,1588764822038845190,,1.4863653732,28.1419623824,24.6338204552
1588764822047952902,11954,1588764822047873355,,1.5071878657,28.0402894616,24.5511365208
1588764822051023017,11955,1588764822050893012,,1.51610222933,27.9735815441,24.5049496043
1588764822053978606,11956,1588764822053854067,,1.52368003318,27.9206374681,24.4676558614
1588764822060306429,11957,1588764822060202632,,1.52417016411,27.864979877,24.4606886566
1588764822063327629,11958,1588764822063184882,,1.49949080292,27.7979926601,24.5931850939
1588764822068956011,11959,1588764822068863380,,1.49604596645,27.7316910377,24.5359009688
1588764822072356159,11960,1588764822072261327,,1.48613082867,27.6584962844,24.4525130889
1588764822075052144,11961,1588764822074932993,,1.47578808691,27.6043302644,24.4178846191
1588764822081079908,11962,1588764822080964398,,1.46933074939,27.5074677489,24.2602395284
1588764822084011633,11963,1588764822083921371,,1.45960051838,27.4178626681,24.1800968429
1588764822086986299,11964,1588764822086857695,,1.45097752468,27.3456506603,24.113068494
1588764822092938212,11965,1588764822092829208,,1.44349283202,27.2364307038,23.9871771607
