%time,field.header.seq,field.header.stamp,field.header.frame_id,field.vector.x,field.vector.y,field.vector.z
1588857964060775680,617,1588857964060687390,,-0.0289082517485,0.0172523968853,1.18977875588
1588857964063814310,618,1588857964063657424,,-0.0287462697727,0.0169782642203,1.18585815488
1588857964066756292,619,1588857964066681898,,-0.0288738516145,0.0164696174614,1.1818924038
1588857964073110490,620,1588857964072944108,,-0.0289259417545,0.0161161052036,1.17771605694
1588857964076419255,621,1588857964076313861,,-0.0292006528725,0.0155900017505,1.174372624
1588857964078992130,622,1588857964078838691,,-0.0293348223859,0.0152323903021,1.17038376605
1588857964085058489,623,1588857964084922084,,-0.0296233208939,0.0146259295137,1.16671650216
1588857964088120040,624,1588857964088025072,,-0.0295380911115,0.0144912263158,1.16357857386
1588857964091054973,625,1588857964090925679,,-0.029850963508,0.0139808052214,1.16004485734
1588857964097075896,626,1588857964096939828,,-0.0297930672529,0.0137822792747,1.15702427739
1588857964100133474,627,1588857964100003244,,-0.0300432525648,0.013198479296,1.15379257106
1588857964102893838,628,1588857964102775104,,-0.0299536042779,0.0128227258112,1.15093320431
1588857964108821798,629,1588857964108710219,,-0.0301526815324,0.0121254280759,1.14777919357
1588857964111848942,630,1588857964111772208,,-0.0304044115076,0.0115859721343,1.14495507536
1588857964116612897,631,1588857964116436668,,-0.0304712852838,0.0110864964269,1.14231178272
1588857964120731855,632,1588857964120635794,,-0.0305954408575,0.0105650099962,1.13967836335
1588857964123903892,633,1588857964123777796,,-0.0307512297292,0.00984739933513,1.13695236484
1588857964126788067,634,1588857964126698890,,-0.0308783375513,0.00882283932723,1.13430021521
1588857964132883967,635,1588857964132792600,,-0.0310662635005,0.00831737280156,1.13161046437
1588857964135830958,636,1588857964135730618,,-0.0311969325665,0.00761288164117,1.12936057981
1588857964138808188,637,1588857964138692399,,-0.0313712176946,0.00683396207485,1.12678957804
1588857964144903067,638,1588857964144793748,,-0.0315460683974,0.00589014894531,1.12438768338
1588857964148000084,639,1588857964147888998,,-0.0316179034466,0.00494724355881,1.12191473043
1588857964150828448,640,1588857964150705179,,-0.031758819486,0.00430771689304,1.11978872283
1588857964156909756,641,1588857964156786487,,-0.0319426831105,0.00310415291431,1.11759752956
1588857964159887288,642,1588857964159752480,,-0.0321456099864,0.00235675226281,1.11555075906
1588857964162803871,643,1588857964162721736,,-0.0322159443457,0.00163042249595,1.11354317269
1588857964168865470,644,1588857964168785163,,-0.0323768738193,0.000729360608964,1.11160684553
1588857964172258020,645,1588857964172143568,,-0.0325393991221,-0.000259585846318,1.10948344644
1588857964177938132,646,1588857964177828995,,-0.0326713017389,-0.000936334066715,1.10799272104
1588857964180802267,647,1588857964180709193,,-0.0328349242337,-0.00178321509187,1.10649200856
1588857964183973096,648,1588857964183831095,,-0.032980746685,-0.00269272009038,1.10480244757
1588857964189890210,649,1588857964189800884,,-0.0331287432067,-0.00319444961754,1.10339310363
1588857964192804778,650,1588857964192726754,,-0.0332394652145,-0.00393265658394,1.10172867525
1588857964198841937,651,1588857964198758800,,-0.0333670846758,-0.00482145005694,1.10015923967
1588857964201750461,652,1588857964201664749,,-0.0334343353134,-0.00549146571776,1.09845895734
1588857964204896128,653,1588857964204814814,,-0.0334917681445,-0.00662615826978,1.09689436281
1588857964207911265,654,1588857964207789513,,-0.0336396053156,-0.00767131727132,1.095301521
1588857964213727388,655,1588857964213618305,,-0.0337153184376,-0.00836180995562,1.0938896146
1588857964216803761,656,1588857964216724347,,-0.0338788934415,-0.00946892278594,1.09206375106
1588857964222903134,657,1588857964222819510,,-0.0339637367775,-0.0102016130949,1.09055299317
1588857964225897231,658,1588857964225815640,,-0.0340502014282,-0.0111318810395,1.08888545224
1588857964228808592,659,1588857964228710202,,-0.033953840662,-0.0123411851383,1.08727666779
1588857964231854631,660,1588857964231740052,,-0.0340452140738,-0.0131985599939,1.08551513816
1588857964237897942,661,1588857964237780961,,-0.0341304283785,-0.0144998752923,1.0838625987
1588857964240890430,662,1588857964240813581,,-0.0339318867428,-0.0156823694898,1.08244275624
1588857964247005539,663,1588857964246869405,,-0.0340114417161,-0.0166733473039,1.0810583182
1588857964249965413,664,1588857964249871754,,-0.0339561222632,-0.0178431489877,1.0794649245
1588857964252835633,665,1588857964252715120,,-0.0339255329029,-0.0188410414988,1.07787269837
1588857964255794571,666,1588857964255716386,,-0.0339717494234,-0.0203668814157,1.07634375371
1588857964261710255,667,1588857964261630377,,-0.0339104284553,-0.0215271055178,1.07498410148
1588857964264699276,668,1588857964264623610,,-0.0338628433905,-0.022948305635,1.07332830472
1588857964270655008,669,1588857964270575937,,-0.0338405344997,-0.024595638359,1.07191900392
1588857964273991441,670,1588857964273874190,,-0.0336824878691,-0.0257973191078,1.0706753785
1588857964276897058,671,1588857964276759596,,-0.0335962860929,-0.0273416527631,1.06937141668
1588857964280135571,672,1588857964280007890,,-0.0335596215926,-0.0286330211584,1.06783740599
1588857964286021888,673,1588857964285920322,,-0.0334184721081,-0.0301551266861,1.06637754362
1588857964288937681,674,1588857964288822247,,-0.0332792762523,-0.0319565630981,1.06503383759
1588857964294964357,675,1588857964294862345,,-0.0331783573415,-0.0336054508965,1.06424374753
1588857964297944286,676,1588857964297803585,,-0.0330426313629,-0.0350011626468,1.06320446664
1588857964300910797,677,1588857964300831846,,-0.0329660925961,-0.0369277253202,1.06220992087
1588857964303951594,678,1588857964303849655,,-0.032681743743,-0.0386932716409,1.0610881306
1588857964309880256,679,1588857964309803467,,-0.0325051982554,-0.0404225983057,1.05982782394
1588857964312995079,680,1588857964312919129,,-0.03215052217,-0.0423568516828,1.05907233139
1588857964318888036,681,1588857964318804267,,-0.0320949273977,-0.0444108190438,1.05768960091
1588857964321955980,682,1588857964321786026,,-0.0319010970053,-0.0460764604146,1.05680653761
1588857964324870788,683,1588857964324789914,,-0.0317092344091,-0.0475377236849,1.05617380792
1588857964330918216,684,1588857964330808409,,-0.0316640493899,-0.0495040127104,1.05536442474
1588857964333895464,685,1588857964333795541,,-0.0315528950573,-0.0513507603943,1.05423192051
1588857964336870691,686,1588857964336787332,,-0.0312249270396,-0.0530107726884,1.05307366336
1588857964342988650,687,1588857964342830021,,-0.0311034726194,-0.0550818975448,1.05193966773
1588857964346038838,688,1588857964345925597,,-0.0309094654727,-0.056740142536,1.05099425023
1588857964348948558,689,1588857964348867491,,-0.0305576630505,-0.0587860454227,1.04993389287
1588857964355064021,690,1588857964354914874,,-0.0303755284351,-0.06051651616,1.04885509606
1588857964357975507,691,1588857964357844909,,-0.0300518375985,-0.0621990594965,1.04794485505
1588857964361040562,692,1588857964360939852,,-0.0296966479272,-0.0641975190013,1.04723705487
1588857964366955700,693,1588857964366832987,,-0.0296488688017,-0.0658011331663,1.04599969985
1588857964369871275,694,1588857964369767524,,-0.0293027088893,-0.0673098397407,1.04528762817
1588857964373122875,695,1588857964373029862,,-0.0290720034605,-0.0690902188824,1.04440310258
1588857964379283756,696,1588857964379191878,,-0.0286864887773,-0.0707542322051,1.0433579052
1588857964382337544,697,1588857964382159395,,-0.0286335777422,-0.072150322904,1.04270815087
1588857964385242588,698,1588857964385070550,,-0.0283449892001,-0.0736005006042,1.04188859588
1588857964391296462,699,1588857964391150018,,-0.0280188355594,-0.0749591237342,1.04092195984
1588857964394193126,700,1588857964394064193,,-0.027730835297,-0.0765752522374,1.03972137395
1588857964396904106,701,1588857964396821312,,-0.0275217426468,-0.0776345104206,1.0389537031
1588857964402787606,702,1588857964402695321,,-0.0272904506132,-0.0790629580846,1.03807655971
1588857964405886075,703,1588857964405733160,,-0.0267663982825,-0.0801870702363,1.0374902868
1588857964408829206,704,1588857964408735940,,-0.0264563896609,-0.0814513931993,1.03650211944
1588857964414828111,705,1588857964414736743,,-0.0260569208309,-0.0827849410462,1.03580317179
1588857964417879759,706,1588857964417656598,,-0.0255946591633,-0.0838753384801,1.03522249093
1588857964423793163,707,1588857964423701486,,-0.025166939728,-0.0850782557591,1.03436707951
1588857964426830076,708,1588857964426721500,,-0.0245041202845,-0.0861740222873,1.03397151497
1588857964429852577,709,1588857964429755061,,-0.0239596847833,-0.0870315898384,1.03364200414
1588857964432778870,710,1588857964432680569,,-0.0234291361816,-0.0882964069023,1.03340544418
1588857964438846113,711,1588857964438730385,,-0.0228239689375,-0.0894558747277,1.03305984248
1588857964441807796,712,1588857964441688712,,-0.0220276119526,-0.0902767873275,1.03289511712
1588857964447875348,713,1588857964447796057,,-0.0214185135723,-0.0914466964002,1.03277989653
1588857964450848869,714,1588857964450703417,,-0.0208646128771,-0.0924360717298,1.03246775205
1588857964454035281,715,1588857964453929795,,-0.0202320793125,-0.0935840799872,1.03229216987
1588857964459968149,716,1588857964459860959,,-0.0198479179224,-0.0945479531158,1.03174868404
1588857964462716639,717,1588857964462549421,,-0.0194743990019,-0.0955091438118,1.03151204316
1588857964465667335,718,1588857964465588879,,-0.0189693262478,-0.0963771843092,1.03111334691
1588857964472240242,719,1588857964472101673,,-0.0186307144405,-0.097317381483,1.03062278864
1588857964475047867,720,1588857964474953906,,-0.0182381654087,-0.09818200927,1.02997011858
1588857964477673375,721,1588857964477593778,,-0.0179797732655,-0.0989738771795,1.02928609192
1588857964483754001,722,1588857964483664442,,-0.0176166623718,-0.100251307711,1.02854245243
1588857964486743491,723,1588857964486603949,,-0.0173538267274,-0.101060503825,1.02763677968
1588857964489667832,724,1588857964489581596,,-0.0170016196497,-0.102061023216,1.02676841196
1588857964495735528,725,1588857964495626258,,-0.0168478250305,-0.102879143174,1.02575733776
1588857964498674429,726,1588857964498583902,,-0.0165420489249,-0.103704912853,1.02516573083
1588857964501695031,727,1588857964501619389,,-0.0163006598082,-0.1043506992,1.02450757452
1588857964507748489,728,1588857964507616997,,-0.0160277130187,-0.105065610474,1.02374684415
1588857964510662306,729,1588857964510581521,,-0.0157974981628,-0.105614278123,1.02314976006
1588857964513704286,730,1588857964513600890,,-0.0156222147584,-0.105885934631,1.02249207159
1588857964519731024,731,1588857964519643616,,-0.0151316463237,-0.106460198188,1.02217049203
1588857964522655086,732,1588857964522554181,,-0.0150004537106,-0.107112799434,1.02133477136
1588857964525656515,733,1588857964525575062,,-0.0147265107906,-0.107567047397,1.02053256763
1588857964531679358,734,1588857964531601002,,-0.0143725824746,-0.10806541198,1.01993841161
1588857964534673863,735,1588857964534598408,,-0.0141096837462,-0.108158379073,1.01927702208
1588857964537907461,736,1588857964537818761,,-0.0137817703625,-0.108869054774,1.01833686918
1588857964543712997,737,1588857964543617154,,-0.0135859120001,-0.109147849413,1.0175249808
1588857964546707720,738,1588857964546623759,,-0.0132077494751,-0.109369785145,1.01716439612
1588857964549676625,739,1588857964549587256,,-0.0129339903635,-0.109864163113,1.01658315747
1588857964555725835,740,1588857964555635781,,-0.0127628602444,-0.110005121993,1.0160648085
1588857964558710903,741,1588857964558631286,,-0.0124437312624,-0.110004187029,1.01535603836
1588857964564780271,742,1588857964564659726,,-0.01220176162,-0.11011991776,1.01466881728
1588857964567871462,743,1588857964567792607,,-0.0119603486301,-0.110543937757,1.01393856885
1588857964570778672,744,1588857964570681951,,-0.0114655566833,-0.110698816987,1.0131872983
1588857964576913308,745,1588857964576828451,,-0.0110852002662,-0.11102090593,1.01250231272
1588857964579818020,746,1588857964579718237,,-0.0107273611446,-0.111027455062,1.01167882917
1588857964585958691,747,1588857964585864642,,-0.0103068625516,-0.111193652857,1.01081341099
1588857964588908147,748,1588857964588817994,,-0.00991048566976,-0.111001187004,1.01006781494
1588857964591962862,749,1588857964591812470,,-0.00958086278756,-0.110973072107,1.00929761026
1588857964594975870,750,1588857964594788933,,-0.00900694591022,-0.110784879751,1.00882950978
1588857964600947407,751,1588857964600862557,,-0.00854819708296,-0.110544786488,1.00832300295
1588857964604031862,752,1588857964603910886,,-0.00798227131541,-0.109979132422,1.00781557652
1588857964609848747,753,1588857964609759152,,-0.00746923502128,-0.10953436123,1.00743354571
1588857964612901090,754,1588857964612803909,,-0.00686666167821,-0.108904144607,1.006788223
1588857964616122462,755,1588857964615973376,,-0.00632482715177,-0.108671452776,1.00602648277
1588857964619004425,756,1588857964618922034,,-0.00582529195485,-0.108062993647,1.00544935743
1588857964625191224,757,1588857964625076072,,-0.00509824045385,-0.10755326227,1.00494548452
1588857964627879005,758,1588857964627786045,,-0.00441436549424,-0.106885582234,1.00463218314
1588857964633982308,759,1588857964633868591,,-0.00382564030236,-0.106816227304,1.00413894681
1588857964636944357,760,1588857964636831009,,-0.00329842068112,-0.10630292877,1.00379033259
1588857964640031019,761,1588857964639909385,,-0.0028915849265,-0.10620896687,1.0033314533
1588857964642814287,762,1588857964642673088,,-0.00225776257553,-0.105673918232,1.00312768457
1588857964648722982,763,1588857964648623694,,-0.00192722223694,-0.10578626054,1.00259570438
1588857964651867630,764,1588857964651760241,,-0.00151271321526,-0.10698264275,1.00227629158
1588857964658098686,765,1588857964657996853,,-0.0011081084734,-0.108799728094,1.00226952149
1588857964661066592,766,1588857964660970538,,-0.000518448836284,-0.1085822628,1.00183688517
1588857964664068464,767,1588857964663930306,,-0.000110277308552,-0.11125780155,1.00201924409
1588857964667042511,768,1588857964666934481,,0.000302674735653,-0.111289276036,1.00137708343
1588857964673306613,769,1588857964673203089,,0.000824456550297,-0.114566009521,1.0017650788
1588857964676275873,770,1588857964676170835,,0.00107164234899,-0.114645641981,1.00114531392
1588857964681972228,771,1588857964681865773,,0.00151804914965,-0.118893180831,1.00193834833
1588857964684753980,772,1588857964684647709,,0.00179904426596,-0.123952038549,1.00287487472
1588857964687967550,773,1588857964687890644,,0.00221119793749,-0.123845013169,1.00248787397
1588857964690865895,774,1588857964690786275,,0.00250878345887,-0.129429485242,1.0033865464
1588857964696863740,775,1588857964696783242,,0.00282143464856,-0.135740263111,1.00473665297
1588857964699796600,776,1588857964699719281,,0.00317335836739,-0.135819111199,1.00420475047
1588857964706145978,777,1588857964706005008,,0.0035110241331,-0.143101980688,1.00539763302
1588857964709091932,778,1588857964708995746,,0.00384468731749,-0.143063975978,1.0047877146
1588857964711793369,779,1588857964711711442,,0.00420197513253,-0.151105358527,1.00635982581
1588857964717851518,780,1588857964717664224,,0.00441459365226,-0.159859424893,1.00768331962
1588857964721018216,781,1588857964720900414,,0.00477037242794,-0.15993774253,1.0071694467
1588857964723942768,782,1588857964723837006,,0.00508392625231,-0.169655487254,1.00899530305
1588857964729869480,783,1588857964729770454,,0.00541550870714,-0.169668332574,1.00860367095
1588857964732843388,784,1588857964732762201,,0.00568126725307,-0.180050662552,1.01052144899
1588857964735976987,785,1588857964735889183,,0.00610901281215,-0.179972411437,1.00995338006
1588857964738809848,786,1588857964738749319,,0.00642028512106,-0.191136605886,1.01171212958
1588857964744909213,787,1588857964744836871,,0.00675325379333,-0.202813082647,1.01413051026
1588857964747910889,788,1588857964747829347,,0.0069061332143,-0.202915033438,1.01332819067
1588857964753954109,789,1588857964753869576,,0.00748703067897,-0.215448868576,1.01618805134
1588857964756782088,790,1588857964756702657,,0.00764571557481,-0.227766567537,1.0188262747
1588857964759849053,791,1588857964759739722,,0.0079715169885,-0.228426673675,1.01823743848
1588857964765891555,792,1588857964765796813,,0.00809984262533,-0.242458328381,1.02088670987
1588857964768901175,793,1588857964768797348,,0.00844873776336,-0.242491677455,1.02047971642
1588857964772218235,794,1588857964772116496,,0.00876834715904,-0.256912430064,1.02349775831
1588857964778067403,795,1588857964777952337,,0.00906152511979,-0.271810358847,1.02686899333
1588857964781067386,796,1588857964780958724,,0.00936263985771,-0.271905940674,1.02646594773
1588857964783811745,797,1588857964783705935,,0.00966422459066,-0.28771386846,1.02971806174
1588857964789921367,798,1588857964789833481,,0.010013661253,-0.287581017213,1.02937356064
1588857964792869224,799,1588857964792739266,,0.0102157495796,-0.304181532154,1.03288875966
1588857964795885080,800,1588857964795798860,,0.0104995221489,-0.304242329505,1.03229516927
1588857964802117686,801,1588857964801953071,,0.0107413594962,-0.321298649973,1.03604157964
1588857964805097461,802,1588857964804998152,,0.0110934644582,-0.338779785824,1.04008523651
1588857964808199590,803,1588857964808055555,,0.0113318899393,-0.338760351281,1.03927586564
1588857964814114869,804,1588857964814024404,,0.0116597160231,-0.356896236822,1.04343163384
1588857964817142753,805,1588857964816969127,,0.0119201424797,-0.375593133096,1.04766109426
1588857964820060886,806,1588857964819956224,,0.012140503068,-0.375768703312,1.04709640343
1588857964826008596,807,1588857964825895444,,0.0123303505849,-0.395055985866,1.05130504977
1588857964828876544,808,1588857964828758187,,0.0126966496417,-0.395052351699,1.05100017806
1588857964834901917,809,1588857964834784616,,0.0130588757417,-0.414931592444,1.05569628061
1588857964837858810,810,1588857964837764662,,0.0132928408029,-0.435742423633,1.06028265666
1588857964840822656,811,1588857964840729846,,0.0136446869605,-0.435459588384,1.0599918221
1588857964846788240,812,1588857964846692081,,0.0139264117291,-0.456799746997,1.06492718878
1588857964849928388,813,1588857964849803288,,0.0141711639988,-0.456224545502,1.06440498839
1588857964853123427,814,1588857964853020101,,0.0145215732265,-0.477914544464,1.06934694899
1588857964859119066,815,1588857964859019222,,0.0147724336734,-0.500385957717,1.07459878634
1588857964862127443,816,1588857964862003536,,0.0151673422647,-0.499994895159,1.0742295509
1588857964865093464,817,1588857964864979171,,0.0154853662549,-0.522726272023,1.07953773242
1588857964871138164,818,1588857964871036432,,0.0158634626874,-0.546247615186,1.08523104915
1588857964874183592,819,1588857964874062911,,0.0160473554578,-0.545949767363,1.08460561515
1588857964877103142,820,1588857964876967326,,0.0162932677834,-0.569947374161,1.0901949755
1588857964883162397,821,1588857964883040779,,0.0166648412868,-0.569333520346,1.08968112931
1588857964886013845,822,1588857964885890731,,0.0170494284342,-0.593998896391,1.09551898599
1588857964889028282,823,1588857964888900796,,0.0173874403565,-0.593406854417,1.09506324702
1588857964895024338,824,1588857964894945467,,0.0176662198436,-0.618653486627,1.10074110885
1588857964898125852,825,1588857964898040537,,0.0180598502193,-0.644282261723,1.10685583711
1588857964901010005,826,1588857964900926385,,0.0183242343581,-0.643667567686,1.10611398595
1588857964907135015,827,1588857964907007280,,0.0186533475326,-0.669753200957,1.11227275186
1588857964910190273,828,1588857964910093290,,0.0190627266816,-0.696669868838,1.11843817143
1588857964913128434,829,1588857964913022076,,0.019372016638,-0.695743159053,1.11793819507
1588857964919147956,830,1588857964919014325,,0.0197054791165,-0.723177592889,1.12439474663
1588857964922123530,831,1588857964922034081,,0.0201376695506,-0.722141094691,1.12401415266
1588857964924830391,832,1588857964924760855,,0.0203235251639,-0.750266112111,1.1303798868
1588857964930871192,833,1588857964930771470,,0.0206469354612,-0.7787118294,1.13719396194
1588857964934008532,834,1588857964933923869,,0.020867710963,-0.7778586295,1.1365938872
1588857964936817530,835,1588857964936721279,,0.0212785044758,-0.802444490432,1.14228632356
1588857964942828639,836,1588857964942744917,,0.0217250190826,-0.806001859495,1.14302866545
1588857964946047326,837,1588857964945967439,,0.0219784354395,-0.835534774698,1.14963071822
1588857964952146025,838,1588857964952024312,,0.0224401904631,-0.865662866501,1.15665456978
1588857964955132668,839,1588857964954994331,,0.0227959192751,-0.864755511477,1.15596863809
1588857964957983182,840,1588857964957848409,,0.023181855354,-0.8950282714,1.163110168
1588857964963995080,841,1588857964963842929,,0.023604451273,-0.925628698398,1.17018745215
1588857964966910298,842,1588857964966830096,,0.0240263182843,-0.924695600693,1.16943304824
1588857964973182111,843,1588857964973090500,,0.0244224720594,-0.955680595663,1.17650394077
1588857964976258322,844,1588857964976181418,,0.0247159761839,-0.954338024394,1.17544251148
1588857964979050544,845,1588857964978898962,,0.0251030912128,-0.985545776291,1.18255836912
1588857964982079968,846,1588857964981963660,,0.0250767417123,-0.982298995121,1.18050884264
1588857964988140962,847,1588857964988023918,,0.0250822000779,-1.01150403798,1.18637191111
1588857964991038553,848,1588857964990932072,,0.0253367218665,-1.04419511877,1.19401828073
1588857964997043773,849,1588857964996967630,,0.0258800934201,-1.07685898165,1.20171970722
1588857965000010106,850,1588857964999922692,,0.0262945431964,-1.07500272129,1.20066652308
1588857965002994369,851,1588857965002900245,,0.0268264703486,-1.07281261559,1.19988173832
1588857965006138526,852,1588857965005976918,,0.0274820996531,-1.10597990058,1.20761453046
1588857965012148935,853,1588857965012043275,,0.0278728636175,-1.1391933659,1.21519117756
1588857965015099872,854,1588857965014982155,,0.0283949683805,-1.13704212211,1.21410811166
1588857965021039491,855,1588857965020930302,,0.0290069421927,-1.17052748433,1.22216476102
1588857965024133619,856,1588857965024055159,,0.0293722582145,-1.20450025147,1.23011197729
1588857965027024337,857,1588857965026942645,,0.0296808712324,-1.20246828812,1.229496983
1588857965030065411,858,1588857965029913058,,0.030090714128,-1.20017280451,1.22862832484
1588857965036084184,859,1588857965035982592,,0.0303700450943,-1.23463384922,1.2367028765
1588857965039033725,860,1588857965038941100,,0.0308330286345,-1.26950745705,1.24499281908
1588857965045003144,861,1588857965044914140,,0.0312988426454,-1.30488211835,1.25340415755
1588857965048121232,862,1588857965048021981,,0.031672178358,-1.30275541707,1.2522786059
1588857965050961975,863,1588857965050867383,,0.0322341560802,-1.33798755547,1.26047189868
1588857965053977671,864,1588857965053891742,,0.0326294738935,-1.33606810066,1.25912578599
1588857965060014929,865,1588857965059925030,,0.0331111670228,-1.37193739869,1.26741825356
1588857965063048998,866,1588857965062937867,,0.0336120023379,-1.36953673013,1.26632063015
1588857965068938086,867,1588857965068864304,,0.0339981843078,-1.40589585329,1.27468942379
1588857965072325470,868,1588857965072236331,,0.0344075865462,-1.44252606952,1.28329877744
1588857965075269243,869,1588857965075196908,,0.0349036567644,-1.43990267983,1.28207570894
1588857965077699446,870,1588857965077626465,,0.0354589018658,-1.47679608844,1.29079167496
1588857965086996687,871,1588857965086891359,,0.0364914319252,-1.51169091659,1.29884065251
1588857965092996140,872,1588857965092874232,,0.0369073759108,-1.54941397019,1.30784346965
1588857965095969131,873,1588857965095862091,,0.0372894447391,-1.54737449612,1.3067072843
1588857965098951674,874,1588857965098856559,,0.0377348708382,-1.5856279848,1.31594070916
1588857965104766519,875,1588857965104674380,,0.0381271716258,-1.62405443113,1.32505496427
1588857965107775522,876,1588857965107681129,,0.0385486189363,-1.62125032415,1.32375980402
1588857965110722423,877,1588857965110636521,,0.0389341872189,-1.66041047517,1.33282007145
1588857965117946697,878,1588857965117852007,,0.0393891797375,-1.699619195,1.34211886164
1588857965119914088,879,1588857965119833236,,0.0397227811698,-1.6969294949,1.34058661875
1588857965122978490,880,1588857965122871490,,0.0401353201211,-1.69433282378,1.33929913235
1588857965129033103,881,1588857965128938806,,0.0405353085754,-1.73444920031,1.34861427388
1588857965131779155,882,1588857965131680522,,0.0407454755067,-1.77399461293,1.35752320117
1588857965134740083,883,1588857965134653520,,0.0413419561937,-1.77116600438,1.35642399708
1588857965141071668,884,1588857965140919430,,0.0417874854205,-1.81124772774,1.36566350808
1588857965143990896,885,1588857965143888536,,0.0421684868906,-1.85168446113,1.37520031692
1588857965146971949,886,1588857965146887146,,0.0423712460785,-1.84876976754,1.37354066659
1588857965153055782,887,1588857965152968632,,0.0425821929909,-1.889598565,1.38283498639
1588857965156118137,888,1588857965156022044,,0.0427007112634,-1.88635184888,1.38107983953
1588857965159096138,889,1588857965158996823,,0.0428071738918,-1.9271387608,1.39020518566
1588857965165183988,890,1588857965165002326,,0.0428382614941,-1.96823362405,1.39936452573
1588857965168144622,891,1588857965168013491,,0.042695116497,-1.96544015078,1.39720034669
1588857965171069477,892,1588857965170915663,,0.0428462268734,-2.00666909848,1.40634029678
1588857965177280647,893,1588857965177177804,,0.0429078023231,-2.04837816202,1.4154033127
1588857965180115037,894,1588857965180030111,,0.0430238110697,-2.04466845935,1.41323288283
1588857965183085134,895,1588857965182994067,,0.0431719949881,-2.04059383647,1.41087591811
1588857965188839616,896,1588857965188763501,,0.0435261394165,-2.08215613369,1.42011165604
1588857965191929914,897,1588857965191831399,,0.0437179443233,-2.12433323393,1.42949313637
1588857965194674880,898,1588857965194608637,,0.0440560080809,-2.1207468604,1.42745187826
1588857965201063471,899,1588857965200980993,,0.0445076745405,-2.16274767161,1.43716877024
1588857965203876805,900,1588857965203821722,,0.0447050107641,-2.20495798939,1.44710473233
1588857965206806664,901,1588857965206711066,,0.0454530366441,-2.20047684943,1.44562694392
1588857965212949607,902,1588857965212854650,,0.0456753993816,-2.24311741207,1.45542365776
1588857965215855812,903,1588857965215775417,,0.0461355737892,-2.23912748901,1.45391931852
1588857965221880903,904,1588857965221784855,,0.0464734918284,-2.28161008702,1.46363124213
1588857965225052952,905,1588857965224936870,,0.0471630164061,-2.32350003036,1.47301239819
1588857965228261707,906,1588857965228115504,,0.0477060378183,-2.31830612018,1.47039819203
1588857965233911022,907,1588857965233831137,,0.0478242069939,-2.36078534927,1.47971891234
1588857965237020792,908,1588857965236899312,,0.0478170643577,-2.40428329742,1.48954101695
1588857965239864274,909,1588857965239807978,,0.0480202718315,-2.39971526321,1.4873838323
1588857965245943834,910,1588857965245884135,,0.0481031609093,-2.44365346636,1.49693969377
1588857965248856953,911,1588857965248761783,,0.0486954909998,-2.43931863936,1.49492178898
1588857965251901118,912,1588857965251823346,,0.0490994745628,-2.48382481559,1.50483608956
1588857965257716989,913,1588857965257617699,,0.0496572844765,-2.52886373737,1.51574716562
1588857965260761859,914,1588857965260692948,,0.0502143073073,-2.52582390099,1.51447168701
1588857965263942236,915,1588857965263850525,,0.0508787135999,-2.57116377175,1.52530531945
1588857965270114306,916,1588857965269985786,,0.0517289591395,-2.60172384313,1.53255997892
1588857965273245357,917,1588857965273148929,,0.0523592161372,-2.61241811968,1.53471411294
1588857965276362734,918,1588857965276270533,,0.0529322563593,-2.60843781782,1.5331001147
1588857965282090286,919,1588857965282007158,,0.0533716855294,-2.65301705062,1.54338399707
1588857965285082071,920,1588857965284965400,,0.0538260252854,-2.69750633689,1.55351849439
1588857965288030207,921,1588857965287907984,,0.0539242713858,-2.69254127589,1.5506876672
1588857965294152610,922,1588857965294013206,,0.0542622852427,-2.73607623628,1.56029569766
1588857965297291136,923,1588857965297151410,,0.0544877274662,-2.78018897205,1.56947546819
1588857965300202012,924,1588857965300093240,,0.055058070585,-2.77390378599,1.56681322525
1588857965306089541,925,1588857965306005143,,0.055524346047,-2.81742037551,1.57638881262
1588857965309127680,926,1588857965308988415,,0.0559449005692,-2.81016343592,1.57347567211
1588857965312076114,927,1588857965311996537,,0.0564303862298,-2.85357071034,1.58321695294
1588857965318067044,928,1588857965317981905,,0.0570726127068,-2.89710892834,1.59332521654
1588857965321074430,929,1588857965320972027,,0.0576396858069,-2.89039034898,1.59076417549
1588857965330190547,930,1588857965330091560,,0.0590690626018,-2.97811935873,1.61157307472
1588857965333117219,931,1588857965333023159,,0.0596800420597,-2.97183027218,1.6091763837
1588857965336083008,932,1588857965335960079,,0.0603889770669,-2.96552309443,1.60709274627
1588857965342179700,933,1588857965342075023,,0.060631971072,-3.00997977669,1.61720072446
1588857965345076068,934,1588857965344974784,,0.0611805921477,-3.05527625221,1.6276487324
1588857965351062369,935,1588857965350973439,,0.0615063962607,-3.10121040053,1.63793907843
1588857965354050753,936,1588857965353962152,,0.0616444213869,-3.0966643796,1.63552823029
1588857965357211552,937,1588857965357109938,,0.0618370971358,-3.14410303594,1.64603134917
1588857965363228693,938,1588857965363091886,,0.0620583541428,-3.13779767098,1.64320389671
1588857965366112658,939,1588857965366015708,,0.0621998540146,-3.18390947911,1.65341490528
1588857965369025687,940,1588857965368926621,,0.0623960535656,-3.17946639861,1.65110816331
1588857965375382939,941,1588857965375263802,,0.0625545428856,-3.22512200691,1.66121318153
1588857965378373667,942,1588857965378198698,,0.0630822041224,-3.27052805359,1.67206140304
1588857965384268852,943,1588857965384157960,,0.0634044938688,-3.31644194944,1.68252685881
1588857965387163650,944,1588857965387062730,,0.0638286112501,-3.3108555591,1.68054542675
1588857965390151452,945,1588857965389993216,,0.0642343611289,-3.35793157033,1.69131253705
1588857965393171750,946,1588857965393013473,,0.0648748576748,-3.35185991754,1.68909695759
1588857965399120588,947,1588857965399042923,,0.0654088447668,-3.39758498906,1.70002505912
1588857965402135720,948,1588857965401971682,,0.0662495740961,-3.39127844138,1.69829179765
1588857965408030353,949,1588857965407954211,,0.0667228720493,-3.4369134583,1.70863810904
1588857965410996960,950,1588857965410911157,,0.0672190012233,-3.48277912633,1.71929085578
1588857965413885633,951,1588857965413807695,,0.0676494326845,-3.47531885892,1.71624806429
1588857965417021545,952,1588857965416949482,,0.068454988898,-3.52032593653,1.72689423016
1588857965422935875,953,1588857965422820281,,0.0686872711755,-3.51288489644,1.72358800485
1588857965426005161,954,1588857965425935199,,0.06914255939,-3.55817035633,1.73394688501
1588857965432000274,955,1588857965431888338,,0.0696685968697,-3.60341532442,1.7441204893
1588857965435041808,956,1588857965434962341,,0.0700951984956,-3.59589146091,1.7410069208
1588857965438064950,957,1588857965437980438,,0.070657543946,-3.64069689931,1.75133540849
1588857965441017403,958,1588857965440938788,,0.0712889550172,-3.63253659875,1.74879760041
1588857965447028829,959,1588857965446952727,,0.0717208814589,-3.67751916217,1.75916684905
1588857965450078457,960,1588857965449943225,,0.0723976158414,-3.66993368107,1.75700647169
1588857965456170073,961,1588857965456067848,,0.073035234097,-3.71418752205,1.7677791571
1588857965459036798,962,1588857965458950352,,0.073215038614,-3.7582920279,1.77847497078
1588857965462110227,963,1588857965462044495,,0.073748985126,-3.75030521695,1.77694796772
1588857965465086622,964,1588857965465023696,,0.0742391243436,-3.79384458331,1.78770976315
1588857965471116229,965,1588857965471025299,,0.0748645332298,-3.83778764941,1.79872152586
1588857965474255646,966,1588857965474172576,,0.0753088270825,-3.82840995237,1.79624765091
1588857965480069916,967,1588857965479968451,,0.0755936823135,-3.87225003809,1.80654188646
1588857965483042933,968,1588857965482927153,,0.0761215238693,-3.86248973707,1.80360189966
1588857965485727924,969,1588857965485648882,,0.0766168412384,-3.90546894645,1.81380847881
1588857965492104977,970,1588857965492001663,,0.0769743759201,-3.9493818654,1.8241037508
1588857965495151834,971,1588857965495030813,,0.0777668673136,-3.93903407773,1.82116095022
1588857965498152143,972,1588857965498074885,,0.0781652436933,-3.982201247,1.83128991219
1588857965504075916,973,1588857965504005054,,0.0784748426963,-4.02660366018,1.84164078746
1588857965507093571,974,1588857965506966656,,0.0788379310372,-4.01677003423,1.83867330015
1588857965510111834,975,1588857965510016983,,0.0794562159683,-4.03721777562,1.84341942278
1588857965516034172,976,1588857965515906015,,0.0794033389333,-4.04963124185,1.8455920614
1588857965518944665,977,1588857965518873493,,0.080161643586,-4.09385546509,1.85676542475
1588857965521940491,978,1588857965521843088,,0.0807899727634,-4.08539999992,1.85456233031
1588857965528053476,979,1588857965527962080,,0.0813497220201,-4.12862331861,1.86473742846
1588857965530983525,980,1588857965530903596,,0.081749991129,-4.173156655,1.87518857946
1588857965534038016,981,1588857965533915524,,0.082693117806,-4.16397829221,1.87287591398
1588857965539984798,982,1588857965539894263,,0.0832880554204,-4.20827207784,1.8835775981
1588857965542943886,983,1588857965542883323,,0.0835873239549,-4.19923830005,1.88046649774
1588857965546146735,984,1588857965546012206,,0.0842894237248,-4.24365970739,1.89127102467
1588857965552058495,985,1588857965551962750,,0.0849125250647,-4.28775221775,1.90207526936
1588857965554966707,986,1588857965554894995,,0.0852329651557,-4.27919329064,1.89917808999
1588857965558060452,987,1588857965557970361,,0.0857853928467,-4.32345354953,1.90969701058
1588857965564107241,988,1588857965564002124,,0.0863231607747,-4.36669685006,1.91970268159
1588857965567001312,989,1588857965566925819,,0.0868734245759,-4.35696336959,1.91679330124
1588857965570010201,990,1588857965569921385,,0.0872091952326,-4.34755823907,1.91348194851
1588857965576379516,991,1588857965576200878,,0.0878418472851,-4.39049323676,1.9239641288
1588857965578991398,992,1588857965578915889,,0.0882479477207,-4.43378337695,1.93428120157
1588857965582066309,993,1588857965581951728,,0.0890182332325,-4.42382852281,1.93166962334
1588857965588036921,994,1588857965587933720,,0.0897834943689,-4.46680333233,1.9419289766
1588857965591030966,995,1588857965590916881,,0.0902646202828,-4.50931335183,1.95199543553
1588857965594180865,996,1588857965594022583,,0.0906354550114,-4.49790407331,1.94845037284
1588857965599988995,997,1588857965599919174,,0.0916293722174,-4.54085076549,1.95915643124
1588857965603307854,998,1588857965602915270,,0.0923746733147,-4.53069281983,1.95659943589
1588857965609019631,999,1588857965608913964,,0.0929477370613,-4.57390149268,1.96697410733
1588857965611992622,1000,1588857965611898461,,0.0936105075727,-4.61608571125,1.97744116801
1588857965615012689,1001,1588857965614900013,,0.0942222892928,-4.60637205107,1.97424321635
1588857965620964777,1002,1588857965620907482,,0.0949587152158,-4.64925023649,1.9844353447
1588857965624364853,1003,1588857965624269359,,0.0958381384723,-4.69175760055,1.99510621738
1588857965627196138,1004,1588857965627103708,,0.0962390515647,-4.68214027049,1.99176293272
1588857965633219450,1005,1588857965633082826,,0.0969196634583,-4.72463651029,2.00176247769
1588857965636150461,1006,1588857965635996856,,0.0977783615452,-4.71479763105,1.99891804838
1588857965639132710,1007,1588857965639016368,,0.0984782532158,-4.75752732493,2.00930435774
1588857965645156649,1008,1588857965645001577,,0.0989853069338,-4.8001211409,2.01907539166
1588857965648445062,1009,1588857965648285952,,0.0997333932877,-4.79061231751,2.01605014441
1588857965651192320,1010,1588857965651099112,,0.100407925996,-4.83239641655,2.02611755699
1588857965657437403,1011,1588857965657279648,,0.101247424183,-4.87541588275,2.03650199985
1588857965660081669,1012,1588857965660006798,,0.101955377572,-4.86443631188,2.03350544771
1588857965663048383,1013,1588857965662972942,,0.10275115808,-4.8537804789,2.03037032481
1588857965669049430,1014,1588857965668955705,,0.103408798504,-4.89612132638,2.04049941257
1588857965672493149,1015,1588857965672376505,,0.104234426209,-4.93699837887,2.05039187404
1588857965675396489,1016,1588857965675280315,,0.105175538407,-4.92538412781,2.04717642139
1588857965681170519,1017,1588857965681084959,,0.105925991226,-4.96691913846,2.05724504831
1588857965684248626,1018,1588857965684137145,,0.106885170002,-5.00753117386,2.06714999364
1588857965687006889,1019,1588857965686910895,,0.107644340117,-4.99500432623,2.0637339787
1588857965693196820,1020,1588857965693115667,,0.108511338101,-5.03519473894,2.07365393074
1588857965696250509,1021,1588857965696081164,,0.109290071519,-5.02360384096,2.07045891328
1588857965699227094,1022,1588857965699122454,,0.110240092064,-5.06352681087,2.08033285459
1588857965705068331,1023,1588857965704972943,,0.110989383273,-5.10327686403,2.09019554142
1588857965708127502,1024,1588857965707986574,,0.111801256977,-5.09152136911,2.08738737276
1588857965714098017,1025,1588857965714010082,,0.112543463819,-5.13122470803,2.09717667218
1588857965717154403,1026,1588857965717048030,,0.11320326768,-5.17140833689,2.10665649807
1588857965720042143,1027,1588857965719954585,,0.114233172795,-5.1590378861,2.10336258506
1588857965726117767,1028,1588857965726038208,,0.114987304107,-5.19882885091,2.11349093632
1588857965729212571,1029,1588857965729130972,,0.115500294543,-5.18779569503,2.10983509993
1588857965732246499,1030,1588857965732126719,,0.116453395742,-5.22658069581,2.11962461113
1588857965738243013,1031,1588857965738111340,,0.116925746842,-5.26672201436,2.12872902607
1588857965741210158,1032,1588857965741059800,,0.117897858767,-5.25493085884,2.12556766734
1588857965747148080,1033,1588857965747049969,,0.118602466229,-5.29420914636,2.13477079132
1588857965750318003,1034,1588857965750091311,,0.119358855868,-5.28373815633,2.13146836063
1588857965753264493,1035,1588857965753157824,,0.120353786507,-5.32201105106,2.14053886594
1588857965756250913,1036,1588857965756154334,,0.121054017381,-5.31064393763,2.13709946011
1588857965762248735,1037,1588857965762098408,,0.122020599386,-5.34963184478,2.14637631769
1588857965765209347,1038,1588857965765056489,,0.122768023753,-5.38784584245,2.15560102513
1588857965771051334,1039,1588857965770951369,,0.123610163722,-5.42591039885,2.16454601863
1588857965774286075,1040,1588857965774158598,,0.124773725431,-5.41331648166,2.16190585199
1588857965777280989,1041,1588857965777163472,,0.12573486383,-5.4517173322,2.17174892035
1588857965780097882,1042,1588857965779990421,,0.126682850626,-5.43875045452,2.16845370024
1588857965786258201,1043,1588857965786133411,,0.127662906473,-5.47545907254,2.17781588156
1588857965789221714,1044,1588857965789131080,,0.128468978943,-5.46366928557,2.17469712932
1588857965795064730,1045,1588857965794955138,,0.129655602613,-5.49934504973,2.18407258003
1588857965798112551,1046,1588857965797977509,,0.130515000022,-5.53646149311,2.19338487067
1588857965800995102,1047,1588857965800809507,,0.131757366619,-5.52341573595,2.190751633
1588857965803854366,1048,1588857965803780744,,0.132183157111,-5.56070394215,2.19928471472
1588857965810264560,1049,1588857965810150610,,0.133415260293,-5.54730723798,2.19602105098
1588857965812975711,1050,1588857965812865390,,0.134266473333,-5.58348822239,2.20457838487
1588857965819077368,1051,1588857965818993837,,0.13517601179,-5.61941363709,2.21312436847
1588857965822110625,1052,1588857965821981298,,0.135908953284,-5.60700774369,2.2095582999
1588857965824985245,1053,1588857965824902869,,0.136918709756,-5.64295502656,2.2183445118
1588857965828023216,1054,1588857965827947684,,0.137797449062,-5.63055635068,2.21472870598
1588857965834009789,1055,1588857965833823830,,0.138747405474,-5.66537452599,2.22309132472
1588857965837299745,1056,1588857965837185959,,0.139678670169,-5.70122846375,2.23222506031
1588857965842927836,1057,1588857965842836495,,0.14054332518,-5.68825236904,2.22883541588
1588857965845845091,1058,1588857965845765397,,0.141334153876,-5.72291240936,2.23724052268
1588857965848995749,1059,1588857965848906973,,0.142683266886,-5.71038237364,2.23437433162
1588857965854816541,1060,1588857965854716560,,0.143755995385,-5.74504734275,2.24277256361
1588857965857958905,1061,1588857965857846292,,0.145031549567,-5.77968093384,2.25166626449
1588857965860806351,1062,1588857965860722179,,0.146517076784,-5.76566711269,2.24884945277
1588857965867116257,1063,1588857965867031485,,0.147928083919,-5.79908782267,2.25782716113
1588857965870158840,1064,1588857965870059867,,0.149138531002,-5.80056091776,2.25889693609
1588857965873303132,1065,1588857965873232037,,0.150507761347,-5.81787955463,2.26441308701
1588857965879203855,1066,1588857965879101994,,0.151630533751,-5.84981044359,2.27300458456
1588857965882613465,1067,1588857965882477279,,0.152922127057,-5.8353155802,2.27009685494
1588857965885094126,1068,1588857965884982127,,0.153741392684,-5.86780104107,2.27844584112
1588857965891120382,1069,1588857965890980791,,0.155346552046,-5.8992771382,2.28726989529
1588857965894052722,1070,1588857965893964520,,0.156454047826,-5.88498014291,2.28356854036
1588857965897086042,1071,1588857965897016874,,0.157141179858,-5.91632860743,2.29165298219
1588857965902912375,1072,1588857965902761382,,0.158337507443,-5.90062282667,2.28799902937
1588857965905885872,1073,1588857965905807960,,0.159798943062,-5.9328058218,2.29544839337
1588857965909010867,1074,1588857965908954000,,0.160598641099,-5.9184985661,2.29121931202
1588857965915277477,1075,1588857965915149265,,0.161397863583,-5.94929097723,2.29842388929
1588857965918114279,1076,1588857965918048138,,0.162163487156,-5.98090603306,2.30604272553
1588857965921167075,1077,1588857965921053307,,0.162798303286,-5.9662844044,2.30211874926
1588857965926811556,1078,1588857965926733881,,0.16408155873,-5.99709389965,2.31003518819
1588857965930278476,1079,1588857965930187916,,0.165204871861,-5.99581779199,2.31015899343
1588857965933015878,1080,1588857965932898156,,0.166370376408,-6.01437761505,2.31500779728
1588857965939176269,1081,1588857965939053115,,0.168030792288,-6.04481250822,2.32354372847
1588857965942206630,1082,1588857965942080216,,0.169612544957,-6.03031018405,2.32117833371
1588857965945290596,1083,1588857965945205651,,0.171169052421,-6.06063946899,2.32999006189
1588857965950901551,1084,1588857965950831199,,0.172329092834,-6.09028909593,2.3381676066
1588857965953999830,1085,1588857965953910240,,0.17342846137,-6.07659452143,2.3354636684
1588857965963314379,1086,1588857965963153013,,0.175641493234,-6.09033585826,2.34048533644
1588857965965890265,1087,1588857965965826492,,0.176850643635,-6.11873851775,2.34764021759
1588857965968919167,1088,1588857965968813755,,0.177625409523,-6.10422837255,2.34399263024
1588857965975649135,1089,1588857965975483966,,0.178651922405,-6.13127614196,2.35046513475
1588857965978181990,1090,1588857965978068995,,0.179689972899,-6.15863233624,2.35699433007
1588857965981201506,1091,1588857965981112428,,0.180436545753,-6.14369430283,2.35314006389
1588857965987261356,1092,1588857965987132400,,0.181059042705,-6.17333474526,2.35992423438
1588857965990175901,1093,1588857965990071322,,0.181798999011,-6.17113943142,2.35951732302
1588857965996226567,1094,1588857965996111533,,0.182511334195,-6.18666355723,2.36368750718
1588857965999193210,1095,1588857965999092026,,0.183267448883,-6.21424528281,2.37085340835
1588857966002211056,1096,1588857966002112889,,0.183888764373,-6.20362349465,2.36820683264
1588857966008175934,1097,1588857966008065128,,0.184716783902,-6.22846947191,2.37528766467
1588857966010971374,1098,1588857966010874551,,0.186115310768,-6.25450187131,2.38273177904
1588857966014166127,1099,1588857966014082065,,0.186974406723,-6.24213444731,2.38036720613
1588857966020194812,1100,1588857966020071133,,0.188206570259,-6.26955704396,2.38836183213
1588857966023177215,1101,1588857966023095057,,0.189178484719,-6.25867633595,2.38591720624
1588857966026121149,1102,1588857966026038703,,0.190243387979,-6.28703701804,2.39372971809
1588857966032182365,1103,1588857966032112742,,0.191246246147,-6.31339710437,2.40059104796
1588857966035134292,1104,1588857966035041506,,0.192086590774,-6.30141251934,2.3977787924
1588857966037944439,1105,1588857966037855802,,0.193088027558,-6.32723874137,2.40429069642
1588857966046891657,1106,1588857966046782174,,0.195612997393,-6.33952326522,2.40810315603
1588857966049727280,1107,1588857966049647026,,0.196633634394,-6.32600156528,2.40444365599
1588857966055733384,1108,1588857966055661083,,0.197673223744,-6.3503446355,2.41053136698
1588857966058738824,1109,1588857966058659684,,0.199116868205,-6.37397370777,2.41684845649
1588857966061771167,1110,1588857966061669008,,0.200234032599,-6.35924643312,2.41336638184
1588857966067939147,1111,1588857966067861669,,0.201480447099,-6.38167295041,2.41911245809
1588857966070768854,1112,1588857966070690235,,0.202602300038,-6.40404009,2.4251894271
1588857966079826976,1113,1588857966079749622,,0.204672802196,-6.41317992673,2.42927901113
1588857966082741152,1114,1588857966082657262,,0.206087954454,-6.39633104198,2.42618877355
1588857966085702824,1115,1588857966085632268,,0.206678358774,-6.42050269418,2.43295654767
1588857966091764711,1116,1588857966091695033,,0.208026256172,-6.44102402583,2.43948513087
1588857966094898474,1117,1588857966094778228,,0.20928799206,-6.42468760682,2.43614316279
1588857966098146760,1118,1588857966097923874,,0.210281653679,-6.44648775727,2.44219788399
1588857966106967917,1119,1588857966106881688,,0.212743856205,-6.45716474048,2.44655244423
1588857966110011195,1120,1588857966109891347,,0.21362840643,-6.44428591591,2.44391100832
1588857966116026251,1121,1588857966115913557,,0.214627835346,-6.46463409601,2.44939089751
1588857966119262509,1122,1588857966119158978,,0.215261503738,-6.48905087247,2.45514604924
1588857966125215075,1123,1588857966125088928,,0.21666430518,-6.50908452107,2.46140486447
1588857966128156346,1124,1588857966128061661,,0.218104940196,-6.49395595583,2.45836937865
1588857966131204180,1125,1588857966131118757,,0.219181548614,-6.51571003599,2.46384789344
1588857966137131386,1126,1588857966137000622,,0.220432135538,-6.50570288725,2.46175125995
1588857966140099545,1127,1588857966139992838,,0.221333383385,-6.5273562197,2.46740861949
1588857966143137056,1128,1588857966143024695,,0.222852832316,-6.5129821154,2.46479211627
1588857966149037112,1129,1588857966148891019,,0.223715833693,-6.53604328904,2.47067185366
1588857966152060261,1130,1588857966151971119,,0.22498071665,-6.55545343107,2.47666040806
1588857966158015374,1131,1588857966157925587,,0.226084534053,-6.57253812668,2.48149373797
1588857966161151759,1132,1588857966161067432,,0.227505460976,-6.55874718934,2.47910468421
1588857966164346000,1133,1588857966164272068,,0.228747769495,-6.57686154839,2.48474291483
1588857966167324198,1134,1588857966167200567,,0.230042018938,-6.56246125566,2.48196570673
1588857966173177854,1135,1588857966173092893,,0.231312508288,-6.57994149527,2.48770200996
1588857966176515669,1136,1588857966176357513,,0.232639338196,-6.56574006099,2.48484919946
1588857966182061233,1137,1588857966181987443,,0.233725894769,-6.58165978529,2.4894297435
1588857966185199417,1138,1588857966185051439,,0.235139080284,-6.59761816344,2.49458390054
1588857966188082348,1139,1588857966188013583,,0.236304617035,-6.58216967424,2.49147343075
1588857966191232879,1140,1588857966191109048,,0.237508345266,-6.59732786491,2.4963126958
1588857966197428055,1141,1588857966197347949,,0.238822619165,-6.57839862676,2.49257168975
1588857966200286461,1142,1588857966200167429,,0.240001245008,-6.59635562199,2.49828969911
1588857966206251825,1143,1588857966206167363,,0.241394910659,-6.61015789319,2.50282169911
1588857966209459695,1144,1588857966209301957,,0.242605746971,-6.59492983333,2.49957631166
1588857966212167662,1145,1588857966212059485,,0.244018210228,-6.60855553976,2.50429618617
1588857966215317925,1146,1588857966215231562,,0.245553035053,-6.59345961258,2.50137290908
1588857966221190539,1147,1588857966221061167,,0.246861213626,-6.60701920284,2.50553317785
1588857966224045025,1148,1588857966223966562,,0.248315407452,-6.62031659223,2.51002870047
1588857966230338824,1149,1588857966230255565,,0.249637070593,-6.6051180037,2.50747516595
1588857966233053560,1150,1588857966232968550,,0.251117132364,-6.61800101755,2.51146799041
1588857966236108489,1151,1588857966236034163,,0.25233019762,-6.60322474786,2.50849234526
1588857966239065548,1152,1588857966238989337,,0.253659245508,-6.61563330832,2.51214747639
1588857966245114502,1153,1588857966245000029,,0.255249364384,-6.62713894176,2.5161592793
1588857966248094364,1154,1588857966248006525,,0.256495848969,-6.61268556109,2.51309673022
1588857966254372668,1155,1588857966254269565,,0.257851552642,-6.62390304919,2.51675703795
1588857966260057657,1156,1588857966259973689,,0.260400063669,-6.61996514503,2.51767258704
1588857966266267416,1157,1588857966266158129,,0.261913455269,-6.6298609587,2.52125998295
1588857966269307159,1158,1588857966269171390,,0.263353953013,-6.61453608903,2.51829889545
1588857966272738520,1159,1588857966272618834,,0.264519879841,-6.62428164921,2.52161867265
1588857966278329041,1160,1588857966278212970,,0.265898135485,-6.63381927147,2.52506000439
1588857966281409773,1161,1588857966281297678,,0.267500676259,-6.61791165006,2.52251484583
1588857966284508628,1162,1588857966284410317,,0.268444879442,-6.62692068994,2.52579722503
1588857966290251014,1163,1588857966290058488,,0.269617432186,-6.61533678424,2.52359259174
1588857966293142571,1164,1588857966292968150,,0.270937850009,-6.62382859817,2.52655698227
1588857966295957429,1165,1588857966295876420,,0.27229955053,-6.60704344555,2.52352905335
1588857966301979111,1166,1588857966301888290,,0.273358575071,-6.61874346512,2.52707604163
1588857966305124848,1167,1588857966304893431,,0.27459786306,-6.6275093507,2.53020148663
1588857966307952974,1168,1588857966307860011,,0.276153858461,-6.61225397318,2.52743604498
1588857966314004095,1169,1588857966313910084,,0.277452889032,-6.62121702228,2.53021587733
1588857966320277654,1170,1588857966320171088,,0.280143382433,-6.6173757882,2.53067504297
1588857966326258405,1171,1588857966326131305,,0.281464447275,-6.62627104766,2.53396604926
1588857966329143935,1172,1588857966329057919,,0.282574560624,-6.6134347241,2.53153576856
1588857966332275763,1173,1588857966332122702,,0.284116652409,-6.62151537549,2.53477878016
1588857966338169718,1174,1588857966338069191,,0.285553205775,-6.62829924639,2.53789022832
1588857966341224885,1175,1588857966341068955,,0.286821148516,-6.61481985084,2.53527007808
1588857966344549920,1176,1588857966344440836,,0.288586640894,-6.62127397091,2.53842256974
1588857966350494534,1177,1588857966350399039,,0.290186476032,-6.59489792107,2.53287075148
1588857966353289597,1178,1588857966353188493,,0.291724660513,-6.61291065871,2.53861318162
1588857966356229493,1179,1588857966356127248,,0.293263890573,-6.5980474016,2.53638492028
1588857966362285301,1180,1588857966362161720,,0.294932696421,-6.60253065346,2.53891611476
1588857966365249356,1181,1588857966365143231,,0.296335630708,-6.60709096846,2.54101199409
1588857966368297686,1182,1588857966368198597,,0.2976827299,-6.5908379491,2.5383497182
1588857966374389624,1183,1588857966374231043,,0.299206964076,-6.59394653797,2.54035580489
1588857966383549944,1184,1588857966383339815,,0.301566203686,-6.5807882718,2.53954555148
1588857966386426185,1185,1588857966386299846,,0.302740974374,-6.58384621261,2.54129935154
1588857966389228900,1186,1588857966389137702,,0.303859611799,-6.56800089968,2.53852625241
1588857966395390834,1187,1588857966395270359,,0.305032819192,-6.56983098729,2.5402840946
1588857966398365213,1188,1588857966398266575,,0.305948635551,-6.57212132518,2.54155899953
1588857966401323214,1189,1588857966401230112,,0.307095910454,-6.55703629356,2.53853570558
1588857966407326124,1190,1588857966407227210,,0.307916084989,-6.56204202899,2.54017830803
1588857966410469850,1191,1588857966410305065,,0.308619123655,-6.55160939472,2.53799042285
1588857966413181036,1192,1588857966413092613,,0.309806043739,-6.55217241533,2.53907124504
1588857966419554551,1193,1588857966419390378,,0.310434158244,-6.55483620246,2.54016814523
1588857966422378430,1194,1588857966422266566,,0.310867881595,-6.54498116397,2.53741890254
1588857966425219570,1195,1588857966425141608,,0.311823835047,-6.54553477489,2.53815730447
1588857966431219579,1196,1588857966431115944,,0.312951533101,-6.54659500913,2.53934866266
1588857966434121266,1197,1588857966434032051,,0.313443322541,-6.53509454112,2.53624282696
1588857966437517715,1198,1588857966437384517,,0.314191083728,-6.50776822548,2.52952541759
1588857966443179353,1199,1588857966443068778,,0.315187034256,-6.52741654078,2.53494869597
1588857966446189415,1200,1588857966446082814,,0.315886965432,-6.53057334966,2.53593231366
1588857966449209102,1201,1588857966449079435,,0.316839623077,-6.51856942209,2.53362585636
1588857966455256861,1202,1588857966455130151,,0.317471626855,-6.51957448901,2.53460025587
1588857966458192387,1203,1588857966458107917,,0.318367421151,-6.52023781231,2.53613920612
1588857966461273258,1204,1588857966461154689,,0.319434790619,-6.50649003679,2.53447478571
1588857966467309743,1205,1588857966467181155,,0.320132431179,-6.50550635026,2.53554259981
1588857966470467671,1206,1588857966470307278,,0.320958018979,-6.49306239956,2.53340587285
1588857966473440927,1207,1588857966473341824,,0.32210080167,-6.49010851793,2.53387960463
1588857966479347059,1208,1588857966479247101,,0.322750537796,-6.48739869229,2.53420312193
1588857966482497006,1209,1588857966482328506,,0.323534289751,-6.4729459107,2.53118453377
1588857966485478653,1210,1588857966485331789,,0.324160015899,-6.46855702424,2.53029271939
1588857966491373597,1211,1588857966491242561,,0.324931973535,-6.46382530213,2.52965213933
1588857966494121281,1212,1588857966494013041,,0.325087918479,-6.44904542626,2.52586221643
1588857966503378488,1213,1588857966503156113,,0.3259340999,-6.42785759814,2.52070075438
1588857966506276656,1214,1588857966506152921,,0.326245776673,-6.42233661652,2.51909405825
1588857966512271679,1215,1588857966512191820,,0.326609237634,-6.41618140694,2.51778446868
1588857966515226782,1216,1588857966515128657,,0.327067509043,-6.40195147935,2.51448897936
1588857966521331901,1217,1588857966521169399,,0.327221793693,-6.3962764173,2.51273707891
1588857966524369482,1218,1588857966524293484,,0.327895599333,-6.39028927961,2.5118323767
1588857966527130964,1219,1588857966527045335,,0.328073910611,-6.38020321653,2.50925573654
1588857966530209364,1220,1588857966530060948,,0.328661053027,-6.37005757749,2.50721907021
1588857966539294304,1221,1588857966539168405,,0.329509669797,-6.37064043191,2.50839852868
1588857966542097045,1222,1588857966542005450,,0.329910976028,-6.35951073692,2.50619316983
1588857966545201590,1223,1588857966545109538,,0.330287276292,-6.35728220446,2.50548688158
1588857966548177276,1224,1588857966548100581,,0.331056405455,-6.34490343955,2.50289882728
1588857966551183526,1225,1588857966551108738,,0.331660766891,-6.33889728451,2.50125851571
1588857966554014695,1226,1588857966553941768,,0.331971455481,-6.32844343538,2.49855367722
1588857966560109530,1227,1588857966560031616,,0.332431982948,-6.3247445136,2.49742393884
1588857966562975650,1228,1588857966562869298,,0.332797018997,-6.31573793853,2.49485261446
1588857966569061330,1229,1588857966568922209,,0.333114457399,-6.31004550707,2.49302308249
1588857966572491983,1230,1588857966572403718,,0.333437619507,-6.3039521053,2.49145933529
1588857966575349038,1231,1588857966575274919,,0.333923790194,-6.29296235527,2.48879494845
1588857966578058251,1232,1588857966577977099,,0.334161573298,-6.28562569758,2.48646306479
1588857966584248306,1233,1588857966584145142,,0.334675876313,-6.27657293627,2.48455869499
1588857966587156311,1234,1588857966587082583,,0.335201286328,-6.26459107836,2.4820007689
1588857966593370943,1235,1588857966593262707,,0.335738021197,-6.25522498629,2.48030294447
1588857966596398950,1236,1588857966596299720,,0.33641994079,-6.24172433797,2.47773641476
1588857966599080996,1237,1588857966598963246,,0.337075644897,-6.23156650534,2.47598019345
1588857966602069271,1238,1588857966601982504,,0.337650865846,-6.21800891746,2.47386784745
1588857966608130825,1239,1588857966608046132,,0.338392263137,-6.2069316333,2.47267473898
1588857966611080895,1240,1588857966610988495,,0.338726441678,-6.1955590414,2.47061872385
1588857966617683261,1241,1588857966617598556,,0.339252049148,-6.18451764363,2.46919024072
1588857966620158041,1242,1588857966620081565,,0.339775989232,-6.17057957468,2.46674460209
1588857966623381187,1243,1588857966623198532,,0.340184600165,-6.15793648174,2.46362680871
1588857966626202001,1244,1588857966626103487,,0.340752506663,-6.14685501871,2.46140400237
1588857966632304535,1245,1588857966632168159,,0.341133814395,-6.13512957403,2.45911101855
1588857966634944905,1246,1588857966634861100,,0.341609899665,-6.12282607255,2.4564527485
1588857966641038796,1247,1588857966640869649,,0.342042893031,-6.1104912367,2.45366447169
1588857966644227892,1248,1588857966644084101,,0.342466038637,-6.09940358944,2.45151553747
1588857966647032922,1249,1588857966646951378,,0.342987244977,-6.08773061667,2.44915086134
1588857966652973092,1250,1588857966652874226,,0.343441255093,-6.07527315772,2.44634385548
1588857966656337252,1251,1588857966656251089,,0.344097861913,-6.06484873986,2.44460059688
1588857966659169708,1252,1588857966659072461,,0.344722336855,-6.05333996201,2.44265358379
1588857966665203424,1253,1588857966665097237,,0.345087585625,-6.04122496424,2.4398612542
1588857966668250746,1254,1588857966668130628,,0.345946260891,-6.03059728475,2.43839536889
1588857966671039374,1255,1588857966670934482,,0.346366028434,-6.01779221425,2.43588533171
1588857966680284932,1256,1588857966680183372,,0.347486347768,-5.99461071021,2.43136017119
1588857966683152600,1257,1588857966683048806,,0.348287660466,-5.98432639238,2.42984867705
1588857966689428974,1258,1588857966689331980,,0.348651570648,-5.9706523565,2.42659893685
1588857966692372091,1259,1588857966692267986,,0.349210267663,-5.95606548518,2.4238327446
1588857966695371364,1260,1588857966695256878,,0.349630095654,-5.94553105936,2.42210896204
1588857966701338923,1261,1588857966701200526,,0.350174194157,-5.93040156195,2.41930623937
1588857966704522747,1262,1588857966704408657,,0.350731454293,-5.91506807882,2.41609598936
1588857966707259053,1263,1588857966707141682,,0.350899726666,-5.9067680968,2.41421659474
1588857966713455879,1264,1588857966713256425,,0.351318097813,-5.89077144878,2.41100004697
1588857966716358199,1265,1588857966716238964,,0.351814040161,-5.87810677924,2.40901464367
1588857966719377894,1266,1588857966719269402,,0.352152877121,-5.86500213176,2.40640713764
1588857966725350858,1267,1588857966725257867,,0.352564372494,-5.84861917418,2.40337791864
1588857966728123587,1268,1588857966727973769,,0.35329999688,-5.83642255137,2.40197725877
1588857966731385332,1269,1588857966731216957,,0.353653441992,-5.82112922777,2.39901052974
1588857966740218970,1270,1588857966740116099,,0.354938881523,-5.79549944501,2.39492173383
1588857966743306324,1271,1588857966743204322,,0.355095653528,-5.78712982419,2.39327908314
1588857966748996607,1272,1588857966748923236,,0.355352027536,-5.77128116773,2.39013979575
1588857966752101810,1273,1588857966752025742,,0.355752652525,-5.75569374797,2.38684208207
1588857966755237100,1274,1588857966755157656,,0.356069441153,-5.74672802411,2.38518331792
1588857966761324789,1275,1588857966761172301,,0.356529429813,-5.73035540666,2.38180342586
1588857966764266667,1276,1588857966764174527,,0.356936973022,-5.71396165939,2.37851306094
1588857966767112350,1277,1588857966766974225,,0.357176337352,-5.70656871454,2.37692859181
