%time,field.header.seq,field.header.stamp,field.header.frame_id,field.wrench.force.x,field.wrench.force.y,field.wrench.force.z,field.wrench.torque.x,field.wrench.torque.y,field.wrench.torque.z
1588857964060513364,617,1588857964060407672,,-0.0743667695509,-0.121902656173,0.533364749389,0.107179780757,0.00471082545455,0.00405902843361
1588857964063459442,618,1588857964063373632,,-0.0528075670534,-0.12190757772,0.533568759233,0.112708052852,0.00534466980094,0.00261106070194
1588857964066538932,619,1588857964066424561,,-0.0539228264761,-0.245777884258,0.559708289811,0.116211935427,0.0047236742729,0.00267388862097
1588857964072749420,620,1588857964072614701,,-0.0533517475651,-0.122316917896,0.556763797682,0.118056595472,0.00472660453231,0.00185723482389
1588857964075950756,621,1588857964075835294,,-0.0539061668928,-0.122702157189,0.580066909657,0.127066255448,0.00473450964116,0.0020182505322
1588857964078566631,622,1588857964078461539,,-0.0538997289618,-0.122701558981,0.580067634443,0.12706628324,0.00473437857729,0.00201680773051
1588857964084566557,623,1588857964084451505,,-0.0336760279036,-0.247590057028,0.629259520368,0.130456377609,0.00473651888091,0.00135997075822
1588857964087721757,624,1588857964087610303,,-0.0341449180436,-0.248130887899,0.652348242113,0.134900234431,0.0047390967087,0.000582144007536
1588857964090637554,625,1588857964090511111,,-0.0345866741002,-0.373936465363,0.655571699263,0.135826689185,0.00473967359885,-0.000269582505998
1588857964096672505,626,1588857964096513796,,-0.0784708539245,-0.248611944723,0.674936896194,0.139317563803,0.00410550161423,0.00123221213219
1588857964099647659,627,1588857964099541503,,-0.0784708780938,-0.248610211208,0.674937531919,0.1429607605,0.00410427177061,0.00216489523175
1588857964102535428,628,1588857964102436594,,-0.0569884538242,-0.249103944948,0.698343202022,0.144678921006,0.00410502763094,0.000600726477242
1588857964108573412,629,1588857964108381039,,-0.0569873458914,-0.249104428585,0.698343119917,0.145598757816,0.00410362015516,0.000615830075986
1588857964111610831,630,1588857964111512600,,-0.0790119896284,-0.249090199015,0.698049806893,0.149228330599,0.00410183425937,0.00227618921798
1588857964116216208,631,1588857964116093117,,-0.0795495384184,-0.249546222997,0.721176472312,0.151858878861,0.00410198964139,0.000587532657437
1588857964120497517,632,1588857964120366676,,-0.0795481452429,-0.249544022801,0.721177387308,0.15277868506,0.00410168108514,0.000603017115147
1588857964123559712,633,1588857964123440630,,-0.0800793730659,-0.24998024414,0.744316455356,0.156286877694,0.0040992572994,0.000663169142929
1588857964126523939,634,1588857964126393909,,-0.0800787123888,-0.249975547444,0.744318103816,0.156286889208,0.00409886622335,0.000662872980835
1588857964132591470,635,1588857964132484686,,-0.0800806679951,-0.249973845701,0.744318464936,0.157239936396,0.00409999822342,-0.00105039414235
1588857964135477778,636,1588857964135383350,,-0.057981025051,-0.249987244785,0.744625174489,0.157271854073,0.00410092615475,-0.00265291145793
1588857964138488188,637,1588857964138387495,,-0.0574883961821,-0.249541652493,0.721482972435,0.156503153449,0.00410086636283,-0.00266519096516
1588857964144506812,638,1588857964144390864,,-0.0579910283081,-0.249975769934,0.744628247775,0.157289553694,0.00410098936395,-0.00351590282657
1588857964147583402,639,1588857964147489257,,-0.0579849699842,-0.249971240109,0.744630240239,0.158214778315,0.00347117512007,-0.00436836182489
1588857964150475977,640,1588857964150380463,,-0.057977392859,-0.249968357449,0.744631797934,0.160044236492,0.00347012599494,-0.00434179276571
1588857964156497072,641,1588857964156402326,,-0.0579746484494,-0.24996628053,0.744632708816,0.160083486187,0.00410004583794,-0.00608386381627
1588857964159480708,642,1588857964159368028,,-0.0584617818561,-0.37620587291,0.747291521352,0.160982323009,0.00346875165601,-0.00520458383761
1588857964162491762,643,1588857964162396648,,-0.0363815375296,-0.376228942818,0.747643774106,0.16099779241,0.00346924864051,-0.00593116204612
1588857964168487068,644,1588857964168401431,,-0.0359337497266,-0.37568151841,0.72462353296,0.162098521469,0.00410070016911,-0.00764831458735
1588857964171907579,645,1588857964171796820,,-0.0363758963318,-0.376225980241,0.747645539414,0.16197424852,0.00347019398528,-0.0085182424558
1588857964177557868,646,1588857964177469342,,-0.0147158267743,-0.376793797457,0.77116739049,0.164591681172,0.0034696402688,-0.00920909707319
1588857964180458899,647,1588857964180337286,,-0.0147126477932,-0.376793289733,0.771167699221,0.164591648568,0.00347048997559,-0.00920935962077
1588857964183617903,648,1588857964183521759,,-0.0147161299196,-0.376792879574,0.771167833183,0.164591689886,0.00347044280033,-0.00920863893209
1588857964189552181,649,1588857964189456856,,-0.0147156405404,-0.37679197927,0.77116828241,0.164611537882,0.00347212509216,-0.0100850689106
1588857964192499864,650,1588857964192415989,,-0.0147144590674,-0.376792675043,0.771167965,0.16461152888,0.00347286285089,-0.010084961826
1588857964198635175,651,1588857964198387793,,-0.0151338708779,-0.377293096739,0.794227732067,0.16538011511,0.00347292694308,-0.0100735769593
1588857964201513194,652,1588857964201415809,,-0.0147160322795,-0.376789518887,0.77116947707,0.166420937575,0.00347273304599,-0.00918142432841
1588857964204566430,653,1588857964204460981,,-0.0147152037951,-0.376785115054,0.771171644555,0.167370083232,0.00347231503876,-0.0109152682939
1588857964207566115,654,1588857964207450774,,-0.0147174694914,-0.376785066415,0.771171625083,0.16739017132,0.0034724490401,-0.0117833438948
1588857964213465469,655,1588857964213377644,,0.00739547315416,-0.376840537611,0.771584868142,0.169264373137,0.00283025420404,-0.013358408901
1588857964216530751,656,1588857964216406228,,0.00740206182184,-0.376839468506,0.77158532711,0.169264262431,0.0028303901934,-0.0133597827683
1588857964222609139,657,1588857964222506999,,0.00740313017605,-0.376839058877,0.771585516921,0.171137019683,0.00347299026996,-0.0150847330381
1588857964225591357,658,1588857964225492150,,0.00740052962279,-0.376837431564,0.771586336639,0.171137086651,0.00347366793748,-0.0150838172114
1588857964228485687,659,1588857964228384307,,0.00740277646309,-0.376833152219,0.771588405074,0.171137035082,0.00347324796776,-0.0150844989992
1588857964231538410,660,1588857964231394032,,0.0291632274447,-0.377404662673,0.795087742399,0.172853479893,0.00347391095124,-0.0166657006886
1588857964237572178,661,1588857964237449836,,0.00702778739302,-0.37733580363,0.794646597123,0.172835573645,0.00347336137698,-0.0159361801817
1588857964240585565,662,1588857964240438286,,0.0288067815723,-0.377883020168,0.818162011209,0.174560453216,0.00282919144663,-0.0175270609529
1588857964246577234,663,1588857964246489873,,0.0288091094536,-0.377884267144,0.818161353304,0.17462591851,0.00283164523431,-0.0201399371696
1588857964249523243,664,1588857964249431397,,0.0288125702229,-0.377880751964,0.818162854983,0.174625864862,0.00283241350747,-0.0201402942974
1588857964252503778,665,1588857964252411921,,0.0284444470677,-0.378348081792,0.841348393322,0.175353613145,0.00283141998669,-0.0183883283283
1588857964255566402,666,1588857964255474853,,0.0284444426138,-0.37834365586,0.841350383766,0.176306517846,0.00283096094298,-0.0201207944744
1588857964261440066,667,1588857964261351109,,0.02844808185,-0.378340726185,0.841351578152,0.176306465093,0.00283186679586,-0.0201211292466
1588857964264474943,668,1588857964264371087,,0.0288142599763,-0.377874828435,0.818165531319,0.177373181005,0.00283025954337,-0.0201098073031
1588857964270411293,669,1588857964270318946,,0.0507435440465,-0.378417081093,0.841819229834,0.178161274751,0.00218603232611,-0.0208364766302
1588857964273628648,670,1588857964273551295,,0.0282711308133,-0.505937357797,0.844009864299,0.179051892388,0.00218469851139,-0.0200906873399
1588857964276536863,671,1588857964276430032,,0.0510790822045,-0.377949984718,0.818637038423,0.179240515181,0.00218473181892,-0.0217062424747
1588857964279706151,672,1588857964279590635,,0.0729096655409,-0.50611252081,0.84494393352,0.180055065319,0.00282854627964,-0.0233034890628
1588857964285696775,673,1588857964285535652,,0.0729107778252,-0.506114210664,0.844942825334,0.180053066296,0.00218357853029,-0.0233042171877
1588857964288561541,674,1588857964288475031,,0.05063230396,-0.506017447154,0.844467971469,0.181862274186,0.00218033704606,-0.0225511940562
1588857964294562483,675,1588857964294488058,,0.050627105685,-0.506021136883,0.844466072181,0.181862402995,0.00218027379593,-0.022550161384
1588857964297542825,676,1588857964297447324,,0.0509726439849,-0.505507988059,0.821380713325,0.181138582873,0.00282681887958,-0.0243128134393
1588857964300558993,677,1588857964300477683,,0.0507260694041,-0.378421757714,0.841818180734,0.181886969304,0.00282376299572,-0.0234219661104
1588857964303623677,678,1588857964303521118,,0.0728900382882,-0.506121353728,0.844940336036,0.181929001096,0.0028231532763,-0.0250385649223
1588857964309539032,679,1588857964309437060,,0.0510646816802,-0.377966740536,0.818630200761,0.182070294823,0.0028225826732,-0.0251776942716
1588857964312667891,680,1588857964312577567,,0.051062677695,-0.377969847426,0.818628891286,0.181138525358,0.0028222209454,-0.0243137760877
1588857964318602399,681,1588857964318437148,,0.0510646120252,-0.377979333588,0.818624390697,0.181138385405,0.00282070978396,-0.0243149940787
1588857964321539923,682,1588857964321457455,,0.0289934726173,-0.251357027712,0.815822145314,0.181117072548,0.00217478425778,-0.0235807986076
1588857964324554475,683,1588857964324451400,,0.0508666414682,-0.251808823627,0.83958023188,0.181932434199,0.00282088485963,-0.0251809996245
1588857964330629518,684,1588857964330481467,,0.051069234526,-0.378027351089,0.818601929743,0.181159166482,0.00217682897163,-0.0251897358516
1588857964333595330,685,1588857964333454256,,0.0507389686715,-0.378507664818,0.841778780307,0.181930131555,0.00217550993213,-0.0251838082549
1588857964336566610,686,1588857964336442586,,0.0507413063204,-0.378514432383,0.841775596316,0.181930074089,0.00217596247196,-0.0251841842958
1588857964342618915,687,1588857964342504290,,0.0510795856801,-0.378053001862,0.818589437982,0.181158782756,0.00217635884995,-0.0251925359899
1588857964345693018,688,1588857964345565589,,0.0510783200301,-0.378057219336,0.818587569167,0.181135928384,0.00217641220534,-0.0243188969505
1588857964348621137,689,1588857964348488838,,0.0510702642339,-0.378061678722,0.818586012254,0.181158966992,0.00217464326576,-0.025191359281
1588857964354638924,690,1588857964354506895,,0.0510685835044,-0.378062371682,0.818585797068,0.181159001173,0.0021743257652,-0.0251911408742
1588857964357581177,691,1588857964357492850,,0.0510640743347,-0.378064999459,0.818584864728,0.182043216828,0.00153559659641,-0.0243086430545
1588857964360613107,692,1588857964360481088,,0.0510586564661,-0.378062245377,0.818586474653,0.182066210889,0.00153540999576,-0.0251810685971
1588857964366608290,693,1588857964366501787,,0.0507255868098,-0.378534337164,0.841767593029,0.182839114194,0.00216951595082,-0.0251740826011
1588857964369539803,694,1588857964369441789,,0.0508679980886,-0.25186695565,0.839562712402,0.183804042603,0.00216893004152,-0.0269127121095
1588857964372839622,695,1588857964372667010,,0.0508657420689,-0.251868655806,0.839562339044,0.183804065058,0.0021674188581,-0.0269126804941
1588857964378752286,696,1588857964378654525,,0.0730162412668,-0.251947496428,0.840066792316,0.183823432669,0.00216669658726,-0.0276478555929
1588857964381803236,697,1588857964381647225,,0.0507223821252,-0.378534011614,0.841767932536,0.183827604112,0.00216636117393,-0.0277968055912
1588857964384758358,698,1588857964384575460,,0.0507181656783,-0.37853241194,0.84176890595,0.183827676506,0.00216510852875,-0.0277964244258
1588857964390735115,699,1588857964390624102,,0.073009836406,-0.251943400667,0.840068577346,0.183871082402,0.00216573975733,-0.0294048601823
1588857964393663767,700,1588857964393556797,,0.0505305623722,-0.252211064347,0.862755694671,0.185514236258,0.00216128867528,-0.0277797772475
1588857964396606903,701,1588857964396515631,,0.0505329555122,-0.252207019083,0.862756737055,0.185514201361,0.00216248242007,-0.0277799173949
1588857964402558439,702,1588857964402410761,,0.0505305941283,-0.252204199292,0.862757699657,0.185514294281,0.00216292206925,-0.0277792626345
1588857964405595980,703,1588857964405438791,,0.0727030830435,-0.252280941549,0.863258727795,0.18555760199,0.00216382997777,-0.0293875768919
1588857964408523939,704,1588857964408427606,,0.072699566625,-0.252280819337,0.863259059654,0.185557712413,0.00216355408804,-0.0293868999724
1588857964414550194,705,1588857964414436741,,0.0505251426595,-0.252195256299,0.862760633119,0.185537907943,0.00216294186883,-0.0286526667722
1588857964417485153,706,1588857964417381907,,0.0726945537101,-0.252273842806,0.863261520609,0.186514180225,0.00216353084871,-0.0311270312118
1588857964423538477,707,1588857964423421538,,0.0726932869141,-0.252271600141,0.863262282662,0.1865142113,0.00216305164094,-0.03112687831
1588857964426525732,708,1588857964426424372,,0.0507107556214,-0.126157552851,0.861360613819,0.186516674186,0.00152700184293,-0.0312762871998
1588857964429593107,709,1588857964429467964,,0.0507061464029,-0.126151525363,0.861361767947,0.186516859159,0.0015278696232,-0.0312751417095
1588857964432631524,710,1588857964432404047,,0.0731265742223,-0.126016724288,0.838614960123,0.186690034154,0.00216424056219,-0.0320066107895
1588857964438582853,711,1588857964438445291,,0.0726725477397,-0.252241170944,0.863272920549,0.188366266554,0.00216150675103,-0.031990307762
1588857964441518864,712,1588857964441401680,,0.0726684159703,-0.252237139987,0.863274446163,0.188366478365,0.00216291841885,-0.0319889651287
1588857964447601123,713,1588857964447499731,,0.0506802612063,-0.126121184433,0.861367734407,0.186517841465,0.00152939416612,-0.0312692083968
1588857964450491918,714,1588857964450403137,,0.0506766219032,-0.126116843004,0.861368584184,0.186517973669,0.00152924230753,-0.0312684272267
1588857964453686566,715,1588857964453569726,,0.0730959326435,-0.125982214356,0.838622816465,0.1866912356,0.00216522528456,-0.0319995355214
1588857964459665189,716,1588857964459554942,,0.0730938299414,-0.125975451203,0.838624015706,0.184862764849,0.00153214233361,-0.0320152391769
1588857964462422091,717,1588857964462315957,,0.0730880569446,-0.125973806656,0.838624765892,0.184862982646,0.00153193134332,-0.0320139916436
1588857964465481743,718,1588857964465358159,,0.0727974326705,-0.12616111605,0.861883431744,0.185605953323,0.00152992292745,-0.0311230996694
1588857964471965961,719,1588857964471834504,,0.0727997084835,-0.126159626223,0.861883457596,0.185605880122,0.00153042781951,-0.0311235113877
1588857964474836254,720,1588857964474699827,,0.0726427540777,-0.252200628067,0.863287273362,0.187432851652,0.00152682866486,-0.0311067827749
1588857964477429284,721,1588857964477330527,,0.0727991753824,-0.126157386724,0.861883830432,0.188341323995,0.00152499505136,-0.0310986602521
1588857964483461549,722,1588857964483330759,,0.0506614684054,-0.126088947087,0.861373559472,0.188321290425,0.00152257017748,-0.0303640128577
1588857964486460187,723,1588857964486367588,,0.0506687255313,-0.126088840346,0.86137314824,0.18832102566,0.0015219849188,-0.0303656842585
1588857964489427795,724,1588857964489327621,,0.0728059329165,-0.126148751116,0.861884523614,0.189261332993,0.00215597951258,-0.0310920329438
1588857964495473894,725,1588857964495371205,,0.072807778382,-0.126150151448,0.861884162761,0.189285475322,0.00215532741235,-0.0319777717048
1588857964498462133,726,1588857964498349987,,0.0730978184422,-0.125953391453,0.838626981512,0.18851790435,0.0021548628559,-0.0319846934777
1588857964501520993,727,1588857964501358399,,0.0730981470182,-0.125951422925,0.838627248523,0.18851788639,0.00215439575665,-0.031984830801
1588857964507495719,728,1588857964507385973,,0.0953084003291,-0.126020810219,0.839177819364,0.188538234368,0.00215360583987,-0.0327232369153
1588857964510524471,729,1588857964510347351,,0.050670206523,-0.126074690931,0.861375132212,0.188345019141,0.0015162146081,-0.031251749054
1588857964513456998,730,1588857964513359684,,0.0506718384565,-0.126071472494,0.861375507271,0.187460609079,0.00151872046888,-0.0321355925789
1588857964519519122,731,1588857964519392485,,0.0950425123205,-0.126206698454,0.862430467841,0.188411993379,0.00215332619864,-0.0335990804273
1588857964522555806,732,1588857964522334819,,0.0728079364774,-0.126132825187,0.861886685196,0.187481010365,0.00151748455051,-0.0328704164997
1588857964525438955,733,1588857964525348134,,0.0950490290553,-0.126203309035,0.862430245647,0.188411733243,0.00215275989856,-0.0336005754332
1588857964531558471,734,1588857964531373477,,0.117207312946,-0.126278370544,0.863001376075,0.188432278028,0.00215224732919,-0.0343360036853
1588857964534439431,735,1588857964534361104,,0.0726488932045,-0.252171523999,0.863295258685,0.189331948612,0.00151417294264,-0.0337309510267
1588857964537679498,736,1588857964537532878,,0.0728143351419,-0.126124632871,0.86188734351,0.189331794562,0.00151297851329,-0.0337318692919
1588857964543477249,737,1588857964543380165,,0.0728186115792,-0.126126960957,0.86188664153,0.189331613384,0.0015122945468,-0.0337329168725
1588857964546566845,738,1588857964546401096,,0.0728136941853,-0.126125097491,0.861887329668,0.189331804364,0.00151213880466,-0.033731851926
1588857964549478705,739,1588857964549366774,,0.0728165984363,-0.126121352469,0.861887632331,0.189331679963,0.00151138970474,-0.033732583738
1588857964555480590,740,1588857964555370016,,0.0950554235204,-0.126194629159,0.862430811007,0.190262495281,0.00214741497219,-0.0344626350833
1588857964558489274,741,1588857964558401877,,0.0947895502747,-0.126375986093,0.88568526333,0.191029896058,0.0021464742629,-0.0344563140787
1588857964564557395,742,1588857964564419046,,0.0725230943568,-0.126308654179,0.885147451545,0.191032031166,0.00150944468423,-0.0346044700324
1588857964567635450,743,1588857964567552653,,0.11697865602,-0.126450346161,0.886248314053,0.191993428345,0.00214545285774,-0.0360710239868
1588857964570538871,744,1588857964570435438,,0.116980309423,-0.126450233139,0.88624811194,0.191993359087,0.00214531958225,-0.0360714005477
1588857964576586109,745,1588857964576472140,,0.0947962465624,-0.126374981473,0.885684689987,0.191947915983,0.00214420693531,-0.0344499036969
1588857964579519269,746,1588857964579420638,,0.117130809036,-0.252350743165,0.864384157925,0.192132180172,0.00150755946451,-0.0360713543855
1588857964585635935,747,1588857964585510153,,0.0947988535666,-0.126378327834,0.885683933465,0.191995312349,0.00150764554215,-0.0362134696604
1588857964588558662,748,1588857964588443287,,0.0947985550719,-0.126379695168,0.885683770308,0.192903523465,0.00150650478363,-0.0362057450491
1588857964591643100,749,1588857964591523023,,0.0947981324867,-0.126382771089,0.885683376626,0.192903538862,0.0015065295832,-0.0362056619799
1588857964594584978,750,1588857964594480591,,0.0947940189467,-0.126387278855,0.885683173656,0.191970896685,0.00150813189813,-0.0353356413184
1588857964600675165,751,1588857964600536451,,0.0947913478929,-0.126390118344,0.885683054333,0.191971015059,0.00150889928536,-0.0353349654559
1588857964603718047,752,1588857964603633051,,0.0950579570371,-0.126214517467,0.862427621385,0.191203644926,0.00151139025121,-0.0353411885705
1588857964609536376,753,1588857964609444323,,0.0730553640823,-0.000532654314432,0.861420410469,0.191207646423,0.00151248141757,-0.0354780819988
1588857964612632461,754,1588857964612489753,,0.0728134436472,-0.126155520503,0.861882898306,0.190264886858,0.00151423575844,-0.0346092264273
1588857964615657113,755,1588857964615578593,,0.0728160149345,-0.126159446499,0.86188210641,0.190289406442,0.0015152636863,-0.0354859958365
1588857964618636421,756,1588857964618525912,,0.0728151833468,-0.126165261702,0.861881325436,0.19028946887,0.00151698442656,-0.0354855875527
1588857964624792246,757,1588857964624673057,,0.0730543342079,-0.000552815160144,0.861420485107,0.189381288714,0.00151938560254,-0.035493051703
1588857964627545981,758,1588857964627458211,,0.073051270662,-0.000561475033636,0.86142073931,0.189379677817,0.000874750478243,-0.0354926077917
1588857964633557061,759,1588857964633475539,,0.0728141505805,-0.126175803622,0.861879869458,0.189379638815,0.000874726254515,-0.0354928164896
1588857964636572614,760,1588857964636467642,,0.0728110094276,-0.126184253299,0.861878897785,0.188436881418,0.000877805654919,-0.0346235500678
1588857964639632930,761,1588857964639541755,,0.0725129571231,-0.126366619614,0.885140008591,0.190124288365,0.00152121976722,-0.0346088511783
1588857964642588672,762,1588857964642427751,,0.072508557854,-0.126369873602,0.885139904419,0.190124487399,0.00152287231269,-0.0346076850881
1588857964648433749,763,1588857964648358548,,0.072513289639,-0.126373094286,0.885139056972,0.19012432452,0.00152424775511,-0.0346085193321
1588857964651567453,764,1588857964651466355,,0.0725142079881,-0.126374188222,0.885138825554,0.190122579078,0.00087777636326,-0.03460897038
1588857964657801633,765,1588857964657571661,,0.0950507483608,-0.126259775131,0.862421791331,0.189377732738,0.00152676810677,-0.035353330625
1588857964660690521,766,1588857964660586017,,0.072810537199,-0.12619010445,0.861878081014,0.190240473114,0.00152503920207,-0.0337214100392
1588857964663652829,767,1588857964663535484,,0.0728099882414,-0.126192984327,0.861877705733,0.190240495112,0.00152518128455,-0.0337212795113
1588857964666693126,768,1588857964666564718,,0.0728086125009,-0.126192513002,0.861877890962,0.190240545831,0.00152498702358,-0.0337210021614
1588857964672878066,769,1588857964672746329,,0.0728094473097,-0.126195211296,0.861877425363,0.190265230874,0.00152582807035,-0.0346068259743
1588857964675914805,770,1588857964675818365,,0.0726542592033,-0.252236685069,0.86327577065,0.191183476207,0.00152389161978,-0.0345990534322
1588857964681666491,771,1588857964681564382,,0.0950460635913,-0.126268022624,0.86242110016,0.19028613415,0.0015260669162,-0.0353446282325
1588857964684477373,772,1588857964684395745,,0.0947719526507,-0.126450814793,0.885676466217,0.191949045853,0.00216025072184,-0.0344426051742
1588857964687788157,773,1588857964687639493,,0.0725029098745,-0.126382878524,0.885138510284,0.191008371645,0.00152394667933,-0.0337124471662
1588857964690502271,774,1588857964690411353,,0.0723360235706,-0.252567372275,0.886471077259,0.190124849075,0.00152631206932,-0.0346055465455
1588857964696589571,775,1588857964696523161,,0.0727944008668,-0.126200337891,0.861877945674,0.190265844742,0.0015265653443,-0.0346034182973
1588857964699538653,776,1588857964699433038,,0.072792680549,-0.126197895866,0.861878448541,0.190265912029,0.00152637011434,-0.0346030569296
1588857964705719852,777,1588857964705624412,,0.0950354740694,-0.126270502656,0.862421904041,0.189378380858,0.00152837395441,-0.0353497892602
1588857964708769015,778,1588857964708585240,,0.09503680372,-0.126271225372,0.862421651702,0.189378321577,0.00152815030014,-0.0353501165129
1588857964711665312,779,1588857964711437161,,0.0950367925149,-0.126268981995,0.862421981397,0.189378316416,0.00152776054523,-0.0353501610096
1588857964717474061,780,1588857964717388728,,0.0950418138353,-0.12627232967,0.862420937898,0.189378109019,0.0015278144614,-0.0353512697294
1588857964720699425,781,1588857964720505660,,0.0728004430354,-0.126200447397,0.861877419296,0.190240864351,0.00152523510609,-0.0337191939251
1588857964723590274,782,1588857964723488351,,0.0728007424037,-0.126199007076,0.861877604907,0.190239134618,0.000878088301265,-0.0337196111468
1588857964729543503,783,1588857964729407104,,0.0728030381331,-0.126198574823,0.861877474281,0.189355516723,0.000880924353083,-0.0346134329189
1588857964732598344,784,1588857964732496512,,0.0728028340245,-0.126198601891,0.861877487558,0.189357220991,0.00152673383657,-0.0346132101874
1588857964735640093,785,1588857964735539365,,0.0730956421711,-0.126005750972,0.838619305655,0.189497996093,0.00152686682474,-0.0346122938203
1588857964738490585,786,1588857964738415965,,0.0730990382889,-0.126000883451,0.838619740985,0.189497838996,0.00152577902327,-0.0346132018624
1588857964744605341,787,1588857964744507768,,0.0725106036615,-0.126380516905,0.885138217238,0.190149079384,0.00152557596851,-0.0354840943102
1588857964747585167,788,1588857964747502559,,0.0725168712768,-0.126380816603,0.885137660981,0.190148828994,0.00152563573764,-0.0354854334818
1588857964753589299,789,1588857964753521422,,0.0723458585116,-0.252563994263,0.886471237107,0.190124393743,0.00152452753968,-0.0346081267279
1588857964756496607,790,1588857964756413252,,0.0723438125537,-0.252561367991,0.886472152323,0.190124493235,0.00152487913673,-0.0346075646586
1588857964759548391,791,1588857964759475432,,0.0723443709456,-0.25256111773,0.886472178054,0.190124458859,0.0015245782386,-0.0346077667669
1588857964765575410,792,1588857964765489407,,0.0723457444436,-0.252558620201,0.88647277752,0.190124393565,0.00152421054698,-0.0346081416651
1588857964768581159,793,1588857964768475542,,0.0725120800198,-0.126372396514,0.885139255689,0.190149008151,0.00152459367747,-0.0354845182404
1588857964771895102,794,1588857964771802180,,0.0725075734409,-0.126371054002,0.885139816535,0.190149181554,0.00152414412248,-0.0354836083363
1588857964777691458,795,1588857964777555520,,0.0947757200479,-0.126438009783,0.885677891196,0.190168489119,0.000879009201478,-0.0362219774802
1588857964780709772,796,1588857964780608057,,0.0725012840899,-0.126365156914,0.885141173619,0.190149448124,0.00152469532606,-0.0354821561302
1588857964783533755,797,1588857964783448111,,0.0724995430538,-0.126367699369,0.885140953253,0.190149494654,0.00152352916912,-0.0354819568665
1588857964789630283,798,1588857964789498203,,0.0721927642015,-0.126537850728,0.908405359484,0.191800728073,0.00152072436315,-0.0345904475146
1588857964792562546,799,1588857964792437790,,0.0724967028151,-0.126360357085,0.885142234079,0.191976023282,0.00151997503754,-0.03546595091
1588857964795562330,800,1588857964795468935,,0.0724964620594,-0.126354757943,0.885143053097,0.191976023276,0.00151921979841,-0.035465983302
1588857964801679898,801,1588857964801539529,,0.0723287861978,-0.252537887929,0.886480067744,0.191082594159,0.00152086295407,-0.0363502014934
1588857964804694268,802,1588857964804588599,,0.0946307684591,-0.252622552472,0.887007791879,0.191103676648,0.00152108056753,-0.037088760809
1588857964807765408,803,1588857964807589554,,0.0723287113423,-0.25253712477,0.886480291258,0.191082552618,0.00151985185168,-0.0363504621518
1588857964813739881,804,1588857964813634971,,0.072328570778,-0.25253569993,0.886480708629,0.191082591772,0.00152052677276,-0.0363502281081
1588857964816705163,805,1588857964816579546,,0.0723299849526,-0.252536190072,0.886480453615,0.191082536692,0.00152061075765,-0.0363505141331
1588857964819680687,806,1588857964819558958,,0.0724935852718,-0.12634733878,0.88514434777,0.191107587663,0.00151952694473,-0.0372266128196
1588857964825687845,807,1588857964825563100,,0.0950383505521,-0.126234362793,0.862426877664,0.190361260772,0.00152185127719,-0.0379730438049
1588857964828580781,808,1588857964828455841,,0.0723277103273,-0.252531849446,0.886481875728,0.191107487664,0.00151923966281,-0.0372271378998
1588857964834579842,809,1588857964834477462,,0.0723272158797,-0.252532856491,0.886481629193,0.191107514459,0.00151941081989,-0.0372269933625
1588857964837564086,810,1588857964837471446,,0.0946300232762,-0.252616356022,0.887009636124,0.191128670022,0.00151873608908,-0.0379660642371
1588857964840515765,811,1588857964840434699,,0.0946314697188,-0.252618928997,0.887008749034,0.191128612644,0.00151894142312,-0.0379663448739
1588857964846555283,812,1588857964846435801,,0.0946287947336,-0.252614687854,0.887010242274,0.191103645882,0.00151830795516,-0.037089032943
1588857964849583898,813,1588857964849504470,,0.0943441713737,-0.252930821961,0.910205823139,0.191895905919,0.00151786441139,-0.0379598957664
1588857964852804716,814,1588857964852587222,,0.0943449794543,-0.252931804689,0.910205466296,0.191895858296,0.00151760348918,-0.0379601469448
1588857964858745780,815,1588857964858634792,,0.0943433129505,-0.252930442771,0.910206017486,0.190987883493,0.00151853155197,-0.0379671735512
1588857964861670153,816,1588857964861568435,,0.0946262307691,-0.252618234559,0.887009505716,0.190220826073,0.00152017505515,-0.037972454965
1588857964864702580,817,1588857964864576276,,0.0720095418962,-0.252850855553,0.909682719761,0.190966898979,0.00151885151928,-0.0372272113226
1588857964870719482,818,1588857964870622733,,0.116824868492,-0.379613425476,0.889553706385,0.192068204588,0.00151736558591,-0.0386928284363
1588857964873768047,819,1588857964873663208,,0.116826646963,-0.379609862864,0.889554993139,0.192068137429,0.00151734472409,-0.0386931626246
1588857964876712748,820,1588857964876535201,,0.117099121085,-0.379190472912,0.866455766901,0.19130103097,0.00151906858537,-0.0386988040532
1588857964882835932,821,1588857964882655893,,0.0948488929478,-0.379080432512,0.865917766705,0.190335228489,0.000873212117487,-0.0370924864582
1588857964885638829,822,1588857964885535783,,0.0945526614841,-0.379503323809,0.889021723705,0.191102494296,0.000871886971025,-0.0370863246534
1588857964888621949,823,1588857964888529829,,0.094612876421,-0.252613691413,0.887012224119,0.190194532857,0.000873530813241,-0.0370930832498
1588857964894687326,824,1588857964894584960,,0.0945476987917,-0.37949648792,0.889025169556,0.191127770934,0.000871616822273,-0.0379621699831
1588857964897695123,825,1588857964897601226,,0.0942401169573,-0.379899624475,0.91214330226,0.191895279336,0.000870314907455,-0.0379546309229
1588857964900615546,826,1588857964900524569,,0.0942375927947,-0.379896812524,0.912144734194,0.190987321283,0.000871350709233,-0.0379615801805
1588857964906716178,827,1588857964906617119,,0.0945395275651,-0.37948823292,0.889029562274,0.190220150459,0.000873356416832,-0.0379674443092
1588857964909758571,828,1588857964909625616,,0.0945384243062,-0.379483825663,0.889031560849,0.190220191604,0.000873092550143,-0.0379672442366
1588857964912722272,829,1588857964912581668,,0.0945339003302,-0.379488471159,0.889030058963,0.190222140472,0.00152040234333,-0.0379658608623
1588857964918748332,830,1588857964918610699,,0.0945360180872,-0.379483644214,0.889031894171,0.191153911644,0.000872491716647,-0.0388456354859
1588857964921857160,831,1588857964921740434,,0.116799898647,-0.37959020122,0.889566895774,0.191177268642,0.00152101528101,-0.039580080983
1588857964924621783,832,1588857964924489284,,0.116797393256,-0.379594435898,0.889565417722,0.191177297828,0.00152015227826,-0.0395799731625
1588857964930599159,833,1588857964930502815,,0.139166383006,-0.379712956405,0.890124973421,0.19119903835,0.0015202589761,-0.0403185136966
1588857964933677087,834,1588857964933580505,,0.11651317451,-0.380001417571,0.912676034158,0.191036727657,0.00152054068221,-0.0395800806105
1588857964936522867,835,1588857964936413105,,0.116791134952,-0.379600533521,0.889563637403,0.191177545317,0.00152002798525,-0.0395787825071
1588857964942560572,836,1588857964942471889,,0.116787239586,-0.379603027198,0.889563084697,0.191177706788,0.00151998762976,-0.0395780040971
1588857964945717956,837,1588857964945555400,,0.116784874447,-0.379603163728,0.889563336942,0.191177756983,0.00151929055166,-0.0395777883984
1588857964951750023,838,1588857964951635080,,0.0948142141136,-0.379077339128,0.865922918777,0.189479551368,0.000874380982323,-0.0388552063225
1588857964954753954,839,1588857964954604974,,0.0948161516319,-0.379080502125,0.865921321946,0.189479468183,0.000874567993007,-0.038855607768
1588857964957605394,840,1588857964957516018,,0.0945174160781,-0.379509476346,0.88902284516,0.190246623006,0.000873100687961,-0.0388495771889
1588857964963664784,841,1588857964963539044,,0.0945161365856,-0.379511363869,0.889022175434,0.19024667736,0.000873163889732,-0.0388493095949
1588857964966631040,842,1588857964966522069,,0.0945115633998,-0.379513818134,0.889021613924,0.190246786398,0.000872147739066,-0.0388487984559
1588857964972884091,843,1588857964972781698,,0.116778776162,-0.379616281307,0.889558539753,0.191177874713,0.00151791193188,-0.0395772726045
1588857964975973942,844,1588857964975874965,,0.116780488207,-0.379617678947,0.889557718559,0.190295613332,0.00151965310582,-0.0404616008134
1588857964978612046,845,1588857964978543701,,0.116524154512,-0.507792491419,0.915001386544,0.191064291109,0.0021561621886,-0.0404563758558
1588857964981674460,846,1588857964981579777,,0.116552853625,-0.507789540702,0.914999368835,0.191061708892,0.00152326144347,-0.0404600920339
1588857964987765487,847,1588857964987640368,,0.116587118354,-0.507787251641,0.914996273877,0.191060777012,0.0015286292464,-0.0404642899085
1588857964990669913,848,1588857964990557011,,0.13902634099,-0.5079111305,0.915528757523,0.191992056517,0.00216115160725,-0.0411967046462
1588857964996750631,849,1588857964996602450,,0.139021911739,-0.507909513531,0.915530327159,0.191992004144,0.00215866787235,-0.0411970789443
1588857964999633191,850,1588857964999554125,,0.116868491035,-0.507330538062,0.891969414958,0.190293815886,0.00152333934311,-0.0404699149036
1588857965002645017,851,1588857965002541532,,0.116863990215,-0.507329332463,0.891970690371,0.190294086378,0.00152388785069,-0.0404686223491
1588857965005730689,852,1588857965005599932,,0.116858908372,-0.507327567151,0.891972360228,0.190294072029,0.00152157912901,-0.0404687766925
1588857965011767213,853,1588857965011685181,,0.139284280837,-0.507453144715,0.892509639159,0.191249500133,0.00151880282151,-0.0420786142441
1588857965014752194,854,1588857965014630932,,0.139281778194,-0.507450219782,0.892511692735,0.191249557449,0.00151812924984,-0.042078378044
1588857965020640782,855,1588857965020544860,,0.139282295126,-0.507447221284,0.892513316896,0.189422673256,0.000875059442412,-0.0420911782026
1588857965023772277,856,1588857965023668506,,0.0945218262136,-0.635761557659,0.894080428712,0.187553647717,0.000878906679816,-0.0406285040449
1588857965026666767,857,1588857965026578532,,0.0945207308044,-0.635759507341,0.894082002451,0.187553804775,0.000879548299754,-0.0406277651246
1588857965029630271,858,1588857965029537508,,0.116591934593,-0.6363467303,0.917537680069,0.188342798906,0.000878923514241,-0.0413572472394
1588857965035732237,859,1588857965035601963,,0.116596074345,-0.636344398905,0.917538770926,0.18926201512,0.00152424144914,-0.0413510948743
1588857965038658796,860,1588857965038560904,,0.116596430575,-0.636344647499,0.917538553249,0.189262054794,0.00152465186119,-0.0413508981582
1588857965044701850,861,1588857965044558231,,0.0941852574314,-0.636229724,0.917045301085,0.188320961281,0.000878873943567,-0.0406213069749
1588857965047799497,862,1588857965047693588,,0.139103763312,-0.636465368258,0.918054331652,0.189257952649,0.00152333762614,-0.0412132892974
1588857965050613509,863,1588857965050526645,,0.116597120278,-0.636340701447,0.917541202316,0.18834432211,0.00152537320681,-0.041357937053
1588857965053650770,864,1588857965053525016,,0.116981610793,-0.765184758254,0.897194695769,0.188520900322,0.00152482940087,-0.0422351092455
1588857965059656974,865,1588857965059582674,,0.139221999543,-0.765767466465,0.920594498712,0.189309701819,0.00152370512109,-0.042969928181
1588857965062637359,866,1588857965062537313,,0.116921261759,-0.635857226467,0.894590826294,0.188519172953,0.000878383258047,-0.0422353406492
1588857965068655262,867,1588857965068543257,,0.139419648108,-0.635982974033,0.895106761607,0.187649051872,0.000234557891538,-0.0438678595068
1588857965071998873,868,1588857965071923023,,0.139114279876,-0.636453689656,0.918060834521,0.18938816958,0.000878753893045,-0.0456109626621
1588857965074974296,869,1588857965074888457,,0.116607631722,-0.636334145943,0.917544412905,0.188419914751,0.000233594002118,-0.0440006656825
1588857965077528134,870,1588857965077417644,,0.116657175951,-0.765646481581,0.920096957347,0.189314087673,0.00152542291696,-0.0431173388463
1588857965086649616,871,1588857965086534444,,0.139545465383,-0.765308232864,0.897692592595,0.189502332288,0.000880193286936,-0.0447316149601
1588857965092576226,872,1588857965092492481,,0.116988789237,-0.765182174909,0.897195963008,0.189480032232,0.000880906889452,-0.043991556267
1588857965095617971,873,1588857965095511950,,0.116652370923,-0.765644590613,0.920099140093,0.189314555969,0.00152671286916,-0.0431152370008
1588857965098613065,874,1588857965098524972,,0.116648737872,-0.765643994001,0.920100097153,0.18931484872,0.00152737960552,-0.04311392793
1588857965104557887,875,1588857965104457039,,0.139545960853,-0.765304346422,0.897695828862,0.189502682824,0.000881978399907,-0.0447300947473
1588857965107570059,876,1588857965107479085,,0.139322435095,-0.895711008397,0.923045660278,0.190295985301,0.000881791347983,-0.0456028672886
1588857965110524914,877,1588857965110424360,,0.139228335495,-0.7657606639,0.920599198962,0.18846994199,0.000238532520227,-0.0456144414057
1588857965117607674,878,1588857965117490691,,0.139223955883,-0.765759248149,0.920601038938,0.188470199067,0.000238670032393,-0.0456133784839
1588857965119614897,879,1588857965119516684,,0.139229978673,-0.765757707297,0.920601409768,0.189414362177,0.000237456680704,-0.0464958676761
1588857965122649584,880,1588857965122573966,,0.16170579201,-0.765890081348,0.921108378304,0.189491810338,0.000237754894063,-0.0489879041061
1588857965128723642,881,1588857965128586450,,0.139223757593,-0.765752048649,0.920607057448,0.189468772545,0.000236809300972,-0.0482511490019
1588857965131655788,882,1588857965131482129,,0.161862756213,-0.895826359229,0.92354722103,0.19037132595,0.000235611305962,-0.0481051144034
1588857965134553619,883,1588857965134445266,,0.139321699539,-0.895698294001,0.923058109008,0.190348658694,0.000235495973114,-0.0473677002857
1588857965140711555,884,1588857965140618578,,0.139321920509,-0.895699300764,0.923057098732,0.189440105181,-0.000399982841062,-0.0473733631456
1588857965143662989,885,1588857965143577519,,0.139320986797,-0.895701646686,0.923054963263,0.18946742623,-0.000399375269565,-0.0482509385219
1588857965146674820,886,1588857965146573562,,0.13933009749,-0.895702854425,0.923052416145,0.189467181367,-0.000398348034564,-0.0482519085086
1588857965152754450,887,1588857965152646510,,0.13899040216,-0.896138547296,0.946026825458,0.190210937243,0.000236751490422,-0.0473699654701
1588857965155703574,888,1588857965155602049,,0.138997196437,-0.896142287758,0.946022283989,0.190210754018,0.000237632245683,-0.0473706967843
1588857965158809276,889,1588857965158568603,,0.161549581321,-0.896274203828,0.94650360196,0.189399110395,0.000240448522475,-0.0507581882259
1588857965164731251,890,1588857965164600248,,0.139061728587,-1.0265927838,0.948292366841,0.190263193246,-0.00039993366737,-0.049129321868
1588857965167692775,891,1588857965167610281,,0.139062837252,-1.02659826312,0.948286272483,0.190262613893,-0.000401572991138,-0.0491315521033
1588857965170679171,892,1588857965170575065,,0.161663132403,-1.02672442873,0.948755067719,0.191193850948,0.000233805311381,-0.049863920766
1588857965176960918,893,1588857965176794399,,0.161319834823,-1.02713040016,0.971613940273,0.192904186124,0.000229851336513,-0.0507444907011
1588857965179771176,894,1588857965179634562,,0.161031274351,-1.15834278954,0.996550488484,0.193670079707,0.000227570673907,-0.050741580994
1588857965182770486,895,1588857965182654756,,0.161756365913,-1.15761266702,0.950822877822,0.193097320988,-0.000408048666037,-0.0525059168927
1588857965188588889,896,1588857965188471074,,0.161761287699,-1.15761291756,0.950821735475,0.193096876069,-0.000408578498803,-0.052507548993
1588857965191652409,897,1588857965191560825,,0.161758335372,-1.15761170563,0.950823713242,0.193124665655,-0.000409433612731,-0.0533971807558
1588857965194557116,898,1588857965194432683,,0.16167955483,-1.02673439509,0.948741483726,0.19503106992,-0.00041379520166,-0.0560280889392
1588857965200726019,899,1588857965200647965,,0.139110396022,-1.15748293116,0.950376215331,0.19497860184,-0.00105144463048,-0.0544091713797
1588857965203614159,900,1588857965203546066,,0.161776577801,-1.15760163107,0.950832875094,0.194124936473,-0.000407624446771,-0.0560316138067
1588857965206560413,901,1588857965206448842,,0.161777725291,-1.15760686124,0.95082631229,0.19412535817,-0.000405864043707,-0.0560301655708
1588857965212645869,902,1588857965212556743,,0.115676321203,-1.02731423904,0.993536699921,0.192870811616,-0.000403295944709,-0.0545558019142
1588857965215610192,903,1588857965215529135,,0.185420599541,-0.894685939572,0.85547027268,0.183758330309,0.000256734376703,-0.0559303456477
1588857965221576630,904,1588857965221475436,,0.185428136461,-0.894646398512,0.855509990871,0.183758904061,0.000257736689734,-0.0559284559505
1588857965224769708,905,1588857965224611582,,0.208025240951,-0.894765669888,0.856070215348,0.182819516918,0.000252513672796,-0.0549147293215
1588857965227863698,906,1588857965227698543,,0.207754704838,-0.895228575507,0.878860834738,0.183584000253,0.000256810689064,-0.0549151397213
1588857965233578920,907,1588857965233506169,,0.185482894954,-0.894658094856,0.855485888621,0.182791444282,-0.000371578505716,-0.0541819807666
1588857965236705992,908,1588857965236561144,,0.184854967609,-0.895563101652,0.90113014372,0.18346621331,0.000266835251429,-0.055935453917
1588857965239589177,909,1588857965239507294,,0.184855128235,-0.895586008886,0.901107344473,0.183465589226,0.000266093376639,-0.0559375043836
1588857965245627536,910,1588857965245549909,,0.162656882463,-0.895017122575,0.877748993898,0.184525583217,0.000264498077284,-0.0560779819325
1588857965248559309,911,1588857965248484026,,0.162657571123,-0.895007891934,0.877758278422,0.18452576404,0.000264678283382,-0.0560773860802
1588857965251626326,912,1588857965251526383,,0.140248353976,-1.02540241338,0.879620170639,0.184501235388,0.000264006054837,-0.0553405450777
1588857965257470491,913,1588857965257400552,,0.140588505525,-1.02500273566,0.856796512501,0.183705623335,-0.000371567650915,-0.0544645134532
1588857965260630239,914,1588857965260480576,,0.140203688318,-1.02542167903,0.87960483213,0.184444355531,0.000258347512269,-0.0535813807065
1588857965263733974,915,1588857965263631790,,0.162412970212,-1.02596253098,0.902901802819,0.185175385268,-0.000384765577119,-0.0525489954502
1588857965269683311,916,1588857965269574427,,0.162384459905,-1.02595962716,0.902910230317,0.185176116772,-0.000387939208164,-0.0525463943293
1588857965272901585,917,1588857965272833073,,0.162478304443,-1.15688180861,0.905038327884,0.185091576719,-0.000390033924,-0.0499019328878
1588857965276039260,918,1588857965275902437,,0.162464992214,-1.15687590413,0.905048265119,0.185091852181,-0.000391745918695,-0.0499008977461
1588857965281786912,919,1588857965281639680,,0.162095982107,-1.15724815607,0.927877926651,0.185009642833,0.000244469154417,-0.0516653469582
1588857965284770954,920,1588857965284613519,,0.161720069021,-1.15763028346,0.950807604004,0.185722325886,0.000239493791388,-0.0498966951782
1588857965287621215,921,1588857965287528421,,0.161711912132,-1.15763768059,0.950799985113,0.187517611396,0.000233138388067,-0.0490110856944
1588857965293730085,922,1588857965293609860,,0.161716352505,-1.15763909988,0.950797501841,0.187517509512,0.000233630031636,-0.0490114731618
1588857965296848915,923,1588857965296705906,,0.161716711677,-1.15764325132,0.950792386162,0.187572722975,0.000232945098544,-0.0507789861596
1588857965299803561,924,1588857965299672794,,0.161711616057,-1.15764919883,0.950786011369,0.188573420406,0.000230993260204,-0.0534202660661
1588857965305732804,925,1588857965305636361,,0.161721410846,-1.15765252066,0.950780300826,0.18857323474,0.000232292023848,-0.0534209158324
1588857965308707556,926,1588857965308618081,,0.162153887991,-1.28852179708,0.929757053436,0.190532967981,0.000231068536283,-0.0534129385123
1588857965311750316,927,1588857965311621924,,0.161803989182,-1.28885617853,0.952697569036,0.192217077885,-0.000408592999485,-0.0534054019752
1588857965317722235,928,1588857965317627571,,0.161811770135,-1.28885646357,0.952695861889,0.192245134043,-0.000406585609124,-0.0542842440981
1588857965320727229,929,1588857965320625263,,0.161461232527,-1.2891973464,0.975538756924,0.193067037749,-0.000405462075021,-0.0560402724736
1588857965329798146,930,1588857965329650341,,0.161466495478,-1.28920269331,0.975530819724,0.193096092265,-0.000402601550931,-0.0569280783517
1588857965332807368,931,1588857965332637653,,0.161474803916,-1.28920301987,0.975529012946,0.193096097976,-0.000401268978622,-0.0569280683886
1588857965335732441,932,1588857965335607618,,0.161784492681,-1.15765524835,0.950766247635,0.193265354996,-0.000400940224977,-0.0578063049321
1588857965341790478,933,1588857965341697907,,0.161441509924,-1.1580336056,0.973607371675,0.193124617759,-0.0003986424863,-0.0578077264327
1588857965344786410,934,1588857965344614616,,0.18418222266,-1.28932776755,0.975976778715,0.19497052292,-0.000404033144971,-0.0585391680555
1588857965350733510,935,1588857965350629813,,0.183725509238,-1.15851826319,0.996951030559,0.195764621068,-0.000409229185822,-0.0594161555986
1588857965353681633,936,1588857965353590596,,0.184068341362,-1.15813707984,0.974104761471,0.197765405056,-0.00041577367043,-0.06028900471
1588857965356827563,937,1588857965356633151,,0.184048193871,-1.15812888393,0.974118312563,0.197765206675,-0.00042047394392,-0.0602896228534
1588857965362869003,938,1588857965362730079,,0.183760411746,-1.28964275053,0.998875768021,0.200409689323,-0.000426766725144,-0.0620512042028
1588857965365836511,939,1588857965365625851,,0.183761207805,-1.28964387281,0.998874172604,0.200409521653,-0.000427007922448,-0.0620517440724
1588857965368697890,940,1588857965368556931,,0.206562019262,-1.28975597497,0.999357936234,0.201339446066,-0.000431431451921,-0.062791054353
1588857965375040033,941,1588857965374919871,,0.206566228165,-1.28976675955,0.999343147686,0.201367322372,-0.000431052793012,-0.0636748836974
1588857965377834817,942,1588857965377684856,,0.206568510813,-1.28978767433,0.999315682343,0.201367589295,-0.000428649298528,-0.06367405579
1588857965383916876,943,1588857965383791541,,0.229298680126,-1.2899294742,0.999768320366,0.202335678369,-0.000428749230855,-0.0653043411385
1588857965386777084,944,1588857965386628710,,0.229308587032,-1.28992632917,0.999770105943,0.202335813912,-0.000426946258728,-0.0653039329906
1588857965389691697,945,1588857965389575563,,0.206929904659,-1.28945155683,0.976456597614,0.201546177175,-0.00042903534131,-0.0645673351698
1588857965392758503,946,1588857965392654989,,0.229287033905,-1.28990906868,0.999797318531,0.201391017027,-0.000430409556283,-0.0644161588605
1588857965398824649,947,1588857965398661404,,0.206574126014,-1.28978563411,0.999317154857,0.202281531963,-0.00107111071974,-0.0636720405233
1588857965401735108,948,1588857965401655433,,0.183687539001,-1.15851156537,0.996965810425,0.202288086291,-0.00043188301216,-0.0638187138133
1588857965407729682,949,1588857965407636824,,0.183687242737,-1.1585058876,0.996972462746,0.202287636479,-0.000433591631873,-0.0638201279908
1588857965410673992,950,1588857965410565464,,0.183331816615,-1.15886487825,1.01985623426,0.203053164735,-0.000436594816314,-0.063816589272
1588857965413587279,951,1588857965413509841,,0.182981043726,-1.15922683112,1.04284452015,0.204755546618,-0.000441901891069,-0.0646937674663
1588857965416684064,952,1588857965416570904,,0.18297138926,-1.15923965408,1.04283195995,0.204755524006,-0.000442962739093,-0.0646938317791
1588857965422631680,953,1588857965422523634,,0.183023486405,-1.29032782831,1.04471023717,0.204753379122,-0.0010835147985,-0.0646963782291
1588857965425667949,954,1588857965425590909,,0.205848672076,-1.29045744768,1.0451648425,0.204805291132,-0.00108300636913,-0.0663245839086
1588857965431655542,955,1588857965431564119,,0.205836453481,-1.29045088174,1.04517535577,0.204805104566,-0.00108594880857,-0.0663251118962
1588857965434748145,956,1588857965434620541,,0.206192612141,-1.29010904903,1.022206049,0.20495056907,-0.00173716752418,-0.0663256394421
1588857965437741611,957,1588857965437651532,,0.205837560896,-1.29043966691,1.04518898419,0.205718900129,-0.00174022593357,-0.0663233231142
1588857965440682575,958,1588857965440592320,,0.206184193476,-1.29010583123,1.02221180823,0.204950424825,-0.00173914061251,-0.0663260334574
1588857965446708628,959,1588857965446620674,,0.205824353909,-1.29043363275,1.04519903505,0.206720586143,-0.00174356664439,-0.068978487205
1588857965449687417,960,1588857965449607012,,0.205815913601,-1.2904235589,1.04521313444,0.206721202765,-0.00174408034703,-0.0689766262454
1588857965455799271,961,1588857965455656369,,0.205845834782,-1.42179393974,1.04693653031,0.207628790359,-0.00109752664227,-0.0689709060259
1588857965458698782,962,1588857965458614027,,0.205862654555,-1.42179006828,1.04693848075,0.208573194369,-0.00109650789611,-0.0698502398773
1588857965461725056,963,1588857965461632652,,0.205823710635,-1.42177878406,1.04696146186,0.209450464155,-0.0017530452198,-0.0689583130316
1588857965464729884,964,1588857965464648393,,0.20585057827,-1.55337654784,1.04854117985,0.209423787304,-0.00110110181969,-0.0680733665092
1588857965470714785,965,1588857965470617972,,0.205849974881,-1.55336931784,1.04855200922,0.209424633744,-0.00109980702958,-0.0680707833619
1588857965473926251,966,1588857965473825340,,0.205508219418,-1.55365441097,1.07142866788,0.210190139102,-0.00109704038972,-0.0680670733959
1588857965479711070,967,1588857965479641200,,0.205514494495,-1.42207471472,1.06985092216,0.210218303324,-0.00109397068846,-0.0689514204866
1588857965482741526,968,1588857965482589614,,0.205154347693,-1.42237941784,1.09274700361,0.211069112897,-0.00109433986081,-0.0716108425649
1588857965485616356,969,1588857965485457555,,0.227623573476,-1.55431969851,1.11768783911,0.212746650865,-0.000454995955845,-0.0714615412241
1588857965491800391,970,1588857965491637063,,0.22761930744,-1.55432807021,1.11767706567,0.21370897671,-0.000456793549853,-0.0732278854147
1588857965494792462,971,1588857965494700017,,0.228013457694,-1.55403986798,1.09477812783,0.213857897894,-0.00109543310756,-0.0732276217018
1588857965497867852,972,1588857965497746058,,0.228043570437,-1.55402803205,1.09478865673,0.214857855376,-0.00174472227121,-0.0758902210644
1588857965503802219,973,1588857965503663101,,0.228043631508,-1.55402804131,1.09478863087,0.21485755663,-0.00174534219999,-0.0758910526041
1588857965506826674,974,1588857965506611271,,0.227696990903,-1.55432219629,1.11766941111,0.218406866616,-0.00109832300098,-0.0776489519357
1588857965509738860,975,1588857965509643548,,0.227721300695,-1.55434157295,1.11763751095,0.219320868974,-0.00174755743484,-0.0776454865469
1588857965515708632,976,1588857965515570957,,0.227766358383,-1.55432047037,1.11765767723,0.219320350981,-0.00174342552009,-0.0776470425614
1588857965518636995,977,1588857965518569029,,0.227783097806,-1.68602955429,1.11911378198,0.219350175008,-0.00174197747612,-0.0785401793136
1588857965521624543,978,1588857965521560077,,0.227740718651,-1.68602385276,1.11913099661,0.219351101272,-0.00174639144207,-0.0785374943309
1588857965527764085,979,1588857965527691694,,0.250712279043,-1.68613527522,1.119577201,0.219403180238,-0.00174301175559,-0.0801732663276
1588857965530688512,980,1588857965530615789,,0.250714152825,-1.68613651908,1.11957490809,0.219403161819,-0.00174269835554,-0.0801733235446
1588857965533644863,981,1588857965533571698,,0.227752551876,-1.68602657352,1.11912448954,0.219379646935,-0.00174434818239,-0.0794241516084
1588857965539678368,982,1588857965539592236,,0.250341056189,-1.8182447344,1.1439213994,0.219229735116,-0.00109127618615,-0.0792844090592
1588857965542654949,983,1588857965542583560,,0.250342898362,-1.81823945109,1.14392939396,0.219229522141,-0.00109180111919,-0.079284990727
1588857965545812123,984,1588857965545685815,,0.250313963782,-1.81825140477,1.14391672563,0.219229857449,-0.00109408098943,-0.0792840321384
1588857965551695805,985,1588857965551605390,,0.250310942884,-1.81825759364,1.14390754943,0.219230065769,-0.00109365400927,-0.0792834619973
1588857965554667538,986,1588857965554565017,,0.250293780771,-1.81825216459,1.1439199342,0.219229936612,-0.00109648444121,-0.0792837800404
1588857965557747132,987,1588857965557677996,,0.250658904788,-1.81799666872,1.12093179546,0.219404773259,-0.0017505347689,-0.0801687427938
1588857965563769226,988,1588857965563691939,,0.250275825538,-1.81824198816,1.14394003786,0.220201110113,-0.00175325592179,-0.0810537145927
1588857965566732325,989,1588857965566619400,,0.250271189382,-1.81825521277,1.143920032,0.220201075485,-0.00175298051744,-0.0810538146236
1588857965569728182,990,1588857965569579455,,0.250284987415,-1.81825503616,1.14391729385,0.221134516131,-0.00175452032735,-0.0819487786352
1588857965576043866,991,1588857965575887185,,0.249916919897,-1.81850767045,1.16681945476,0.221870700188,-0.00175418006514,-0.0810481462793
1588857965578707622,992,1588857965578561699,,0.2731829093,-1.81837855541,1.14433999006,0.220253537675,-0.00174833679081,-0.0826972373882
1588857965581773160,993,1588857965581642064,,0.272429277411,-1.95081409745,1.19140103001,0.222689959013,-0.00110132007104,-0.0826857917526
1588857965587722948,994,1588857965587622612,,0.272811157646,-1.81863585549,1.16723537884,0.222896155953,-0.00175199726228,-0.084461005266
1588857965590778159,995,1588857965590579131,,0.272844857954,-1.81863800086,1.16722415909,0.223782075407,-0.00175069008521,-0.0835707756463
1588857965593779305,996,1588857965593679435,,0.272907170277,-1.81864604678,1.167197055,0.224771763671,-0.00239690939005,-0.0862420794386
1588857965599700168,997,1588857965599592672,,0.272879987105,-1.81866086942,1.16718031465,0.224772102658,-0.00239880395099,-0.086241143258
1588857965602687184,998,1588857965602609641,,0.272887339541,-1.81866887411,1.16716612292,0.225629716594,-0.00239972769809,-0.084451189975
1588857965608701005,999,1588857965608603496,,0.272888557988,-1.81866290034,1.16717514628,0.225630121197,-0.00239925753034,-0.0844501223409
1588857965611685445,1000,1588857965611602075,,0.272925014353,-1.81867780643,1.16714339529,0.22565906856,-0.00239237595792,-0.0853372894125
1588857965614678356,1001,1588857965614607241,,0.250044495012,-1.81856985038,1.1666952062,0.225633673144,-0.00303661267513,-0.0845930301982
1588857965620660092,1002,1588857965620579665,,0.272924951387,-1.81867186327,1.16715267077,0.225716392174,-0.00239289565058,-0.0871241908584
1588857965623965283,1003,1588857965623887199,,0.295901046341,-1.8187928376,1.16759391899,0.227561236416,-0.00239549634577,-0.0878635844144
1588857965626798531,1004,1588857965626700262,,0.295523723122,-1.81903813632,1.1905183035,0.228325496186,-0.00239858272388,-0.0878613937039
1588857965632782878,1005,1588857965632672615,,0.295527958114,-1.81902804548,1.19053267028,0.228325728131,-0.00239833070682,-0.0878607978255
1588857965635734917,1006,1588857965635640157,,0.272535040905,-1.95086408044,1.19129499261,0.230209169541,-0.00175099656927,-0.0897788374405
1588857965638754192,1007,1588857965638652790,,0.295156464362,-1.95119487308,1.21468673227,0.231903040886,-0.0017553041899,-0.0905206787013
1588857965644766050,1008,1588857965644653669,,0.295158482438,-1.95117664045,1.21471552915,0.231902974859,-0.00175651735232,-0.090520824321
1588857965647861207,1009,1588857965647742195,,0.295126659794,-1.95118441733,1.21471076928,0.232874916912,-0.00176171300461,-0.0922957718585
1588857965650923264,1010,1588857965650738142,,0.29513722436,-1.95118514864,1.21470702775,0.232874800606,-0.0017604892941,-0.092296088664
1588857965656980915,1011,1588857965656788881,,0.294710478996,-1.95140815894,1.23776651767,0.232756101801,-0.00241912413883,-0.0931947717421
1588857965659777030,1012,1588857965659661790,,0.294705622839,-1.95141031444,1.23776427564,0.232756429479,-0.00241902663548,-0.0931939558842
1588857965662696768,1013,1588857965662610084,,0.317590554466,-1.95151842017,1.23822430282,0.233637982342,-0.00242506052884,-0.0921470720807
1588857965668724607,1014,1588857965668622599,,0.317563567263,-1.95151278848,1.23824010022,0.234639276495,-0.00242982562343,-0.0948211248679
1588857965672177440,1015,1588857965672079341,,0.317551793075,-1.95151386849,1.23824141767,0.234668106615,-0.00243078791458,-0.095710828927
1588857965675054407,1016,1588857965674953813,,0.317183711906,-2.08374718897,1.2623147349,0.236367297362,-0.00178011424558,-0.0965934924969
1588857965680838684,1017,1588857965680731437,,0.31715702049,-2.08374580017,1.26232373393,0.237281084353,-0.00243952467864,-0.096588836348
1588857965683980687,1018,1588857965683817248,,0.317131210731,-2.08375052455,1.26232241968,0.237281312957,-0.00244198458214,-0.0965882125942
1588857965686726611,1019,1588857965686602133,,0.340189177952,-2.21595706139,1.26381784816,0.238239292736,-0.00244170689949,-0.0982347387557
1588857965692853090,1020,1588857965692759086,,0.340555964957,-2.0836518917,1.239815448,0.238445991142,-0.00308655130887,-0.100015266636
1588857965695756076,1021,1588857965695635029,,0.29420611779,-2.08365066472,1.26186337298,0.241010393677,-0.00309270782319,-0.0994058019611
1588857965698836575,1022,1588857965698726291,,0.317137275052,-2.08375917039,1.26230662407,0.241034811306,-0.00309226092391,-0.100152594375
1588857965704687056,1023,1588857965704601698,,0.317135491881,-2.08377183017,1.26228617364,0.241092355785,-0.00309048738809,-0.101934356403
1588857965707811909,1024,1588857965707647446,,0.316753648257,-2.08398240265,1.28524569248,0.243705010606,-0.00309608955404,-0.102813013538
1588857965713748367,1025,1588857965713656143,,0.339804026468,-2.0840802784,1.28571121119,0.24370093949,-0.00309486173156,-0.102672036233
1588857965716869917,1026,1588857965716650143,,0.339807517538,-2.08406023414,1.28574277882,0.244671579911,-0.00375341135771,-0.104461707912
1588857965719829377,1027,1588857965719630357,,0.339427850029,-2.08427258346,1.30880297225,0.246372578002,-0.00375690759687,-0.105345421364
1588857965725810499,1028,1588857965725666837,,0.339806922261,-2.08407348921,1.28572145076,0.245605628118,-0.00375310835182,-0.10534750027
1588857965728922506,1029,1588857965728710545,,0.362360068983,-2.08438609124,1.30925316684,0.247368090618,-0.00376007115039,-0.107874645214
1588857965731808962,1030,1588857965731715690,,0.339412856594,-2.08429351967,1.30877351913,0.248279443425,-0.00310424614111,-0.108021508484
1588857965737798813,1031,1588857965737703565,,0.339393741606,-2.08429280975,1.30877960678,0.248278558825,-0.00310818918527,-0.108023428266
1588857965740819925,1032,1588857965740672112,,0.362358009563,-2.21647523949,1.31027227983,0.249187975894,-0.00310993844677,-0.107866490274
1588857965746782040,1033,1588857965746668687,,0.339408098989,-2.08430144462,1.30876213195,0.251066802282,-0.00376938830746,-0.109798555068
1588857965749836922,1034,1588857965749688427,,0.339393977953,-2.21634971884,1.30985664233,0.252038185775,-0.00377502613927,-0.111590346006
1588857965752914575,1035,1588857965752797445,,0.362376448391,-2.21645707466,1.31029790793,0.252994662943,-0.0037749152037,-0.11322982617
1588857965755860116,1036,1588857965755753428,,0.384945822319,-2.21677379088,1.33370633897,0.254725121286,-0.00378040599849,-0.114866088058
1588857965761846832,1037,1588857965761698865,,0.384923236612,-2.21676835985,1.33372188455,0.254725077759,-0.0037838141853,-0.114866072364
1588857965764825977,1038,1588857965764723273,,0.384915684412,-2.2167798314,1.33370499723,0.255685081587,-0.00444276496444,-0.116660178586
1588857965770682792,1039,1588857965770584546,,0.384901610702,-2.21678159219,1.33370613227,0.255685160906,-0.00444429110203,-0.116659946612
1588857965773997879,1040,1588857965773775576,,0.384507481635,-2.21697963785,1.35668534056,0.258336525395,-0.00445006929865,-0.118441786364
1588857965777020278,1041,1588857965776756046,,0.384868631579,-2.21678360557,1.33371230299,0.258477691556,-0.0044513645318,-0.118439002305
1588857965779717744,1042,1588857965779617479,,0.384512207626,-2.21696182504,1.35671310889,0.259212906034,-0.00509813312384,-0.117529968118
