%time,field.header.seq,field.header.stamp,field.header.frame_id,field.vector.x,field.vector.y,field.vector.z
1588857964060323574,617,1588857964060197178,,0.499855458741,-0.199913738016,0.215948893779
1588857964063291034,618,1588857964063192654,,0.499856268651,-0.199915108679,0.215929290774
1588857964066372057,619,1588857964066234966,,0.499855630742,-0.199917651913,0.215909462019
1588857964072627007,620,1588857964072448100,,0.499855370291,-0.199919419474,0.215888580285
1588857964075690041,621,1588857964075584644,,0.499853996736,-0.199922049991,0.21587186312
1588857964078301601,622,1588857964078179426,,0.499853325888,-0.199923838048,0.21585191883
1588857964084380314,623,1588857964084197532,,0.499851883396,-0.199926870352,0.215833582511
1588857964087411854,624,1588857964087248443,,0.499852309544,-0.199927543868,0.215817892869
1588857964090410225,625,1588857964090237198,,0.499850745182,-0.199930095974,0.215800224287
1588857964096425535,626,1588857964096229847,,0.499851034664,-0.199931088604,0.215785121387
1588857964099378937,627,1588857964099192219,,0.499849783737,-0.199934007604,0.215768962855
1588857964102330355,628,1588857964102192888,,0.499850231979,-0.199935886371,0.215754666022
1588857964108325373,629,1588857964108183773,,0.499849236592,-0.19993937286,0.215738895968
1588857964111408410,630,1588857964111214987,,0.499847977942,-0.199942070139,0.215724775377
1588857964116014208,631,1588857964115893227,,0.499847643574,-0.199944567518,0.215711558914
1588857964120359308,632,1588857964120200663,,0.499847022796,-0.19994717495,0.215698391817
1588857964123378242,633,1588857964123183265,,0.499846243851,-0.199950763003,0.215684761824
1588857964126274512,634,1588857964126180319,,0.499845608312,-0.199955885803,0.215671501076
1588857964132422341,635,1588857964132263716,,0.499844668682,-0.199958413136,0.215658052322
1588857964135286305,636,1588857964135169884,,0.499844015337,-0.199961935592,0.215646802899
1588857964138324962,637,1588857964138188346,,0.499843143912,-0.19996583019,0.21563394789
1588857964144317275,638,1588857964144179350,,0.499842269658,-0.199970549255,0.215621938417
1588857964147376536,639,1588857964147205341,,0.499841910483,-0.199975263782,0.215609573652
1588857964150245718,640,1588857964150145034,,0.499841205903,-0.199978461416,0.215598943614
1588857964156309909,641,1588857964156193229,,0.499840286584,-0.199984479235,0.215587987648
1588857964159277420,642,1588857964159149657,,0.49983927195,-0.199988216239,0.215577753795
1588857964162270619,643,1588857964162158762,,0.499838920278,-0.199991847888,0.215567715863
1588857964168311618,644,1588857964168177092,,0.499838115631,-0.199996353197,0.215558034228
1588857964171672963,645,1588857964171544662,,0.499837303004,-0.200001297929,0.215547417232
1588857964177318814,646,1588857964177223298,,0.499836643491,-0.20000468167,0.215539963605
1588857964180294180,647,1588857964180131446,,0.499835825379,-0.200008916075,0.215532460043
1588857964183388550,648,1588857964183256355,,0.499835096267,-0.2000134636,0.215524012238
1588857964189346051,649,1588857964189209655,,0.499834356284,-0.200015972248,0.215516965518
1588857964192304047,650,1588857964192223419,,0.499833802674,-0.200019663283,0.215508643376
1588857964198366950,651,1588857964198221085,,0.499833164577,-0.20002410725,0.215500796198
1588857964201331322,652,1588857964201204419,,0.499832828323,-0.200027457329,0.215492294787
1588857964204349244,653,1588857964204244993,,0.499832541159,-0.200033130791,0.215484471814
1588857964207340352,654,1588857964207222221,,0.499831801973,-0.200038356586,0.215476507605
1588857964213356112,655,1588857964213185935,,0.499831423408,-0.20004180905,0.215469448073
1588857964216354670,656,1588857964216216259,,0.499830605533,-0.200047344614,0.215460318755
1588857964222431817,657,1588857964222250476,,0.499830181316,-0.200051008065,0.215452764966
1588857964225404482,658,1588857964225289244,,0.499829748993,-0.200055659405,0.215444427261
1588857964228303482,659,1588857964228193723,,0.499830230797,-0.200061705926,0.215436383339
1588857964231310916,660,1588857964231180075,,0.49982977393,-0.2000659928,0.215427575691
1588857964237377716,661,1588857964237248141,,0.499829347858,-0.200072499376,0.215419312993
1588857964240370432,662,1588857964240223482,,0.499830340566,-0.200078411847,0.215412213781
1588857964246350900,663,1588857964246222237,,0.499829942791,-0.200083366737,0.215405291591
1588857964249358543,664,1588857964249222552,,0.499830219389,-0.200089215745,0.215397324623
1588857964252354319,665,1588857964252212966,,0.499830372335,-0.200094205207,0.215389363492
1588857964255399552,666,1588857964255229841,,0.499830141253,-0.200101834407,0.215381718769
1588857964261304294,667,1588857964261203162,,0.499830447858,-0.200107635528,0.215374920507
1588857964264309534,668,1588857964264201603,,0.499830685783,-0.200114741528,0.215366641524
1588857964270312014,669,1588857964270151211,,0.499830797328,-0.200122978192,0.21535959502
1588857964273499872,670,1588857964273351237,,0.499831587561,-0.200128986596,0.215353376892
1588857964276396813,671,1588857964276230526,,0.49983201857,-0.200136708264,0.215346857083
1588857964279442295,672,1588857964279240624,,0.499832201892,-0.200143165106,0.21533918703
1588857964285380875,673,1588857964285236670,,0.499832907639,-0.200150775633,0.215331887718
1588857964288369155,674,1588857964288224491,,0.499833603619,-0.200159782815,0.215325169188
1588857964294437281,675,1588857964294264479,,0.499834108213,-0.200168027254,0.215321218738
1588857964297349588,676,1588857964297203948,,0.499834786843,-0.200175005813,0.215316022333
1588857964300390439,677,1588857964300262729,,0.499835169537,-0.200184638627,0.215311049604
1588857964303386638,678,1588857964303255323,,0.499836591281,-0.200193466358,0.215305440653
1588857964309352238,679,1588857964309213226,,0.499837474009,-0.200202112992,0.21529913912
1588857964312522954,680,1588857964312283187,,0.499839247389,-0.200211784258,0.215295361657
1588857964318356330,681,1588857964318206846,,0.499839525363,-0.200222054095,0.215288448005
1588857964321369811,682,1588857964321248228,,0.499840494515,-0.200230382302,0.215284032688
1588857964324432606,683,1588857964324240189,,0.499841453828,-0.200237688618,0.21528086904
1588857964330401371,684,1588857964330266236,,0.499841679753,-0.200247520064,0.215276822124
1588857964333360576,685,1588857964333250059,,0.499842235525,-0.200256753802,0.215271159603
1588857964336339201,686,1588857964336222170,,0.499843875365,-0.200265053863,0.215265368317
1588857964342424077,687,1588857964342271096,,0.499844482637,-0.200275409488,0.215259698339
1588857964345575360,688,1588857964345293768,,0.499845452673,-0.200283700713,0.215254971251
1588857964348369632,689,1588857964348269776,,0.499847211685,-0.200293930227,0.215249669464
1588857964354417321,690,1588857964354279701,,0.499848122358,-0.200302582581,0.21524427548
1588857964357472360,691,1588857964357274522,,0.499849740812,-0.200310995297,0.215239724275
1588857964360356828,692,1588857964360237608,,0.49985151676,-0.200320987595,0.215236185274
1588857964366429611,693,1588857964366278035,,0.499851755656,-0.200329005666,0.215229998499
1588857964369477444,694,1588857964369213482,,0.499853486456,-0.200336549199,0.215226438141
1588857964372565726,695,1588857964372425987,,0.499854639983,-0.200345451094,0.215222015513
1588857964378472984,696,1588857964378288249,,0.499856567556,-0.200353771161,0.215216789526
1588857964381416668,697,1588857964381271795,,0.499856832111,-0.200360751615,0.215213540754
1588857964384382412,698,1588857964384276140,,0.499858275054,-0.200368002503,0.215209442979
1588857964390446610,699,1588857964390306921,,0.499859905822,-0.200374795619,0.215204609799
1588857964393373695,700,1588857964393264948,,0.499861345824,-0.200382876261,0.21519860687
1588857964396368699,701,1588857964396279140,,0.499862391287,-0.200388172552,0.215194768515
1588857964402366639,702,1588857964402218682,,0.499863547747,-0.20039531479,0.215190382799
1588857964405515219,703,1588857964405224507,,0.499866168009,-0.200400935351,0.215187451434
1588857964408389983,704,1588857964408232514,,0.499867718052,-0.200407256966,0.215182510597
1588857964414434880,705,1588857964414233814,,0.499869715396,-0.200413924705,0.215179015859
1588857964417331927,706,1588857964417213422,,0.499872026704,-0.200419376692,0.215176112455
1588857964423350695,707,1588857964423234280,,0.499874165301,-0.200425391279,0.215171835398
1588857964426390659,708,1588857964426219058,,0.499877479399,-0.200430870111,0.215169857575
1588857964429407856,709,1588857964429269197,,0.499880201576,-0.200435157949,0.215168210021
1588857964432416545,710,1588857964432227593,,0.499882854319,-0.200441482035,0.215167027221
1588857964438474017,711,1588857964438237516,,0.499885880155,-0.200447279374,0.215165299212
1588857964441369976,712,1588857964441210245,,0.49988986194,-0.200451383937,0.215164475586
1588857964447469127,713,1588857964447275471,,0.499892907432,-0.200457233482,0.215163899483
1588857964450408143,714,1588857964450246254,,0.499895676936,-0.200462180359,0.21516233876
1588857964453439000,715,1588857964453285737,,0.499898839603,-0.2004679204,0.215161460849
1588857964459471774,716,1588857964459289659,,0.49990076041,-0.200472739766,0.21515874342
1588857964462267481,717,1588857964462176830,,0.499902628005,-0.200477545719,0.215157560216
1588857964465332776,718,1588857964465216317,,0.499905153369,-0.200481885922,0.215155566735
1588857964471943242,719,1588857964471674359,,0.499906846428,-0.200486586907,0.215153113943
1588857964474826459,720,1588857964474528664,,0.499908809173,-0.200490910046,0.215149850593
1588857964477317604,721,1588857964477167829,,0.499910101134,-0.200494869386,0.21514643046
1588857964483305600,722,1588857964483183040,,0.499911916688,-0.200501256539,0.215142712262
1588857964486380053,723,1588857964486207160,,0.499913230866,-0.200505302519,0.215138183898
1588857964489348561,724,1588857964489176467,,0.499914991902,-0.200510305116,0.21513384206
1588857964495332924,725,1588857964495213037,,0.499915760875,-0.200514395716,0.215128786689
1588857964498331484,726,1588857964498208229,,0.499917289755,-0.200518524564,0.215125828654
1588857964501335878,727,1588857964501214903,,0.499918496701,-0.200521753496,0.215122537873
1588857964507385556,728,1588857964507229705,,0.499919861435,-0.200525328052,0.215118734221
1588857964510382470,729,1588857964510206333,,0.499921012509,-0.200528071391,0.2151157488
1588857964513390494,730,1588857964513221059,,0.499921888926,-0.200529429673,0.215112460358
1588857964519403203,731,1588857964519236926,,0.499924341768,-0.200532300991,0.21511085246
1588857964522317530,732,1588857964522190056,,0.499924997731,-0.200535563997,0.215106673857
1588857964525361849,733,1588857964525207174,,0.499926367446,-0.200537835237,0.215102662838
1588857964531341895,734,1588857964531215086,,0.499928137088,-0.20054032706,0.215099692058
1588857964534347304,735,1588857964534209144,,0.499929451581,-0.200540791895,0.21509638511
1588857964537464700,736,1588857964537292581,,0.499931091148,-0.200544345274,0.215091684346
1588857964543461162,737,1588857964543228835,,0.49993207044,-0.200545739247,0.215087624904
1588857964546384569,738,1588857964546231582,,0.499933961253,-0.200546848926,0.215085821981
1588857964549355255,739,1588857964549224822,,0.499935330048,-0.200549320816,0.215082915787
1588857964555311529,740,1588857964555215006,,0.499936185699,-0.20055002561,0.215080324043
1588857964558394136,741,1588857964558249088,,0.499937781344,-0.200550020935,0.215076780192
1588857964564426623,742,1588857964564272599,,0.499938991192,-0.200550599589,0.215073344086
1588857964567529116,743,1588857964567346423,,0.499940198257,-0.200552719689,0.215069692844
1588857964570362565,744,1588857964570282101,,0.499942672217,-0.200553494085,0.215065936491
1588857964576354950,745,1588857964576226130,,0.499944573999,-0.20055510453,0.215062511564
1588857964579331407,746,1588857964579216081,,0.499946363194,-0.200555137275,0.215058394146
1588857964585424534,747,1588857964585285498,,0.499948465687,-0.200555968264,0.215054067055
1588857964588316707,748,1588857964588214856,,0.499950447572,-0.200555005935,0.215050339075
1588857964591451479,749,1588857964591274506,,0.499952095686,-0.200554865361,0.215046488051
1588857964594375385,750,1588857964594282687,,0.49995496527,-0.200553924399,0.215044147549
1588857964600516530,751,1588857964600297669,,0.499957259015,-0.200552723932,0.215041615015
1588857964603518461,752,1588857964603329016,,0.499960088643,-0.200549895662,0.215039077883
1588857964609442786,753,1588857964609265427,,0.499962653825,-0.200547671806,0.215037167729
1588857964612388310,754,1588857964612296172,,0.499965666692,-0.200544520723,0.215033941115
1588857964615480336,755,1588857964615318184,,0.499968375864,-0.200543357264,0.215030132414
1588857964618379033,756,1588857964618285588,,0.49997087354,-0.200540314968,0.215027246787
1588857964624511271,757,1588857964624363692,,0.499974508798,-0.200537766311,0.215024727423
1588857964627328971,758,1588857964627212623,,0.499977928173,-0.200534427911,0.215023160916
1588857964633416243,759,1588857964633271187,,0.499980871798,-0.200534081137,0.215020694734
1588857964636370247,760,1588857964636237800,,0.499983507897,-0.200531514644,0.215018951663
1588857964639392417,761,1588857964639265210,,0.499985542075,-0.200531044834,0.215016657266
1588857964642373822,762,1588857964642274449,,0.499988711187,-0.200528369591,0.215015638423
1588857964648312196,763,1588857964648208342,,0.499990363889,-0.200526960388,0.215012485793
1588857964651386325,764,1588857964651209765,,0.499992436434,-0.200527047173,0.215009414948
1588857964657422458,765,1588857964657316805,,0.499994459458,-0.200526339773,0.215006932891
1588857964660459175,766,1588857964660316056,,0.499997407756,-0.200525252447,0.215004769709
1588857964663386805,767,1588857964663264221,,0.499999448613,-0.200524966238,0.215002265528
1588857964666429391,768,1588857964666290528,,0.500001513374,-0.20052512361,0.214999054725
1588857964672621088,769,1588857964672472076,,0.500004122283,-0.200523999036,0.214996617641
1588857964675675790,770,1588857964675573877,,0.500005358212,-0.200524397198,0.214993518817
1588857964681485638,771,1588857964681320785,,0.500007590246,-0.200524309161,0.214992152556
1588857964684461696,772,1588857964684219152,,0.500008995221,-0.200524487185,0.214990556122
1588857964687445480,773,1588857964687294781,,0.50001105599,-0.200523952058,0.214988621118
1588857964690352836,774,1588857964690242799,,0.500012543917,-0.200522994687,0.214985894547
1588857964696429978,775,1588857964696302638,,0.500014107173,-0.200521932548,0.214984491073
1588857964699363936,776,1588857964699251434,,0.500015866792,-0.200522326788,0.21498183156
1588857964705444664,777,1588857964705339806,,0.500017555121,-0.200522416086,0.214978714711
1588857964708417862,778,1588857964708322078,,0.500019223437,-0.200522226063,0.214975665119
1588857964711437402,779,1588857964711256617,,0.500021009876,-0.200522426285,0.214973524002
1588857964717374940,780,1588857964717214279,,0.500022072968,-0.200522535765,0.214969226258
1588857964720376211,781,1588857964720254727,,0.500023851862,-0.200522927353,0.214966656894
1588857964723345353,782,1588857964723244710,,0.500025419631,-0.200524228643,0.214963964317
1588857964729405172,783,1588857964729221067,,0.500027077544,-0.20052429287,0.214962006156
1588857964732398141,784,1588857964732267826,,0.500028406336,-0.200525318184,0.214958873463
1588857964735439205,785,1588857964735293198,,0.500030545064,-0.200524926928,0.214956033118
1588857964738298305,786,1588857964738223747,,0.500032101426,-0.200526290437,0.2149512125
1588857964744480641,787,1588857964744311480,,0.500033766269,-0.2005266721,0.214948804223
1588857964747433412,788,1588857964747293229,,0.500034530666,-0.200527181854,0.214944792625
1588857964753352418,789,1588857964753273503,,0.500037435153,-0.200528335017,0.214943712925
1588857964756381314,790,1588857964756233626,,0.500038228578,-0.200528646462,0.21494158478
1588857964759393854,791,1588857964759276953,,0.500039857585,-0.200528220792,0.214937709048
1588857964765401567,792,1588857964765273507,,0.500040499213,-0.200529916726,0.21493383982
1588857964768441877,793,1588857964768281185,,0.500042243689,-0.200530083472,0.214931804853
1588857964771708993,794,1588857964771605260,,0.500043841736,-0.200530294041,0.214928921764
1588857964777439867,795,1588857964777294644,,0.500045307626,-0.20052948796,0.214926954008
1588857964780449567,796,1588857964780341114,,0.500046813199,-0.200529965869,0.21492493878
1588857964783346458,797,1588857964783259164,,0.500048321123,-0.200530335661,0.214921531888
1588857964789470791,798,1588857964789312438,,0.500050068306,-0.200529671405,0.214919809383
1588857964792388230,799,1588857964792264312,,0.500051078748,-0.200530658503,0.214916881509
1588857964795410128,800,1588857964795265550,,0.500052497611,-0.20053096249,0.214913913557
1588857964801533819,801,1588857964801295865,,0.500053706797,-0.200530911563,0.214911312477
1588857964804555130,802,1588857964804350535,,0.500055467322,-0.200529696318,0.21490937553
1588857964807490576,803,1588857964807305938,,0.50005665945,-0.200529599145,0.214905328675
1588857964813466975,804,1588857964813340379,,0.50005829858,-0.200528397989,0.21490313737
1588857964816423604,805,1588857964816275026,,0.500059600712,-0.200526771041,0.214900506815
1588857964819440676,806,1588857964819297546,,0.500060702515,-0.200527648893,0.214897683361
1588857964825577257,807,1588857964825377823,,0.500061651753,-0.200525771924,0.214894148247
1588857964828379373,808,1588857964828270791,,0.500063483248,-0.200525753753,0.214892623889
1588857964834402827,809,1588857964834255921,,0.500065294379,-0.200523663587,0.214890732809
1588857964837391931,810,1588857964837285993,,0.500066464204,-0.200523087427,0.21488750711
1588857964840376842,811,1588857964840249492,,0.500068223435,-0.200521673251,0.214886052938
1588857964846421255,812,1588857964846268489,,0.500069632059,-0.200520628891,0.214883793483
1588857964849442226,813,1588857964849271457,,0.50007085582,-0.200517752883,0.214881182481
1588857964852415527,814,1588857964852305570,,0.500072607866,-0.20051537207,0.214878184582
1588857964858478943,815,1588857964858341437,,0.500073862168,-0.200513841924,0.214875971965
1588857964861413308,816,1588857964861301762,,0.500075836711,-0.200511886611,0.214874125788
1588857964864423966,817,1588857964864307710,,0.500077426831,-0.200508629195,0.214871438121
1588857964870491734,818,1588857964870310828,,0.500079317313,-0.200506323906,0.214869926703
1588857964873553432,819,1588857964873413831,,0.500080236777,-0.200504834667,0.214866799533
1588857964876389410,820,1588857964876303502,,0.500081466339,-0.200501942439,0.21486402627
1588857964882512857,821,1588857964882398640,,0.500083324206,-0.20049887317,0.214861457039
1588857964885428270,822,1588857964885312330,,0.500085247142,-0.200496381039,0.214859191569
1588857964888409939,823,1588857964888302617,,0.500086937202,-0.200493420829,0.214856912874
1588857964894515255,824,1588857964894357569,,0.500088331099,-0.200490925801,0.214853120136
1588857964897492429,825,1588857964897356353,,0.500090299251,-0.200487461938,0.214850791843
1588857964900395803,826,1588857964900284552,,0.500091621172,-0.200484388468,0.214847082587
1588857964906459787,827,1588857964906322673,,0.500093266738,-0.200480359034,0.214844262017
1588857964909435588,828,1588857964909325691,,0.500095313633,-0.200477664655,0.214840769685
1588857964912425650,829,1588857964912306903,,0.500096860083,-0.200473031106,0.214838269803
1588857964918436465,830,1588857964918317431,,0.500098527396,-0.200470135237,0.214835535551
1588857964921695979,831,1588857964921547945,,0.500100688348,-0.200464952746,0.214833632581
1588857964924441283,832,1588857964924324727,,0.500101617626,-0.200462749325,0.214829754125
1588857964930519154,833,1588857964930337660,,0.500103234677,-0.200459418836,0.214827434732
1588857964933491622,834,1588857964933320479,,0.500104338555,-0.200455152837,0.214824434358
1588857964936410217,835,1588857964936238942,,0.500106392522,-0.200450997816,0.214821125459
1588857964942389608,836,1588857964942279106,,0.500108625095,-0.200447609297,0.214819543327
1588857964945427255,837,1588857964945316507,,0.500109892177,-0.200444343571,0.214814821015
1588857964951451712,838,1588857964951371671,,0.500112200952,-0.200441413162,0.214811547556
1588857964954466162,839,1588857964954343036,,0.500113979596,-0.200436876387,0.214808117898
1588857964957419798,840,1588857964957290911,,0.500115909277,-0.200432058845,0.214804780212
1588857964963434846,841,1588857964963299112,,0.500118022256,-0.200426299303,0.214800476214
1588857964966478912,842,1588857964966325056,,0.500120131591,-0.200421633815,0.214796704194
1588857964972767566,843,1588857964972559715,,0.50012211236,-0.200415246955,0.214791730698
1588857964975784591,844,1588857964975650370,,0.500123579881,-0.200408534099,0.214786423552
1588857964978393567,845,1588857964978305327,,0.500125515456,-0.200400741086,0.214781044897
1588857964981451548,846,1588857964981346655,,0.500125383709,-0.200384507181,0.214770797264
1588857964987550557,847,1588857964987396651,,0.500125411,-0.200364210944,0.214758532244
1588857964990486088,848,1588857964990332577,,0.500126683609,-0.200358885513,0.214754568883
1588857964996481602,849,1588857964996302703,,0.500129400467,-0.20035099494,0.214750273544
1588857964999430736,850,1588857964999306146,,0.500131472716,-0.200341713638,0.214745007623
1588857965002449626,851,1588857965002308358,,0.500134132352,-0.20033076311,0.2147410837
1588857965005424479,852,1588857965005326479,,0.500137410498,-0.200322990963,0.214736345517
1588857965011554698,853,1588857965011444797,,0.500139364318,-0.20031308143,0.214730234538
1588857965014484034,854,1588857965014375337,,0.500141974842,-0.200302325211,0.214724819208
1588857965020451191,855,1588857965020303670,,0.500145034711,-0.200291437306,0.214720523776
1588857965023488179,856,1588857965023395307,,0.500146861291,-0.200280679029,0.214715104329
1588857965026441234,857,1588857965026339399,,0.500148404356,-0.200270519212,0.214712029358
1588857965029446882,858,1588857965029304075,,0.500150453571,-0.200259041794,0.214707686067
1588857965035520705,859,1588857965035308197,,0.500151850225,-0.200248447996,0.21470233407
1588857965038474013,860,1588857965038320137,,0.500154165143,-0.200237670619,0.214697497429
1588857965044604145,861,1588857965044347977,,0.500156494213,-0.200227182653,0.214692713803
1588857965047541447,862,1588857965047393728,,0.500158360892,-0.200216549147,0.214687086045
1588857965050426622,863,1588857965050317248,,0.50016117078,-0.200203163274,0.214680665868
1588857965053465940,864,1588857965053327760,,0.500163147369,-0.200193566,0.214673935304
1588857965059439365,865,1588857965059323657,,0.500165555835,-0.200181211217,0.214667472324
1588857965062518483,866,1588857965062322780,,0.500168060012,-0.200169207875,0.214661984207
1588857965068393827,867,1588857965068305013,,0.500169990922,-0.200157178115,0.214655371831
1588857965071840560,868,1588857965071713725,,0.500172037933,-0.20014441034,0.214649438885
1588857965074791241,869,1588857965074685279,,0.500174518284,-0.200131293392,0.214643323543
1588857965077374993,870,1588857965077284103,,0.500177294509,-0.200117778741,0.21463740795
1588857965086517758,871,1588857965086317924,,0.50018245716,-0.200092239005,0.214627649368
1588857965092384737,872,1588857965092270874,,0.50018453688,-0.200078838885,0.214622159607
1588857965095435759,873,1588857965095295792,,0.500186447224,-0.200068641515,0.21461647868
1588857965098422698,874,1588857965098327996,,0.500188674354,-0.200055922741,0.21461164925
1588857965104475701,875,1588857965104310858,,0.500190635858,-0.200042128621,0.214605738938
1588857965107456449,876,1588857965107339122,,0.500192743095,-0.200028108086,0.214599263136
1588857965110363924,877,1588857965110287274,,0.500194670936,-0.200016073057,0.214592605527
1588857965117416880,878,1588857965117254660,,0.500196945899,-0.200002402151,0.214586670852
1588857965119408033,879,1588857965119298708,,0.500198613906,-0.19998895365,0.214579009638
1588857965122436185,880,1588857965122345260,,0.500200676601,-0.199975970295,0.214572572206
1588857965128577783,881,1588857965128385141,,0.500202676543,-0.199964989669,0.214566257286
1588857965131451359,882,1588857965131324036,,0.500203727378,-0.199949336942,0.214557456975
1588857965134440822,883,1588857965134318203,,0.500206709781,-0.199935193899,0.214551960955
1588857965140587416,884,1588857965140379896,,0.500208937427,-0.19992043617,0.214544366923
1588857965143527938,885,1588857965143383490,,0.500210842434,-0.19990569766,0.214537820423
1588857965146466262,886,1588857965146329870,,0.50021185623,-0.199891124192,0.214529522172
1588857965152537789,887,1588857965152374284,,0.500212910965,-0.1998766209,0.214521331951
1588857965155496418,888,1588857965155366431,,0.500213503556,-0.199860387319,0.214512556216
1588857965158465533,889,1588857965158339947,,0.500214035869,-0.199843980221,0.214503097532
1588857965164453741,890,1588857965164342732,,0.500214191307,-0.199827449223,0.214493392904
1588857965167549043,891,1588857965167383822,,0.500213475582,-0.199813481856,0.214482572009
1588857965170504298,892,1588857965170333054,,0.500214231134,-0.199795988342,0.214472362196
1588857965176574016,893,1588857965176416417,,0.500214539012,-0.199779293178,0.214461367156
1588857965179544078,894,1588857965179343545,,0.500215119055,-0.199760744665,0.214450515006
1588857965182516293,895,1588857965182377970,,0.500215859975,-0.19974037155,0.214438730183
1588857965188409268,896,1588857965188284737,,0.500217630697,-0.199721371031,0.214428205871
1588857965191516139,897,1588857965191369670,,0.500218589722,-0.199703903695,0.214418025063
1588857965194468403,898,1588857965194313854,,0.50022028004,-0.199685971827,0.214407818773
1588857965200477303,899,1588857965200358905,,0.500222538373,-0.199666112899,0.214398937486
1588857965203498765,900,1588857965203329209,,0.500223525054,-0.199645822025,0.214390781681
1588857965206385675,901,1588857965206289325,,0.500227265183,-0.199623416326,0.214383392739
1588857965212452301,902,1588857965212330181,,0.500228376997,-0.199603827856,0.214374178488
1588857965215462921,903,1588857965215324256,,0.500230677869,-0.19958387824,0.214366656791
1588857965221405112,904,1588857965221305574,,0.500232367459,-0.199562081767,0.214356664044
1588857965224457305,905,1588857965224357821,,0.500235815082,-0.199535934463,0.214344670569
1588857965227540663,906,1588857965227438630,,0.500238530189,-0.199509964912,0.214331599538
1588857965233460674,907,1588857965233331094,,0.500239121035,-0.199485407086,0.214318964647
1588857965236405042,908,1588857965236308749,,0.500239085322,-0.199464616487,0.214308505085
1588857965239402582,909,1588857965239302944,,0.500240101359,-0.199441776316,0.214297719161
1588857965245497271,910,1588857965245358797,,0.500240515805,-0.199421891188,0.214285604433
1588857965248441540,911,1588857965248312123,,0.500243477455,-0.199400217053,0.214275514909
1588857965251513220,912,1588857965251337797,,0.500245497373,-0.199381906526,0.21426487606
1588857965257362886,913,1588857965257261987,,0.500248286422,-0.199365024975,0.2142589124
1588857965260482126,914,1588857965260326058,,0.500251071537,-0.199349825793,0.214252535007
1588857965263592358,915,1588857965263463663,,0.500254393568,-0.199333244725,0.214245883064
1588857965269588976,916,1588857965269376957,,0.500258644796,-0.199314985021,0.214239391346
1588857965272682022,917,1588857965272597998,,0.500261796081,-0.199295062239,0.214231813475
1588857965275798493,918,1588857965275695943,,0.500264661282,-0.19927516073,0.214223743484
1588857965281587473,919,1588857965281427907,,0.500266858428,-0.199252459295,0.214213763496
1588857965284544982,920,1588857965284387517,,0.500269130126,-0.199228195154,0.214202758339
1588857965287543711,921,1588857965287381712,,0.500269621357,-0.199203369849,0.214188604203
1588857965293487011,922,1588857965293325238,,0.500271311426,-0.19917325147,0.214174696061
1588857965296515846,923,1588857965296394607,,0.500272438637,-0.199144969692,0.214158383549
1588857965299574364,924,1588857965299383875,,0.500275290353,-0.199113543762,0.214145072334
1588857965305507934,925,1588857965305353151,,0.50027762173,-0.199081259272,0.214130483412
1588857965308479775,926,1588857965308359909,,0.500279724503,-0.199044974574,0.214115917709
1588857965311486403,927,1588857965311400390,,0.500282151931,-0.199011151787,0.214101909324
1588857965317559266,928,1588857965317371030,,0.500285363064,-0.198977022215,0.214089495476
1588857965320521665,929,1588857965320347188,,0.500288198429,-0.198943429318,0.214076690271
1588857965329534947,930,1588857965329402532,,0.500295345313,-0.198875669209,0.214054133477
1588857965332514316,931,1588857965332363904,,0.50029840021,-0.198844223776,0.214042150022
1588857965335480273,932,1588857965335337921,,0.500301944885,-0.198812687887,0.214031731835
1588857965341581011,933,1588857965341454044,,0.500303159855,-0.198780447032,0.214018640659
1588857965344550011,934,1588857965344390053,,0.500305902961,-0.198751564096,0.214007039371
1588857965350477407,935,1588857965350379463,,0.500307531981,-0.198725058479,0.213994447011
1588857965353495743,936,1588857965353359405,,0.500308222107,-0.198702328374,0.21398239277
1588857965356592638,937,1588857965356421317,,0.500309185486,-0.198682564204,0.213970669002
1588857965362517070,938,1588857965362408696,,0.500310291771,-0.198651037379,0.21395653174
1588857965365521980,939,1588857965365391734,,0.50031099927,-0.198623887777,0.213943159622
1588857965368496278,940,1588857965368323218,,0.500311980268,-0.198601672375,0.213931625912
1588857965374879850,941,1588857965374693038,,0.500312772714,-0.198571520434,0.213917543508
1588857965377527477,942,1588857965377394206,,0.500315411021,-0.198539429145,0.213907004234
1588857965383683305,943,1588857965383564950,,0.500317022469,-0.198509215303,0.213894385683
1588857965386537470,944,1588857965386397983,,0.500319143056,-0.198481283351,0.213884478523
1588857965389484276,945,1588857965389328137,,0.500321171806,-0.198456247975,0.213873210216
1588857965392495826,946,1588857965392387353,,0.500324374288,-0.198425889711,0.213862132319
1588857965398589412,947,1588857965398404861,,0.500327044224,-0.198393497155,0.213851518348
1588857965401584950,948,1588857965401410655,,0.50033124787,-0.198361964417,0.213842852041
1588857965407555230,949,1588857965407440320,,0.50033361436,-0.198328548676,0.213829185891
1588857965410497640,950,1588857965410380574,,0.500336095006,-0.19829574279,0.213816916068
1588857965413440094,951,1588857965413322774,,0.500338247163,-0.198258441453,0.213801702111
1588857965416458693,952,1588857965416366282,,0.500342274944,-0.198220828659,0.213789270895
1588857965422436597,953,1588857965422342929,,0.500343436356,-0.198183623458,0.213772739768
1588857965425485364,954,1588857965425378387,,0.500345712797,-0.198146918003,0.21375875098
1588857965431482219,955,1588857965431348011,,0.500348342984,-0.198109554834,0.213743721999
1588857965434610769,956,1588857965434395534,,0.500350475992,-0.198071935517,0.213728154157
1588857965437543713,957,1588857965437426793,,0.50035328772,-0.198031948694,0.213713793092
1588857965440510159,958,1588857965440383203,,0.500356444775,-0.197991147191,0.213701104051
1588857965446599669,959,1588857965446405277,,0.500358604407,-0.197951649171,0.213686847585
1588857965449474446,960,1588857965449401968,,0.500361988079,-0.197913721765,0.213676045698
1588857965455589792,961,1588857965455407856,,0.50036517617,-0.19787021242,0.213663714488
1588857965458514383,962,1588857965458407978,,0.500366075193,-0.197825617726,0.213650914251
1588857965461546638,963,1588857965461373063,,0.500368744926,-0.197785683672,0.213643279235
1588857965464511363,964,1588857965464404833,,0.500371195622,-0.197737953574,0.21363073148
1588857965470481309,965,1588857965470376762,,0.500374322666,-0.19769196116,0.213619363358
1588857965473659482,966,1588857965473582418,,0.500376544135,-0.197645072675,0.213606993983
1588857965479507099,967,1588857965479402324,,0.500377968412,-0.197598313358,0.213591975224
1588857965482490594,968,1588857965482370823,,0.500380607619,-0.197549511853,0.21357727529
1588857965485515527,969,1588857965485345858,,0.500383084206,-0.197498224891,0.213561762434
1588857965491540349,970,1588857965491421419,,0.50038487188,-0.19745141187,0.21354664439
1588857965494553169,971,1588857965494449635,,0.500388834337,-0.197399672932,0.213531930387
1588857965497620541,972,1588857965497472472,,0.500390826218,-0.197348965131,0.213515939285
1588857965503537557,973,1588857965503447483,,0.500392374213,-0.197304296013,0.213501023365
1588857965506539459,974,1588857965506382654,,0.500394189655,-0.197255127883,0.213486185929
1588857965509512806,975,1588857965509360620,,0.50039728108,-0.197203628845,0.213471482106
1588857965515531778,976,1588857965515350586,,0.500397016695,-0.197152643608,0.213454082157
1588857965518445902,977,1588857965518354766,,0.500400808218,-0.197106893605,0.213443231194
1588857965521485774,978,1588857965521385557,,0.500403949864,-0.197064616279,0.213432215721
1588857965527656104,979,1588857965527428116,,0.50040674861,-0.197013809184,0.21341636029
1588857965530496317,980,1588857965530419340,,0.500408749956,-0.196969527754,0.213401879017
1588857965533520769,981,1588857965533385316,,0.500413465589,-0.19692363594,0.21339031569
1588857965539489928,982,1588857965539380679,,0.500416440277,-0.196878160389,0.213377087991
1588857965542496953,983,1588857965542408461,,0.50041793662,-0.1968329915,0.213361532489
1588857965545568028,984,1588857965545409316,,0.500421447119,-0.196788185655,0.213348826903
1588857965551553320,985,1588857965551419131,,0.500424562625,-0.196741794793,0.213336134773
1588857965554489494,986,1588857965554380359,,0.500426164826,-0.196699000157,0.213321648876
1588857965557566369,987,1588857965557405570,,0.500428926964,-0.19665353528,0.213307551936
1588857965563526056,988,1588857965563448031,,0.500431615804,-0.196603100533,0.213290917479
1588857965566502194,989,1588857965566391340,,0.500434367123,-0.196554433131,0.213276370577
1588857965569534718,990,1588857965569382677,,0.500436045976,-0.196507407478,0.213259813813
1588857965575865339,991,1588857965575689415,,0.500439209236,-0.196455573718,0.213245597528
1588857965578507342,992,1588857965578370635,,0.500441239739,-0.196405685653,0.2132305982
1588857965581602368,993,1588857965581432865,,0.500445091166,-0.196355911382,0.213217540309
1588857965587561173,994,1588857965587407704,,0.500448917472,-0.196304644024,0.213202301724
1588857965590490636,995,1588857965590382968,,0.500451323101,-0.196251277352,0.213186154826
1588857965593543687,996,1588857965593444201,,0.500453177275,-0.19619423096,0.213168429512
1588857965599527469,997,1588857965599395351,,0.500458146861,-0.196143299459,0.213155543564
1588857965602558555,998,1588857965602413462,,0.500461873367,-0.196092509731,0.213142758587
1588857965608537572,999,1588857965608403392,,0.500464738685,-0.196043167007,0.213128285423
1588857965611539330,1000,1588857965611426529,,0.500468052538,-0.195989007842,0.213114350662
1588857965614531717,1001,1588857965614423452,,0.500471111446,-0.195940439541,0.213098360903
1588857965620500824,1002,1588857965620398312,,0.500474793576,-0.195890082889,0.21308313465
1588857965623671123,1003,1588857965623576968,,0.500479190692,-0.195838231547,0.213070391973
1588857965626595592,1004,1588857965626461848,,0.500481195258,-0.195790144896,0.21305367555
1588857965632573544,1005,1588857965632427005,,0.500484598317,-0.195738623973,0.213037672744
1588857965635533282,1006,1588857965635415652,,0.500488891808,-0.195689429577,0.213023450597
1588857965638603867,1007,1588857965638398944,,0.500492391266,-0.195639488476,0.213009484752
1588857965644574221,1008,1588857965644426630,,0.500494926535,-0.195589306934,0.212992552266
1588857965647600677,1009,1588857965647453694,,0.500498666966,-0.195541762817,0.212977426029
1588857965650621018,1010,1588857965650439841,,0.50050203963,-0.195487997917,0.212962091743
1588857965656654646,1011,1588857965656473061,,0.500506237121,-0.195440901238,0.212948465455
1588857965659608742,1012,1588857965659441768,,0.500509776888,-0.195386003383,0.212933482695
1588857965662504713,1013,1588857965662391106,,0.50051375579,-0.195332724219,0.21291780708
1588857965668557424,1014,1588857965668408531,,0.500517043993,-0.195282751872,0.212903033373
1588857965671966542,1015,1588857965671832802,,0.500521172131,-0.195226003895,0.21288721237
1588857965674924085,1016,1588857965674752108,,0.500525877692,-0.195167932639,0.212871135107
1588857965680638288,1017,1588857965680443742,,0.500529629956,-0.195115043591,0.212856337216
1588857965683670450,1018,1588857965683575801,,0.50053442585,-0.195058134475,0.21284086962
1588857965686588818,1019,1588857965686417548,,0.500538221701,-0.194995500237,0.212823789545
1588857965692662376,1020,1588857965692508122,,0.500542556691,-0.19493710336,0.21280855207
1588857965695565428,1021,1588857965695409461,,0.500546450358,-0.19487914887,0.212792576983
1588857965698596398,1022,1588857965698456019,,0.50055120046,-0.194820060546,0.212777270896
1588857965704523910,1023,1588857965704424385,,0.500554946916,-0.194760778691,0.2127620763
1588857965707654943,1024,1588857965707450640,,0.500559006285,-0.194702001216,0.212748035456
1588857965713590856,1025,1588857965713433991,,0.500562717319,-0.194643181998,0.212732647975
1588857965716508811,1026,1588857965716377504,,0.500566016338,-0.19458748546,0.212715893434
1588857965719624898,1027,1588857965719441607,,0.500571165864,-0.194525633206,0.212699423869
1588857965725559528,1028,1588857965725440659,,0.500574936521,-0.194468719466,0.212686098485
1588857965728614318,1029,1588857965728466531,,0.500577501473,-0.194413553687,0.212667819303
1588857965731578270,1030,1588857965731464211,,0.500582266979,-0.194352380997,0.212652992435
1588857965737588019,1031,1588857965737467578,,0.500584628734,-0.19429878538,0.212634938958
1588857965740579252,1032,1588857965740441887,,0.500589489294,-0.194239829603,0.212619132164
1588857965746594973,1033,1588857965746460183,,0.500593012331,-0.194182738792,0.212601777222
1588857965749548707,1034,1588857965749390671,,0.500596794279,-0.194130383842,0.212585265068
1588857965752575952,1035,1588857965752455590,,0.500601768933,-0.194069110364,0.212567458107
1588857965755603423,1036,1588857965755477057,,0.500605270087,-0.194012274797,0.212550261078
1588857965761602101,1037,1588857965761441223,,0.500610102997,-0.19395544487,0.212533703
1588857965764635955,1038,1588857965764458821,,0.500613840119,-0.193895637936,0.212517107306
1588857965770491857,1039,1588857965770387396,,0.500618050819,-0.193836000239,0.212499342154
1588857965773907319,1040,1588857965773560763,,0.500623868627,-0.193773030653,0.212486141321
1588857965776690602,1041,1588857965776419053,,0.500628674319,-0.193716014629,0.212473101594
1588857965779520242,1042,1588857965779418569,,0.500633414253,-0.193651180241,0.212456625493
1588857965785573493,1043,1588857965785474229,,0.500638314532,-0.193586666866,0.212441422284
1588857965788574972,1044,1588857965788414514,,0.500642344895,-0.193527717931,0.212425828522
1588857965794522830,1045,1588857965794398807,,0.500648278013,-0.193459027558,0.212410938478
1588857965797519478,1046,1588857965797402728,,0.500652575,-0.193398551162,0.212395985277
1588857965800527617,1047,1588857965800426053,,0.500658786833,-0.193333322376,0.212382819089
1588857965803479991,1048,1588857965803402082,,0.500660915786,-0.193274738529,0.212364228278
1588857965809703739,1049,1588857965809530561,,0.500667076301,-0.193207755008,0.212347909959
1588857965812526864,1050,1588857965812431228,,0.500671332367,-0.193144691789,0.212329704594
1588857965818680110,1051,1588857965818478121,,0.500675880059,-0.193081430302,0.212311712372
1588857965821583995,1052,1588857965821472931,,0.500679544766,-0.193019400835,0.212293882029
1588857965824476558,1053,1588857965824390331,,0.500684593549,-0.192957350958,0.212277366515
1588857965827550925,1054,1588857965827451885,,0.500688987245,-0.192895357579,0.212259287486
1588857965833539827,1055,1588857965833431814,,0.500693737027,-0.192828786961,0.212240935206
1588857965836497911,1056,1588857965836381760,,0.500698393351,-0.192768542319,0.212226725302
1588857965842562731,1057,1588857965842430352,,0.500702716626,-0.192703661845,0.212209777079
1588857965845525029,1058,1588857965845418029,,0.500706670769,-0.192638617085,0.212192216373
1588857965848620681,1059,1588857965848458465,,0.500713416334,-0.192575966907,0.212177885418
1588857965854606964,1060,1588857965854410570,,0.500718779977,-0.192512138201,0.21216058819
1588857965857565047,1061,1588857965857454897,,0.500725157748,-0.192449365891,0.212146071628
1588857965860536369,1062,1588857965860395493,,0.500732585384,-0.192379296785,0.212131987569
1588857965866568729,1063,1588857965866451247,,0.50073964042,-0.192311695064,0.212118199793
1588857965869570963,1064,1588857965869437110,,0.500745692655,-0.192241652934,0.212104196767
1588857965872760378,1065,1588857965872632632,,0.500752538807,-0.192172204987,0.212092767239
1588857965878616198,1066,1588857965878483078,,0.500758152669,-0.192099688601,0.212077682018
1588857965881663660,1067,1588857965881517213,,0.500764610635,-0.192027214284,0.21206314337
1588857965884519184,1068,1588857965884410380,,0.500768706963,-0.19195876986,0.212047170369
1588857965890573899,1069,1588857965890421825,,0.50077673276,-0.191886598745,0.21203390274
1588857965893630799,1070,1588857965893431911,,0.500782270239,-0.191815113769,0.212015395965
1588857965896735209,1071,1588857965896652279,,0.500785705899,-0.191743645469,0.211998765519
1588857965902527424,1072,1588857965902376385,,0.500791687537,-0.191665116565,0.211980495755
1588857965905571329,1073,1588857965905450945,,0.500798994715,-0.191599182571,0.211961030332
1588857965908657284,1074,1588857965908473436,,0.500802993205,-0.191527646293,0.211939884926
1588857965914633163,1075,1588857965914497913,,0.500806989318,-0.191456141527,0.211919541107
1588857965917597558,1076,1588857965917463074,,0.500810817436,-0.19139015245,0.211901619199
1588857965920576171,1077,1588857965920482551,,0.500813991516,-0.191317044307,0.211881999317
1588857965926542202,1078,1588857965926385716,,0.500820407794,-0.191248450027,0.211865921073
1588857965929627335,1079,1588857965929429440,,0.500826024359,-0.191181067129,0.211851289509
1588857965932563386,1080,1588857965932428311,,0.500831851882,-0.191113669401,0.211835484318
1588857965938575674,1081,1588857965938436781,,0.500840153961,-0.191046106986,0.211823229753
1588857965941595747,1082,1588857965941441984,,0.500848062725,-0.190973595365,0.21181140278
1588857965944792711,1083,1588857965944492709,,0.500855845262,-0.190906986813,0.211800897677
1588857965950545594,1084,1588857965950418577,,0.500861645464,-0.190838481272,0.211787596981
1588857965953551214,1085,1588857965953461132,,0.500867142307,-0.1907700084,0.21177407729
1588857965962712616,1086,1588857965962497091,,0.500878207466,-0.190623481915,0.211745377338
1588857965965542311,1087,1588857965965413400,,0.500884253218,-0.190551801568,0.211727728333
1588857965968539454,1088,1588857965968415873,,0.500888127048,-0.190479250842,0.211709490396
1588857965974927930,1089,1588857965974827694,,0.500893259612,-0.190402354393,0.211688819094
1588857965977674418,1090,1588857965977489147,,0.500898449864,-0.190328577047,0.211668825492
1588857965980600476,1091,1588857965980497221,,0.500902182729,-0.19025388688,0.211649554161
1588857965986629458,1092,1588857965986515678,,0.500905295214,-0.190193126189,0.211631234288
1588857965989634538,1093,1588857965989471865,,0.500908994995,-0.19013814984,0.211618199786
1588857965995602176,1094,1588857965995502526,,0.500912556671,-0.190052421001,0.21159821334
1588857965998630186,1095,1588857965998496788,,0.500916337244,-0.189984612076,0.211582613457
1588857966001584882,1096,1588857966001488539,,0.500919443822,-0.189931503135,0.211569380579
1588857966007612092,1097,1588857966007487571,,0.50092358392,-0.189851665004,0.211553767735
1588857966010516457,1098,1588857966010436632,,0.500930576554,-0.18977942616,0.211540388096
1588857966013583981,1099,1588857966013488050,,0.500934872034,-0.18971758904,0.211528565232
1588857966019584364,1100,1588857966019481386,,0.500941032851,-0.189653985796,0.211518359305
1588857966022626837,1101,1588857966022480870,,0.500945892424,-0.189599582256,0.211506136175
1588857966025597065,1102,1588857966025444808,,0.50095121694,-0.189542371284,0.211495445139
1588857966031612261,1103,1588857966031518856,,0.500956231231,-0.189476876205,0.211480427911
1588857966034552236,1104,1588857966034465902,,0.500960432954,-0.18941695328,0.211466366633
1588857966037609171,1105,1588857966037477894,,0.500965440138,-0.189350524571,0.211450036198
1588857966046614367,1106,1588857966046417792,,0.500978064987,-0.189218139672,0.211420646617
1588857966049499955,1107,1588857966049374893,,0.500983168172,-0.189150531172,0.211402349116
1588857966055480996,1108,1588857966055382667,,0.500988366119,-0.189080207704,0.211384777967
1588857966058544559,1109,1588857966058382206,,0.500995584341,-0.189008099133,0.211368799931
1588857966061626820,1110,1588857966061401698,,0.501001170163,-0.18893446276,0.211351389558
1588857966067649054,1111,1588857966067456096,,0.501007402235,-0.188858142274,0.211333006671
1588857966070493433,1112,1588857966070409848,,0.5010130115,-0.188783341516,0.211316732402
1588857966079584587,1113,1588857966079451936,,0.501023364011,-0.188644236402,0.211290979248
1588857966082539131,1114,1588857966082390262,,0.501030439772,-0.188559991978,0.21127552806
1588857966085499689,1115,1588857966085375418,,0.501033391794,-0.188497893421,0.211263627726
1588857966091518518,1116,1588857966091419390,,0.501040131281,-0.188419405843,0.211250997083
1588857966094582386,1117,1588857966094426511,,0.50104643996,-0.188337723748,0.211234287242
1588857966097597894,1118,1588857966097483664,,0.501051408268,-0.188267507727,0.211219756655
1588857966106614030,1119,1588857966106464854,,0.501063719281,-0.188143567989,0.211197198293
1588857966109673888,1120,1588857966109477162,,0.501068142032,-0.188079173866,0.211183991113
1588857966115591323,1121,1588857966115476921,,0.501073139177,-0.188005496666,0.211167536034
1588857966118672488,1122,1588857966118555652,,0.501076307519,-0.187954083205,0.211152937457
1588857966124596203,1123,1588857966124491439,,0.501083321526,-0.187882688842,0.211141340881
1588857966127607040,1124,1588857966127494088,,0.501090524701,-0.187807046016,0.211126163452
1588857966130586419,1125,1588857966130472162,,0.501095907743,-0.187746202296,0.211111152496
1588857966136570428,1126,1588857966136462435,,0.501102160678,-0.187696166553,0.211100669329
1588857966139565676,1127,1588857966139449439,,0.501106666917,-0.187636781098,0.211087043097
1588857966142558839,1128,1588857966142465206,,0.501114264162,-0.187564910577,0.211073960581
1588857966148531886,1129,1588857966148444511,,0.501118579168,-0.187514539618,0.211061940061
1588857966151590310,1130,1588857966151474179,,0.501124903583,-0.187447901841,0.211050960712
1588857966157575470,1131,1588857966157429997,,0.50113042267,-0.187371637988,0.211034705529
1588857966160564673,1132,1588857966160459160,,0.501137527305,-0.187302683302,0.21102276026
1588857966163732395,1133,1588857966163627029,,0.501143738847,-0.1872335815,0.211011033014
1588857966166634180,1134,1588857966166539209,,0.501150210095,-0.187161580037,0.210997146973
1588857966172843122,1135,1588857966172701149,,0.501156562541,-0.187091333712,0.210986416609
1588857966175869901,1136,1588857966175770657,,0.501163196691,-0.187020326541,0.210972152556
1588857966181583882,1137,1588857966181440958,,0.501168629474,-0.186944315813,0.210956152939
1588857966184573122,1138,1588857966184492052,,0.501175695401,-0.186870548385,0.210943533895
1588857966187608117,1139,1588857966187482565,,0.501181523085,-0.186793305939,0.210927981546
1588857966190591428,1140,1588857966190492506,,0.501187541726,-0.186717599218,0.210914303452
1588857966196643156,1141,1588857966196535974,,0.501194113096,-0.186639719105,0.210899789942
1588857966199671989,1142,1588857966199545117,,0.501200006225,-0.186563313342,0.210886832304
1588857966205687099,1143,1588857966205538735,,0.501206974553,-0.186484984172,0.210872657172
1588857966208747820,1144,1588857966208586758,,0.501213028735,-0.186408843873,0.210856430235
1588857966211611005,1145,1588857966211504826,,0.501220091051,-0.186331726888,0.210843718228
1588857966214602823,1146,1588857966214503372,,0.501227765175,-0.186256247252,0.210829101843
1588857966220616869,1147,1588857966220515269,,0.501234306068,-0.186180905321,0.210814118216
1588857966223611293,1148,1588857966223481053,,0.501241577037,-0.186106368392,0.21080133986
1588857966229655523,1149,1588857966229516524,,0.501248185353,-0.186030375449,0.210788572187
1588857966232708069,1150,1588857966232501453,,0.501255585662,-0.18595589277,0.210773811873
1588857966235641718,1151,1588857966235550729,,0.501261650988,-0.185882011421,0.210758933647
1588857966238590264,1152,1588857966238474838,,0.501268296228,-0.185807292468,0.210743018863
1588857966244675534,1153,1588857966244536932,,0.501276246822,-0.185730204481,0.21072942384
1588857966247635710,1154,1588857966247510508,,0.501282479245,-0.185657937578,0.210714111094
1588857966253641548,1155,1588857966253502128,,0.501289257763,-0.18558156382,0.210699297333
1588857966259622248,1156,1588857966259496390,,0.501302000318,-0.185431577149,0.210671300791
1588857966265643129,1157,1588857966265522849,,0.501309567276,-0.185352931948,0.210657206703
1588857966268622613,1158,1588857966268489992,,0.501316769765,-0.1852763076,0.210642401266
1588857966272080898,1159,1588857966271948196,,0.501322599399,-0.185199092583,0.210627514447
1588857966277646996,1160,1588857966277520936,,0.501329490677,-0.185123027634,0.210613782841
1588857966280653870,1161,1588857966280523101,,0.501337503381,-0.185043489527,0.210601057048
1588857966283892662,1162,1588857966283781971,,0.501342224397,-0.184966979465,0.210587080129
1588857966289729812,1163,1588857966289548485,,0.501348087161,-0.184909059937,0.210576056963
1588857966292669344,1164,1588857966292529908,,0.50135468925,-0.184832169319,0.210561041493
1588857966295600153,1165,1588857966295484034,,0.501361497753,-0.184748243556,0.210545901849
1588857966301672116,1166,1588857966301473386,,0.501366792875,-0.184689607047,0.210534352638
1588857966304687834,1167,1588857966304480416,,0.501372989315,-0.184618520182,0.21052125079
1588857966307604330,1168,1588857966307481075,,0.501380769292,-0.184542243295,0.210507423582
1588857966313641743,1169,1588857966313499152,,0.501387264445,-0.184474369528,0.210493150491
1588857966319675723,1170,1588857966319565629,,0.501400716912,-0.184344708317,0.210467832559
1588857966325676627,1171,1588857966325531518,,0.501407322236,-0.184280969961,0.210457233927
1588857966328614833,1172,1588857966328512294,,0.501412872803,-0.184216788344,0.210445082524
1588857966331672696,1173,1588857966331529746,,0.501420583262,-0.184151223476,0.21043480555
1588857966337609434,1174,1588857966337491182,,0.501427766029,-0.184081427096,0.210424433858
1588857966340652693,1175,1588857966340503490,,0.501434105743,-0.184014030118,0.210411333106
1588857966343914875,1176,1588857966343807317,,0.501442933204,-0.183944842959,0.210401731125
1588857966349823223,1177,1588857966349576150,,0.50145093238,-0.183873965069,0.210389222623
1588857966352689476,1178,1588857966352552407,,0.501458623303,-0.183803831913,0.210377885563
1588857966355655432,1179,1588857966355511332,,0.501466319453,-0.183729515628,0.210366744256
1588857966361649660,1180,1588857966361507344,,0.501474663482,-0.183655005699,0.210355168682
1588857966364614269,1181,1588857966364487699,,0.501481678154,-0.183583154117,0.210341984789
1588857966367628063,1182,1588857966367512346,,0.501488413649,-0.18350188902,0.21032867341
1588857966373821236,1183,1588857966373651342,,0.50149603482,-0.183425056289,0.210315609924
1588857966382829432,1184,1588857966382590787,,0.501507831018,-0.183269170927,0.210289035149
1588857966385621021,1185,1588857966385526279,,0.501513704872,-0.183196652119,0.210275852022
1588857966388677928,1186,1588857966388530736,,0.501519298059,-0.183117425554,0.210261986526
1588857966394698024,1187,1588857966394553554,,0.501525164096,-0.183041056582,0.210249395884
1588857966397859510,1188,1588857966397546147,,0.501529743178,-0.182969281255,0.210234963655
1588857966400635380,1189,1588857966400540860,,0.501535479552,-0.182893856097,0.210219847185
1588857966406688999,1190,1588857966406569828,,0.501539580425,-0.182837953152,0.210207827292
1588857966409688719,1191,1588857966409567903,,0.501543095618,-0.18278578998,0.210196887866
1588857966412642248,1192,1588857966412524972,,0.501549030219,-0.182709971557,0.210182633595
1588857966418736963,1193,1588857966418576982,,0.501552170791,-0.18264695747,0.21016903484
1588857966421742918,1194,1588857966421614408,,0.501554339408,-0.182597682277,0.210155288627
1588857966424587330,1195,1588857966424481586,,0.501559119175,-0.182526419922,0.210140473034
1588857966430639257,1196,1588857966430510950,,0.501564757666,-0.182459995104,0.210128498328
1588857966433619372,1197,1588857966433492443,,0.501567216613,-0.182402492764,0.210112969149
1588857966436694134,1198,1588857966436521050,,0.501570955419,-0.182350323638,0.210100497715
1588857966442760894,1199,1588857966442509416,,0.501575935171,-0.182294682704,0.21008914348
1588857966445711170,1200,1588857966445569444,,0.501579434827,-0.182243353825,0.210077283337
1588857966448708422,1201,1588857966448535144,,0.501584198115,-0.182183334187,0.210065751051
1588857966454763785,1202,1588857966454601822,,0.501587358134,-0.182123554634,0.210054421827
1588857966457642943,1203,1588857966457557843,,0.501591837106,-0.182064374994,0.210046492514
1588857966460722455,1204,1588857966460578419,,0.501597173953,-0.181995636117,0.210038170412
1588857966466664788,1205,1588857966466511882,,0.501600662156,-0.181930530346,0.210028462648
1588857966469625079,1206,1588857966469525476,,0.501604790095,-0.181868310593,0.210017779013
1588857966472899004,1207,1588857966472757638,,0.501610504008,-0.181795662744,0.210005678062
1588857966478738694,1208,1588857966478576996,,0.501613752689,-0.181726543741,0.209993403179
1588857966481664602,1209,1588857966481572409,,0.501617671449,-0.181654279833,0.209978310239
1588857966484750068,1210,1588857966484598876,,0.501620800079,-0.181579073446,0.209960535678
1588857966490702861,1211,1588857966490522756,,0.501624659868,-0.181504459844,0.20994459403
1588857966493625875,1212,1588857966493502245,,0.501625439592,-0.181430560465,0.209925644416
1588857966502664347,1213,1588857966502566815,,0.501629670499,-0.181275972023,0.20988767478
1588857966505699787,1214,1588857966505540401,,0.501631228883,-0.181202021913,0.209868054999
1588857966511697727,1215,1588857966511592153,,0.501633046188,-0.181127202855,0.209850496298
1588857966514675067,1216,1588857966514546239,,0.501635337545,-0.181056053217,0.209834018852
1588857966520778910,1217,1588857966520591538,,0.501636108968,-0.18098593486,0.209814823588
1588857966523834707,1218,1588857966523742454,,0.501639477997,-0.180916553538,0.209800438669
1588857966526633959,1219,1588857966526503913,,0.501640369553,-0.180866123223,0.209787555468
1588857966529634194,1220,1588857966529501984,,0.501643305265,-0.180815395027,0.209777372136
1588857966538694894,1221,1588857966538580094,,0.501647548349,-0.180746298456,0.209765266717
1588857966541640269,1222,1588857966541526479,,0.50164955488,-0.180690649981,0.209754239923
1588857966544701290,1223,1588857966544552102,,0.501651436381,-0.180646935387,0.209742565499
1588857966547704414,1224,1588857966547567288,,0.501655282027,-0.180585041563,0.209729625228
1588857966550705266,1225,1588857966550569710,,0.501658303834,-0.180524722824,0.209713851679
1588857966553632927,1226,1588857966553530832,,0.501659857277,-0.180472453578,0.209700327486
1588857966559670823,1227,1588857966559548546,,0.501662159915,-0.180425950792,0.20968767675
1588857966562567094,1228,1588857966562461073,,0.501663985095,-0.180380917917,0.209674820128
1588857966568616875,1229,1588857966568516916,,0.501665572287,-0.180326722857,0.209659239243
1588857966572112507,1230,1588857966571954374,,0.501667188098,-0.180272793377,0.209645554889
1588857966574979128,1231,1588857966574858664,,0.501669618951,-0.180217844627,0.209632232955
1588857966577639795,1232,1588857966577547391,,0.501670807866,-0.18015996412,0.209615274232
1588857966583771312,1233,1588857966583641048,,0.501673379382,-0.180095762834,0.209601018013
1588857966586607550,1234,1588857966586523153,,0.501676006432,-0.180035853545,0.209588228383
1588857966592692212,1235,1588857966592550917,,0.501678690106,-0.179972339493,0.209575568363
1588857966595706409,1236,1588857966595568040,,0.501682099704,-0.179904836251,0.209562735714
1588857966598590135,1237,1588857966598502395,,0.501685378224,-0.179839611196,0.209550345634
1588857966601684677,1238,1588857966601532556,,0.501688254329,-0.179771823256,0.209539783905
1588857966607733377,1239,1588857966607591397,,0.501691961316,-0.179704242112,0.209530769681
1588857966610621987,1240,1588857966610520675,,0.501693632208,-0.179637418727,0.209517999499
1588857966617131225,1241,1588857966617048891,,0.501696260246,-0.179574478394,0.209508923748
1588857966619684659,1242,1588857966619546354,,0.501698879946,-0.179504788049,0.209496695554
1588857966622725201,1243,1588857966622580023,,0.501700923001,-0.179441572585,0.209481106588
1588857966625621865,1244,1588857966625510709,,0.501703762533,-0.179380651449,0.209468614101
1588857966631638782,1245,1588857966631536576,,0.501705669072,-0.179318722021,0.20945632363
1588857966634620766,1246,1588857966634517582,,0.501708049498,-0.179257204514,0.20944303228
1588857966640664485,1247,1588857966640528712,,0.501710214465,-0.179194431492,0.209428816186
1588857966643766525,1248,1588857966643675398,,0.501712330193,-0.179140089172,0.209418345493
1588857966646708647,1249,1588857966646523950,,0.501714936225,-0.179081724308,0.209406522113
1588857966652606625,1250,1588857966652507308,,0.501717206275,-0.179022718732,0.209393307513
1588857966655792344,1251,1588857966655613009,,0.50172048931,-0.178970596643,0.20938459122
1588857966658691173,1252,1588857966658594647,,0.501723611684,-0.178918510967,0.209376220708
1588857966664675050,1253,1588857966664548280,,0.501725437928,-0.178865561026,0.209364165322
1588857966667715574,1254,1588857966667545964,,0.501729731304,-0.178812422628,0.209356835896
1588857966670685977,1255,1588857966670520474,,0.501731830142,-0.178758179138,0.209346731175
1588857966679778049,1256,1588857966679599998,,0.501737431739,-0.178654199919,0.209327087448
1588857966682679127,1257,1588857966682562177,,0.501741438302,-0.17860277833,0.209319529977
1588857966688718415,1258,1588857966688595577,,0.501743257853,-0.178548472157,0.209306797278
1588857966691720185,1259,1588857966691603768,,0.501746051338,-0.178491726418,0.209297013471
1588857966694696397,1260,1588857966694584596,,0.501748150478,-0.178439054289,0.209288394558
1588857966700795986,1261,1588857966700591728,,0.501750870971,-0.178381708573,0.209278956388
1588857966703925643,1262,1588857966703836887,,0.501753657271,-0.17832544426,0.209268005913
1588857966706654141,1263,1588857966706520176,,0.501754498633,-0.17828394435,0.20925860894
1588857966712764637,1264,1588857966712563679,,0.501756590489,-0.17822645336,0.209248149264
1588857966715678597,1265,1588857966715567760,,0.501759070201,-0.178163130013,0.209238222248
1588857966718777746,1266,1588857966718625363,,0.501760764386,-0.17812217562,0.209231326929
1588857966724750949,1267,1588857966724616425,,0.501762821862,-0.17806689335,0.209222838963
1588857966727696093,1268,1588857966727597405,,0.501766499984,-0.178005910236,0.209215835664
1588857966730737281,1269,1588857966730587246,,0.50176826721,-0.177958126518,0.209208172744
1588857966739701782,1270,1588857966739570501,,0.501774694408,-0.177860697225,0.209195408669
1588857966742877037,1271,1588857966742667173,,0.501775478268,-0.177818849121,0.209187195416
1588857966748719009,1272,1588857966748592704,,0.501776760138,-0.177772348144,0.209179684555
1588857966751696912,1273,1588857966751537458,,0.501778763263,-0.177729161626,0.209171883632
