%time,field.header.seq,field.header.stamp,field.header.frame_id,field.vector.x,field.vector.y,field.vector.z
1589275513377955516,1857,1589275513377796493,,0.499935205742,-0.200868016843,0.213774211226
1589275513383941218,1858,1589275513383759346,,0.499935012272,-0.200873594005,0.21376974492
1589275513389908721,1859,1589275513389754860,,0.499934129307,-0.200879192045,0.213767113753
1589275513395937706,1860,1589275513395783983,,0.499933859848,-0.200880893336,0.213763024488
1589275513401952355,1861,1589275513401811199,,0.499933693503,-0.200882853813,0.213760373128
1589275513407996109,1862,1589275513407826767,,0.49993342711,-0.20089039085,0.213755644072
1589275513413879645,1863,1589275513413754588,,0.499932878773,-0.200893989147,0.213751964014
1589275513419795979,1864,1589275513419707235,,0.499932388073,-0.20090006478,0.213744152497
1589275513426009610,1865,1589275513425828840,,0.499932929103,-0.200902557021,0.213741429296
1589275513431927812,1866,1589275513431781803,,0.499932646401,-0.200909112153,0.213734832111
1589275513437822418,1867,1589275513437671895,,0.499932239817,-0.200912305285,0.213731347334
1589275513443986310,1868,1589275513443863980,,0.499932233164,-0.200917215989,0.213726159618
1589275513449845570,1869,1589275513449720270,,0.499932689842,-0.200919487297,0.213724307761
1589275513455903284,1870,1589275513455730375,,0.49993250082,-0.200924220508,0.213720062666
1589275513461890103,1871,1589275513461759100,,0.499932409454,-0.200927120383,0.213718058612
1589275513467940134,1872,1589275513467797671,,0.499932500299,-0.200931334903,0.213714142483
1589275513473930010,1873,1589275513473751168,,0.499933002783,-0.200931933837,0.213712036109
1589275513479948892,1874,1589275513479807585,,0.499933123623,-0.200936754185,0.213707659067
1589275513486071147,1875,1589275513485787041,,0.49993353509,-0.200937923897,0.213706669279
1589275513492001222,1876,1589275513491748478,,0.499933716445,-0.200938792382,0.213703884324
1589275513497984353,1877,1589275513497804966,,0.499933804553,-0.200939186066,0.213701731874
1589275513504059401,1878,1589275513503821831,,0.499934294221,-0.200941903857,0.213699844577
1589275513509915693,1879,1589275513509792921,,0.499934293164,-0.200942594254,0.213696685456
1589275513515923712,1880,1589275513515733402,,0.499934713462,-0.200942324833,0.21369446718
1589275513521911099,1881,1589275513521746062,,0.499934112194,-0.200943806227,0.213692637735
1589275513527916587,1882,1589275513527779128,,0.499934553033,-0.200943592695,0.213690134324
1589275513534011307,1883,1589275513533832025,,0.499934536789,-0.200944657522,0.213688897951
1589275513539858754,1884,1589275513539762789,,0.499934361571,-0.200944484338,0.213686205749
1589275513552083253,1885,1589275513551849669,,0.499934563388,-0.200943392466,0.213681274663
1589275513558023211,1886,1589275513557812182,,0.499934863304,-0.200942058899,0.213681251232
1589275513563985429,1887,1589275513563802201,,0.499935691813,-0.20093948545,0.213678909439
1589275513569978488,1888,1589275513569844562,,0.499935541502,-0.200938846577,0.213677826553
1589275513575946399,1889,1589275513575752081,,0.499935790038,-0.200935135617,0.213675190462
1589275513581957016,1890,1589275513581787707,,0.499935341189,-0.200935235617,0.21367267668
1589275513587875900,1891,1589275513587744293,,0.499935878108,-0.200929673275,0.213668644791
1589275513593915256,1892,1589275513593793549,,0.499935833491,-0.200926576351,0.21366427766
1589275513599832127,1893,1589275513599704956,,0.499937050331,-0.200921571794,0.213659653743
1589275513605858693,1894,1589275513605746885,,0.4999376911,-0.200917224519,0.213656080146
1589275513611852715,1895,1589275513611688093,,0.49993823494,-0.200910513509,0.213650432419
1589275513617928122,1896,1589275513617713929,,0.499938587558,-0.200904593245,0.213646447856
1589275513623999494,1897,1589275513623817010,,0.499940256701,-0.200892990719,0.213640410005
1589275513630115735,1898,1589275513629923395,,0.499940474486,-0.200884599396,0.213634365554
1589275513635964981,1899,1589275513635830755,,0.499941650584,-0.200862034834,0.213620913615
1589275513642361576,1900,1589275513642203119,,0.499941504699,-0.200851388323,0.213613673993
1589275513647940763,1901,1589275513647753750,,0.499940094882,-0.200829019554,0.213596444734
1589275513653912246,1902,1589275513653778943,,0.499940528843,-0.200813371533,0.213589948571
1589275513659958418,1903,1589275513659830392,,0.499943917473,-0.200763719771,0.213573443898
1589275513665973742,1904,1589275513665828583,,0.499945008798,-0.200751237798,0.213567685141
1589275513672003727,1905,1589275513671824917,,0.49994537041,-0.200724187853,0.213555084322
1589275513678025509,1906,1589275513677818104,,0.499944873851,-0.200711392899,0.213548936807
1589275513684043004,1907,1589275513683842133,,0.499943826366,-0.200689249352,0.213534855762
1589275513689793424,1908,1589275513689682972,,0.499943938342,-0.200678733482,0.213529356675
1589275513695900539,1909,1589275513695786639,,0.4999431324,-0.200653315122,0.213517731491
1589275513701933344,1910,1589275513701779242,,0.499941876589,-0.200639335246,0.213510352442
1589275513707943310,1911,1589275513707837773,,0.49994077179,-0.200615351649,0.213498679829
1589275513713932242,1912,1589275513713803649,,0.49994044072,-0.200605229407,0.213492830451
1589275513719953059,1913,1589275513719824704,,0.499938879268,-0.200583344882,0.213481057792
1589275513725966092,1914,1589275513725849736,,0.499939096566,-0.200572968402,0.213478311011
1589275513731910830,1915,1589275513731802213,,0.499936551265,-0.200551790296,0.213469677604
1589275513737919715,1916,1589275513737787525,,0.499936740121,-0.200540195545,0.213468451137
1589275513744124558,1917,1589275513744001242,,0.49993617537,-0.200529417216,0.213468088251
1589275513749993769,1918,1589275513749862881,,0.499935212052,-0.200507037441,0.213466376533
1589275513755957254,1919,1589275513755852300,,0.499934165016,-0.20049463036,0.213461496756
1589275513761933795,1920,1589275513761812724,,0.499933667744,-0.200461187978,0.213451468101
1589275513768101799,1921,1589275513767892714,,0.499933793342,-0.200445572847,0.213446829796
1589275513773975787,1922,1589275513773820918,,0.499932149538,-0.200424247196,0.213436810466
1589275513779908248,1923,1589275513779795804,,0.499931789463,-0.200397736796,0.213425729684
1589275513785956149,1924,1589275513785817763,,0.499931325859,-0.200382769479,0.213419039721
1589275513791990481,1925,1589275513791838688,,0.49993214579,-0.200368807479,0.213414312949
1589275513798018003,1926,1589275513797865977,,0.499932643081,-0.200351435314,0.213407812507
1589275513803945546,1927,1589275513803825766,,0.499932389045,-0.200321948855,0.213398908764
1589275513810037783,1928,1589275513809871027,,0.499932241502,-0.200307276575,0.213396775124
1589275513819014078,1929,1589275513818878128,,0.499930101738,-0.200267774004,0.213384482827
1589275513825004398,1930,1589275513824828583,,0.499931115756,-0.200238797091,0.213375985589
1589275513830970078,1931,1589275513830828263,,0.499931160675,-0.200223236067,0.213369051582
1589275513836994266,1932,1589275513836835023,,0.49993066238,-0.200192063494,0.21335699221
1589275513843159810,1933,1589275513843042665,,0.499930056123,-0.200177655067,0.213351096084
1589275513848902681,1934,1589275513848817364,,0.499928320918,-0.200143594167,0.213336551315
1589275513854982230,1935,1589275513854859416,,0.499928181243,-0.200125814387,0.213328869703
1589275513860901790,1936,1589275513860798099,,0.499928532945,-0.200086968475,0.213314668061
1589275513866934260,1937,1589275513866837067,,0.499927758688,-0.200067049419,0.213306722101
1589275513875922849,1938,1589275513875802081,,0.499930246447,-0.200000137911,0.21329095294
1589275513881939070,1939,1589275513881756172,,0.499930171471,-0.199977565429,0.213285426575
1589275513887864595,1940,1589275513887781921,,0.499931036576,-0.199931328564,0.21327507852
1589275513893965747,1941,1589275513893821921,,0.49993120939,-0.199907796799,0.213269179941
1589275513900013860,1942,1589275513899842589,,0.499933066799,-0.199855879764,0.21325745659
1589275513905952315,1943,1589275513905829635,,0.499934190239,-0.199806614129,0.213242259287
1589275513911944550,1944,1589275513911819944,,0.499934359442,-0.199779903738,0.213233847931
1589275513917950707,1945,1589275513917785389,,0.49993476172,-0.199756676089,0.213226736934
1589275513923948352,1946,1589275513923858329,,0.499935470238,-0.199707984365,0.21321356052
1589275513929927224,1947,1589275513929819326,,0.499936092978,-0.199657898322,0.213197137252
1589275513935994839,1948,1589275513935784335,,0.499937613911,-0.199606669428,0.213184905602
1589275513942326638,1949,1589275513942208472,,0.499938595199,-0.199553935608,0.21316947847
1589275513947968989,1950,1589275513947863117,,0.499938364526,-0.199526709951,0.213161587539
1589275513953885219,1951,1589275513953791056,,0.499940393009,-0.199468337496,0.213149075034
1589275513959897089,1952,1589275513959795565,,0.499942287526,-0.199436953311,0.213143569103
1589275513965901310,1953,1589275513965757865,,0.499943696403,-0.199379911933,0.213130134334
1589275513968838162,1954,1589275513968736212,,0.499944130173,-0.199347925119,0.21312201281
1589275513974858202,1955,1589275513974770855,,0.499948676173,-0.199279450766,0.213106234783
1589275513977956810,1956,1589275513977752762,,0.499950608534,-0.199246033067,0.213099261176
1589275513983923732,1957,1589275513983793762,,0.499952608921,-0.199182282893,0.21308255037
1589275513989889726,1958,1589275513989780317,,0.499953960614,-0.199150605062,0.213074424067
1589275513995928877,1959,1589275513995812983,,0.499959701304,-0.1990411084,0.213051726145
1589275514001857208,1960,1589275514001752466,,0.499961911546,-0.19897971751,0.213035588622
1589275514007886722,1961,1589275514007743534,,0.499964453438,-0.198943723563,0.213027731348
1589275514010889694,1962,1589275514010783487,,0.499965885626,-0.198881929359,0.213014148949
1589275514017039954,1963,1589275514016874338,,0.499966634846,-0.198845219307,0.213003278349
1589275514022963169,1964,1589275514022818522,,0.499971462423,-0.198779061954,0.212990856108
1589275514025959255,1965,1589275514025805051,,0.49997301099,-0.198745072816,0.212982980164
1589275514028860613,1966,1589275514028777506,,0.499974747019,-0.198680809899,0.21296800607
1589275514031888697,1967,1589275514031769804,,0.499976933706,-0.198644162238,0.212960432511
1589275514034862198,1968,1589275514034755530,,0.49997969438,-0.198570481077,0.212942597636
1589275514037871515,1969,1589275514037761931,,0.49998138865,-0.198529080919,0.212934527523
1589275514040852948,1970,1589275514040782061,,0.499986007995,-0.198448834609,0.212917475191
1589275514044070463,1971,1589275514043971818,,0.499988538051,-0.198405499357,0.212908161324
1589275514050044428,1972,1589275514049902525,,0.499991473284,-0.198321391804,0.212887724844
1589275514055934311,1973,1589275514055861012,,0.49999517349,-0.198276566912,0.212880957993
1589275514062033525,1974,1589275514061901441,,0.499998573819,-0.198192391058,0.212862519698
1589275514067977997,1975,1589275514067843304,,0.500001659474,-0.198149424681,0.212852945799
1589275514074159603,1976,1589275514073889195,,0.500004592819,-0.19806284416,0.212836384912
1589275514080034200,1977,1589275514079945513,,0.50000662123,-0.198023966559,0.212829222477
1589275514085955031,1978,1589275514085810068,,0.500011464738,-0.197939748607,0.212813146636
1589275514092117579,1979,1589275514091898545,,0.500013877871,-0.197896145174,0.212806090401
1589275514098079952,1980,1589275514097930554,,0.500016476011,-0.197816444974,0.212788871113
1589275514103949737,1981,1589275514103868168,,0.500018506136,-0.197775845698,0.212778599697
1589275514109941871,1982,1589275514109834190,,0.500021378382,-0.197689257996,0.212757975922
1589275514115884823,1983,1589275514115795607,,0.50002302173,-0.197643714363,0.212749864196
1589275514121998000,1984,1589275514121853354,,0.500028472244,-0.197549637305,0.212730292415
1589275514127972357,1985,1589275514127829898,,0.500029194789,-0.19750429857,0.212718901616
1589275514134036621,1986,1589275514133886579,,0.500033360948,-0.197404688552,0.21269816618
1589275514136920797,1987,1589275514136791826,,0.500034691054,-0.197356803125,0.212685622258
1589275514143347707,1988,1589275514143129540,,0.500040031584,-0.197252989499,0.212664158631
1589275514149012539,1989,1589275514148839350,,0.500042782339,-0.197202032957,0.212654882978
1589275514152083061,1990,1589275514151906678,,0.500044924474,-0.197149986262,0.212642582047
1589275514158066265,1991,1589275514157930813,,0.50004974522,-0.197046896545,0.212621200211
1589275514164067882,1992,1589275514163919139,,0.500052284729,-0.196998592696,0.212610831559
1589275514169925972,1993,1589275514169804652,,0.500055657641,-0.196895187474,0.212587379134
1589275514176043460,1994,1589275514175867432,,0.500058213054,-0.196846540557,0.212574578773
1589275514181922849,1995,1589275514181838461,,0.5000617231,-0.196750849166,0.212552991849
1589275514187916268,1996,1589275514187815396,,0.500062140662,-0.196658806643,0.212524049764
1589275514194003573,1997,1589275514193888372,,0.500064918328,-0.196608131794,0.212511282275
1589275514200044125,1998,1589275514199930691,,0.500066922632,-0.196563600756,0.212499846498
1589275514206004872,1999,1589275514205847054,,0.500069496427,-0.196471512749,0.212476067278
1589275514212120731,2000,1589275514211916906,,0.500072328934,-0.196423954318,0.212465489051
1589275514218036175,2001,1589275514217889911,,0.500074342603,-0.196376219178,0.212453356556
1589275514224103851,2002,1589275514223967360,,0.500078591531,-0.196278354884,0.212432119071
1589275514230089826,2003,1589275514229905702,,0.500081143465,-0.196229381181,0.21242292185
1589275514236016935,2004,1589275514235859402,,0.500085837883,-0.196126903882,0.212401201039
1589275514242393510,2005,1589275514242265336,,0.50008772535,-0.196088903372,0.212391249144
1589275514248021412,2006,1589275514247922460,,0.500094962234,-0.195975505036,0.212366647724
1589275514254030937,2007,1589275514253884018,,0.50009786488,-0.19593712881,0.212358379204
1589275514260180239,2008,1589275514260074411,,0.500100905491,-0.195882255591,0.212345077987
1589275514265936348,2009,1589275514265823760,,0.50010455728,-0.195784731958,0.212320932763
1589275514272117007,2010,1589275514271925580,,0.500106751219,-0.195738897081,0.21230990282
1589275514277980431,2011,1589275514277833930,,0.500107985787,-0.195695576664,0.212297581313
1589275514284057852,2012,1589275514283913012,,0.500111763661,-0.19561053224,0.212274966459
1589275514290080013,2013,1589275514289937913,,0.500115405844,-0.195563835911,0.212264260544
1589275514296039338,2014,1589275514295891187,,0.500117925022,-0.195519178465,0.212253803223
1589275514302127013,2015,1589275514301943770,,0.500121676642,-0.19544391035,0.212232440341
1589275514308003581,2016,1589275514307874268,,0.500122733793,-0.195352444257,0.212207306315
1589275514314145911,2017,1589275514313897536,,0.500126214406,-0.195313134229,0.212200934497
1589275514320034879,2018,1589275514319923992,,0.500127989384,-0.195266008841,0.212190143112
1589275514326160451,2019,1589275514325990973,,0.500131978501,-0.195167933336,0.212163957131
1589275514332119007,2020,1589275514331913880,,0.500136113448,-0.195075472745,0.212140322032
1589275514337991897,2021,1589275514337847368,,0.500138075385,-0.195027924429,0.212127519607
1589275514344200658,2022,1589275514344081137,,0.500139252857,-0.194980249439,0.212114317926
1589275514350129388,2023,1589275514349917776,,0.500142956329,-0.194926535627,0.212100706792
1589275514356090858,2024,1589275514355946928,,0.500144713337,-0.194881278601,0.212086361606
1589275514361998423,2025,1589275514361868622,,0.500148249933,-0.194824906578,0.212075220823
1589275514368065918,2026,1589275514367918844,,0.500152617429,-0.194719777626,0.212048075565
1589275514374116381,2027,1589275514373975465,,0.500156317256,-0.194665912762,0.212037019222
1589275514380064178,2028,1589275514379944761,,0.500158627268,-0.194610554823,0.212022913756
1589275514386038177,2029,1589275514385893288,,0.500166068956,-0.194502483299,0.212002158409
1589275514392083795,2030,1589275514391888891,,0.500168109094,-0.194448966615,0.211986322297
1589275514398069722,2031,1589275514397886068,,0.500172599373,-0.194392708837,0.211974629956
1589275514404091668,2032,1589275514403920763,,0.500174012297,-0.194341567884,0.211960407247
1589275514410040138,2033,1589275514409908540,,0.500177826319,-0.194284150439,0.211949674431
1589275514416009660,2034,1589275514415868164,,0.500180908603,-0.194229828935,0.211936000041
1589275514422079147,2035,1589275514421918317,,0.500184176634,-0.194174450227,0.211923514204
1589275514428063933,2036,1589275514427891675,,0.50018992563,-0.194066606176,0.211896131284
1589275514434099556,2037,1589275514433929599,,0.500193647004,-0.194013128101,0.211882362645
1589275514440043607,2038,1589275514439934494,,0.500196725562,-0.193974050581,0.21187216675
1589275514449064996,2039,1589275514448955169,,0.500205147201,-0.193819086998,0.211833527286
1589275514455062413,2040,1589275514454949465,,0.500207918437,-0.193765945024,0.211823952209
1589275514461089127,2041,1589275514460966242,,0.50021017281,-0.193705575712,0.211809386523
1589275514467275755,2042,1589275514467004775,,0.500213784402,-0.193653454286,0.211799065848
1589275514476110240,2043,1589275514475955004,,0.500217623897,-0.1935507924,0.211774627907
1589275514482020278,2044,1589275514481919464,,0.50022140176,-0.193497706519,0.211761567609
1589275514488020158,2045,1589275514487931008,,0.500223581439,-0.193444041444,0.211747028374
1589275514493980798,2046,1589275514493905535,,0.500227446033,-0.193391361199,0.211734745076
1589275514499999950,2047,1589275514499922744,,0.500231333302,-0.193332130792,0.211719736049
1589275514506004918,2048,1589275514505900498,,0.50023381256,-0.193273348474,0.211704414604
1589275514512006930,2049,1589275514511895038,,0.50023800617,-0.193215324198,0.21169266437
1589275514518014251,2050,1589275514517907416,,0.500243314958,-0.193097831301,0.211661988454
1589275514524064811,2051,1589275514523904553,,0.500246707231,-0.193039397665,0.211647005603
1589275514529955295,2052,1589275514529835120,,0.500254822554,-0.192914722766,0.211620965743
1589275514533168119,2053,1589275514533083195,,0.500259129179,-0.192854311685,0.211608066656
1589275514539073542,2054,1589275514538888392,,0.500268469515,-0.192728128008,0.211581880739
1589275514545385653,2055,1589275514545217756,,0.500272886139,-0.192662786993,0.211566653894
1589275514551074583,2056,1589275514550890517,,0.500282384452,-0.19253814489,0.211543148428
1589275514557066441,2057,1589275514556865769,,0.500287719652,-0.192470462679,0.211530697882
1589275514563055728,2058,1589275514562896009,,0.500302465108,-0.192274796394,0.211488855989
1589275514566090561,2059,1589275514565875301,,0.500305547828,-0.19221615036,0.21147530956
1589275514572019599,2060,1589275514571863868,,0.50031533136,-0.192088250372,0.211450255992
1589275514574972688,2061,1589275514574866343,,0.500320275003,-0.192020761441,0.211435736718
1589275514581048123,2062,1589275514580902458,,0.500323252867,-0.191957845493,0.211423255355
1589275514587089732,2063,1589275514586912447,,0.500326968254,-0.191897691416,0.211410125717
1589275514595968978,2064,1589275514595846601,,0.500337840661,-0.191713230191,0.211370771172
1589275514602005563,2065,1589275514601882742,,0.500346747793,-0.191590484309,0.211347432481
1589275514608032806,2066,1589275514607905993,,0.500350766539,-0.191526443592,0.211335155152
1589275514614031149,2067,1589275514613909291,,0.500358236018,-0.191400154042,0.21131187323
1589275514620111951,2068,1589275514619964779,,0.500363157272,-0.191334822983,0.211302377172
1589275514626088095,2069,1589275514625985113,,0.500371100984,-0.191208376665,0.211275826612
1589275514632046135,2070,1589275514631912168,,0.500377513374,-0.191141174592,0.211264172722
1589275514634942468,2071,1589275514634853360,,0.50038870257,-0.191008248859,0.211240133857
1589275514638018235,2072,1589275514637898908,,0.500394880732,-0.19094022023,0.211227138119
1589275514644173454,2073,1589275514644049433,,0.500405109061,-0.190803168669,0.211204236238
1589275514650187535,2074,1589275514649973354,,0.500410316462,-0.190735647645,0.21119247892
1589275514656117547,2075,1589275514655976883,,0.500420264086,-0.190601427145,0.211171459427
1589275514662109572,2076,1589275514661990468,,0.500425875931,-0.19053094666,0.211159029487
1589275514668147910,2077,1589275514668000745,,0.500431111848,-0.190466933995,0.211147487949
1589275514674011699,2078,1589275514673928161,,0.500442047429,-0.190335625002,0.211127030207
1589275514680101685,2079,1589275514679972248,,0.500449394554,-0.190211312596,0.211102575511
1589275514686074082,2080,1589275514685933386,,0.500454098723,-0.190149265905,0.211091115993
1589275514692126541,2081,1589275514691954931,,0.500461458937,-0.190022787869,0.211069875119
1589275514698149078,2082,1589275514697944859,,0.500465473128,-0.189960409861,0.211058168124
1589275514704085702,2083,1589275514703925811,,0.50046918667,-0.189900430676,0.211051292642
1589275514710086609,2084,1589275514709966874,,0.500476259056,-0.189772404544,0.211024831957
1589275514716023458,2085,1589275514715922197,,0.500479720998,-0.189706588418,0.211014104961
1589275514722031347,2086,1589275514721948550,,0.500486543741,-0.189576054064,0.210995011814
1589275514725095220,2087,1589275514724969697,,0.500490790823,-0.189507669109,0.210986673024
1589275514731046192,2088,1589275514730901905,,0.500498072759,-0.189372609029,0.210966386575
1589275514734073197,2089,1589275514733914666,,0.500499229087,-0.189298782397,0.210954142672
1589275514737090385,2090,1589275514736928622,,0.500501901613,-0.189162489475,0.210927575964
1589275514740114345,2091,1589275514739985348,,0.500506206331,-0.189088576891,0.210917293159
1589275514749189171,2092,1589275514749003383,,0.500520319853,-0.188893170031,0.210874814759
1589275514755044042,2093,1589275514754888219,,0.500528167995,-0.188753112361,0.210853988768
1589275514761068625,2094,1589275514760959917,,0.500529792748,-0.188685295253,0.210849870678
1589275514767045932,2095,1589275514766940627,,0.500533014622,-0.188545291674,0.210841609685
1589275514776165601,2096,1589275514776014308,,0.500540168068,-0.188344904829,0.210819245802
1589275514782083557,2097,1589275514781956547,,0.500541195416,-0.188277673586,0.210808223178
1589275514785062149,2098,1589275514784949615,,0.500540355858,-0.188139550266,0.210786359551
1589275514791088632,2099,1589275514790929158,,0.500538238055,-0.188072832441,0.210773505038
1589275514794064109,2100,1589275514793966800,,0.5005315024,-0.187930615821,0.210744935205
1589275514799994875,2101,1589275514799925400,,0.500530092589,-0.187862286727,0.210736145775
1589275514803003411,2102,1589275514802926245,,0.500524862891,-0.187723830946,0.210706607353
1589275514809053793,2103,1589275514808942815,,0.500522071626,-0.187653164559,0.210698357716
1589275514812082987,2104,1589275514811998753,,0.500519200046,-0.187513597985,0.210680883171
1589275514818015556,2105,1589275514817899887,,0.500515681794,-0.187445587143,0.210670040539
1589275514821047193,2106,1589275514820945783,,0.500511973199,-0.187305644246,0.210654089265
1589275514824077592,2107,1589275514823979430,,0.500510502091,-0.187238892042,0.210644736505
1589275514827020587,2108,1589275514826921729,,0.50050569441,-0.18710029353,0.210622647223
1589275514836089029,2109,1589275514835981279,,0.500500748099,-0.186964619885,0.210596096044
1589275514842488507,2110,1589275514842381087,,0.500495255711,-0.186894635109,0.210581395277
1589275514848137830,2111,1589275514847979474,,0.500487876398,-0.186760317069,0.210553394289
1589275514854050323,2112,1589275514853937348,,0.500485926966,-0.18670967453,0.210539981818
1589275514860033137,2113,1589275514859928179,,0.500483469437,-0.18664259697,0.210529023264
1589275514866018169,2114,1589275514865945555,,0.500481193923,-0.186559458906,0.210510482569
1589275514872051130,2115,1589275514871951106,,0.500476735707,-0.186440713864,0.210487774596
1589275514878217959,2116,1589275514878059750,,0.500474221241,-0.186361841923,0.210476623643
1589275514884123110,2117,1589275514884002433,,0.500470973597,-0.186249885138,0.210466753172
1589275514890229253,2118,1589275514890037185,,0.50046579422,-0.186113840272,0.210442308248
1589275514896177066,2119,1589275514896003141,,0.500463032333,-0.186066537659,0.210434545287
1589275514902105327,2120,1589275514901980098,,0.50046284757,-0.186004104158,0.210429607465
1589275514908085772,2121,1589275514907952675,,0.500456002156,-0.185877965594,0.210404347447
1589275514914124408,2122,1589275514913985289,,0.500452712139,-0.1858181324,0.210395176741
1589275514920283245,2123,1589275514920175072,,0.500450580811,-0.185763031436,0.210387746673
1589275514926056339,2124,1589275514925946782,,0.500442259085,-0.185655375154,0.210365858851
1589275514932060936,2125,1589275514931922503,,0.500439951428,-0.185599714421,0.210357015042
1589275514935071587,2126,1589275514934953855,,0.500433162233,-0.18548606519,0.210336763599
1589275514941132614,2127,1589275514940994414,,0.500431172866,-0.185427073197,0.210328168388
1589275514948681256,2128,1589275514948548138,,0.500428230899,-0.185366549473,0.210316998325
1589275514953174467,2129,1589275514953079259,,0.50042489437,-0.185305463022,0.210306193505
1589275514959131974,2130,1589275514959019094,,0.500422411707,-0.185243948357,0.210298983716
1589275514965140183,2131,1589275514964994723,,0.500420929091,-0.185176855856,0.210288603432
1589275514971128378,2132,1589275514970974507,,0.5004174104,-0.185110214466,0.21027978174
1589275514977093272,2133,1589275514976952231,,0.500417012743,-0.185043559977,0.210270901963
1589275514980439017,2134,1589275514980323347,,0.500415216462,-0.184991867088,0.210263111106
1589275514986036800,2135,1589275514985944655,,0.50041147982,-0.184844074194,0.210233659908
1589275514992098996,2136,1589275514991952986,,0.50041212712,-0.184786465806,0.210225723069
1589275514998127963,2137,1589275514997974040,,0.500409218957,-0.184717084628,0.210214801023
1589275515004146448,2138,1589275515003950412,,0.500404655914,-0.184578101793,0.210191429661
1589275515007098724,2139,1589275515006991531,,0.50040235144,-0.184515560858,0.210182400851
1589275515010049707,2140,1589275515009973532,,0.500401065171,-0.184474128856,0.210177182554
1589275515016116996,2141,1589275515015995008,,0.500397294348,-0.184356206668,0.210153768076
1589275515022071743,2142,1589275515021948656,,0.50039292247,-0.184264819044,0.210144435391
1589275515028113040,2143,1589275515027951350,,0.500388546117,-0.184210991065,0.210133214793
1589275515034127574,2144,1589275515033967792,,0.500382990154,-0.184165229418,0.21012763017
1589275515037096332,2145,1589275515036945031,,0.500381602328,-0.184119042121,0.210126369499
1589275515040028433,2146,1589275515039900591,,0.500377468736,-0.184075754957,0.210121514348
1589275515043368490,2147,1589275515043187547,,0.500368163734,-0.183989311256,0.210101055027
1589275515049221833,2148,1589275515048997912,,0.500365505704,-0.183943151903,0.210093040072
1589275515055085472,2149,1589275515054942850,,0.500363297651,-0.18388973976,0.210086317657
1589275515061180166,2150,1589275515060942113,,0.500356593226,-0.183780957075,0.210065241312
1589275515064114260,2151,1589275515063940984,,0.500351593803,-0.183664767331,0.210047813547
1589275515070161342,2152,1589275515070016488,,0.500349744976,-0.183602974695,0.21003963502
1589275515076085642,2153,1589275515075978155,,0.500346171656,-0.183470795803,0.210018682731
1589275515082138358,2154,1589275515081969778,,0.500346788005,-0.183404903316,0.210014548862
1589275515088147088,2155,1589275515087985042,,0.50034376354,-0.183269248642,0.20999350797
1589275515094126392,2156,1589275515093968064,,0.500343095006,-0.183199650315,0.209990169953
1589275515097089663,2157,1589275515096941229,,0.500343270928,-0.18312649271,0.209982171417
1589275515103188971,2158,1589275515103050534,,0.500339281731,-0.182989166655,0.20996502253
1589275515109092746,2159,1589275515108958863,,0.500339648458,-0.182924915131,0.209956873638
1589275515115122867,2160,1589275515114933914,,0.500337046317,-0.182861505337,0.209944818909
1589275515118096027,2161,1589275515117961991,,0.500335775145,-0.182804464824,0.209940890227
1589275515121079216,2162,1589275515120968761,,0.500334911461,-0.182749311048,0.20993201148
1589275515124075197,2163,1589275515123940202,,0.500331370867,-0.18270038991,0.209922794469
1589275515130108875,2164,1589275515129937896,,0.500328899718,-0.182651168812,0.20991623035
1589275515133234050,2165,1589275515133118774,,0.50032625917,-0.182604524992,0.209912898099
1589275515136198857,2166,1589275515136001097,,0.500321394244,-0.182564407717,0.209906894416
1589275515139139321,2167,1589275515138934509,,0.500314451353,-0.182481410745,0.209897662165
1589275515145357047,2168,1589275515145243671,,0.500310295997,-0.182444685822,0.209891442423
1589275515151041266,2169,1589275515150922525,,0.500308619177,-0.182417382459,0.209887898549
1589275515154033042,2170,1589275515153919645,,0.500307154832,-0.182372489134,0.209882842207
1589275515156966147,2171,1589275515156904776,,0.50030432912,-0.182281939897,0.209872807681
1589275515160179161,2172,1589275515160099067,,0.500301752215,-0.182226302428,0.20986459932
1589275515163058848,2173,1589275515162955473,,0.500299789637,-0.182165118077,0.20985821166
1589275515166166801,2174,1589275515166107180,,0.500298499753,-0.182109269683,0.209851515624
1589275515172104714,2175,1589275515171997564,,0.500299220454,-0.182070010898,0.20984754367
1589275515175119819,2176,1589275515174993439,,0.500298248492,-0.182014897929,0.209841737587
1589275515178131835,2177,1589275515177987712,,0.500300425639,-0.181908440765,0.209824177854
1589275515181056777,2178,1589275515180944328,,0.500302042885,-0.181849464492,0.209818181895
1589275515184094477,2179,1589275515183953102,,0.500301249866,-0.181784284167,0.209805154865
1589275515187053616,2180,1589275515186961487,,0.500300751392,-0.181724185289,0.209797252319
1589275515190060616,2181,1589275515189957846,,0.500300648255,-0.181669558394,0.209793225889
1589275515196027799,2182,1589275515195945185,,0.50029779019,-0.18156257611,0.209776673344
1589275515199087814,2183,1589275515198932395,,0.500297367191,-0.181511977523,0.209770662618
1589275515205088494,2184,1589275515204966535,,0.500294995417,-0.181463174772,0.209764573999
1589275515208081951,2185,1589275515207988341,,0.500294234874,-0.181415409773,0.209756379025
1589275515211101205,2186,1589275515210993435,,0.50028948891,-0.181323380992,0.209745249077
1589275515214059323,2187,1589275515213970941,,0.500287576354,-0.181293870592,0.20974369028
1589275515217067422,2188,1589275515216964856,,0.500280808843,-0.181210064468,0.209735367529
1589275515220033113,2189,1589275515219966929,,0.500279773814,-0.18118075925,0.209732951019
1589275515223082186,2190,1589275515222973797,,0.500273381603,-0.181102013964,0.20972449248
1589275515229122960,2191,1589275515228980610,,0.500267416874,-0.180981018451,0.209711420573
1589275515232070286,2192,1589275515231929226,,0.500266092455,-0.180938693059,0.209705030723
1589275515235046341,2193,1589275515234955183,,0.500263255124,-0.180846883603,0.209688718617
1589275515238039965,2194,1589275515237954401,,0.500263372955,-0.180791879267,0.209682860522
1589275515241042929,2195,1589275515240946638,,0.500263532548,-0.180684482477,0.209670674124
1589275515244237378,2196,1589275515244109247,,0.500262770656,-0.180630228141,0.209659571972
1589275515247172832,2197,1589275515247017317,,0.500264411931,-0.180513882149,0.209648758406
1589275515253054892,2198,1589275515252986168,,0.500264434869,-0.180454580735,0.20964076882
1589275515259227920,2199,1589275515259054265,,0.500264139409,-0.180396840172,0.209634081832
1589275515265274901,2200,1589275515265066330,,0.500266355053,-0.180340403861,0.209629332083
1589275515271192676,2201,1589275515271004524,,0.500264221133,-0.180229121269,0.209615155512
1589275515274100844,2202,1589275515273997596,,0.50026315326,-0.180179622554,0.20960818062
1589275515277066899,2203,1589275515276975473,,0.50026259331,-0.180081666503,0.20960102848
1589275515280062887,2204,1589275515279955718,,0.500260572318,-0.180035155783,0.209593743519
1589275515283043938,2205,1589275515282959982,,0.500256640369,-0.179958036601,0.209586411003
1589275515286040797,2206,1589275515285955833,,0.500253458524,-0.179917660641,0.209581506749
1589275515289145007,2207,1589275515289018467,,0.500250654101,-0.179886777019,0.209577707712
1589275515292072799,2208,1589275515291967324,,0.500246587781,-0.179821432114,0.209576050668
1589275515295082298,2209,1589275515294993926,,0.500243940268,-0.179787650039,0.209572748543
1589275515298081993,2210,1589275515297975527,,0.500242128842,-0.179753476098,0.209570434728
1589275515301051398,2211,1589275515300991935,,0.500238519451,-0.17968322959,0.209566736308
1589275515304056149,2212,1589275515303975961,,0.50023719508,-0.179644568878,0.209566362453
1589275515307074486,2213,1589275515307004418,,0.500237454354,-0.179606516016,0.209565943659
1589275515310095210,2214,1589275515309996926,,0.500236885798,-0.179564531461,0.209560958345
1589275515316037834,2215,1589275515315959193,,0.500235909701,-0.179431246067,0.209547991576
1589275515319118323,2216,1589275515318986627,,0.50023600046,-0.179384908341,0.209544571345
1589275515322108560,2217,1589275515321969868,,0.500236438851,-0.179338694408,0.209539786762
1589275515325241368,2218,1589275515325064390,,0.500235799884,-0.179291732589,0.209536574583
1589275515328081065,2219,1589275515328000385,,0.500236375321,-0.179239777783,0.209529880091
1589275515331048466,2220,1589275515330990087,,0.500236501059,-0.179195209571,0.209522766367
1589275515334097318,2221,1589275515334010502,,0.500238338579,-0.179150235134,0.209521167726
1589275515337124824,2222,1589275515337012821,,0.500238111758,-0.179063320346,0.209513493177
1589275515340408479,2223,1589275515340346438,,0.5002385339,-0.1790204929,0.20951177558
1589275515346403881,2224,1589275515346329562,,0.500238253633,-0.178979991572,0.209506931665
1589275515352063513,2225,1589275515351960688,,0.500235556688,-0.178910206919,0.209502948898
1589275515355051193,2226,1589275515354983817,,0.500235611013,-0.17887407308,0.209500822345
1589275515358070230,2227,1589275515357969419,,0.50023416752,-0.178813321552,0.209497579331
1589275515361064033,2228,1589275515360995395,,0.500233069561,-0.178788498591,0.20949635939
1589275515364079145,2229,1589275515363998627,,0.500230914981,-0.178761380291,0.209494942819
1589275515367103614,2230,1589275515367022308,,0.500230122326,-0.178734621174,0.209493610014
1589275515370133580,2231,1589275515370043667,,0.50022732447,-0.178679714988,0.20949069735
1589275515376070555,2232,1589275515375995499,,0.500224664724,-0.178625411991,0.20948705052
1589275515379062619,2233,1589275515378982353,,0.500224434611,-0.17859780365,0.209485218725
1589275515385075493,2234,1589275515384987129,,0.500223209354,-0.178570004271,0.209482403467
1589275515388104190,2235,1589275515388000497,,0.500223114389,-0.178538973349,0.209483704176
1589275515391073393,2236,1589275515390980212,,0.500222267012,-0.178507625133,0.209481486875
1589275515394096404,2237,1589275515394013390,,0.500222527692,-0.178477584328,0.209480783642
1589275515397116692,2238,1589275515397034312,,0.500222825527,-0.178446284929,0.209480255919
1589275515400292051,2239,1589275515400160736,,0.500223795692,-0.178413568999,0.209478408975
1589275515403038948,2240,1589275515402979613,,0.500223414078,-0.178381014551,0.209474678149
1589275515409105355,2241,1589275515408977604,,0.500223389988,-0.17832028719,0.20947330041
1589275515412097775,2242,1589275515411991680,,0.500223990583,-0.178289834287,0.209474808664
1589275515415066749,2243,1589275515414968690,,0.500224924597,-0.17826033995,0.209471558059
1589275515418100844,2244,1589275515417950781,,0.500225039286,-0.178229584866,0.209469857665
1589275515421220279,2245,1589275515421055604,,0.500223988825,-0.178201991941,0.209467423754
1589275515424170854,2246,1589275515424028859,,0.500224157098,-0.178173524622,0.209465878864
1589275515427139738,2247,1589275515427055603,,0.500224433342,-0.178144999648,0.209465040803
1589275515430065379,2248,1589275515429996742,,0.500223903238,-0.178120677634,0.209463746016
1589275515433016332,2249,1589275515432956134,,0.500223750415,-0.178097735839,0.209463173318
1589275515436036460,2250,1589275515435954579,,0.500222880409,-0.178073452958,0.209462430551
1589275515439133390,2251,1589275515438983285,,0.500221321547,-0.178051620095,0.209461367193
1589275515445436688,2252,1589275515445304862,,0.500221505541,-0.178027909662,0.209462217637
1589275515448071106,2253,1589275515447972558,,0.500220888533,-0.17800825543,0.209463470942
1589275515451074060,2254,1589275515450970900,,0.500220052034,-0.17799055536,0.209464328879
1589275515454094874,2255,1589275515454001245,,0.500218857875,-0.177972889719,0.209465839806
1589275515457188001,2256,1589275515457066204,,0.500217879772,-0.177960429811,0.209466348595
1589275515463259611,2257,1589275515463067993,,0.500217913818,-0.177945758459,0.209467871111
1589275515469173363,2258,1589275515469079883,,0.500215889535,-0.177930426405,0.209467301242
1589275515475220182,2259,1589275515475065526,,0.500214881947,-0.177918449587,0.209466671739
1589275515481144180,2260,1589275515481056159,,0.500213373995,-0.177903862514,0.209468006276
1589275515487200335,2261,1589275515487056763,,0.500212582289,-0.177889946564,0.209468334399
1589275515493561721,2262,1589275515493490804,,0.500211626102,-0.177874355891,0.209467734109
1589275515499140979,2263,1589275515499045964,,0.500210226382,-0.177861508705,0.209468886481
1589275515502105932,2264,1589275515502026405,,0.500210066413,-0.177853585227,0.209470376782
1589275515505074576,2265,1589275515505015515,,0.500208919981,-0.177841991339,0.209470511289
1589275515508112362,2266,1589275515508045152,,0.500207539311,-0.177826948665,0.209468237767
1589275515511129344,2267,1589275515511025024,,0.500207698707,-0.177815643165,0.209469314321
1589275515514155854,2268,1589275515514060837,,0.500206154114,-0.177804321469,0.209469858019
1589275515517287811,2269,1589275515517058660,,0.500205905071,-0.177790335484,0.20947022795
1589275515520257487,2270,1589275515520197682,,0.500205429872,-0.177776461735,0.209471397697
1589275515529091688,2271,1589275515529006684,,0.50020411259,-0.177754400515,0.209473205258
1589275515532117096,2272,1589275515532004001,,0.500203209439,-0.177743828651,0.209473660344
1589275515535121682,2273,1589275515535007779,,0.500202608849,-0.177734002683,0.209475116045
1589275515538114801,2274,1589275515538001318,,0.500201785498,-0.177724733463,0.209474784691
1589275515541081628,2275,1589275515541009056,,0.500200691738,-0.177714296183,0.209474666328
1589275515544224465,2276,1589275515544140582,,0.50019963283,-0.177704578004,0.209476401509
1589275515547132076,2277,1589275515547008177,,0.500198680772,-0.177693296387,0.20947803157
1589275515550112810,2278,1589275515550018861,,0.500197444352,-0.177683938927,0.209478405675
1589275515556132324,2279,1589275515556035321,,0.50019628501,-0.177673409193,0.209479724016
1589275515559118308,2280,1589275515559047713,,0.500195001373,-0.177662338358,0.209479097446
1589275515565210535,2281,1589275515565076490,,0.500194749604,-0.177650526457,0.209480557001
1589275515568159820,2282,1589275515568053390,,0.500194276447,-0.177640327557,0.209481074221
1589275515571101130,2283,1589275515570993723,,0.500193062651,-0.177629180643,0.209480278913
1589275515574088760,2284,1589275515573985999,,0.500192583961,-0.177621967394,0.209482689776
1589275515577076384,2285,1589275515577006796,,0.500192601129,-0.177612583946,0.209484189197
1589275515580266207,2286,1589275515580171352,,0.500191759543,-0.177604809398,0.209484340035
1589275515583099144,2287,1589275515583036995,,0.500191087247,-0.177595102807,0.20948523368
1589275515586048248,2288,1589275515585994401,,0.500191092083,-0.177587251716,0.209486654376
1589275515589139847,2289,1589275515589069524,,0.500190196812,-0.177580843163,0.209486937281
1589275515595231346,2290,1589275515595132332,,0.50018968533,-0.177573673437,0.209488992734
1589275515601232478,2291,1589275515601093746,,0.500188644139,-0.177567849913,0.20948963778
1589275515607180543,2292,1589275515607081086,,0.50018847865,-0.177560886702,0.209491664409
1589275515613591387,2293,1589275515613502677,,0.500187181833,-0.17755560114,0.209492402693
1589275515619291353,2294,1589275515619069923,,0.500186473019,-0.177551468283,0.209493923011
1589275515625232721,2295,1589275515625067232,,0.500186340209,-0.177547782391,0.209494995229
1589275515631258205,2296,1589275515631116299,,0.500185745899,-0.17754423107,0.209494869795
1589275515634218316,2297,1589275515634099453,,0.500185074447,-0.177540946784,0.20949524033
1589275515637235482,2298,1589275515637121986,,0.500185178345,-0.177538665488,0.209496433935
1589275515643473930,2299,1589275515643320729,,0.500184984979,-0.177536298402,0.209498119541
1589275515649329934,2300,1589275515649140539,,0.500183546208,-0.17753504523,0.209497214112
1589275515655194770,2301,1589275515655099339,,0.500183632206,-0.177534027233,0.209498390431
1589275515661225339,2302,1589275515661146282,,0.500183441129,-0.177532182699,0.209499959239
1589275515664222754,2303,1589275515664146665,,0.500182753223,-0.177530174063,0.209500604044
1589275515667154582,2304,1589275515667081661,,0.500183048968,-0.177529230118,0.209502992595
1589275515670189324,2305,1589275515670092906,,0.500182929852,-0.177529087588,0.209503652268
1589275515676285657,2306,1589275515676091422,,0.500182426106,-0.177526998612,0.209508051118
1589275515679193889,2307,1589275515679068588,,0.500182240084,-0.177526088142,0.209507976453
1589275515682082675,2308,1589275515681986671,,0.50018249738,-0.177526486744,0.209511273948
1589275515685122136,2309,1589275515685028639,,0.500181991475,-0.177525498962,0.209511501473
1589275515688114646,2310,1589275515688026915,,0.500181599833,-0.177526030857,0.209512504747
1589275515691121029,2311,1589275515691018424,,0.500181992012,-0.177525806036,0.209515567495
1589275515694159042,2312,1589275515694071614,,0.500182124382,-0.17752486003,0.209517053653
1589275515697159317,2313,1589275515697049911,,0.500181510599,-0.177526039589,0.20951786337
1589275515700122518,2314,1589275515700045902,,0.500181045846,-0.177525084141,0.20951847666
1589275515703162631,2315,1589275515703103857,,0.500181243145,-0.177524821636,0.209521515237
1589275515709364786,2316,1589275515709192167,,0.50018091739,-0.177525943183,0.209522712298
1589275515715215944,2317,1589275515715079873,,0.500180974422,-0.177526183649,0.209524141046
1589275515721250267,2318,1589275515721116097,,0.500181161958,-0.17752595367,0.20952672988
1589275515727203662,2319,1589275515727129756,,0.500181344374,-0.177526554976,0.209527766742
1589275515736159143,2320,1589275515736086012,,0.500180803819,-0.177527317714,0.209531429747
1589275515739310149,2321,1589275515739155960,,0.500180698597,-0.177527902146,0.209532604993
1589275515745515570,2322,1589275515745431796,,0.500180331086,-0.177529168126,0.20953346419
1589275515751158403,2323,1589275515751076140,,0.500179973169,-0.177529660898,0.20953485166
1589275515757283332,2324,1589275515757131297,,0.500179562554,-0.177531186111,0.209535623379
1589275515763214215,2325,1589275515763110266,,0.500179640923,-0.17753269647,0.209537302673
1589275515769225257,2326,1589275515769143478,,0.500179172217,-0.177534363456,0.20953943631
1589275515775231485,2327,1589275515775069847,,0.500179313404,-0.177534560066,0.20954065293
1589275515781212663,2328,1589275515781052582,,0.500179188118,-0.177536368602,0.209542266396
1589275515784157932,2329,1589275515784066450,,0.500178858896,-0.177538246284,0.209544282867
1589275515787175927,2330,1589275515787071461,,0.500178895062,-0.177541020212,0.20954598721
1589275515790198689,2331,1589275515790082812,,0.500178743688,-0.177543258237,0.209547504467
1589275515793168855,2332,1589275515793095269,,0.500178675337,-0.177545246552,0.209551066978
1589275515799325856,2333,1589275515799124625,,0.500178177016,-0.177547971725,0.209553045464
1589275515805250369,2334,1589275515805133240,,0.500178110795,-0.177549468832,0.209556089152
1589275515811296918,2335,1589275515811132523,,0.500178310449,-0.177552668719,0.209558785434
1589275515817252075,2336,1589275515817124558,,0.500177889429,-0.177556153477,0.209561227626
1589275515823250685,2337,1589275515823120396,,0.500177781389,-0.177559812355,0.209562464654
1589275515829236980,2338,1589275515829132135,,0.50017812752,-0.177562047675,0.209565473411
1589275515832244099,2339,1589275515832112508,,0.500177983768,-0.177566373844,0.209567457701
1589275515835300093,2340,1589275515835130994,,0.500177786336,-0.177570182523,0.209569073555
1589275515841290660,2341,1589275515841151516,,0.500177384856,-0.177575350589,0.209570845546
1589275515847198942,2342,1589275515847105293,,0.500177030753,-0.177580966893,0.209573008424
1589275515856225560,2343,1589275515856105443,,0.50017634305,-0.177593530805,0.209577329151
1589275515859268217,2344,1589275515859112218,,0.500175844319,-0.177598456557,0.209578968663
1589275515865320726,2345,1589275515865151186,,0.500175919448,-0.17760504367,0.209581619728
1589275515871336222,2346,1589275515871145088,,0.500176120398,-0.177610701045,0.209585486797
1589275515877264602,2347,1589275515877167142,,0.500176594406,-0.177616054807,0.209588689468
1589275515880290361,2348,1589275515880190233,,0.500176517287,-0.177622683202,0.209591660116
1589275515883248014,2349,1589275515883136498,,0.500177716396,-0.177627648532,0.209595937917
1589275515889188516,2350,1589275515889099235,,0.500178943033,-0.177641501634,0.209604121703
1589275515892190137,2351,1589275515892088622,,0.500179049273,-0.17764760575,0.209607370325
1589275515898226390,2352,1589275515898159509,,0.50018037329,-0.177652063327,0.209612288481
1589275515901181304,2353,1589275515901120036,,0.50018097599,-0.177658170531,0.209616657981
1589275515904240259,2354,1589275515904144355,,0.50018152956,-0.177662606018,0.209619517696
1589275515907212512,2355,1589275515907114670,,0.500182292401,-0.17766693089,0.209622577917
1589275515910244436,2356,1589275515910136606,,0.500182123447,-0.177672609233,0.209624786852
1589275515913580562,2357,1589275515913475034,,0.500182537911,-0.177675421672,0.209628388816
1589275515919305978,2358,1589275515919139923,,0.500182180378,-0.177679602439,0.209629777668
1589275515925294456,2359,1589275515925146466,,0.500182061238,-0.177682916781,0.209631140862
1589275515928282703,2360,1589275515928124445,,0.50018219441,-0.177685382048,0.209633155252
1589275515931323489,2361,1589275515931161312,,0.500182229694,-0.177688232481,0.209634282422
1589275515934285126,2362,1589275515934155757,,0.500181746764,-0.177690482413,0.209635188025
1589275515937300634,2363,1589275515937156012,,0.500181735858,-0.177692460172,0.209636525606
1589275515940256935,2364,1589275515940155249,,0.500181547852,-0.17769433173,0.2096373672
1589275515950086247,2365,1589275515949904250,,0.500181365666,-0.177698445067,0.209640691421
1589275515955307385,2366,1589275515955095621,,0.500180820778,-0.177700420364,0.209641177111
1589275515958300500,2367,1589275515958119582,,0.500181380672,-0.177700968249,0.209644236366
1589275515961313013,2368,1589275515961156352,,0.500181938812,-0.177700896993,0.20964565035
1589275515967250415,2369,1589275515967117387,,0.500181617616,-0.177701343169,0.209647043639
1589275515970286313,2370,1589275515970156804,,0.500181766485,-0.177700491032,0.209649187611
1589275515973428577,2371,1589275515973336217,,0.500181601118,-0.177700857552,0.209651010369
1589275515976244719,2372,1589275515976051182,,0.500181396422,-0.177699925237,0.209652400199
1589275515979230936,2373,1589275515979063217,,0.500181230451,-0.177698975506,0.209652859163
1589275515982269745,2374,1589275515982107022,,0.500181436152,-0.177697390739,0.209654810088
1589275515985275228,2375,1589275515985141875,,0.500181982663,-0.177697114407,0.209657761168
1589275515991334482,2376,1589275515991153774,,0.500181842542,-0.177695477813,0.209659074504
1589275515997390133,2377,1589275515997181972,,0.500182101622,-0.177695169001,0.209661994362
1589275516003295478,2378,1589275516003181710,,0.500181805654,-0.177694976758,0.209662886229
1589275516009194685,2379,1589275516009074344,,0.50018295877,-0.177690685962,0.209667973238
1589275516012270260,2380,1589275516012122257,,0.500182919443,-0.177688700239,0.209670298041
1589275516018321608,2381,1589275516018148285,,0.500183400203,-0.177687560464,0.209670566343
1589275516021341289,2382,1589275516021126031,,0.500183701908,-0.177684476321,0.209672371209
1589275516024244403,2383,1589275516024105736,,0.500184423498,-0.177682308738,0.209673218587
1589275516027238907,2384,1589275516027112245,,0.500185307376,-0.177679916878,0.209674346636
1589275516030376427,2385,1589275516030205388,,0.500186626733,-0.177677367217,0.209674836756
1589275516033242020,2386,1589275516033152742,,0.500187296663,-0.17767542423,0.2096745871
1589275516036353513,2387,1589275516036185035,,0.500188283175,-0.177673169401,0.209674731534
1589275516042593444,2388,1589275516042446029,,0.500189713081,-0.177670842302,0.209674045473
1589275516048323833,2389,1589275516048107665,,0.500191226411,-0.177667878476,0.209673761154
1589275516051242081,2390,1589275516051118010,,0.500193147962,-0.177664851057,0.209673619218
1589275516054435311,2391,1589275516054196755,,0.500194822527,-0.177661861687,0.20967325012
1589275516057227968,2392,1589275516057134685,,0.500196222556,-0.177657850124,0.209672791284
1589275516060292204,2393,1589275516060191501,,0.50019810757,-0.177653869526,0.209672836256
1589275516063340209,2394,1589275516063182342,,0.500200752788,-0.177647666208,0.209674023866
1589275516069273425,2395,1589275516069133219,,0.500204880734,-0.177632857648,0.2096734431
1589275516072247061,2396,1589275516072113937,,0.500208264561,-0.177625573182,0.209675390125
1589275516078286049,2397,1589275516078163677,,0.50021084471,-0.177617333707,0.209675423869
1589275516084248749,2398,1589275516084134505,,0.50021358633,-0.177609581456,0.209675601913
1589275516087267438,2399,1589275516087144543,,0.500216681194,-0.177601793777,0.209676274292
1589275516093669191,2400,1589275516093566249,,0.500219418499,-0.17759454093,0.209675943698
1589275516099214653,2401,1589275516099098778,,0.500221023465,-0.177588752987,0.209675677206
1589275516102241876,2402,1589275516102095288,,0.500223734062,-0.177580939201,0.209676696176
1589275516105202286,2403,1589275516105101955,,0.500225539118,-0.177573096976,0.209677020474
1589275516108222106,2404,1589275516108060439,,0.500228252866,-0.177561326314,0.20967599076
1589275516111233477,2405,1589275516111065402,,0.500230392716,-0.177547222537,0.209675190895
1589275516114234737,2406,1589275516114091416,,0.500232639724,-0.177536942443,0.209676450407
1589275516117203312,2407,1589275516117086294,,0.500234953142,-0.177530722539,0.209677517862
1589275516120161555,2408,1589275516120084379,,0.500236607822,-0.177524174177,0.20967903146
1589275516123277160,2409,1589275516123158757,,0.500238967672,-0.177517126767,0.209681303305
1589275516129306659,2410,1589275516129173522,,0.500241199141,-0.177512437569,0.209682816884
1589275516135287265,2411,1589275516135169169,,0.500243165374,-0.177506044309,0.209684221369
1589275516138294794,2412,1589275516138144920,,0.500244652404,-0.177501886248,0.209686521034
1589275516141288504,2413,1589275516141166464,,0.50024721674,-0.177497040491,0.209688854406
1589275516144442394,2414,1589275516144342226,,0.500248746546,-0.17749118312,0.209692079257
1589275516150282193,2415,1589275516150165382,,0.500250365244,-0.177486965719,0.209695231529
1589275516153379339,2416,1589275516153310773,,0.500251971019,-0.177482488917,0.209698170141
1589275516156431547,2417,1589275516156262312,,0.500253748639,-0.177476605501,0.209701876616
1589275516162313406,2418,1589275516162205490,,0.500255089446,-0.177473579713,0.209706365857
1589275516168295702,2419,1589275516168201883,,0.500256441641,-0.177468947025,0.209710101182
1589275516174323298,2420,1589275516174232691,,0.500257696758,-0.177466309974,0.209712464
1589275516180424274,2421,1589275516180346379,,0.500258691045,-0.17746396256,0.209716376537
1589275516183268911,2422,1589275516183146524,,0.500259741359,-0.177460923695,0.209720529009
1589275516189229852,2423,1589275516189126357,,0.500261626972,-0.177456012889,0.209726530649
1589275516192282639,2424,1589275516192159469,,0.500262792135,-0.177452327812,0.209730227756
1589275516195294107,2425,1589275516195119418,,0.500263540924,-0.177450078629,0.209734147073
1589275516198283299,2426,1589275516198190126,,0.500264330507,-0.177448446607,0.209738000776
1589275516201235962,2427,1589275516201147334,,0.500265493522,-0.177447787167,0.2097415084
1589275516204337795,2428,1589275516204216449,,0.500266413362,-0.177445229104,0.20974529957
1589275516207308173,2429,1589275516207165240,,0.500267341609,-0.177445211052,0.209748722454
1589275516210258116,2430,1589275516210159962,,0.500268415861,-0.177442987204,0.209752575246
1589275516216313720,2431,1589275516216190257,,0.500269056786,-0.177441629836,0.209755062063
1589275516222369374,2432,1589275516222256021,,0.500270380643,-0.177441446595,0.209759423693
1589275516228346640,2433,1589275516228222407,,0.500271003199,-0.17744160438,0.209762545315
1589275516234352178,2434,1589275516234243470,,0.500271920208,-0.177440045447,0.209765904172
1589275516237322035,2435,1589275516237222651,,0.500273151853,-0.177440033399,0.209770344605
1589275516243568108,2436,1589275516243463115,,0.500274128978,-0.177439514852,0.209772180476
1589275516249310505,2437,1589275516249216966,,0.500274157597,-0.17744079803,0.209774987
1589275516255456250,2438,1589275516255234006,,0.500276159536,-0.177439720376,0.20977862513
1589275516258345749,2439,1589275516258193508,,0.50027673685,-0.177441045993,0.209782240372
1589275516261286220,2440,1589275516261173553,,0.500278282931,-0.177441356901,0.209785373245
1589275516264348422,2441,1589275516264151683,,0.500279740878,-0.177440831726,0.209788147399
1589275516267314399,2442,1589275516267157452,,0.50028075269,-0.177442460486,0.209790767756
1589275516270334044,2443,1589275516270205230,,0.500282158635,-0.177442761399,0.209794185199
1589275516276321460,2444,1589275516276177914,,0.500284583385,-0.177443911671,0.209800029023
1589275516279290694,2445,1589275516279167469,,0.500286263793,-0.177445007702,0.20980265178
1589275516285383981,2446,1589275516285235611,,0.500287609558,-0.177445919465,0.209805748037
1589275516291322321,2447,1589275516291191412,,0.500288899892,-0.177447843179,0.209807981198
1589275516294297663,2448,1589275516294192210,,0.500289781392,-0.177447367191,0.209810195215
1589275516297308807,2449,1589275516297182357,,0.500290871364,-0.177447589496,0.20981328045
1589275516300281601,2450,1589275516300187867,,0.50029211329,-0.177448071549,0.209814254786
1589275516303254299,2451,1589275516303189891,,0.500292927655,-0.17744965676,0.209816424929
1589275516309364437,2452,1589275516309198517,,0.500293567055,-0.177452362396,0.209818750044
1589275516312261875,2453,1589275516312156032,,0.500293753093,-0.177455262648,0.209820426092
1589275516318257565,2454,1589275516318143709,,0.500294599235,-0.177455432599,0.209822311446
1589275516321387124,2455,1589275516321198972,,0.500295245142,-0.177456487118,0.209823546089
1589275516324332235,2456,1589275516324171540,,0.500295403285,-0.177458628171,0.20982452556
1589275516327264407,2457,1589275516327177264,,0.500296266729,-0.177460337063,0.209826465236
1589275516330262216,2458,1589275516330130112,,0.500296294361,-0.177462405584,0.209827661269
1589275516333622698,2459,1589275516333422359,,0.500296521599,-0.177463455928,0.209828445198
1589275516336419253,2460,1589275516336194983,,0.500296928657,-0.177465558597,0.209829458946
1589275516339331601,2461,1589275516339165950,,0.500297552909,-0.177467695677,0.209832657205
1589275516342657013,2462,1589275516342546029,,0.500297325552,-0.177470420571,0.20983312022
1589275516348268963,2463,1589275516348142234,,0.500297867325,-0.177470545279,0.20983480015
1589275516351377066,2464,1589275516351182574,,0.500298246145,-0.177474012526,0.209836325141
1589275516354271348,2465,1589275516354177159,,0.500298612774,-0.177477718749,0.209837367118
1589275516357357971,2466,1589275516357195704,,0.500299472936,-0.177478806162,0.209838605044
1589275516360302473,2467,1589275516360186538,,0.500299591027,-0.177482019834,0.209838436525
1589275516363301644,2468,1589275516363210586,,0.500300868112,-0.177484721542,0.209838741355
1589275516369283069,2469,1589275516369179664,,0.500302390235,-0.177491326317,0.209839162139
1589275516372300393,2470,1589275516372153646,,0.500303410448,-0.177494759465,0.209838266834
1589275516378274730,2471,1589275516378156369,,0.500304188957,-0.177498361584,0.209836954997
1589275516381296111,2472,1589275516381178353,,0.500304793354,-0.177502981119,0.209833684618
1589275516384320642,2473,1589275516384150496,,0.50030540114,-0.177509363165,0.209824698888
1589275516387284062,2474,1589275516387158283,,0.500306581554,-0.177515707537,0.20981615879
1589275516390223606,2475,1589275516390132210,,0.500307642974,-0.177523027283,0.209813601711
1589275516393235388,2476,1589275516393157268,,0.50030655696,-0.177530559059,0.209809811438
1589275516396348905,2477,1589275516396229268,,0.500305238382,-0.177540786964,0.209806289418
1589275516399275024,2478,1589275516399208648,,0.500303704476,-0.177554470318,0.209803497185
1589275516405357955,2479,1589275516405203391,,0.500301245241,-0.177566116712,0.209798754131
1589275516408269576,2480,1589275516408174564,,0.500300580014,-0.177579045336,0.209797233633
1589275516411302325,2481,1589275516411155345,,0.500299736695,-0.177603690201,0.20979452223
1589275516414300488,2482,1589275516414151386,,0.500299561335,-0.177623397647,0.209790672996
1589275516417337189,2483,1589275516417175339,,0.500300073954,-0.177629209758,0.209787016175
1589275516420233487,2484,1589275516420132855,,0.500301398245,-0.177637228493,0.209782704687
1589275516423312140,2485,1589275516423159404,,0.500303209556,-0.177644258322,0.20978088531
1589275516429312964,2486,1589275516429168413,,0.500304822351,-0.177657331085,0.209774343919
1589275516432356656,2487,1589275516432206780,,0.500305003799,-0.177663065516,0.20977183116
1589275516438295730,2488,1589275516438194003,,0.500305390558,-0.177668997185,0.209767047485
1589275516441279118,2489,1589275516441175670,,0.500306536104,-0.177674932162,0.209763439162
1589275516444459561,2490,1589275516444337176,,0.500307283704,-0.177681810772,0.209757700002
1589275516447270293,2491,1589275516447146226,,0.500308706345,-0.177689049472,0.209753971102
1589275516450282315,2492,1589275516450160207,,0.500309579295,-0.17769485185,0.209750490645
1589275516456260731,2493,1589275516456155173,,0.500311576639,-0.177708698967,0.209743809358
1589275516459214050,2494,1589275516459156918,,0.500312523799,-0.177716619359,0.209739772203
1589275516462260749,2495,1589275516462180551,,0.500313494591,-0.177725053355,0.209735942446
1589275516465214324,2496,1589275516465142705,,0.50031413167,-0.177735162054,0.209731604051
1589275516468304254,2497,1589275516468219056,,0.500315385078,-0.177743288497,0.209727791602
1589275516471226689,2498,1589275516471161000,,0.500316931456,-0.177752208487,0.209723527973
1589275516474310681,2499,1589275516474176423,,0.500317833048,-0.177761707988,0.209717353348
1589275516477292297,2500,1589275516477174531,,0.500319386703,-0.177769247595,0.209714814468
1589275516480303634,2501,1589275516480189361,,0.500319848925,-0.177778052474,0.209707810404
1589275516483311385,2502,1589275516483245152,,0.500322002586,-0.177785733593,0.209703681447
1589275516489429011,2503,1589275516489206409,,0.500325382978,-0.177801309861,0.209691348405
1589275516492357653,2504,1589275516492177313,,0.500327032568,-0.177809468109,0.209686772346
1589275516498398880,2505,1589275516498255755,,0.500329255889,-0.177816018679,0.209681352018
1589275516501302514,2506,1589275516501165776,,0.500331435618,-0.177822918131,0.209677025431
1589275516504219427,2507,1589275516504135748,,0.500333276821,-0.177829018127,0.209671000916
1589275516507268407,2508,1589275516507166568,,0.500335384169,-0.177835342495,0.209666866148
1589275516510276337,2509,1589275516510172334,,0.500337281643,-0.177840883447,0.209663046633
