%time,field.header.seq,field.header.stamp,field.header.frame_id,field.vector.x,field.vector.y,field.vector.z
1589275378133439497,4862,1589275378133334091,,0.213102373289,-0.16240111638,1.48947057291
1589275378136529131,4863,1589275378136440049,,0.213674020201,-0.16490318036,1.48920521433
1589275378139403875,4864,1589275378139298329,,0.213804769894,-0.171070535993,1.48931388004
1589275378145231680,4865,1589275378145158746,,0.214443733792,-0.176689050612,1.48980147381
1589275378148273501,4866,1589275378148115366,,0.214726450055,-0.182927486225,1.48976751084
1589275378151732056,4867,1589275378151620125,,0.215441511316,-0.185022679212,1.48917081973
1589275378157516538,4868,1589275378157408775,,0.216278355315,-0.19187689309,1.49005107419
1589275378160465588,4869,1589275378160361479,,0.217006043237,-0.199605871569,1.49050284617
1589275378163579605,4870,1589275378163489262,,0.217829424068,-0.201580861396,1.48991978687
1589275378169578681,4871,1589275378169452494,,0.218446929459,-0.20981214612,1.49138072077
1589275378172541262,4872,1589275378172437204,,0.218811624842,-0.211706750668,1.49060469211
1589275378175472876,4873,1589275378175371135,,0.219440292386,-0.220620726352,1.49180638305
1589275378181631928,4874,1589275378181560170,,0.219812189894,-0.23036964178,1.49304837949
1589275378184518812,4875,1589275378184385001,,0.220549857749,-0.231957453302,1.49225036959
1589275378187464831,4876,1589275378187386928,,0.220996552035,-0.242087735486,1.49369592412
1589275378193548298,4877,1589275378193465650,,0.221748932029,-0.252846443341,1.49541629492
1589275378196495814,4878,1589275378196391926,,0.222201166183,-0.254106294056,1.49469031771
1589275378202594850,4879,1589275378202461271,,0.222637761315,-0.265908761766,1.49624863909
1589275378205513712,4880,1589275378205341916,,0.223338366604,-0.266948349175,1.49548580756
1589275378208510271,4881,1589275378208430849,,0.223807125046,-0.27944809991,1.49713172504
1589275378214502324,4882,1589275378214427538,,0.224507788044,-0.292240695522,1.49938739804
1589275378217530895,4883,1589275378217449294,,0.225108116427,-0.293491406065,1.49856459218
1589275378220543715,4884,1589275378220456346,,0.225564748215,-0.307160325256,1.50072318527
1589275378226719952,4885,1589275378226621252,,0.226118626249,-0.308838908256,1.49982938609
1589275378229475299,4886,1589275378229395121,,0.22657404185,-0.32308500427,1.50217890489
1589275378232582182,4887,1589275378232491004,,0.22716235915,-0.324174151599,1.50131878005
1589275378238476997,4888,1589275378238385546,,0.227656388597,-0.3385909936,1.50397780133
1589275378241477475,4889,1589275378241379280,,0.228046055215,-0.35438566834,1.5067396664
1589275378244524672,4890,1589275378244425381,,0.228553615346,-0.354990094465,1.50595084599
1589275378250466602,4891,1589275378250375255,,0.229006435486,-0.370679651886,1.50861996448
1589275378253457732,4892,1589275378253381098,,0.229534419819,-0.386100796951,1.51131414313
1589275378256495150,4893,1589275378256401838,,0.230086674504,-0.387834558733,1.51035718356
1589275378262451008,4894,1589275378262369113,,0.230687116031,-0.40445653076,1.51381739639
1589275378265558665,4895,1589275378265413852,,0.231205798748,-0.405323715244,1.51272937267
1589275378268447273,4896,1589275378268359447,,0.23167502428,-0.42239407679,1.51594194683
1589275378274468651,4897,1589275378274367139,,0.23211638953,-0.440643374437,1.5197526088
1589275378277484957,4898,1589275378277357891,,0.232497079447,-0.440365515365,1.51909912354
1589275378283842254,4899,1589275378283755100,,0.232787951038,-0.458914074755,1.52290517377
1589275378286529722,4900,1589275378286437908,,0.233043425892,-0.476651075373,1.52621899422
1589275378289548235,4901,1589275378289476166,,0.23338288949,-0.478321450642,1.52588972945
1589275378292680873,4902,1589275378292497725,,0.23376284286,-0.478332806149,1.52505979294
1589275378298602846,4903,1589275378298479657,,0.234167828603,-0.497848783972,1.52911377914
1589275378301498346,4904,1589275378301379302,,0.234457740055,-0.518132666877,1.53326500911
1589275378307445631,4905,1589275378307345365,,0.234635155182,-0.53901688376,1.53734783463
1589275378310548565,4906,1589275378310395416,,0.235006208399,-0.538603836272,1.53640108354
1589275378313588838,4907,1589275378313505161,,0.235273942834,-0.559937987787,1.54060023308
1589275378319669730,4908,1589275378319543058,,0.235557435529,-0.559770851557,1.53944601431
1589275378322440893,4909,1589275378322361916,,0.235922542705,-0.581525662095,1.54396955528
1589275378325571536,4910,1589275378325449043,,0.236260028361,-0.581217123565,1.54267562191
1589275378331173540,4911,1589275378331095089,,0.236700348947,-0.60350393338,1.54741654732
1589275378334423126,4912,1589275378334334436,,0.23710596919,-0.626257653845,1.55222579883
1589275378337606843,4913,1589275378337436669,,0.237494967387,-0.625308579277,1.55132954977
1589275378343778893,4914,1589275378343650067,,0.237855072379,-0.648559553859,1.55640513222
1589275378346721726,4915,1589275378346606868,,0.238433902943,-0.669231591264,1.56112565444
1589275378349659970,4916,1589275378349557846,,0.238893336272,-0.670937446968,1.56114313931
1589275378355712175,4917,1589275378355603913,,0.239506354061,-0.694686445296,1.56695816198
1589275378358636325,4918,1589275378358493054,,0.24004287676,-0.693566000558,1.56634291143
1589275378361576233,4919,1589275378361486193,,0.240563884015,-0.71737762799,1.57200535128
1589275378367395267,4920,1589275378367294505,,0.241218864865,-0.742457564029,1.57821884743
1589275378370580663,4921,1589275378370373145,,0.241935316235,-0.740699207496,1.57785198368
1589275378373590588,4922,1589275378373471309,,0.242509838026,-0.76599269083,1.58392784023
1589275378379961058,4923,1589275378379872340,,0.24318766471,-0.788129185086,1.58956215823
1589275378382928848,4924,1589275378382823021,,0.243832353264,-0.789933962884,1.5898176053
1589275378385558558,4925,1589275378385466125,,0.244688171565,-0.787840529849,1.58946901407
1589275378391586234,4926,1589275378391471968,,0.245587219523,-0.81378543928,1.59591569844
1589275378394564063,4927,1589275378394415092,,0.246369942004,-0.840038470201,1.60234849242
1589275378397551100,4928,1589275378397471512,,0.247298756246,-0.834975251712,1.60086145774
1589275378403574216,4929,1589275378403485450,,0.248354380042,-0.85791496888,1.60657957373
1589275378406627064,4930,1589275378406516054,,0.248936059842,-0.856557546138,1.60609533588
1589275378409392093,4931,1589275378409284776,,0.249510683372,-0.884196411618,1.61248437404
1589275378415538528,4932,1589275378415473404,,0.250164860292,-0.912098332055,1.61964944313
1589275378418441034,4933,1589275378418329588,,0.25069442008,-0.909838101032,1.61898573676
1589275378421541036,4934,1589275378421365244,,0.251258351386,-0.938799732374,1.62589262465
1589275378427395153,4935,1589275378427266930,,0.251953023454,-0.967874357032,1.63291410981
1589275378430517476,4936,1589275378430427716,,0.252664962023,-0.966121414603,1.63220531885
1589275378433560600,4937,1589275378433458583,,0.253262399867,-0.995837794304,1.63928210199
1589275378439381806,4938,1589275378439283091,,0.253651917866,-0.993496681602,1.63855013658
1589275378442367807,4939,1589275378442268001,,0.254179928025,-1.02376914292,1.6460944768
1589275378445460000,4940,1589275378445304356,,0.254610107309,-1.02089980327,1.6452986721
1589275378451367865,4941,1589275378451266827,,0.255316170603,-1.04907707813,1.65247567394
1589275378454396836,4942,1589275378454275716,,0.255677504571,-1.07955922317,1.65956078272
1589275378457412261,4943,1589275378457280721,,0.256142503955,-1.07772940867,1.65889174795
1589275378463419446,4944,1589275378463312405,,0.256343570262,-1.1101023608,1.66630319091
1589275378466375337,4945,1589275378466219984,,0.256645287927,-1.10855937721,1.66553567962
1589275378469297949,4946,1589275378469215847,,0.256623225501,-1.14124565749,1.67290896666
1589275378475399852,4947,1589275378475268228,,0.256891269052,-1.17443941914,1.68047272268
1589275378478326650,4948,1589275378478239811,,0.256941629926,-1.1728801893,1.67908513663
1589275378484240924,4949,1589275378484169314,,0.256862650451,-1.20608560781,1.68622168567
1589275378487367284,4950,1589275378487238555,,0.256491642833,-1.23983932237,1.69315040807
1589275378490322541,4951,1589275378490227599,,0.256264654614,-1.23707659124,1.69108720481
1589275378496279377,4952,1589275378496199075,,0.256036339432,-1.27018668668,1.69802984114
1589275378499273172,4953,1589275378499158507,,0.256026222366,-1.26714569227,1.69642982848
1589275378502282835,4954,1589275378502205583,,0.256085308951,-1.30174132488,1.70418733889
1589275378508257975,4955,1589275378508155746,,0.256173770579,-1.33715962651,1.71202215177
1589275378511370940,4956,1589275378511274516,,0.256231060181,-1.33541015281,1.71057373736
1589275378514354184,4957,1589275378514264081,,0.256386809471,-1.37114080274,1.71881584564
1589275378523322481,4958,1589275378523234737,,0.256948870547,-1.40559719937,1.72624382616
1589275378526335622,4959,1589275378526225697,,0.257131587939,-1.40384967604,1.72521158937
1589275378532499099,4960,1589275378532415579,,0.257354087975,-1.44046847991,1.73385811553
1589275378539470459,4961,1589275378535210737,,0.257545951362,-1.47718855717,1.74278467889
1589275378539480119,4962,1589275378538242494,,0.25762315724,-1.47534910565,1.7417661696
1589275378544262925,4963,1589275378544171740,,0.25770410248,-1.51223659045,1.75036377296
1589275378547317129,4964,1589275378547243052,,0.257893375564,-1.549979359,1.7595242186
1589275378550257439,4965,1589275378550187312,,0.257899710527,-1.54805120302,1.7582145812
1589275378556391664,4966,1589275378556317909,,0.257863375511,-1.58647295996,1.76701340416
1589275378559399383,4967,1589275378559285327,,0.257773191125,-1.58438690112,1.76571693949
1589275378562319558,4968,1589275378562230342,,0.257712155668,-1.62303867104,1.77464862052
1589275378568457127,4969,1589275378568356832,,0.257498079463,-1.66205202934,1.78331969005
1589275378571607048,4970,1589275378571518475,,0.257390866307,-1.65993053387,1.78205651537
1589275378574442040,4971,1589275378574353192,,0.257305052625,-1.69901755281,1.79087149518
1589275378580830808,4972,1589275378580723371,,0.257227116982,-1.73824179244,1.79982718868
1589275378583823133,4973,1589275378583728262,,0.25719494146,-1.73589840242,1.79843132066
1589275378586533031,4974,1589275378586414021,,0.257091396913,-1.73383494056,1.79713478726
1589275378592418314,4975,1589275378592314058,,0.257201406947,-1.77310183259,1.80634730826
1589275378595401710,4976,1589275378595288925,,0.257155588707,-1.81288401219,1.8156367685
1589275378601336268,4977,1589275378601269957,,0.257180020108,-1.85296850533,1.82514018413
1589275378604312297,4978,1589275378604194905,,0.257383176968,-1.85028013637,1.82398052007
1589275378607198326,4979,1589275378607128643,,0.257371530859,-1.89056372542,1.83345139409
1589275378613415129,4980,1589275378613221343,,0.257494955147,-1.92046710784,1.84040844385
1589275378616310024,4981,1589275378616227052,,0.257486650121,-1.928326123,1.84168176132
1589275378619297733,4982,1589275378619216559,,0.257469563187,-1.92536388624,1.8401615721
1589275378625352215,4983,1589275378625284887,,0.257302262368,-1.96601058965,1.8495394903
1589275378628296880,4984,1589275378628218784,,0.257149598657,-2.00701816191,1.8591940599
1589275378631284480,4985,1589275378631224710,,0.257068164113,-2.00368920447,1.85799839804
1589275378637441479,4986,1589275378637360862,,0.256935182385,-2.04467277836,1.86806902395
1589275378643339408,4987,1589275378643253202,,0.256578569157,-2.08286156726,1.87799970655
1589275378649326655,4988,1589275378649233401,,0.256403035149,-2.12470271579,1.88852371939
1589275378652357307,4989,1589275378652255106,,0.256481681585,-2.12105669066,1.88789162719
1589275378655284894,4990,1589275378655206061,,0.256444765919,-2.16291633993,1.89815822339
1589275378661310877,4991,1589275378661201541,,0.256325961834,-2.20505795029,1.90845316298
1589275378664299832,4992,1589275378664203390,,0.256272915757,-2.20200497162,1.90721782181
1589275378667228395,4993,1589275378667155770,,0.25627510599,-2.24472520816,1.91746419218
1589275378673513166,4994,1589275378673375712,,0.25616429316,-2.24225030893,1.91671361183
1589275378676267206,4995,1589275378676193112,,0.256129876125,-2.28502187818,1.92723162123
1589275378682619292,4996,1589275378682512897,,0.255991705023,-2.32808974702,1.93768182937
1589275378685254424,4997,1589275378685164583,,0.255845078543,-2.32485873815,1.93710079864
1589275378688273091,4998,1589275378688211314,,0.255696803313,-2.36851670894,1.947903668
1589275378694273986,4999,1589275378694195780,,0.255513461009,-2.41200310715,1.95884249873
1589275378697227341,5000,1589275378697140209,,0.255420183725,-2.40854845996,1.95798131401
1589275378706456244,5001,1589275378706310445,,0.255490506692,-2.44918106349,1.96788345183
1589275378709314517,5002,1589275378709173602,,0.255707754742,-2.49352674017,1.97859905864
1589275378712291578,5003,1589275378712214795,,0.255878122526,-2.49017555923,1.97764949456
1589275378718281458,5004,1589275378718167868,,0.2559638875,-2.5348038609,1.98865432478
1589275378721309117,5005,1589275378721230993,,0.255949800858,-2.57964883705,1.99967439558
1589275378724248187,5006,1589275378724183207,,0.255978345198,-2.57612026311,1.99862294559
1589275378730295825,5007,1589275378730216094,,0.2558438613,-2.62125108167,2.0095725753
1589275378733423021,5008,1589275378733330189,,0.256047477004,-2.61776543866,2.00886966886
1589275378736611374,5009,1589275378736496095,,0.256044628223,-2.66331660213,2.01989182445
1589275378742511970,5010,1589275378742410958,,0.2561305634,-2.70847742237,2.03100110037
1589275378745511607,5011,1589275378745434972,,0.256251662237,-2.70584554497,2.02980535947
1589275378748450786,5012,1589275378748340877,,0.256215984171,-2.75182015725,2.04092124563
1589275378754622175,5013,1589275378754515738,,0.256241345033,-2.79805477027,2.05176014662
1589275378757586743,5014,1589275378757477059,,0.256302269349,-2.79481349549,2.05052436575
1589275378766330071,5015,1589275378766239252,,0.256255534086,-2.83865258819,2.06015061186
1589275378769548165,5016,1589275378769447054,,0.256174412931,-2.88520645629,2.07147762915
1589275378772275466,5017,1589275378772159489,,0.256163880413,-2.8824674081,2.06986035216
1589275378778323165,5018,1589275378778219130,,0.25645471608,-2.92919842419,2.08138792139
1589275378781899368,5019,1589275378781712843,,0.256424295982,-2.97607581308,2.09236017696
1589275378784612349,5020,1589275378784529828,,0.25649376025,-2.97320555746,2.09110016883
1589275378790735372,5021,1589275378790585146,,0.256751468111,-3.02068297808,2.10274145132
1589275378793818047,5022,1589275378793668393,,0.25665841439,-3.06850908396,2.11416631609
1589275378796618868,5023,1589275378796512424,,0.256853593231,-3.06546028353,2.11338354625
1589275378802737744,5024,1589275378802637932,,0.25681341611,-3.1135090265,2.12471463159
1589275378805699213,5025,1589275378805582246,,0.25703748232,-3.11053477981,2.12391536665
1589275378808664849,5026,1589275378808552699,,0.256974954624,-3.15810179281,2.13530062102
1589275378814645060,5027,1589275378814571278,,0.257080962532,-3.20584477132,2.14689933676
1589275378817597505,5028,1589275378817518881,,0.257203237298,-3.20272253815,2.14572871101
1589275378826683431,5029,1589275378826546245,,0.25728539414,-3.24831335554,2.15580814342
1589275378829674260,5030,1589275378829576313,,0.25714810039,-3.29707270682,2.16712501858
1589275378832659501,5031,1589275378832551573,,0.257222529786,-3.29387258046,2.16577293139
1589275378838615363,5032,1589275378838531430,,0.257293666541,-3.34252033652,2.17713289831
1589275378841699267,5033,1589275378841613943,,0.257484523827,-3.39078842077,2.18849801912
1589275378847754205,5034,1589275378847639829,,0.257733767586,-3.43924711672,2.20030680139
1589275378850661637,5035,1589275378850576096,,0.257791873375,-3.43693636605,2.19905729934
1589275378853791452,5036,1589275378853704177,,0.257992309875,-3.48581328067,2.21056010746
1589275378856450205,5037,1589275378856372409,,0.258064093438,-3.48260526181,2.20905982287
1589275378862406532,5038,1589275378862330611,,0.258196079774,-3.53131067163,2.2205198041
1589275378865398526,5039,1589275378865334935,,0.25841248774,-3.52822573883,2.21963858251
1589275378871613462,5040,1589275378871533586,,0.258550811247,-3.57665045892,2.23118870493
1589275378874695182,5041,1589275378874575575,,0.258670363495,-3.62504719261,2.24267094952
1589275378877655474,5042,1589275378877546779,,0.258904529605,-3.62121419754,2.24121474363
1589275378884164473,5043,1589275378884036123,,0.259104212373,-3.67031322774,2.25290907977
1589275378886847894,5044,1589275378886756617,,0.2594171945,-3.69956826215,2.25955889584
1589275378889764027,5045,1589275378889613697,,0.259452432435,-3.71629313755,2.26285802109
1589275378895839709,5046,1589275378895685649,,0.259701741309,-3.7649915432,2.27454690682
1589275378898638193,5047,1589275378898539224,,0.259963690207,-3.76151813314,2.27293597882
1589275378901515474,5048,1589275378901422734,,0.260027495448,-3.81040255593,2.28408499549
1589275378907554226,5049,1589275378907461123,,0.26042961079,-3.8592819295,2.29556212989
1589275378910483692,5050,1589275378910409596,,0.260735906133,-3.85571325441,2.29394753129
1589275378913845996,5051,1589275378913691657,,0.260941842187,-3.90453216204,2.30525321072
1589275378919268288,5052,1589275378919195169,,0.261123168297,-3.90064561899,2.30339651939
1589275378922776951,5053,1589275378922617762,,0.261196823817,-3.94984822953,2.31490031571
1589275378925698668,5054,1589275378925596386,,0.261365498493,-3.94576401236,2.31325660034
1589275378931765416,5055,1589275378931643316,,0.261367659848,-3.99456624693,2.32444971916
1589275378934659778,5056,1589275378934541324,,0.261701537479,-4.0431962488,2.33598421468
1589275378937711560,5057,1589275378937603364,,0.261652211225,-4.03895680434,2.33379062765
1589275378943726149,5058,1589275378943616682,,0.262060089236,-4.08740647753,2.34558701195
1589275378946733560,5059,1589275378946583272,,0.262419693167,-4.08252681406,2.34383355454
1589275378949756134,5060,1589275378949612840,,0.262431714619,-4.13170336195,2.35507385944
1589275378955742398,5061,1589275378955609793,,0.262797761991,-4.17977525089,2.36690122122
1589275378958582582,5062,1589275378958442618,,0.26292120134,-4.17533599402,2.36483967611
1589275378961607362,5063,1589275378961495866,,0.263027143613,-4.22400202654,2.37650690555
1589275378967806627,5064,1589275378967706717,,0.263134377578,-4.27265863251,2.3879953584
1589275378970607273,5065,1589275378970522254,,0.263153574123,-4.26846572108,2.38635692745
1589275378973550870,5066,1589275378973462570,,0.263368382009,-4.31701735428,2.39801860268
1589275378979844521,5067,1589275378979650863,,0.263523556475,-4.31221130076,2.39603454191
1589275378982639612,5068,1589275378982540427,,0.263470827531,-4.36135302433,2.40727022615
1589275378988327164,5069,1589275378988263585,,0.263344986437,-4.41050050077,2.41865052317
1589275378991346831,5070,1589275378991284271,,0.263346836908,-4.40601727157,2.4165104396
1589275378994533210,5071,1589275378994408617,,0.263411346449,-4.45463918403,2.42757184439
1589275379003305666,5072,1589275379003219216,,0.263780485269,-4.49911625322,2.43732690382
1589275379006659555,5073,1589275379006565166,,0.263707673278,-4.52497141777,2.44253675183
1589275379012479288,5074,1589275379012420850,,0.26394218993,-4.5436112288,2.44614168419
1589275379015723998,5075,1589275379015650788,,0.264091057478,-4.59208155807,2.45751576262
1589275379018637697,5076,1589275379018526965,,0.264361732338,-4.58727165658,2.45552653414
1589275379024607580,5077,1589275379024497934,,0.264665674174,-4.63566513385,2.46714747631
1589275379027629467,5078,1589275379027524738,,0.264895571591,-4.68433204462,2.47831589548
1589275379030770062,5079,1589275379030645214,,0.265259388443,-4.67982957689,2.47661535914
1589275379036275611,5080,1589275379036187363,,0.265373685797,-4.72847868201,2.48795427496
1589275379039231848,5081,1589275379039156503,,0.265583562359,-4.72347132777,2.48548056517
1589275379042309689,5082,1589275379042200833,,0.265700097483,-4.77196458367,2.49690793714
1589275379048276252,5083,1589275379048182585,,0.265884573119,-4.82012427682,2.50843037055
1589275379051741160,5084,1589275379051652232,,0.266188025197,-4.81423345452,2.50650318975
1589275379054486874,5085,1589275379054406871,,0.266515096239,-4.86215598889,2.51781357588
1589275379063736820,5086,1589275379063619857,,0.267269737035,-4.90494227888,2.52768964544
1589275379069221291,5087,1589275379069132443,,0.267518374408,-4.95356638724,2.53926039243
1589275379072738212,5088,1589275379072599118,,0.267759983517,-4.94871340605,2.53716589215
1589275379075683380,5089,1589275379075604738,,0.268132011168,-4.99655811005,2.54833611694
1589275379081850210,5090,1589275379081708701,,0.26875331211,-5.04360015136,2.55984201978
1589275379084643004,5091,1589275379084533521,,0.268841299787,-5.03915545291,2.55805933555
1589275379087632803,5092,1589275379087553200,,0.269184801134,-5.0876196958,2.56985052689
1589275379093500398,5093,1589275379093210887,,0.269453860484,-5.08350843328,2.568386437
1589275379096334358,5094,1589275379096253459,,0.269777676869,-5.13153390776,2.57948544912
1589275379099656337,5095,1589275379099508705,,0.270125822325,-5.12548334803,2.57744084094
1589275379105704107,5096,1589275379105602488,,0.270463395989,-5.17325493541,2.58869016119
1589275379108741977,5097,1589275379108664926,,0.270634327277,-5.22097202175,2.60002360111
1589275379111763267,5098,1589275379111653781,,0.27089574736,-5.21558331813,2.59823058203
1589275379117659806,5099,1589275379117565777,,0.27118724802,-5.26245235862,2.60924487752
1589275379123542605,5100,1589275379123459557,,0.272052757905,-5.30325149199,2.61890481101
1589275379129477553,5101,1589275379129386748,,0.272457816906,-5.35000428353,2.63033077741
1589275379132486498,5102,1589275379132398442,,0.272715943051,-5.3441325101,2.62817899364
1589275379135580509,5103,1589275379135405462,,0.273065883225,-5.3899509576,2.63916815264
1589275379141822621,5104,1589275379141680962,,0.273424334779,-5.43629396755,2.65042754992
1589275379144771679,5105,1589275379144570407,,0.273927323992,-5.43005626546,2.648542589
1589275379147580544,5106,1589275379147444593,,0.27430691226,-5.47529236061,2.65962655442
1589275379153742348,5107,1589275379153646554,,0.274692320806,-5.52179261161,2.67126829574
1589275379156467302,5108,1589275379156365671,,0.275044927602,-5.51588506273,2.66985379075
1589275379159492890,5109,1589275379159383042,,0.275290116799,-5.50918073881,2.66753818842
1589275379165513946,5110,1589275379165411959,,0.275335716813,-5.55515574822,2.67857874695
1589275379168437428,5111,1589275379168349507,,0.275714109352,-5.60030164433,2.68963203262
1589275379171236112,5112,1589275379171153877,,0.276143773746,-5.59345639268,2.68760705176
1589275379177275420,5113,1589275379177176238,,0.276682477837,-5.63912927777,2.69891909031
1589275379180594244,5114,1589275379180443823,,0.277043063741,-5.68471654825,2.71001647918
1589275379183718331,5115,1589275379183655367,,0.277516498022,-5.67843400397,2.70851629674
1589275379189418664,5116,1589275379189341378,,0.277647573634,-5.72407798423,2.71884903616
1589275379192465686,5117,1589275379192350702,,0.277899124224,-5.71850814866,2.71693589384
1589275379195446489,5118,1589275379195250327,,0.278153991601,-5.76387218678,2.72780150365
1589275379201571092,5119,1589275379201461423,,0.2782595742,-5.80972340756,2.73893869383
1589275379204577635,5120,1589275379204376698,,0.278576156404,-5.80372299157,2.73717686228
1589275379207603447,5121,1589275379207477735,,0.278849235918,-5.84878588758,2.74780508617
1589275379213755746,5122,1589275379213658197,,0.279370336725,-5.89298434586,2.75860594103
1589275379219644902,5123,1589275379219511582,,0.279790832523,-5.88643461199,2.75622628829
1589275379222561080,5124,1589275379222433302,,0.280162779087,-5.9306673873,2.76706145342
1589275379225411884,5125,1589275379225287016,,0.280611138104,-5.92436624244,2.76493163242
1589275379228367191,5126,1589275379228292574,,0.281162117394,-5.96635683136,2.77507211944
1589275379231589256,5127,1589275379231503215,,0.281541210962,-5.95847643726,2.77245941338
1589275379237583348,5128,1589275379237459494,,0.282396751494,-5.99998076725,2.78283696409
1589275379240836104,5129,1589275379240711215,,0.282922048036,-6.04172521597,2.79262014549
1589275379243700091,5130,1589275379243620588,,0.283688904439,-6.03325684496,2.78984479023
1589275379249782077,5131,1589275379249656592,,0.284205183542,-6.07425700184,2.79933516299
1589275379252744573,5132,1589275379252676488,,0.284941820356,-6.06650344895,2.79728388336
1589275379258381573,5133,1589275379258310474,,0.285442700909,-6.10776724828,2.8070822093
1589275379261640265,5134,1589275379261552114,,0.286274766669,-6.14902663825,2.81727734903
1589275379264674887,5135,1589275379264575582,,0.286750069635,-6.14078683638,2.81500130709
1589275379270578779,5136,1589275379270479071,,0.287294205684,-6.18213504548,2.82522029318
1589275379273473194,5137,1589275379273375406,,0.287723062811,-6.17434062387,2.82265889163
1589275379276566407,5138,1589275379276444169,,0.287916970223,-6.21636831264,2.8322303445
1589275379283178926,5139,1589275379283029260,,0.288238225345,-6.25791244267,2.8418458121
1589275379285744291,5140,1589275379285648211,,0.289000119776,-6.2503049655,2.8399688907
1589275379288761625,5141,1589275379288638768,,0.289095277353,-6.29183598315,2.84930302636
1589275379294793989,5142,1589275379294690784,,0.289453379005,-6.33239749766,2.85870659183
1589275379297482385,5143,1589275379297380733,,0.289593409896,-6.32479436798,2.85587121856
1589275379306891976,5144,1589275379306652509,,0.290310282296,-6.35731092264,2.86325119091
1589275379309825174,5145,1589275379309700604,,0.290663166351,-6.39787351046,2.87275431249
1589275379312647940,5146,1589275379312555370,,0.290885829905,-6.38947996488,2.869863017
1589275379318651946,5147,1589275379318571346,,0.291388895574,-6.4273805268,2.87913892579
1589275379321700556,5148,1589275379321596242,,0.29181503526,-6.46590828773,2.88832849554
1589275379324322996,5149,1589275379324241362,,0.292307718328,-6.45683927811,2.8859124704
1589275379330621797,5150,1589275379330520130,,0.292651481721,-6.49533249332,2.89528901765
1589275379333720315,5151,1589275379333630777,,0.293186363441,-6.53418892917,2.90481026821
1589275379336806665,5152,1589275379336682881,,0.293943521233,-6.5224758574,2.90150007354
1589275379342899780,5153,1589275379342726869,,0.294691821056,-6.55758844898,2.91035086561
1589275379345676664,5154,1589275379345596729,,0.295222888138,-6.54827559552,2.90817958753
1589275379348363334,5155,1589275379348254571,,0.295762641926,-6.58300235463,2.91682727583
1589275379354623840,5156,1589275379354546114,,0.296600064895,-6.61643133798,2.92587859474
1589275379357727350,5157,1589275379357624801,,0.297009260519,-6.60619445097,2.9232083567
1589275379366707066,5158,1589275379366529140,,0.297718418461,-6.63163166156,2.92890992155
1589275379369633814,5159,1589275379369535610,,0.297913319803,-6.66736502388,2.93734642125
1589275379372810184,5160,1589275379372703222,,0.298491825557,-6.658132273,2.93474465872
1589275379378610990,5161,1589275379378493034,,0.299286611684,-6.69257082428,2.94304013736
1589275379381798678,5162,1589275379381707888,,0.299754261076,-6.72864843077,2.95142986333
1589275379387659998,5163,1589275379387580788,,0.299993352918,-6.76357709428,2.95928392829
1589275379390754408,5164,1589275379390653596,,0.300293009366,-6.75669874271,2.95722125311
1589275379393552551,5165,1589275379393347480,,0.300588731691,-6.74841683308,2.95529167728
1589275379399468484,5166,1589275379399367966,,0.300944811857,-6.78265114389,2.96327055496
1589275379402900299,5167,1589275379402758106,,0.301041028327,-6.81792488445,2.97140909729
1589275379405510079,5168,1589275379405376105,,0.301106260901,-6.81009625412,2.96845435873
1589275379411716137,5169,1589275379411601468,,0.301769336004,-6.84349729981,2.97657159206
1589275379414648247,5170,1589275379414489866,,0.301979107804,-6.87694332977,2.98403363084
1589275379417575532,5171,1589275379417480940,,0.302648815565,-6.86741136464,2.98143742881
1589275379423624440,5172,1589275379423532232,,0.302987480483,-6.90140993884,2.98941716439
1589275379426308804,5173,1589275379426193128,,0.303410546962,-6.89211591192,2.98624061979
1589275379429268498,5174,1589275379429169485,,0.303849806347,-6.92523110124,2.9937737892
1589275379435797347,5175,1589275379435646579,,0.304487270105,-6.95677554292,3.00109904518
1589275379438821763,5176,1589275379438682392,,0.305266745871,-6.94545740811,2.99775333277
1589275379444764024,5177,1589275379444619800,,0.305755529994,-6.97671420198,3.00475021489
1589275379447786787,5178,1589275379447681265,,0.306958857163,-7.00595233391,3.01176698259
1589275379450641344,5179,1589275379450560582,,0.307733719812,-6.99430436463,3.00792154847
1589275379459991418,5180,1589275379459785130,,0.309519992052,-7.01131377604,3.01076058284
1589275379462742411,5181,1589275379462634778,,0.310227235788,-7.04031826179,3.01705018338
1589275379468450564,5182,1589275379468280407,,0.31108202074,-7.06977929461,3.0241486874
1589275379471342866,5183,1589275379471235784,,0.311040374137,-7.05838023624,3.02020597371
1589275379474313748,5184,1589275379474217514,,0.31176924896,-7.08785259192,3.02742665032
1589275379477364614,5185,1589275379477288330,,0.312247847274,-7.07711790547,3.02410156284
1589275379484095646,5186,1589275379483981901,,0.312650021019,-7.10905643581,3.03140042624
1589275379486703925,5187,1589275379486625246,,0.313106446156,-7.10073812139,3.02828566015
1589275379492674933,5188,1589275379492557362,,0.313719221916,-7.12938490685,3.03520173057
1589275379495278203,5189,1589275379495209016,,0.314089934431,-7.15923888244,3.04188380087
1589275379498276624,5190,1589275379498204314,,0.314435530124,-7.15109417636,3.03920352878
1589275379504724309,5191,1589275379504629645,,0.314659419585,-7.18001590147,3.04546355008
1589275379507824142,5192,1589275379507698056,,0.315192495022,-7.2074617542,3.05233459733
1589275379510936849,5193,1589275379510779350,,0.315444948952,-7.19705787516,3.04936643283
1589275379516802868,5194,1589275379516690261,,0.315595147551,-7.22688130911,3.05630891829
1589275379519835054,5195,1589275379519737650,,0.316041353432,-7.2173597419,3.05321316904
1589275379522751434,5196,1589275379522635163,,0.316606956275,-7.24530212806,3.05994174883
1589275379528530031,5197,1589275379528458604,,0.317094346344,-7.27353525963,3.06659474479
1589275379531741559,5198,1589275379531634857,,0.317424560341,-7.26290444367,3.06303716277
1589275379534771320,5199,1589275379534667646,,0.318254637481,-7.28882573329,3.06920279519
1589275379543841988,5200,1589275379543730046,,0.319325856746,-7.30344579,3.07178308779
1589275379546759132,5201,1589275379546615142,,0.320116791587,-7.2899350994,3.06910883783
1589275379552654511,5202,1589275379552570602,,0.320815403652,-7.31476936172,3.07469141914
1589275379555726864,5203,1589275379555596493,,0.321772526902,-7.33856586579,3.08139351494
1589275379558646823,5204,1589275379558567111,,0.322459548161,-7.3255290186,3.07784008628
1589275379564627643,5205,1589275379564542889,,0.323198298437,-7.34832633722,3.08311679966
1589275379567760352,5206,1589275379567616496,,0.32390862098,-7.37135173783,3.08878289703
1589275379570639540,5207,1589275379570545887,,0.324506559616,-7.36107933826,3.08616440921
1589275379576472721,5208,1589275379576332807,,0.325334288139,-7.38276115827,3.09106907467
1589275379579807686,5209,1589275379579715437,,0.326031507329,-7.36893279359,3.08706781506
1589275379582749757,5210,1589275379582640355,,0.326901571777,-7.39212351876,3.09295084093
1589275379588498974,5211,1589275379588414566,,0.327413760353,-7.41395221237,3.09862477839
1589275379591589003,5212,1589275379591434318,,0.327903612081,-7.39944601411,3.09417061367
1589275379594642281,5213,1589275379594544499,,0.32882619618,-7.41952707585,3.09945735049
1589275379600729704,5214,1589275379600622419,,0.329505982706,-7.44083832833,3.10492866693
1589275379603397482,5215,1589275379603287345,,0.330133428596,-7.42825387879,3.10164557248
1589275379606688407,5216,1589275379606603736,,0.330880935833,-7.41538470027,3.09807143798
1589275379612743143,5217,1589275379612648044,,0.331615373504,-7.437268815,3.10369838765
1589275379615725699,5218,1589275379615570481,,0.332523704317,-7.45724292419,3.10837839591
1589275379618863695,5219,1589275379618709956,,0.332933819937,-7.4457302584,3.10564392775
1589275379624621091,5220,1589275379624499728,,0.333524830851,-7.46594596928,3.11078341347
1589275379627792692,5221,1589275379627695172,,0.334316132196,-7.4854110304,3.11606373085
1589275379630869847,5222,1589275379630700101,,0.334709143408,-7.47362793987,3.11373113261
1589275379636688407,5223,1589275379636589153,,0.335195115184,-7.49378215706,3.11874645601
1589275379639665014,5224,1589275379639579989,,0.336108778755,-7.48167846733,3.11603362219
1589275379642674440,5225,1589275379642583542,,0.337142101732,-7.50130299665,3.12149482808
1589275379648697633,5226,1589275379648586831,,0.337559497705,-7.51997892603,3.12548816468
1589275379651657590,5227,1589275379651512049,,0.338380007567,-7.50835708653,3.12284962592
1589275379654476664,5228,1589275379654364906,,0.338920807316,-7.52666431606,3.12797247521
1589275379663418613,5229,1589275379663313176,,0.340175124714,-7.53120216647,3.12903666881
1589275379669570970,5230,1589275379669490336,,0.341033302301,-7.54724664968,3.13350149517
1589275379672599821,5231,1589275379672502980,,0.341977832871,-7.53353093087,3.13070074579
1589275379675683186,5232,1589275379675602534,,0.342884756279,-7.54843185438,3.13477567666
1589275379681788049,5233,1589275379681668045,,0.343922315759,-7.56234745212,3.1380654926
1589275379684410416,5234,1589275379684319400,,0.345046942385,-7.54789677732,3.13469128343
1589275379687380326,5235,1589275379687292494,,0.34642670637,-7.56120630227,3.13847973136
1589275379693830695,5236,1589275379693762902,,0.347029979476,-7.54442982504,3.13362357724
1589275379696724978,5237,1589275379696643402,,0.348326399067,-7.5626956266,3.13908541313
1589275379699768422,5238,1589275379699691123,,0.349180777681,-7.54680348328,3.13523518287
1589275379705766045,5239,1589275379705672134,,0.34983765933,-7.56363233663,3.13913291499
1589275379708775974,5240,1589275379708680684,,0.350752894918,-7.57726489251,3.1434891856
1589275379711703414,5241,1589275379711629124,,0.351225022356,-7.563792433,3.14064199205
1589275379717665991,5242,1589275379717584750,,0.351770334644,-7.57900678951,3.14486288216
1589275379720769863,5243,1589275379720660105,,0.352297961253,-7.59500403926,3.14929919066
1589275379723732613,5244,1589275379723637303,,0.352760603417,-7.58499811448,3.14700850234
1589275379729691008,5245,1589275379729612336,,0.353301134957,-7.60145680578,3.151196986
1589275379732805617,5246,1589275379732643069,,0.353887987474,-7.59100938679,3.14910395605
1589275379735733954,5247,1589275379735659218,,0.354094268239,-7.60723576452,3.15284453823
1589275379741734519,5248,1589275379741658337,,0.35463085175,-7.62140191762,3.15701488747
1589275379744782781,5249,1589275379744679016,,0.354914403313,-7.60986524638,3.15458430295
1589275379747728272,5250,1589275379747611530,,0.355391852852,-7.62350980848,3.15799212047
1589275379753749363,5251,1589275379753636770,,0.356044990362,-7.61105848112,3.15475651598
1589275379756403902,5252,1589275379756348764,,0.356721016177,-7.62201525674,3.15719594801
1589275379759564663,5253,1589275379759485114,,0.35747123177,-7.60797399592,3.15352474825
1589275379765901522,5254,1589275379765781071,,0.358202369095,-7.61646396064,3.15588299866
1589275379768744661,5255,1589275379768662528,,0.359091044616,-7.62410572627,3.15786486495
1589275379774781782,5256,1589275379774702580,,0.359967286616,-7.62959022007,3.15988256265
1589275379777754665,5257,1589275379777627481,,0.360878929863,-7.61141586908,3.15616388097
1589275379781015580,5258,1589275379780918269,,0.362303057532,-7.61515176024,3.1578984969
1589275379784139440,5259,1589275379784068628,,0.36375461574,-7.59578205331,3.153575558
1589275379789921738,5260,1589275379789745737,,0.365033130678,-7.59849507716,3.15446843637
1589275379792859064,5261,1589275379792700644,,0.366466472971,-7.57904979723,3.14925786599
1589275379798756697,5262,1589275379798633106,,0.367810857198,-7.58266231329,3.15048739562
1589275379801751435,5263,1589275379801664011,,0.369101217483,-7.58557409222,3.15193845055
1589275379804820290,5264,1589275379804706949,,0.370047240845,-7.56810938352,3.14753796837
1589275379810832784,5265,1589275379810749555,,0.370895300532,-7.5735780226,3.14887754948
1589275379814027768,5266,1589275379813921978,,0.371657601394,-7.57901308964,3.15076066638
1589275379816832112,5267,1589275379816722494,,0.372092717222,-7.56584739879,3.14742736233
1589275379822778128,5268,1589275379822698577,,0.372530584416,-7.57406940213,3.14993830937
1589275379825974269,5269,1589275379825869052,,0.372523161904,-7.56422988214,3.14701364149
1589275379828911266,5270,1589275379828772411,,0.372702955079,-7.57367668261,3.14929031081
1589275379834804105,5271,1589275379834692315,,0.373058483949,-7.5822921544,3.15207612795
1589275379837790524,5272,1589275379837678655,,0.373024931488,-7.5731241308,3.14927696
1589275379846936559,5273,1589275379846829860,,0.373523973719,-7.55635380476,3.14509895395
1589275379849902970,5274,1589275379849772188,,0.373745072372,-7.57683662853,3.14990474589
1589275379855829595,5275,1589275379855703812,,0.374647807765,-7.580798152,3.15098529619
1589275379858843050,5276,1589275379858753677,,0.375609128501,-7.56640528217,3.1474980463
1589275379861783812,5277,1589275379861693248,,0.376458698717,-7.56758403522,3.14764536839
1589275379864514813,5278,1589275379864434338,,0.377566825829,-7.55158878773,3.14404111949
1589275379870526818,5279,1589275379870432454,,0.37841477465,-7.55445808753,3.14496724578
1589275379873750318,5280,1589275379873553730,,0.379112125402,-7.53959874304,3.1412424887
1589275379879852488,5281,1589275379879764650,,0.380556608531,-7.53427755073,3.14148018392
1589275379882734080,5282,1589275379882658575,,0.381240894088,-7.53277111314,3.14133729174
1589275379885587984,5283,1589275379885498774,,0.382570718335,-7.51622685826,3.13810054315
1589275379891517159,5284,1589275379891434961,,0.383869071653,-7.51070252265,3.13804716049
1589275379894868912,5285,1589275379894754468,,0.384872113681,-7.50638640699,3.1376964677
1589275379897857629,5286,1589275379897695443,,0.385998886617,-7.48968704557,3.13379592082
1589275379903951218,5287,1589275379903859075,,0.387001967467,-7.48881923211,3.13432276826
1589275379906818859,5288,1589275379906620331,,0.388243235209,-7.47356588384,3.13109015548
1589275379909425001,5289,1589275379909265346,,0.389096946664,-7.47415101336,3.13122133122
1589275379915416454,5290,1589275379915334266,,0.389681877929,-7.47439240251,3.13114364268
1589275379918435670,5291,1589275379918334346,,0.389996748649,-7.46250742478,3.12754349761
1589275379921573943,5292,1589275379921497804,,0.390480430877,-7.4650270548,3.12852496137
1589275379927644571,5293,1589275379927572771,,0.390801901055,-7.46664223873,3.12949236956
1589275379930627870,5294,1589275379930525478,,0.390891490154,-7.45697240792,3.12683671573
1589275379933737854,5295,1589275379933660063,,0.391100506001,-7.44797645357,3.12471547611
1589275379939518196,5296,1589275379939416186,,0.391711890725,-7.44936840409,3.12621112058
1589275379942841403,5297,1589275379942675816,,0.391672791819,-7.45152669087,3.12563414958
1589275379945404100,5298,1589275379945324470,,0.392301378938,-7.44061420682,3.12325084636
1589275379951932213,5299,1589275379951840024,,0.393227700355,-7.44041691902,3.12340616689
1589275379954843037,5300,1589275379954689061,,0.393780657014,-7.43887737297,3.12286645605
1589275379957690209,5301,1589275379957588698,,0.394594125658,-7.42552833318,3.1190371233
1589275379963784139,5302,1589275379963701402,,0.39599537218,-7.42118315261,3.11873418987
1589275379966877831,5303,1589275379966625463,,0.397108293431,-7.40571651627,3.11534127809
1589275379969704701,5304,1589275379969608909,,0.398357551212,-7.39898662209,3.1139159508
1589275379975799522,5305,1589275379975712802,,0.399641209631,-7.39113106163,3.1131761778
1589275379978801209,5306,1589275379978698754,,0.401172268947,-7.37282417833,3.10973438734
1589275379982006442,5307,1589275379981914905,,0.402569944048,-7.36399551844,3.10836888794
1589275379987917993,5308,1589275379987765674,,0.404339551501,-7.35343689977,3.10702880375
1589275379990864911,5309,1589275379990761292,,0.405978133631,-7.3355574269,3.10383153496
1589275379993667478,5310,1589275379993531095,,0.407771498715,-7.31732176901,3.10049390789
1589275380000036411,5311,1589275379999817028,,0.409543537984,-7.30725345298,3.09878033899
1589275380002848310,5312,1589275380002762226,,0.4110502383,-7.29795319511,3.09692688703
1589275380005851057,5313,1589275380005758876,,0.412448427883,-7.28162037236,3.09331994849
1589275380011908691,5314,1589275380011762575,,0.413663939492,-7.27361301761,3.09160266947
1589275380014767027,5315,1589275380014678978,,0.414821832256,-7.26637273352,3.09065564885
1589275380017700591,5316,1589275380017631292,,0.415405007194,-7.2549031483,3.08760724179
1589275380023734049,5317,1589275380023651379,,0.416103499426,-7.24970291357,3.08684693685
1589275380026897890,5318,1589275380026784018,,0.416724574667,-7.24026818163,3.08459600548
1589275380029675619,5319,1589275380029587647,,0.416906615249,-7.23773966029,3.08331034811
1589275380035786801,5320,1589275380035702606,,0.417258041292,-7.23536672702,3.08288829573
1589275380038756878,5321,1589275380038660404,,0.417900372734,-7.22728220088,3.08150551867
1589275380044769696,5322,1589275380044664234,,0.418347427031,-7.22451074171,3.08104944819
1589275380047578759,5323,1589275380047504405,,0.418553986268,-7.22075123464,3.07941163381
1589275380050581367,5324,1589275380050484315,,0.419153293928,-7.21185061658,3.07762633124
1589275380056588783,5325,1589275380056501950,,0.420192895382,-7.20582593307,3.07698490473
1589275380059519114,5326,1589275380059377589,,0.421261551779,-7.195095808,3.07456285058
1589275380062582933,5327,1589275380062485577,,0.422477235983,-7.18699567784,3.07302202688
1589275380068853201,5328,1589275380068730577,,0.423630734636,-7.1770414719,3.07105699396
1589275380071748234,5329,1589275380071670954,,0.424874334915,-7.1648198029,3.06859550805
1589275380074629813,5330,1589275380074545896,,0.426229497098,-7.15238718225,3.06638717357
1589275380080822631,5331,1589275380080749924,,0.427152924045,-7.14139677495,3.06455166963
1589275380084171702,5332,1589275380084030884,,0.428537304712,-7.12710693968,3.06262089812
1589275380086983916,5333,1589275380086895611,,0.4296324057,-7.11274050578,3.05984806051
1589275380092655162,5334,1589275380092491722,,0.430695274366,-7.09947532474,3.05717045339
1589275380095598096,5335,1589275380095508695,,0.431925163188,-7.08601561816,3.05507491708
1589275380098419447,5336,1589275380098325036,,0.433147758778,-7.07155643779,3.05259799167
1589275380104630928,5337,1589275380104554258,,0.4340946019,-7.05826449386,3.05013647243
1589275380107835389,5338,1589275380107670993,,0.434925305256,-7.04467857847,3.04752566558
1589275380110651345,5339,1589275380110577891,,0.435836080308,-7.03119476703,3.04521703283
1589275380116848808,5340,1589275380116682986,,0.436615629259,-7.01821600199,3.04246277477
1589275380119808843,5341,1589275380119680804,,0.437525036087,-7.0055552165,3.03989881902
1589275380125809691,5342,1589275380125702803,,0.438262697507,-6.99398549012,3.03727294024
1589275380128780963,5343,1589275380128686884,,0.439103901884,-6.98185610346,3.03481209509
1589275380131850666,5344,1589275380131754093,,0.439628552198,-6.97201103606,3.03280466658
1589275380134719605,5345,1589275380134629696,,0.440278081474,-6.96156295245,3.03119715351
1589275380140727516,5346,1589275380140656449,,0.440991074337,-6.95046460252,3.02950055216
1589275380143480149,5347,1589275380143390699,,0.441550521352,-6.94201492383,3.02805109225
1589275380146799065,5348,1589275380146623950,,0.441960874828,-6.93391353486,3.02661026023
1589275380152889493,5349,1589275380152779638,,0.442685916727,-6.92344565042,3.02511292339
1589275380155771701,5350,1589275380155677572,,0.443408812428,-6.91287766772,3.02378329076
1589275380158665240,5351,1589275380158552516,,0.444359392154,-6.90459932781,3.0225458754
1589275380164453922,5352,1589275380164346664,,0.445165184022,-6.89271595933,3.0209439724
1589275380167863504,5353,1589275380167731499,,0.445950011299,-6.88006637598,3.01858722116
1589275380174029348,5354,1589275380173923498,,0.446623292262,-6.86732830809,3.0157080965
1589275380176897684,5355,1589275380176735145,,0.447681629498,-6.85735141493,3.01441666427
1589275380180002443,5356,1589275380179869288,,0.448709287802,-6.84751934364,3.01353820705
1589275380185802003,5357,1589275380185704620,,0.449700291573,-6.83247306223,3.01138992347
1589275380188766294,5358,1589275380188647119,,0.450580959524,-6.81707053297,3.00852411282
1589275380191829183,5359,1589275380191743052,,0.451796932188,-6.80566753779,3.00692493802
1589275380197884793,5360,1589275380197771391,,0.452616960994,-6.78964658272,3.00372972267
1589275380200882161,5361,1589275380200793012,,0.453958071513,-6.7717638496,3.00094305523
1589275380203949616,5362,1589275380203840605,,0.454940111969,-6.76094942456,2.9992734694
1589275380209954932,5363,1589275380209807875,,0.456229602326,-6.74294936295,2.99652085606
1589275380212854330,5364,1589275380212732347,,0.457236568093,-6.731816798,2.994914772
1589275380215880442,5365,1589275380215741366,,0.458350317951,-6.71435890381,2.99216989911
1589275380221747555,5366,1589275380221659643,,0.459378700544,-6.69637711126,2.98869860787
1589275380224718564,5367,1589275380224605787,,0.460176536911,-6.68631915353,2.98743446135
1589275380227751560,5368,1589275380227670572,,0.461396290609,-6.66900645749,2.98460225107
1589275380234320878,5369,1589275380234169795,,0.462386200387,-6.65217944943,2.98088006483
1589275380236738243,5370,1589275380236663673,,0.463438056069,-6.64286432834,2.98001098025
1589275380239718299,5371,1589275380239614035,,0.464194123753,-6.63545023224,2.97865223079
1589275380245824968,5372,1589275380245743488,,0.465188793177,-6.62045085715,2.97624431583
1589275380248509684,5373,1589275380248425103,,0.465841811632,-6.60520249848,2.97327795596
1589275380251813723,5374,1589275380251711181,,0.466726336493,-6.59892575858,2.97297622109
1589275380257604167,5375,1589275380257523536,,0.46734984566,-6.58461409675,2.96992655702
1589275380263486904,5376,1589275380263392217,,0.468668780386,-6.56426132985,2.96666668207
1589275380269680233,5377,1589275380269524491,,0.469732945984,-6.54857811624,2.96378444292
1589275380272912908,5378,1589275380272796627,,0.47051583261,-6.54277546356,2.96309959347
1589275380278814355,5379,1589275380278729600,,0.471357000207,-6.52643407817,2.95903833593
1589275380282190389,5380,1589275380282046367,,0.472495299652,-6.50895464893,2.9554625291
1589275380285124037,5381,1589275380285050242,,0.473796271401,-6.5019213805,2.95432968934
1589275380290591890,5382,1589275380290469208,,0.474864108526,-6.48457860519,2.95085280611
1589275380296742468,5383,1589275380296584793,,0.477437099279,-6.45655345489,2.94628770804
1589275380302668554,5384,1589275380302583450,,0.478393395483,-6.43797476618,2.94239873783
1589275380305733036,5385,1589275380305638654,,0.479515977494,-6.42984009117,2.94138365355
1589275380308721729,5386,1589275380308572907,,0.480855190726,-6.40841466369,2.93740348634
1589275380314789832,5387,1589275380314676986,,0.481981376533,-6.38813623721,2.93340914846
1589275380317603418,5388,1589275380317527559,,0.483077168912,-6.37979973884,2.93212649199
1589275380321226581,5389,1589275380321136345,,0.484451930064,-6.35963941857,2.92831575786
1589275380326994062,5390,1589275380326880793,,0.485316910154,-6.34033053999,2.92360694257
1589275380329903172,5391,1589275380329820401,,0.48660380656,-6.33245519672,2.9224883161
1589275380332636456,5392,1589275380332566161,,0.487867369099,-6.32391052268,2.92113341074
1589275380338893968,5393,1589275380338796375,,0.488756090284,-6.30424816369,2.91673371482
1589275380341636110,5394,1589275380341570412,,0.489562620106,-6.28367136175,2.91201062943
1589275380344808181,5395,1589275380344706261,,0.490420453505,-6.27663612613,2.9106839211
1589275380350620648,5396,1589275380350527139,,0.491348077169,-6.25571670396,2.90572756779
1589275380356891476,5397,1589275380356807100,,0.492996183314,-6.22997321355,2.90029795784
1589275380362778042,5398,1589275380362710997,,0.493979313244,-6.21029582044,2.89583044402
1589275380365865181,5399,1589275380365728838,,0.494515437576,-6.20584503748,2.89467771113
1589275380368880629,5400,1589275380368724223,,0.495225427371,-6.18660093021,2.89034696446
1589275380375267616,5401,1589275380375161676,,0.495819570783,-6.16730834632,2.88586101172
1589275380378141622,5402,1589275380378020291,,0.496677875553,-6.16281297036,2.88588341505
1589275380381546917,5403,1589275380381439289,,0.497187792834,-6.1434329031,2.88109802718
1589275380387154774,5404,1589275380387060021,,0.497881828634,-6.12440577047,2.87727356087
1589275380389916972,5405,1589275380389823698,,0.498672090619,-6.11965440401,2.87674064645
1589275380392991520,5406,1589275380392913752,,0.499582466147,-6.1148267433,2.87649764659
1589275380398722496,5407,1589275380398620204,,0.50032738,-6.09477879313,2.87213405687
1589275380401721613,5408,1589275380401631528,,0.50110421016,-6.07357401227,2.86748772775
1589275380404932341,5409,1589275380404855288,,0.50212800263,-6.06769018181,2.86683957766
1589275380411082480,5410,1589275380410947092,,0.502851007102,-6.04541422715,2.86187784965
1589275380416934015,5411,1589275380416795280,,0.504567393415,-6.01739239068,2.855952951
1589275380422941261,5412,1589275380422822570,,0.505441788555,-5.99497699589,2.85104166123
1589275380425753640,5413,1589275380425615022,,0.50615977917,-5.98925942082,2.85011318781
1589275380428627071,5414,1589275380428527939,,0.507183500728,-5.96602478027,2.84512950773
1589275380434845430,5415,1589275380434743486,,0.507839857471,-5.94287940979,2.83943498818
1589275380437661822,5416,1589275380437550073,,0.508617156108,-5.93747546358,2.83867700447
1589275380443689650,5417,1589275380443604006,,0.509246997707,-5.91505261207,2.83345735902
1589275380446692826,5418,1589275380446546904,,0.509808497222,-5.90975264122,2.83248492228
1589275380449711133,5419,1589275380449591031,,0.510619518494,-5.8855728524,2.82695666024
1589275380452679717,5420,1589275380452567953,,0.511092853403,-5.88111871146,2.82590994292
1589275380458589605,5421,1589275380458509030,,0.511692970187,-5.85794491465,2.82051076338
1589275380461567116,5422,1589275380461480307,,0.51231965539,-5.83450416772,2.81522818161
1589275380464584638,5423,1589275380464509563,,0.512858811304,-5.83005812755,2.81430626253
1589275380470571867,5424,1589275380470491092,,0.51351967385,-5.80670802133,2.80896742487
1589275380473671840,5425,1589275380473489420,,0.513886226072,-5.80278234147,2.80829377578
1589275380479823100,5426,1589275380479735884,,0.514464723646,-5.77955379455,2.80282446906
1589275380483098408,5427,1589275380482971338,,0.514773197757,-5.75652983017,2.79708303713
1589275380485870203,5428,1589275380485767749,,0.515183547645,-5.75260485907,2.7962829523
1589275380491718343,5429,1589275380491615248,,0.515624077682,-5.72898560706,2.79074447755
1589275380494806960,5430,1589275380494720987,,0.515926058585,-5.70524648158,2.78496487963
1589275380497698527,5431,1589275380497609953,,0.516367576816,-5.70175440644,2.78440100015
1589275380503782963,5432,1589275380503671711,,0.516928207453,-5.6772972024,2.77878675734
1589275380506911422,5433,1589275380506801566,,0.517181452091,-5.67438846989,2.7781317513
1589275380509916865,5434,1589275380509829385,,0.517576419233,-5.65049997254,2.77230559146
1589275380515812774,5435,1589275380515721974,,0.518036132236,-5.62634432479,2.76688758385
1589275380518825324,5436,1589275380518716374,,0.518414647254,-5.62305778435,2.76657288519
1589275380521501254,5437,1589275380521430379,,0.518899623143,-5.59910692235,2.76109688514
1589275380527651134,5438,1589275380527584958,,0.519319608083,-5.57502297508,2.7555587279
1589275380530846209,5439,1589275380530743207,,0.519717250447,-5.57188119913,2.75530132748
1589275380539708870,5440,1589275380539637332,,0.52061848113,-5.54470876807,2.74972950893
1589275380542874239,5441,1589275380542709845,,0.520980656693,-5.52038698394,2.74430139057
1589275380545786612,5442,1589275380545705120,,0.521291010304,-5.51729648102,2.74394239959
1589275380551781668,5443,1589275380551686630,,0.5216488304,-5.49295353857,2.73844651141
1589275380554432245,5444,1589275380554371783,,0.521799735054,-5.46869900076,2.73265074794
1589275380557451664,5445,1589275380557392849,,0.52210808643,-5.46576674394,2.73249879012
1589275380566850761,5446,1589275380566643724,,0.522437878607,-5.44167002819,2.72690086482
1589275380569381396,5447,1589275380569310201,,0.522598780155,-5.41762656795,2.72075944372
1589275380572453571,5448,1589275380572373074,,0.522960104732,-5.41448716674,2.72043535107
1589275380575477464,5449,1589275380575403224,,0.523248415396,-5.39032544444,2.71490251734
1589275380578436753,5450,1589275380578355188,,0.523421492133,-5.38805106887,2.71443055793
1589275380581684651,5451,1589275380581626398,,0.523709754187,-5.36354307617,2.70870415643
1589275380587834634,5452,1589275380587715209,,0.523971763527,-5.33913810459,2.70299227376
1589275380590720011,5453,1589275380590652914,,0.524227943283,-5.33654888294,2.70285177007
1589275380596763511,5454,1589275380596695963,,0.52456102879,-5.31228449192,2.69709285575
1589275380599744627,5455,1589275380599669613,,0.5248000863,-5.31020408243,2.6971836593
1589275380602860698,5456,1589275380602779035,,0.525054970299,-5.28593258743,2.69130195824
1589275380608770447,5457,1589275380608675422,,0.525325131315,-5.26192366104,2.68549721444
1589275380611895588,5458,1589275380611841872,,0.525567805305,-5.25997486153,2.68530535039
1589275380614486708,5459,1589275380614403641,,0.525817493098,-5.23538414211,2.67934204756
1589275380620826242,5460,1589275380620708265,,0.526196728193,-5.21077511095,2.67362529777
1589275380623813656,5461,1589275380623734296,,0.526528452937,-5.20898887257,2.67335600917
1589275380629459769,5462,1589275380629399162,,0.526820347188,-5.18455467476,2.66747069722
1589275380632425770,5463,1589275380632366279,,0.527311663006,-5.18271860479,2.66747432706
1589275380635445157,5464,1589275380635370327,,0.52761442879,-5.15842764326,2.66168958217
1589275380638932256,5465,1589275380638855765,,0.528137259984,-5.15675158832,2.66164507394
1589275380644718545,5466,1589275380644610015,,0.528440188941,-5.13267421946,2.65576102198
1589275380648104276,5467,1589275380647977298,,0.528805999805,-5.10786123799,2.64980315275
1589275380656878924,5468,1589275380656807854,,0.529515436961,-5.08234587541,2.64382692417
1589275380659817198,5469,1589275380659750468,,0.530054507927,-5.08085141047,2.64396174782
1589275380662921763,5470,1589275380662752555,,0.530505496975,-5.05654633853,2.63812625092
1589275380668882898,5471,1589275380668769633,,0.530871078632,-5.03214647618,2.63231440696
1589275380671862463,5472,1589275380671785305,,0.531142798969,-5.03109563912,2.63227896403
1589275380677808514,5473,1589275380677730495,,0.531591330265,-5.00632541016,2.62650155322
1589275380681109935,5474,1589275380680970432,,0.531855411926,-4.98260831469,2.62050740188
1589275380684240258,5475,1589275380684147251,,0.532147549363,-4.98156967415,2.62039198252
1589275380690019914,5476,1589275380689871767,,0.532587336974,-4.95731597424,2.61474804707
1589275380693273275,5477,1589275380693054289,,0.532948943845,-4.95635865034,2.61492284424
1589275380695900475,5478,1589275380695736743,,0.533148345719,-4.93254071874,2.6091439485
1589275380701925082,5479,1589275380701797350,,0.533552029885,-4.90834004002,2.60326228295
1589275380704953493,5480,1589275380704832146,,0.534016282269,-4.90740536762,2.60362433736
1589275380708007934,5481,1589275380707854928,,0.534323786745,-4.88354323707,2.59760950727
1589275380717000723,5482,1589275380716905982,,0.535151506085,-4.85910160955,2.59226466159
1589275380720088038,5483,1589275380719847914,,0.535501517427,-4.85830863146,2.59223526299
1589275380725924143,5484,1589275380725835326,,0.535919139288,-4.83483109444,2.58667282781
1589275380728964152,5485,1589275380728851603,,0.536421023133,-4.81142099088,2.58123244916
1589275380731901300,5486,1589275380731811610,,0.536931746491,-4.81028532591,2.58145900343
1589275380737801174,5487,1589275380737730141,,0.537213372758,-4.78722836481,2.57563078678
1589275380741141302,5488,1589275380741041508,,0.537807512267,-4.76378757252,2.57049722388
1589275380744007863,5489,1589275380743917966,,0.538286573135,-4.76320239124,2.5706631854
1589275380749941736,5490,1589275380749844047,,0.538838510714,-4.73973573136,2.5649959474
1589275380752884561,5491,1589275380752797234,,0.539332784674,-4.73910140473,2.5652037703
1589275380755887123,5492,1589275380755757246,,0.540072695214,-4.71622198556,2.56025968404
1589275380762234848,5493,1589275380762124817,,0.5406352209,-4.69303609381,2.5548987151
1589275380764882807,5494,1589275380764755652,,0.541397474114,-4.69227140357,2.55548239844
1589275380767896833,5495,1589275380767799021,,0.542107761865,-4.66920959031,2.55044455286
1589275380774284995,5496,1589275380774180485,,0.542965420541,-4.64621014893,2.54545229556
1589275380776439419,5497,1589275380776331114,,0.543823818743,-4.64512468696,2.54611104082
1589275380779587864,5498,1589275380779491374,,0.544634911773,-4.64444090204,2.54676852424
1589275380785546009,5499,1589275380785468764,,0.545619220717,-4.62165256274,2.54193905036
1589275380788532182,5500,1589275380788388713,,0.546515551195,-4.59917831045,2.53727922834
1589275380791802563,5501,1589275380791703818,,0.547307368584,-4.59846945228,2.5379846692
1589275380797931710,5502,1589275380797814106,,0.548179397649,-4.57585224684,2.53311579762
1589275380803426691,5503,1589275380803344902,,0.549663032372,-4.55263571066,2.52882796098
1589275380809453534,5504,1589275380809375118,,0.550102400864,-4.53073832288,2.52376232639
1589275380812429130,5505,1589275380812326959,,0.550628835751,-4.5297123537,2.52406066631
1589275380815420240,5506,1589275380815349837,,0.55124190902,-4.50763119445,2.51915467416
1589275380821543860,5507,1589275380821438998,,0.551757573861,-4.48579267587,2.51423064478
1589275380824841039,5508,1589275380824763173,,0.552204617991,-4.48482200939,2.51441779465
1589275380830958548,5509,1589275380830809521,,0.552592961368,-4.4632839414,2.50923417185
1589275380836470445,5510,1589275380836391066,,0.553657390361,-4.44081510208,2.50491031904
1589275380839486101,5511,1589275380839350275,,0.553991832882,-4.43993920298,2.50503671933
1589275380845476636,5512,1589275380845343655,,0.554608967117,-4.41819263125,2.50023429574
1589275380848488689,5513,1589275380848420695,,0.554998432277,-4.39729244545,2.49560242855
1589275380851431100,5514,1589275380851340501,,0.555410350341,-4.39612731453,2.49573321052
1589275380857486062,5515,1589275380857418377,,0.555927281958,-4.37525148343,2.49111254362
1589275380863555139,5516,1589275380863407802,,0.556575768161,-4.35446731142,2.48671177482
1589275380866472977,5517,1589275380866370268,,0.557025329633,-4.35340748934,2.48710836774
1589275380869559056,5518,1589275380869438763,,0.557388600428,-4.33318868406,2.48248796369
1589275380872473127,5519,1589275380872386529,,0.55788715951,-4.332215085,2.48281755632
1589275380878631463,5520,1589275380878571992,,0.558272545456,-4.31250150861,2.47823475516
1589275380881867973,5521,1589275380881747190,,0.55878014948,-4.29289089886,2.4738617106
1589275380884972173,5522,1589275380884885545,,0.559074581886,-4.29215955121,2.47418512185
1589275380890783747,5523,1589275380890720025,,0.559648293713,-4.272925728,2.47017694764
1589275380894162259,5524,1589275380894093729,,0.560077456931,-4.25440051118,2.46601102551
1589275380897036796,5525,1589275380896906633,,0.560668188597,-4.25340612115,2.46668479615
1589275380903103718,5526,1589275380902988902,,0.561234820986,-4.23499726885,2.46279444304
1589275380906001020,5527,1589275380905921548,,0.561840168875,-4.2339087231,2.46331416288
1589275380908668193,5528,1589275380908597686,,0.562560889492,-4.21574541247,2.4600288817
