%time,field.header.seq,field.header.stamp,field.header.frame_id,field.wrench.force.x,field.wrench.force.y,field.wrench.force.z,field.wrench.torque.x,field.wrench.torque.y,field.wrench.torque.z
1589275378133138886,4862,1589275378133045859,,0.383272841019,-0.51499267229,1.31512416872,0.295982366196,-0.0130216602373,-0.124524077488
1589275378136211299,4863,1589275378136094679,,0.406103597713,-0.386124306153,1.29137757177,0.296156969906,-0.0130244155053,-0.125273810705
1589275378139130210,4864,1589275378139043396,,0.406256569846,-0.385927613189,1.26812343174,0.295389487432,-0.0130409764092,-0.125275016638
1589275378145035252,4865,1589275378144933298,,0.383501462921,-0.385807279968,1.26748988404,0.29263196524,-0.0130310464764,-0.124535571337
1589275378147994856,4866,1589275378147880891,,0.383510872553,-0.385814320149,1.26748489399,0.292631204775,-0.0130292907785,-0.124537541948
1589275378151224911,4867,1589275378151118430,,0.383498931561,-0.385827401267,1.26748452511,0.292631897678,-0.0130311203685,-0.124535722362
1589275378157130625,4868,1589275378157007049,,0.40642553954,-0.385740555281,1.244963256,0.291916668167,-0.0130305494777,-0.126201632815
1589275378160085989,4869,1589275378159982535,,0.383689678847,-0.385634000956,1.24431507709,0.290988259063,-0.0130285609731,-0.125453279566
1589275378163188429,4870,1589275378163101760,,0.38363466758,-0.257334398526,1.24331915423,0.290961667935,-0.0130263682721,-0.124546502624
1589275378169186185,4871,1589275378169086734,,0.383624833019,-0.257350401924,1.24331887633,0.290962886613,-0.0130227827654,-0.124544030515
1589275378172202841,4872,1589275378172107330,,0.383621903349,-0.257371238751,1.24331546715,0.291016760611,-0.0130226193092,-0.126346239353
1589275378175093574,4873,1589275378175023564,,0.406166976985,-0.257650723105,1.26715816176,0.290889390454,-0.0130236993574,-0.127101917492
1589275378181288247,4874,1589275378181216599,,0.428644155832,-0.257919560293,1.29109721023,0.291679883913,-0.0130263865132,-0.127849692105
1589275378184127705,4875,1589275378184043850,,0.428648596836,-0.2579244975,1.2910947495,0.292621400715,-0.0130285626177,-0.128741369197
1589275378187104965,4876,1589275378187011171,,0.428651616361,-0.257923613365,1.29109392363,0.292621298964,-0.0130269254163,-0.128741766143
1589275378193231974,4877,1589275378193087651,,0.406223764123,-0.386055502606,1.26809501365,0.291804805025,-0.0123637140073,-0.127096621015
1589275378196139086,4878,1589275378196059451,,0.40622334412,-0.386063044743,1.26809285207,0.291804773878,-0.0123634350866,-0.127096719656
1589275378202234013,4879,1589275378202108016,,0.406336954269,-0.257527009292,1.2439663608,0.291066465452,-0.0130226725997,-0.127997751902
1589275378205115880,4880,1589275378205016433,,0.383501536583,-0.129468898943,1.26591971398,0.290867443854,-0.0130220647719,-0.126344945673
1589275378208150554,4881,1589275378208069906,,0.383504708084,-0.129474217298,1.26591820926,0.290866874899,-0.0130247361976,-0.126345980132
1589275378214174612,4882,1589275378214096151,,0.383670296686,-0.129385345425,1.2427082123,0.291896815112,-0.0123705462805,-0.125440858792
1589275378217139841,4883,1589275378217045096,,0.36123980927,-0.129217512229,1.21883540127,0.291109115273,-0.0123695011769,-0.124694236136
1589275378220255727,4884,1589275378220086850,,0.361244561769,-0.129212236666,1.218834552,0.291108405559,-0.012372906134,-0.1246955552
1589275378226255554,4885,1589275378226173376,,0.383684590204,-0.129383130151,1.24270402991,0.290935740344,-0.0123759648713,-0.123648583272
1589275378229144311,4886,1589275378229050236,,0.361081619114,-0.12931044648,1.24204584176,0.291790888041,-0.0130412139032,-0.121996114773
1589275378232247203,4887,1589275378232105525,,0.36108461239,-0.12931178614,1.24204483209,0.291764587423,-0.0123842286749,-0.121100374152
1589275378238172065,4888,1589275378238072522,,0.360900488044,-0.129404829734,1.26526440428,0.293392401414,-0.0123906633362,-0.119286665981
1589275378241093628,4889,1589275378241021358,,0.360895435997,-0.129402986229,1.26526603384,0.29339255935,-0.0123950756258,-0.119285819125
1589275378244157885,4890,1589275378244073774,,0.33817965503,-0.257403909073,1.26523091954,0.292455259169,-0.0123927645805,-0.118539056618
1589275378250120372,4891,1589275378250047123,,0.360895751592,-0.129407080948,1.26526552503,0.293366031975,-0.0123969615775,-0.118390278361
1589275378253190170,4892,1589275378253055630,,0.338187460205,-0.257406755932,1.26522825411,0.293317308199,-0.012398598639,-0.116743573635
1589275378256130025,4893,1589275378256042907,,0.315611819329,-0.129259394819,1.26399300444,0.29420087329,-0.0117438822248,-0.115983870894
1589275378262085421,4894,1589275378262002565,,0.31560460918,-0.129262062858,1.26399453191,0.294201574767,-0.0117430914303,-0.115982171606
1589275378265176735,4895,1589275378265075361,,0.338305612325,-0.12933325767,1.26462248316,0.295111954418,-0.0117489531856,-0.115827688375
1589275378268137994,4896,1589275378268036629,,0.338307155145,-0.129341095225,1.26462126885,0.29511101227,-0.0124078610724,-0.115828764638
1589275378274088802,4897,1589275378274013758,,0.338522602847,-0.00139941108467,1.26446026773,0.295991686226,-0.0124135256211,-0.114924337659
1589275378277119851,4898,1589275378277018092,,0.315824774273,-0.00135185108717,1.26382929488,0.29597151293,-0.0117527161129,-0.114166504549
1589275378283509679,4899,1589275378283423733,,0.338281796253,-0.129334904106,1.26462868569,0.295062606831,-0.0111023322548,-0.114030646985
1589275378286136811,4900,1589275378286052915,,0.337971164911,-0.25756937681,1.28853920247,0.296762774562,-0.0111087666982,-0.114915606704
1589275378289169829,4901,1589275378289096157,,0.338280628009,-0.129333530706,1.26462913865,0.295942368393,-0.0111076753509,-0.113118641563
1589275378292261941,4902,1589275378292090816,,0.338282180247,-0.129328564342,1.26462923134,0.295942167446,-0.0111090129156,-0.113119035933
1589275378298214932,4903,1589275378298116310,,0.338080375535,-0.129416832873,1.28795898767,0.29671117738,-0.0111124099547,-0.113112944696
1589275378301140467,4904,1589275378301053057,,0.338079866297,-0.129407366874,1.28796007247,0.296685265404,-0.0111145968237,-0.112217383852
1589275378307075717,4905,1589275378307008920,,0.338075011179,-0.129401348514,1.28796195157,0.296685621442,-0.011116096784,-0.112216293962
1589275378310195393,4906,1589275378310040074,,0.338068552724,-0.129377042805,1.28796608857,0.299398135338,-0.0117782524979,-0.111298907889
1589275378313330293,4907,1589275378313191460,,0.338075270589,-0.129350942408,1.28796694677,0.300339328483,-0.0117856034005,-0.112188874584
1589275378319223698,4908,1589275378319099826,,0.315379982688,-0.129258212374,1.28734313724,0.301197733482,-0.0117925042856,-0.11053297966
1589275378322112829,4909,1589275378322021639,,0.337962541658,-0.257457505719,1.28856382134,0.302159972249,-0.0124583107542,-0.112177493202
1589275378325211442,4910,1589275378325092095,,0.337971000022,-0.257444442028,1.28856421295,0.302159799427,-0.011802400507,-0.112179272127
1589275378330976469,4911,1589275378330893066,,0.315180016235,-0.129306085738,1.31058183362,0.303810166689,-0.0118084685489,-0.11141202415
1589275378334100868,4912,1589275378334021164,,0.315181313708,-0.129294993587,1.31058261593,0.304751787717,-0.0118137931765,-0.112300838887
1589275378337218333,4913,1589275378337129261,,0.33768609591,-0.129439352185,1.33443570594,0.305564497578,-0.0118177818646,-0.113956400847
1589275378343250652,4914,1589275378343119118,,0.314959168723,-0.129353896661,1.33382653549,0.305543278376,-0.0118192338042,-0.113200336603
1589275378346252342,4915,1589275378346095135,,0.337681206019,-0.129424415909,1.33443839207,0.306480245047,-0.0124840058202,-0.113948551669
1589275378349243974,4916,1589275378349136094,,0.337677354914,-0.129407256766,1.33444103071,0.307361304355,-0.0124884810474,-0.113034510506
1589275378355324364,4917,1589275378355150816,,0.337668511302,-0.129405769083,1.3344434128,0.308304030863,-0.0124926874305,-0.113930974743
1589275378358210607,4918,1589275378358105981,,0.33752059489,-0.257676339028,1.33501330672,0.309236219526,-0.0124983607073,-0.114818517301
1589275378361186003,4919,1589275378361098556,,0.337514475946,-0.257679411434,1.33501426069,0.310127862655,-0.0125006672211,-0.113913430041
1589275378367134721,4920,1589275378366994886,,0.337500761994,-0.257677657846,1.33501806621,0.31012893504,-0.0125017777237,-0.113910388571
1589275378370173340,4921,1589275378370022744,,0.314752048064,-0.257587075522,1.33441750438,0.309166912944,-0.0124992779881,-0.112252938571
1589275378373249722,4922,1589275378373102224,,0.314744959644,-0.257592841773,1.33441806323,0.309167402335,-0.0124998429521,-0.112251527769
1589275378379647244,4923,1589275378379498237,,0.314728140927,-0.257593157172,1.33442196921,0.309168735873,-0.0125006143619,-0.112247768915
1589275378382512102,4924,1589275378382419741,,0.314484296464,-0.257746383504,1.35764852624,0.310877232694,-0.0125068796971,-0.113138387766
1589275378385243260,4925,1589275378385122871,,0.314387926453,-0.386303100561,1.35855719109,0.309962726632,-0.0118460981435,-0.11314221242
1589275378391213399,4926,1589275378391082456,,0.337132591981,-0.386421181192,1.35914528906,0.30998423796,-0.0118506277127,-0.113896723453
1589275378394186395,4927,1589275378394095546,,0.337123823864,-0.386439441502,1.3591422722,0.31084986323,-0.0118578159928,-0.112086732359
1589275378397189035,4928,1589275378397096298,,0.336902077425,-0.38664133084,1.38243391983,0.311568560373,-0.0118483504068,-0.110290370546
1589275378403249760,4929,1589275378403139222,,0.33694208781,-0.386628415747,1.38242778067,0.311567705951,-0.0118308458796,-0.110294663288
1589275378406328683,4930,1589275378406203137,,0.336926392888,-0.386633839611,1.38243008902,0.313416599951,-0.0118425879508,-0.111173370373
1589275378409124772,4931,1589275378408982793,,0.33692915403,-0.386633699076,1.38242945537,0.313416290283,-0.0118432941369,-0.111174168147
1589275378415241844,4932,1589275378415163226,,0.313863148527,-0.515652365288,1.40618449223,0.314137921672,-0.0118417303699,-0.109512149224
1589275378418195835,4933,1589275378418020377,,0.313860171286,-0.515661821812,1.40618168899,0.314138433697,-0.0118391696938,-0.109510957321
1589275378421162456,4934,1589275378421057509,,0.33690211059,-0.386657902671,1.3824292768,0.315192096392,-0.0118441954179,-0.109349796372
1589275378427057822,4935,1589275378426968000,,0.336631435723,-0.515797055285,1.40674552766,0.316851143657,-0.0112026198699,-0.108438375132
1589275378430200503,4936,1589275378430063784,,0.336935800267,-0.644772700155,1.38493476577,0.316990632133,-0.0118564621278,-0.108437959696
1589275378433274091,4937,1589275378433163398,,0.336662909164,-0.645030344148,1.40807972269,0.316775768016,-0.0118553052985,-0.105740910534
1589275378439107203,4938,1589275378438990543,,0.336661751429,-0.645028156965,1.40808100143,0.316776251226,-0.0118532214034,-0.105739696556
1589275378442069066,4939,1589275378441989480,,0.313833617851,-0.515677824154,1.40618174715,0.315814374295,-0.0118483964234,-0.104095538586
1589275378445152569,4940,1589275378445048531,,0.313843325596,-0.515676408826,1.40618009956,0.315814728501,-0.0118412290598,-0.104095279521
1589275378451172896,4941,1589275378451007271,,0.313867584759,-0.515669786412,1.40617711354,0.317590808034,-0.0111827733631,-0.10227756282
1589275378454097656,4942,1589275378454004435,,0.313910080139,-0.644905631827,1.4075146175,0.318483070312,-0.0111808306984,-0.101375551075
1589275378457077361,4943,1589275378456959105,,0.336710125615,-0.645029075027,1.40806901408,0.319411218999,-0.0111848108103,-0.102120891909
1589275378463157784,4944,1589275378463020881,,0.291235581905,-0.77436619326,1.40847112245,0.320261946488,-0.0118397272969,-0.0997117692493
1589275378466089435,4945,1589275378465983599,,0.291232343939,-0.774375628773,1.40846660437,0.320262202977,-0.0118389199218,-0.0997110413008
1589275378469134853,4946,1589275378468979517,,0.268405241865,-0.644701114705,1.40642309975,0.320193796963,-0.0111888127122,-0.0971560212362
1589275378475096029,4947,1589275378475024996,,0.268402754725,-0.644713837933,1.40641774203,0.320193526501,-0.0111906221656,-0.0971567041857
1589275378478106419,4948,1589275378478005398,,0.291201593641,-0.644825658417,1.40695528073,0.321120405528,-0.0111976270193,-0.0979051965585
1589275378484027443,4949,1589275378483943194,,0.268409882849,-0.644724351761,1.40641156199,0.321051613658,-0.0111990468345,-0.095361216351
1589275378487066094,4950,1589275378486976835,,0.245723573502,-0.774189329167,1.40739776909,0.321053876492,-0.011198487768,-0.0955104404553
1589275378490055149,4951,1589275378489973257,,0.268153877581,-0.774603900427,1.43102353209,0.321839640422,-0.011197031931,-0.0962588093692
1589275378496049198,4952,1589275378495961549,,0.268186531749,-0.645027267871,1.42953677571,0.321766782047,-0.0111913593396,-0.0935673216801
1589275378499003606,4953,1589275378498934908,,0.267903498315,-0.774908661377,1.45412959458,0.323450299616,-0.0111909170014,-0.0935549146391
1589275378502034177,4954,1589275378501951959,,0.267596294843,-0.77519466715,1.4773588289,0.32604536321,-0.0111983960896,-0.0935310152519
1589275378507985978,4955,1589275378507903376,,0.267605776685,-0.775191579727,1.47735873143,0.327870271076,-0.0112038513075,-0.0935145676979
1589275378511117115,4956,1589275378511016121,,0.245194964082,-0.774804387705,1.45361377788,0.327997783442,-0.0112038013482,-0.0927621997291
1589275378514163418,4957,1589275378514010736,,0.222366407527,-0.774715336169,1.4531020535,0.328884857232,-0.0118588766413,-0.0919988372522
1589275378523119010,4958,1589275378522991318,,0.267916233475,-0.904861659619,1.45565039287,0.329841914048,-0.0118662168527,-0.0934959499805
1589275378526087747,4959,1589275378525973423,,0.222348398883,-0.774722466945,1.45310100747,0.328884828786,-0.0118650050983,-0.0919981487624
1589275378532237560,4960,1589275378532119668,,0.267906999528,-0.904857037092,1.45565496582,0.329842014047,-0.0118689589137,-0.0934952491393
1589275378535098629,4961,1589275378534995068,,0.245169864914,-0.774816777427,1.45361140737,0.328927521157,-0.0125249717441,-0.0936479800464
1589275378539558698,4962,1589275378538018512,,0.245169473849,-0.774819748107,1.45360988986,0.328928334437,-0.0118644285811,-0.0936476063271
1589275378544116026,4963,1589275378543943759,,0.245178181977,-0.774824781433,1.45360573817,0.328927970539,-0.011863004431,-0.0936490648914
1589275378547129627,4964,1589275378546998731,,0.267271773982,-0.775488405093,1.50049013374,0.330486008885,-0.0112176508771,-0.094384188108
1589275378550052367,4965,1589275378549947686,,0.267280301347,-0.775493962141,1.50048574277,0.330461056974,-0.0118693463039,-0.0934910739061
1589275378556189339,4966,1589275378556093929,,0.267280652064,-0.775497026333,1.50048409663,0.331401510689,-0.0118756674562,-0.0943796060882
1589275378559156237,4967,1589275378559056349,,0.267289304602,-0.775497689223,1.50048221273,0.334097819088,-0.0118848161312,-0.0925614792093
1589275378562061814,4968,1589275378561991280,,0.267294414789,-0.775503657183,1.50047821796,0.334097357512,-0.0118853069789,-0.0925630822112
1589275378568247907,4969,1589275378568089799,,0.244510452459,-0.905359763285,1.50145211304,0.336811168634,-0.0118958160845,-0.0917841536576
1589275378571281671,4970,1589275378571188602,,0.244527991979,-0.905362113288,1.50144783961,0.336810342895,-0.0118943830307,-0.0917873694512
1589275378574120995,4971,1589275378574014927,,0.221669509757,-0.905269506171,1.50094947905,0.337730453342,-0.0125593635496,-0.0919208416396
1589275378580557283,4972,1589275378580354061,,0.244876901876,-0.90507780131,1.47832949699,0.33698195347,-0.0125568509643,-0.092687024329
1589275378583545169,4973,1589275378583453326,,0.221691522041,-0.905268888132,1.50094660073,0.339554961816,-0.0125655909942,-0.0919067547764
1589275378586202199,4974,1589275378586040161,,0.221352281189,-0.905548075525,1.5240703616,0.338519793459,-0.011902604703,-0.0928145604935
1589275378592123538,4975,1589275378592036014,,0.22136195538,-0.905551820204,1.52406673155,0.339437330853,-0.0119042210803,-0.0928065219126
1589275378595073190,4976,1589275378594993862,,0.221032217505,-0.905828395127,1.54719324743,0.339263090339,-0.0119033902943,-0.0919138540443
1589275378601126271,4977,1589275378601054614,,0.244210204091,-1.03591026286,1.52606175617,0.339432965361,-0.01190212563,-0.0926687944983
1589275378604071614,4978,1589275378603968622,,0.243869820787,-1.03620036293,1.54915728746,0.341130015432,-0.0125681599815,-0.0935485697395
1589275378606997011,4979,1589275378606914780,,0.243877576597,-1.03620648854,1.5491519692,0.341130350662,-0.0119069454166,-0.0935501444869
1589275378613047501,4980,1589275378612973399,,0.266680443474,-1.03631321259,1.54963410758,0.342952211689,-0.0119142999172,-0.0933880745349
1589275378616057160,4981,1589275378615963702,,0.26667649639,-1.03631195124,1.54963563036,0.344799770471,-0.0125841294907,-0.0942666733691
1589275378619076455,4982,1589275378618962742,,0.244228142924,-1.0359223302,1.52605069383,0.344930383539,-0.012586038227,-0.0935159661565
1589275378625099716,4983,1589275378625009293,,0.243892711214,-1.03620929719,1.54914770786,0.345674491498,-0.0125884128698,-0.0926125590102
1589275378628121012,4984,1589275378627957587,,0.266355175847,-1.0365918563,1.57283636707,0.347427598157,-0.0125950518955,-0.0951512522438
1589275378631069181,4985,1589275378630995896,,0.243490630744,-1.16702958943,1.57382941192,0.348271049144,-0.0125976466207,-0.0925849739348
1589275378637171144,4986,1589275378637098687,,0.24348884014,-1.16702708713,1.57383154446,0.348293989674,-0.0125968230769,-0.0934807948775
1589275378643109852,4987,1589275378642993414,,0.26594164973,-1.16740150383,1.59740377703,0.350046730574,-0.0119401600955,-0.0960121309317
1589275378649067273,4988,1589275378648966017,,0.243093846286,-1.16728947981,1.59693883354,0.350028190852,-0.0119420689476,-0.0952569421952
1589275378652055040,4989,1589275378651945475,,0.243085454755,-1.16728743289,1.59694160713,0.350005197963,-0.0126033423324,-0.0943580316661
1589275378655061369,4990,1589275378654980657,,0.26587014214,-1.29817401076,1.59886160352,0.350002471152,-0.0119419062609,-0.0942028535592
1589275378661032799,4991,1589275378660955106,,0.265874798819,-1.29816981703,1.5988642342,0.350002518848,-0.0119408215601,-0.0942028138473
1589275378664099526,4992,1589275378663987694,,0.26582348684,-1.42916505472,1.60029454035,0.351827367403,-0.0126108441851,-0.0941844012983
1589275378667026544,4993,1589275378666950616,,0.288797503111,-1.42926778413,1.60076366382,0.351846294704,-0.0126116021885,-0.0949410697913
1589275378673268017,4994,1589275378673124810,,0.265441084807,-1.42942283045,1.62336527036,0.353525903077,-0.0126199069363,-0.0950714223805
1589275378676033378,4995,1589275378675959493,,0.265445905491,-1.42940966589,1.62337607382,0.353525889652,-0.0126196477117,-0.0950715067102
1589275378682396729,4996,1589275378682312717,,0.288421029063,-1.4295182396,1.62383931349,0.354463296621,-0.0126218372236,-0.095816880063
1589275378685030468,4997,1589275378684941392,,0.28799226627,-1.56096686909,1.64826367911,0.355276753339,-0.0126253576569,-0.0975998959408
1589275378688043118,4998,1589275378687961620,,0.288338668441,-1.56071453768,1.6252113209,0.355417958825,-0.0126281080512,-0.0975965748064
1589275378694109016,4999,1589275378693992244,,0.288338736195,-1.56071686453,1.62520907437,0.355418422427,-0.0126263292394,-0.0975951166378
1589275378697000777,5000,1589275378696932801,,0.265343099712,-1.56061338475,1.62474834517,0.35268854287,-0.0126163897979,-0.097774409509
1589275378706201307,5001,1589275378706097805,,0.265342381721,-1.56057862399,1.62478185033,0.353619296521,-0.013280292717,-0.0986593583391
1589275378709025963,5002,1589275378708976546,,0.265277314136,-1.69194391463,1.62611710868,0.353596374458,-0.0132803729267,-0.0977624218372
1589275378712096990,5003,1589275378711970519,,0.265282580485,-1.69193634297,1.62612412768,0.354537403524,-0.0132817545707,-0.0986491252306
1589275378718025251,5004,1589275378717954097,,0.26528487103,-1.6919438287,1.62611596528,0.354537539002,-0.0132804230228,-0.0986488176001
1589275378721124719,5005,1589275378721011447,,0.265278410204,-1.69196018959,1.62609999592,0.35453683975,-0.0139420869856,-0.0986486202834
1589275378724077814,5006,1589275378723978745,,0.264896428364,-1.69221841564,1.64913341782,0.355304797181,-0.0139429301549,-0.0986378304671
1589275378730113767,5007,1589275378729977075,,0.26480910112,-1.82374944444,1.65038769827,0.355282828957,-0.0132816632576,-0.0977402035553
1589275378733123485,5008,1589275378733010150,,0.264814863567,-1.82374503954,1.65039164126,0.356214468463,-0.013280953768,-0.0986251090735
1589275378736212172,5009,1589275378736107612,,0.264437747127,-1.82398678338,1.67352644291,0.357903035594,-0.013285125259,-0.0986066997686
1589275378742227612,5010,1589275378742103224,,0.264447453074,-1.8239857007,1.67352608924,0.357903406889,-0.013282271882,-0.0986057365014
1589275378745228051,5011,1589275378745124564,,0.287403130193,-1.9557256835,1.67518223042,0.358839310829,-0.0139498083247,-0.099353739541
1589275378748138191,5012,1589275378748052534,,0.287397495532,-1.95573176667,1.67517609518,0.358839578321,-0.0139496404651,-0.0993527969942
1589275378754228863,5013,1589275378754155515,,0.287398940863,-1.95574007609,1.67516614611,0.362491058376,-0.0139622733097,-0.0993149477831
1589275378757248282,5014,1589275378757150362,,0.287398496831,-1.95573478803,1.67517239603,0.362491360458,-0.0139617811999,-0.0993139143852
1589275378766103591,5015,1589275378765987025,,0.287410216456,-1.9557433789,1.67516035556,0.36339869832,-0.0139642419055,-0.0993066375364
1589275378769128406,5016,1589275378769013313,,0.287409087221,-1.95574523114,1.67515838682,0.364362278741,-0.0139660007267,-0.101091302786
1589275378772074134,5017,1589275378771963310,,0.263971207189,-1.95586272999,1.69776657179,0.366027928359,-0.0139737198852,-0.100317626203
1589275378778096137,5018,1589275378777990119,,0.287314627787,-2.08750513479,1.67631374114,0.366189334321,-0.0133108395593,-0.101070308563
1589275378781425208,5019,1589275378781282391,,0.28693299188,-2.08772626976,1.69934232259,0.369700908262,-0.0133205939836,-0.101031211755
1589275378784266710,5020,1589275378784172120,,0.309894699075,-2.08780597932,1.69980772862,0.37062757821,-0.0133276104177,-0.101775598239
1589275378790259887,5021,1589275378790112482,,0.309882532525,-2.08780833334,1.69980705533,0.37062823085,-0.0133276827849,-0.101773212067
1589275378793347777,5022,1589275378793224743,,0.309872610466,-2.08780436029,1.69981374407,0.371591867494,-0.0133313597696,-0.103568311903
1589275378796273365,5023,1589275378796152362,,0.309858630602,-2.08780335659,1.6998175253,0.371592964112,-0.0133307406165,-0.103564456975
1589275378802376815,5024,1589275378802252332,,0.309854484766,-2.08780283676,1.69981891952,0.371593088148,-0.0133311294788,-0.103563961873
1589275378805346185,5025,1589275378805225563,,0.286376578531,-2.21978393191,1.72349475868,0.373260162113,-0.0133362018163,-0.102788764009
1589275378808229851,5026,1589275378808132991,,0.286381445248,-2.21979384377,1.7234811839,0.373260526563,-0.0133338569655,-0.102787744769
1589275378814270753,5027,1589275378814180153,,0.309778615753,-2.21968896392,1.70087233115,0.373442657823,-0.0133311658531,-0.104439557325
1589275378817219515,5028,1589275378817134720,,0.309394974509,-2.21989209924,1.72391155259,0.374209847375,-0.0133332793293,-0.104431298537
1589275378826295633,5029,1589275378826197232,,0.309400472735,-2.21989989315,1.72390052948,0.374232258057,-0.013332153011,-0.105330528646
1589275378829263594,5030,1589275378829140717,,0.309391624269,-2.2199017531,1.72389972246,0.376102389676,-0.0140027339998,-0.107118853179
1589275378832327312,5031,1589275378832170093,,0.30928555111,-2.35186075391,1.72491529597,0.377020999274,-0.0140046585869,-0.107106623505
1589275378838235930,5032,1589275378838131451,,0.33189271013,-2.48417639958,1.7494649206,0.379636270986,-0.0140148202108,-0.107836176208
1589275378841299258,5033,1589275378841154551,,0.331882446982,-2.48417682691,1.74946626081,0.379636616537,-0.0140154810352,-0.107834873805
1589275378847264464,5034,1589275378847157757,,0.308879631055,-2.35204742908,1.74806943778,0.381534044992,-0.0140205176896,-0.110662923345
1589275378850244396,5035,1589275378850153664,,0.308854020416,-2.35204999123,1.74807051552,0.381533689176,-0.0140252228494,-0.110663553869
1589275378853402083,5036,1589275378853240889,,0.331949495476,-2.35213246159,1.74852954267,0.381552369015,-0.0140287621208,-0.111422347995
1589275378856202498,5037,1589275378856112224,,0.331456696963,-2.48434532662,1.77253976874,0.383214520745,-0.0140349320945,-0.110505781637
1589275378862132693,5038,1589275378862061243,,0.285454548903,-2.35213937946,1.770696094,0.383220506274,-0.0146873054929,-0.110792844176
1589275378865229729,5039,1589275378865056960,,0.307945563846,-2.48442699786,1.79516395943,0.384008774347,-0.0140349933701,-0.111534729275
1589275378871266148,5040,1589275378871152845,,0.307961624901,-2.48444868408,1.79513119102,0.384008831235,-0.0140311207911,-0.111535020653
1589275378874292572,5041,1589275378874180545,,0.33111589893,-2.48454289026,1.79555989083,0.385830993915,-0.0140327002104,-0.111374863235
1589275378877307351,5042,1589275378877182236,,0.307481728133,-2.6167425119,1.81905091959,0.387510101851,-0.0140337592611,-0.111496742746
1589275378883763582,5043,1589275378883648527,,0.284834248079,-2.61646924507,1.79558260989,0.389490934919,-0.0140407961417,-0.111628138027
1589275378886368073,5044,1589275378886264199,,0.284858552945,-2.61646998922,1.79557766988,0.389490914822,-0.0140373141707,-0.111628646064
1589275378889332023,5045,1589275378889232496,,0.284299310668,-2.74879469823,1.81950503761,0.391197321344,-0.0146992416823,-0.112510432929
1589275378895402440,5046,1589275378895271802,,0.284314828725,-2.74879408431,1.8195035403,0.391197882269,-0.0146959139565,-0.1125089173
1589275378898278749,5047,1589275378898170201,,0.28431618202,-2.74878880714,1.81951130124,0.390279614995,-0.0146937964738,-0.11252003876
1589275378901210821,5048,1589275378901104482,,0.284320766677,-2.74878135976,1.81952183577,0.390279323197,-0.0146942753084,-0.112520988334
1589275378907197195,5049,1589275378907109199,,0.284307584561,-2.74877558375,1.81953262145,0.39027967338,-0.0146956594482,-0.112519592949
1589275378910200231,5050,1589275378910098133,,0.284296670084,-2.74875744427,1.8195617299,0.391197322881,-0.0147019032945,-0.112510079819
1589275378913434169,5051,1589275378913303245,,0.284318660058,-2.74876012584,1.81955424296,0.391196547964,-0.0147004429395,-0.112512964982
1589275378919116665,5052,1589275378919028385,,0.307363934774,-2.74884127067,1.81999083702,0.3912153009,-0.0147013045344,-0.113268172998
1589275378922295530,5053,1589275378922156548,,0.284136031558,-2.88097983315,1.82037202565,0.392126614064,-0.0147069375052,-0.113403219675
1589275378925322953,5054,1589275378925216580,,0.284127441047,-2.8809934611,1.82035179831,0.39212675371,-0.0147069232702,-0.113402738653
1589275378931337340,5055,1589275378931226522,,0.284144410894,-2.88099832919,1.82034144495,0.39390613888,-0.0160381467348,-0.111584326477
1589275378934245132,5056,1589275378934140077,,0.28416139853,-2.88100738856,1.82032445512,0.39390629544,-0.0160350336748,-0.111584221203
1589275378937338140,5057,1589275378937215065,,0.307211189232,-2.8811074409,1.82072835975,0.394887871076,-0.0153757692517,-0.114130614292
1589275378943318412,5058,1589275378943206508,,0.307226559511,-2.88109077561,1.82075213706,0.394866112193,-0.0153736578571,-0.113229055372
1589275378946722183,5059,1589275378946203529,,0.306863124533,-2.88125094767,1.84390263596,0.397507891,-0.015376123464,-0.115009113705
1589275378949361490,5060,1589275378949224508,,0.283402716082,-2.8813356419,1.86652263361,0.399174945425,-0.0147180001767,-0.114235792949
1589275378955366613,5061,1589275378955184205,,0.283432538807,-2.88133007347,1.86652670117,0.399175572341,-0.0147129951778,-0.11423424703
1589275378958232936,5062,1589275378958143654,,0.306346639483,-3.01366323498,1.8677335347,0.399216736525,-0.0147117371329,-0.115889307
1589275378961233100,5063,1589275378961147102,,0.306348996994,-3.01366892645,1.86772396455,0.400101523355,-0.0153780947113,-0.114979540312
1589275378967403366,5064,1589275378967306800,,0.329527328074,-3.01375187525,1.86815288505,0.402909532932,-0.0153841671657,-0.117505884093
1589275378970254424,5065,1589275378970170492,,0.329108190747,-3.01390687054,1.8912169049,0.403677362851,-0.015387817274,-0.117494996806
1589275378973331446,5066,1589275378973236388,,0.329084783647,-3.01391085944,1.89121462119,0.403678774274,-0.0153876589504,-0.117490168213
1589275378979573731,5067,1589275378979441498,,0.329088053431,-3.0139082184,1.89121826108,0.403678896966,-0.015387141021,-0.117489814491
1589275378982416237,5068,1589275378982340484,,0.328663351702,-3.01407203989,1.91427210655,0.405421686761,-0.0153938133467,-0.120180350322
1589275378988188744,5069,1589275378988064306,,0.328506512786,-3.14635911175,1.91500753341,0.406294686274,-0.0153973641691,-0.118359683046
1589275378991176762,5070,1589275378991088850,,0.351585479471,-3.1464305723,1.91545534224,0.408161049855,-0.0160684789198,-0.120005054342
1589275378994317509,5071,1589275378994204196,,0.352007158393,-3.14628715174,1.89237885616,0.408356560052,-0.0154029323016,-0.121807025972
1589275379003120066,5072,1589275379003024042,,0.350759450168,-3.14675353599,1.96165445885,0.413417772675,-0.0160851854599,-0.122647368957
1589275379006327073,5073,1589275379006167845,,0.351156778237,-3.14659422433,1.9386024967,0.413590048022,-0.0160885969575,-0.12355922344
1589275379012259073,5074,1589275379012161915,,0.350598428116,-3.27905252546,1.96238410606,0.415296315835,-0.0160963389936,-0.124444544466
1589275379015264969,5075,1589275379015196626,,0.350584956099,-3.27904774155,1.96239450657,0.416182095229,-0.0161012952451,-0.123533005439
1589275379018368079,5076,1589275379018169361,,0.373688617079,-3.27914870217,1.96279067473,0.417162713195,-0.016102609144,-0.126082577892
1589275379024235735,5077,1589275379024146570,,0.373693724648,-3.27913716195,1.96280898193,0.419011084341,-0.0161083108431,-0.12697289599
1589275379027238091,5078,1589275379027149788,,0.372892928999,-3.27940657674,2.00898318795,0.421474572123,-0.0167720064824,-0.127847055404
1589275379030384254,5079,1589275379030279541,,0.372883360207,-3.27940205175,2.00899235045,0.421474445111,-0.016773747638,-0.127847245695
1589275379036091635,5080,1589275379035983999,,0.3732629963,-3.27926792534,1.98590714571,0.420729798672,-0.016772747962,-0.12875608746
1589275379039085965,5081,1589275379038985601,,0.34977406789,-3.27932695417,2.00855442412,0.423325502618,-0.0167814663732,-0.128874422662
1589275379042260001,5082,1589275379042008110,,0.372897814529,-3.27940052972,2.00899215208,0.425158205946,-0.0167839348067,-0.128707962317
1589275379048125516,5083,1589275379048009965,,0.349823103687,-3.27932929393,2.00854206421,0.425183435772,-0.0174446525141,-0.129764279198
1589275379051321037,5084,1589275379051187134,,0.349682611984,-3.41169337851,2.00917470558,0.426114222388,-0.0174415755177,-0.130654143686
1589275379054228939,5085,1589275379054107726,,0.326776412504,-3.27928003462,2.00805550392,0.427035618921,-0.0174406910194,-0.130789359983
1589275379063313022,5086,1589275379063185810,,0.349344050126,-3.41183955263,2.03232776434,0.428732932237,-0.0174406166782,-0.131526782056
1589275379069022165,5087,1589275379068955544,,0.349325626397,-3.41184149368,2.03232767257,0.428733058921,-0.0174425098554,-0.131526118058
1589275379072343797,5088,1589275379072243253,,0.348923807666,-3.41196592095,2.05543089297,0.429499391534,-0.0174472611592,-0.1315198164
1589275379075421043,5089,1589275379075201017,,0.348917750315,-3.41194349239,2.05546915163,0.430439256278,-0.0174525884499,-0.132411414471
1589275379081461087,5090,1589275379081348585,,0.348945850236,-3.41193607179,2.05547669913,0.430440135302,-0.0174479325832,-0.132409170532
1589275379084280588,5091,1589275379084188899,,0.348748018619,-3.54430234624,2.05612911355,0.429499502005,-0.0181129386772,-0.131516760814
1589275379087244095,5092,1589275379087149117,,0.348148358458,-3.67683066661,2.07983343229,0.433032935791,-0.0181254034472,-0.132377296616
1589275379093130092,5093,1589275379093005611,,0.348089891875,-3.6768170778,2.07986724098,0.433033570751,-0.0181318398118,-0.132374338059
1589275379096203860,5094,1589275379095998291,,0.348071573172,-3.67682102739,2.07986332459,0.433031815803,-0.0181368612162,-0.132379390981
1589275379099159308,5095,1589275379099060080,,0.348078314509,-3.67682681963,2.07985195674,0.4330319428,-0.0181354887582,-0.132379163586
1589275379105259567,5096,1589275379105194456,,0.348085926802,-3.67680242836,2.07989380183,0.434858054012,-0.0181416785191,-0.132357647085
1589275379108355110,5097,1589275379108254589,,0.347850235671,-3.54452981725,2.10237743627,0.434717076521,-0.0181436696118,-0.13235954836
1589275379111345651,5098,1589275379111221300,,0.347659911096,-3.67691920364,2.10300281017,0.435623970727,-0.0188034075457,-0.132349903155
1589275379117358617,5099,1589275379117243673,,0.347665886084,-3.6769268855,2.10298839126,0.435623130787,-0.0188037723345,-0.132352615922
1589275379123315204,5100,1589275379123152778,,0.347306231822,-3.67705114947,2.12617535964,0.438221106352,-0.0181502614511,-0.132321459764
1589275379129180708,5101,1589275379129093921,,0.347312695045,-3.67705682842,2.12616448256,0.438221508043,-0.0181484112998,-0.132320383209
1589275379132280655,5102,1589275379132113430,,0.347337348464,-3.67706437175,2.12614740946,0.439161279426,-0.018148684189,-0.133223397971
1589275379135187836,5103,1589275379135095755,,0.347366005028,-3.67707550543,2.1261234725,0.44100909568,-0.0181505914463,-0.134105450473
1589275379141381229,5104,1589275379141245956,,0.347350028609,-3.67708773877,2.12610492531,0.441009552438,-0.0181508396802,-0.134103914805
1589275379144300458,5105,1589275379144196064,,0.369882202591,-3.80969538165,2.15023004198,0.444561361536,-0.0181627856342,-0.13572196138
1589275379147235865,5106,1589275379147142955,,0.36992735564,-3.80969384919,2.15022498943,0.444561974164,-0.0181566176505,-0.135720779973
1589275379153460276,5107,1589275379153181503,,0.370110399323,-3.67727565243,2.14964368776,0.444584186936,-0.0188105752112,-0.136630410395
1589275379156204089,5108,1589275379156082170,,0.370321777839,-3.80957369387,2.12712910045,0.447516185581,-0.0181603231136,-0.138394026773
1589275379159161746,5109,1589275379159084022,,0.370392068243,-3.8095645102,2.12713330955,0.447515478878,-0.0181540657431,-0.138397132919
1589275379165236750,5110,1589275379165131560,,0.370448199337,-3.80954986276,2.12714976739,0.44934205335,-0.0181531123721,-0.138374900466
1589275379168182231,5111,1589275379168083827,,0.393705259729,-3.80962492845,2.12757461517,0.451230150249,-0.0188108106103,-0.140928975055
1589275379171121870,5112,1589275379170976576,,0.416832382565,-3.80972543901,2.12795993314,0.452166717145,-0.0188123657288,-0.141675556748
1589275379177105075,5113,1589275379176978219,,0.41660800645,-3.94219538474,2.12848194837,0.453075158594,-0.0188194338837,-0.141662965088
1589275379180391256,5114,1589275379180272157,,0.393500117729,-3.94213924925,2.1280133397,0.454903402019,-0.019486609157,-0.141788751238
1589275379183555060,5115,1589275379183490260,,0.415876197056,-3.94245590422,2.17461551953,0.45647951169,-0.0194830514125,-0.143428111293
1589275379189192391,5116,1589275379189059697,,0.415907102414,-3.94243141968,2.17465399756,0.456477227367,-0.019485092061,-0.14343510406
1589275379192169067,5117,1589275379192079906,,0.416285127057,-3.94231425526,2.15155987079,0.458453242228,-0.0194954276243,-0.143413750649
1589275379195270159,5118,1589275379195039297,,0.415884271706,-3.94241848654,2.17468181014,0.460137878817,-0.0195020733788,-0.143395674376
1589275379201254847,5119,1589275379201171468,,0.392279002424,-3.94244600344,2.19749321696,0.460889781433,-0.0195127004209,-0.142628650386
1589275379204188412,5120,1589275379204090717,,0.392672718762,-3.94233709057,2.17427973712,0.460141256595,-0.0195111501094,-0.143550492873
1589275379207202634,5121,1589275379207118639,,0.392438486834,-4.07477904432,2.17486455892,0.460141016518,-0.0195188346076,-0.143550217754
1589275379213351988,5122,1589275379213251300,,0.392822877954,-4.07466719868,2.15176648601,0.459374291197,-0.0195179693057,-0.143557401867
1589275379219246429,5123,1589275379219148241,,0.415547771523,-4.07484290733,2.1753177836,0.461068039621,-0.0188608392016,-0.144297286577
1589275379222237256,5124,1589275379222139992,,0.415704709554,-3.94237054229,2.17480305489,0.46016094065,-0.0188595847496,-0.144304804523
1589275379225171100,5125,1589275379225076442,,0.415246050431,-3.94248332108,2.19802059851,0.460013281108,-0.0188657981559,-0.144306243325
1589275379228215094,5126,1589275379228081986,,0.392599678144,-3.94228213965,2.17439255866,0.459224334823,-0.0188539611074,-0.143558885372
1589275379231280028,5127,1589275379231195579,,0.393673557137,-3.80956654116,2.1276850258,0.457688370015,-0.0195085434515,-0.143579986529
1589275379237255010,5128,1589275379237149897,,0.393778297103,-3.8095738334,2.12765258695,0.457689731449,-0.0194932922297,-0.143577718086
1589275379240560148,5129,1589275379240464056,,0.416551093114,-3.80978629128,2.15113882783,0.458540933902,-0.0194893822964,-0.147036871935
1589275379243270959,5130,1589275379243179048,,0.416978181569,-3.80968079679,2.1280112912,0.457774066324,-0.0188181114478,-0.147047699493
1589275379249388265,5131,1589275379249285854,,0.417033958369,-3.80969566405,2.12797374459,0.457773046201,-0.0188121949787,-0.147051632209
1589275379252400778,5132,1589275379252306396,,0.417208393207,-3.67729795234,2.12735283472,0.454120643165,-0.0194634209897,-0.147094380361
1589275379258234552,5133,1589275379258086861,,0.417308224307,-3.67727786493,2.12736797641,0.454121000348,-0.0194520000102,-0.147094788413
1589275379261322678,5134,1589275379261199339,,0.394659064947,-3.67702440581,2.1038245531,0.450632504311,-0.0194368017862,-0.148194771833
1589275379264301691,5135,1589275379264218154,,0.395277355055,-3.54448010525,2.08014672495,0.448979478767,-0.0194253193615,-0.149118500392
1589275379270285003,5136,1589275379270175064,,0.39530105436,-3.54446475456,2.08016837811,0.446236678777,-0.0194144828977,-0.149148418453
1589275379273256431,5137,1589275379273095413,,0.395799605879,-3.41198158462,2.05642168808,0.441819227903,-0.0187403454071,-0.149198217645
1589275379276260121,5138,1589275379276153481,,0.418874064478,-3.41204853969,2.05687714426,0.440919017227,-0.0187452375143,-0.149969032465
1589275379282721217,5139,1589275379282573547,,0.418831703665,-3.41206275525,2.05686218884,0.439093621177,-0.0187443316524,-0.149988975693
1589275379285345544,5140,1589275379285244059,,0.418767766354,-3.41205732748,2.056884211,0.436375739981,-0.0180859778957,-0.150916051762
1589275379288431868,5141,1589275379288246369,,0.419038395211,-3.54429320177,2.03444331978,0.434723330861,-0.0174175863024,-0.151850926525
1589275379294376672,5142,1589275379294267942,,0.442202778755,-3.54439264541,2.03485108215,0.433779207151,-0.0174202268251,-0.150806829022
1589275379297194093,5143,1589275379297104707,,0.419337356968,-3.54419373462,2.0112298292,0.432058430675,-0.0174233439712,-0.149165230629
1589275379306407409,5144,1589275379306268740,,0.419623516416,-3.54405776281,1.9881855908,0.432176422471,-0.0174387251847,-0.148260079396
1589275379309291510,5145,1589275379309200747,,0.419371540108,-3.67647728383,1.98880829743,0.430304480594,-0.0181116286141,-0.14646585516
1589275379312328032,5146,1589275379312229770,,0.373142213671,-3.54390139281,1.9873526723,0.431184092779,-0.0181210032662,-0.1449375953
1589275379318343309,5147,1589275379318239682,,0.372566144817,-3.67642290871,2.01108422534,0.430071421346,-0.0181188977178,-0.14314299944
1589275379321352206,5148,1589275379321261831,,0.418561723818,-3.54429516285,2.03453802623,0.429972751474,-0.0174654421992,-0.144660234803
1589275379324186780,5149,1589275379324077676,,0.418504068266,-3.54426428539,2.03460367599,0.42901033179,-0.0174710599983,-0.142853880388
1589275379330285129,5150,1589275379330184782,,0.418480604993,-3.54422491874,2.0346770768,0.429010495074,-0.0174763784069,-0.142852739476
1589275379333347719,5151,1589275379333230691,,0.395117099697,-3.67656004487,2.03486625078,0.429931444164,-0.0181519772823,-0.142985027295
1589275379336340410,5152,1589275379336244652,,0.395204040252,-3.67655519123,2.03485813682,0.429930432951,-0.0181438793415,-0.142989095582
1589275379342417565,5153,1589275379342314056,,0.441477431159,-3.80916754233,2.0362566002,0.431839104073,-0.018138132525,-0.146301444374
1589275379345355422,5154,1589275379345268885,,0.441484327084,-3.80914756149,2.03629248227,0.431840032634,-0.0181373059861,-0.146298805977
1589275379348148503,5155,1589275379348087033,,0.441688011941,-3.67677070159,2.03558944896,0.430945357026,-0.0181239892359,-0.147211316463
1589275379354318744,5156,1589275379354207311,,0.46475140585,-3.80933618017,2.03648799911,0.430966405524,-0.0181071413969,-0.14796460373
1589275379357360920,5157,1589275379357194711,,0.441693756722,-3.80925644364,2.03604336926,0.430969296949,-0.0187540184799,-0.148110606644
1589275379366320924,5158,1589275379366187314,,0.464912283805,-3.8093617232,2.03640349721,0.43197688547,-0.0180858232092,-0.151570657716
1589275379369275769,5159,1589275379369194076,,0.441830526644,-3.80926753598,2.03599294073,0.432874736712,-0.0187394165078,-0.150803531392
1589275379372473068,5160,1589275379372369746,,0.464902993724,-3.8093444483,2.03643793275,0.432896595186,-0.0180875342738,-0.151554485112
1589275379378264469,5161,1589275379378165043,,0.46490922861,-3.80937039062,2.03638798109,0.432918864562,-0.0180854002681,-0.15245841493
1589275379381413801,5162,1589275379381316028,,0.464441363223,-3.8094794802,2.05951091461,0.434592330325,-0.0187544645641,-0.152439530192
1589275379387273471,5163,1589275379387188551,,0.488065980406,-3.80946130205,2.03681706082,0.436610363684,-0.0181049191872,-0.154092379225
1589275379390408777,5164,1589275379390321842,,0.487746187467,-3.94192448439,2.03740050165,0.438457710836,-0.0187855572045,-0.154971558039
1589275379393219515,5165,1589275379393128299,,0.487261624117,-3.94204274859,2.06050364743,0.439227226456,-0.0181382593127,-0.154956975575
1589275379399188405,5166,1589275379399078017,,0.487271889096,-3.94205968845,2.06046881119,0.440099844468,-0.0181380979558,-0.153130405298
1589275379402470091,5167,1589275379402340977,,0.440530549744,-3.94197729626,2.08276620097,0.442675727151,-0.0188004705478,-0.152496517952
1589275379405267309,5168,1589275379405158589,,0.440426644973,-3.9419808723,2.0827814072,0.442675224484,-0.0188127378203,-0.152496464264
1589275379411403337,5169,1589275379411285672,,0.440218450987,-4.074538866,2.0831639562,0.442653050944,-0.0188104506745,-0.15158258166
1589275379414277207,5170,1589275379414173378,,0.439853985809,-4.07466107041,2.10623124815,0.446108164442,-0.0188164684317,-0.149738683893
1589275379417249016,5171,1589275379417144857,,0.439799130325,-4.07469619272,2.10617475538,0.446109362062,-0.0188181529584,-0.149734904149
1589275379423307709,5172,1589275379423207431,,0.439620758677,-4.20721532273,2.10663177299,0.447028336759,-0.0188177357216,-0.149721186977
1589275379426125521,5173,1589275379426042040,,0.439387966074,-4.07483861511,2.12931612669,0.446879681694,-0.0188187911767,-0.149726310293
1589275379429118302,5174,1589275379429017894,,0.439435061963,-4.07479616071,2.12938765054,0.448714673033,-0.0188230446267,-0.149707110588
1589275379435337353,5175,1589275379435245366,,0.439722588192,-3.94233049796,2.12882927168,0.449711509942,-0.0188123717244,-0.153321197684
1589275379438427837,5176,1589275379438282664,,0.439808586815,-3.94227552039,2.12891331575,0.449711969321,-0.0188057521158,-0.153320662338
1589275379444345261,5177,1589275379444255164,,0.440069954644,-4.07463636595,2.10623392777,0.448055231767,-0.0187999195854,-0.154246096243
1589275379447410964,5178,1589275379447278255,,0.462936275892,-3.94237336437,2.12930745097,0.448866718008,-0.0188048440826,-0.155908500743
1589275379450306494,5179,1589275379450203468,,0.46296682076,-3.9423138567,2.12941098395,0.448866656568,-0.0188057859954,-0.15590856402
1589275379459560691,5180,1589275379459310723,,0.46317265933,-3.94231584092,2.12936254745,0.449795798007,-0.0187859910631,-0.156806841245
1589275379462375736,5181,1589275379462286343,,0.486445653885,-3.94240196295,2.12977074593,0.452601255235,-0.0187910894688,-0.159347357142
1589275379468190157,5182,1589275379468117636,,0.486361624722,-3.94241763765,2.12976092139,0.452602828913,-0.0187972623101,-0.159342159211
1589275379471158160,5183,1589275379471073112,,0.486387400199,-3.94242117642,2.12974848435,0.451706579557,-0.0187932233679,-0.16026950469
1589275379474167266,5184,1589275379474055447,,0.485984181791,-3.94250203822,2.15291146196,0.453369377952,-0.0187994670526,-0.159334543561
1589275379477145648,5185,1589275379477058757,,0.485974778089,-3.94251713837,2.15288593244,0.453391899081,-0.0187995243111,-0.160248050187
1589275379483729328,5186,1589275379483552466,,0.485495219959,-3.94263173421,2.17600582544,0.454159198593,-0.0188102324668,-0.160237287784
1589275379486306975,5187,1589275379486217266,,0.485794442657,-3.94248633785,2.15298303401,0.453391787181,-0.0188230362859,-0.160245606733
1589275379492380473,5188,1589275379492201212,,0.485823024995,-3.94247713164,2.15299344269,0.453393051342,-0.01881840431,-0.160242573961
1589275379495138555,5189,1589275379495035381,,0.485873432223,-3.94244184868,2.15304667553,0.455217125105,-0.0188224060549,-0.160225490029
1589275379498118838,5190,1589275379498044884,,0.485802678231,-3.94244774074,2.1530518523,0.455216476122,-0.0194959637112,-0.160224171305
1589275379504369568,5191,1589275379504259775,,0.485775109566,-3.94251698675,2.15293127188,0.455214594652,-0.0194969869092,-0.160229392191
1589275379507389190,5192,1589275379507293803,,0.486260530454,-3.94241131853,2.12979570241,0.454447803497,-0.0194840735417,-0.16023899996
1589275379510497424,5193,1589275379510306599,,0.486285852107,-3.94240558997,2.12980052496,0.454448132129,-0.0194810345645,-0.16023843743
1589275379516419982,5194,1589275379516313288,,0.485616363234,-3.81022865855,2.17540276174,0.457852439902,-0.0194898067432,-0.162006163276
1589275379519398335,5195,1589275379519291598,,0.485540137976,-3.81024965669,2.17538299768,0.457851544634,-0.0194989490192,-0.162007593321
1589275379522365351,5196,1589275379522270921,,0.485548012443,-3.8102473881,2.1753852136,0.459655204303,-0.0195026437834,-0.161081635404
1589275379528222202,5197,1589275379528150145,,0.485525477477,-3.81023035803,2.17542007161,0.46239935891,-0.0188482933298,-0.161049087279
1589275379531368719,5198,1589275379531264635,,0.485502468344,-3.81021429211,2.17545334584,0.462398381,-0.0188539230173,-0.161051236041
1589275379534376510,5199,1589275379534291133,,0.485503769548,-3.81021839631,2.17544586709,0.463282838556,-0.0195228079565,-0.160137922329
1589275379543390066,5200,1589275379543297588,,0.50760041891,-3.9429549439,2.22277250817,0.466718770315,-0.0195434783506,-0.162663160284
1589275379546482536,5201,1589275379546233033,,0.507658483804,-3.94294840611,2.22277084481,0.467652737754,-0.0188681055358,-0.163548732616
1589275379552342657,5202,1589275379552247531,,0.507582755411,-3.94294767813,2.22278943041,0.467652001405,-0.0188784692291,-0.163549642179
1589275379555325259,5203,1589275379555249968,,0.507419422965,-4.07539137267,2.22333748066,0.470396354261,-0.0195509180832,-0.163512444431
1589275379558336172,5204,1589275379558235580,,0.507395640718,-4.07541872086,2.22329277818,0.470395476772,-0.0195530834909,-0.163514709864
1589275379564309505,5205,1589275379564216410,,0.506990948663,-4.07553505937,2.24639209494,0.474858144766,-0.0195657382656,-0.165280875008
1589275379567378385,5206,1589275379567256313,,0.506981432116,-4.07551804749,2.24642510635,0.474858057753,-0.0195682520978,-0.165280827395
1589275379570337241,5207,1589275379570221927,,0.529483108902,-4.20813133511,2.270578904,0.476563049556,-0.0195837542086,-0.166014018552
1589275379576199659,5208,1589275379576104487,,0.505983118662,-4.20815946417,2.29334838556,0.477334601834,-0.020247695569,-0.166155038381
1589275379579736659,5209,1589275379579534767,,0.52932445059,-4.07577685544,2.2932538563,0.480085430147,-0.0202550125073,-0.166885112698
1589275379582518623,5210,1589275379582416731,,0.506213264082,-4.07566393771,2.29287408561,0.481028961969,-0.0202553007395,-0.167934161406
1589275379588242023,5211,1589275379588155477,,0.483485508391,-4.07545701971,2.26926117234,0.480240763052,-0.020250995311,-0.167182643785
1589275379591255182,5212,1589275379591129840,,0.506707762132,-4.07555165978,2.26964546803,0.48206207408,-0.0195827233671,-0.167021461057
1589275379594306183,5213,1589275379594204626,,0.506370883853,-4.07566028787,2.29284576897,0.481052072706,-0.0195696952286,-0.168840062246
1589275379600520727,5214,1589275379600439751,,0.529601130422,-4.07572580955,2.29328069953,0.483857488723,-0.0202355941189,-0.171386277845
1589275379603184028,5215,1589275379603108484,,0.529593071055,-4.07577144316,2.2932014567,0.483857876564,-0.0202325292875,-0.171385544729
1589275379606370457,5216,1589275379606271287,,0.529064252126,-4.2083538913,2.31680150299,0.485552924369,-0.0202358742898,-0.172275590342
1589275379612417651,5217,1589275379612320570,,0.529027125796,-4.20831172142,2.31688657838,0.485575034261,-0.0209086947726,-0.1731768902
1589275379615348909,5218,1589275379615228153,,0.528277392637,-4.20855958444,2.36304815805,0.489849655713,-0.0215723971833,-0.173132777138
1589275379618472616,5219,1589275379618311783,,0.528232457477,-4.20858667864,2.36300994832,0.48984971647,-0.0215755890992,-0.173132207491
1589275379624281270,5220,1589275379624148360,,0.52864020863,-4.20849096006,2.33986938934,0.489083098818,-0.0215711165927,-0.173140328179
1589275379627388293,5221,1589275379627264897,,0.52821773418,-4.20858595568,2.36301452717,0.489918219408,-0.0215734983732,-0.175849847832
1589275379630380376,5222,1589275379630245680,,0.528140976972,-4.20863334685,2.36294727764,0.491702618781,-0.0215799977698,-0.1740107801
1589275379636319424,5223,1589275379636232708,,0.527533602124,-4.34118233987,2.38672450102,0.493391051538,-0.0222567509696,-0.173987053323
1589275379639283491,5224,1589275379639200286,,0.527473166123,-4.34119958934,2.38670648335,0.493391785714,-0.0222612582911,-0.173984394687
1589275379642349133,5225,1589275379642206364,,0.550253262569,-4.34140701922,2.41023220739,0.495086057671,-0.0222722283455,-0.174723829122
1589275379648313639,5226,1589275379648208045,,0.526574480772,-4.34141843748,2.43295442717,0.496749900759,-0.0222836866977,-0.173947588191
1589275379651335531,5227,1589275379651212935,,0.52644902401,-4.34141541611,2.43298696824,0.498577042544,-0.0216357800475,-0.173922344773
1589275379654262426,5228,1589275379654151590,,0.549683109798,-4.34146540415,2.43347591136,0.498596304673,-0.0216400622514,-0.174682151831
1589275379663209773,5229,1589275379663101934,,0.54932357368,-4.34157475443,2.45658172029,0.499363987948,-0.020980048224,-0.174674376347
1589275379669277748,5230,1589275379669200770,,0.549957074525,-4.2089811416,2.43298936851,0.495831178653,-0.0216204246208,-0.173800220409
1589275379672265100,5231,1589275379672171351,,0.550410105826,-4.20876654716,2.41004269049,0.491414787682,-0.0209500931532,-0.173849660013
1589275379675336784,5232,1589275379675233719,,0.528249026283,-4.07591967507,2.36289650005,0.488985840071,-0.0209343531064,-0.174935078616
1589275379681516109,5233,1589275379681355197,,0.528802252491,-4.07574044166,2.33986776056,0.486391568558,-0.020916690239,-0.174971792759
1589275379684223342,5234,1589275379684096291,,0.552370853933,-3.81103676939,2.3390856388,0.481908114369,-0.0202312589249,-0.178515664661
1589275379687193648,5235,1589275379687079654,,0.553214144201,-3.81085570878,2.29276325385,0.476745586576,-0.0202077493333,-0.179483068531
1589275379693486934,5236,1589275379693325722,,0.554555617189,-3.67807691219,2.22280261592,0.469031263119,-0.0208566038823,-0.182301437242
1589275379696356278,5237,1589275379696234654,,0.554679913368,-3.67801608314,2.22287225448,0.468137359035,-0.0208413623562,-0.183215401735
1589275379699442097,5238,1589275379699294537,,0.554889695231,-3.67798815134,2.2228661135,0.468136369151,-0.0208178097351,-0.183220608605
1589275379705407742,5239,1589275379705319830,,0.601261497812,-3.67813558172,2.22376491724,0.464592426688,-0.0201450409928,-0.187510423499
1589275379708374160,5240,1589275379708251356,,0.601260933042,-3.67818251464,2.22368744045,0.464594067273,-0.0201385983121,-0.187507050655
1589275379711374176,5241,1589275379711209707,,0.578049307879,-3.67815952599,2.22314536785,0.464621489256,-0.0201290184967,-0.188552029771
1589275379717340003,5242,1589275379717230972,,0.577218961761,-3.67844600733,2.26929598636,0.460649888463,-0.0201177861198,-0.187687915769
1589275379720398803,5243,1589275379720266434,,0.577127978601,-3.67848376505,2.26925792252,0.460650820334,-0.0201249970865,-0.187684855551
1589275379723374520,5244,1589275379723285885,,0.577427348884,-3.67836719,2.24616707985,0.459860468393,-0.0208016436974,-0.186788118609
1589275379729324522,5245,1589275379729258803,,0.577275684768,-3.67839820819,2.24615526713,0.459859480583,-0.0208202061274,-0.186788482406
1589275379732359447,5246,1589275379732248635,,0.577093646456,-3.81079336556,2.24674237239,0.461627297411,-0.0201644603962,-0.18404131719
1589275379735417177,5247,1589275379735314152,,0.576987339449,-3.81078316664,2.24678697402,0.461602883979,-0.0201812073159,-0.183139289004
1589275379741375805,5248,1589275379741283983,,0.552725888435,-3.94337505162,2.29322779243,0.466702182418,-0.0202154372685,-0.179596044059
1589275379744382310,5249,1589275379744292720,,0.552560115678,-3.94339010872,2.29324184997,0.466703513549,-0.0202323160905,-0.179590684184
1589275379747466254,5250,1589275379747265530,,0.528892142853,-4.07578408024,2.29334075778,0.466638293258,-0.0202611465136,-0.177008968348
1589275379753731661,5251,1589275379753343276,,0.551023687268,-4.20857547217,2.34049526749,0.472691549738,-0.0196281331826,-0.174988418068
1589275379756264947,5252,1589275379756185202,,0.550949992152,-4.2086001259,2.34046828486,0.47269039389,-0.0196365367379,-0.174990597498
1589275379759409161,5253,1589275379759304164,,0.550494996044,-4.20869835484,2.363613498,0.474363780811,-0.0196500645725,-0.174973365058
1589275379765481970,5254,1589275379765345045,,0.550732689765,-4.34104837885,2.3410269247,0.475400111919,-0.0196516376252,-0.174045698504
1589275379768403503,5255,1589275379768280273,,0.550907807952,-4.20856113584,2.34054832444,0.476318963667,-0.0189894381778,-0.174034250674
1589275379774428179,5256,1589275379774307268,,0.551825269956,-3.94350677897,2.3164289516,0.470144942201,-0.0189533260313,-0.176827922755
1589275379777322575,5257,1589275379777218926,,0.551969560508,-3.94346916429,2.31645860888,0.47014614847,-0.0189366320104,-0.176826504116
1589275379780617671,5258,1589275379780511011,,0.552726324036,-3.81082920763,2.292924949,0.463961560256,-0.019568725636,-0.179621935544
1589275379783784369,5259,1589275379783704650,,0.552959923954,-3.81077011059,2.29296684394,0.463960051252,-0.0195465782153,-0.179628244632
1589275379789482615,5260,1589275379789392778,,0.553961747722,-3.81052919096,2.24661484858,0.460667546468,-0.0188464703338,-0.182391833498
1589275379792462527,5261,1589275379792353790,,0.601053131188,-3.67815181131,2.22379440143,0.455438197053,-0.0188149139479,-0.186705852868
1589275379798360265,5262,1589275379798246651,,0.601674060925,-3.54568022289,2.20002107781,0.453831739133,-0.0194602509514,-0.1894411976
1589275379801388867,5263,1589275379801300609,,0.601881176036,-3.41340043352,2.19927022346,0.448419935449,-0.0194239536254,-0.192223768606
1589275379804405355,5264,1589275379804305934,,0.602752532939,-3.54546315753,2.15358925316,0.446092442721,-0.0193985106977,-0.196796917938
1589275379810416467,5265,1589275379810296809,,0.60283629418,-3.54546058714,2.15357003977,0.446090923088,-0.0193897919826,-0.19680122176
1589275379813577763,5266,1589275379813491758,,0.602484507907,-3.54562532959,2.17659268424,0.444164906797,-0.0200387221457,-0.198627626491
1589275379816436023,5267,1589275379816304022,,0.60240925918,-3.54569931535,2.17649298706,0.444164579314,-0.0200424213989,-0.198627985559
1589275379822433275,5268,1589275379822334192,,0.625354904398,-3.54584638663,2.17688002405,0.44418599697,-0.0200581766498,-0.199381658135
1589275379825494049,5269,1589275379825368975,,0.578929854661,-3.41334988488,2.17540459323,0.44492288164,-0.0200829753688,-0.192412490272
1589275379828481205,5270,1589275379828370788,,0.578758998882,-3.413399647,2.17537197475,0.444922866443,-0.0201018810566,-0.192410551202
1589275379834401520,5271,1589275379834251780,,0.578622091461,-3.41340177906,2.17540504905,0.443962902858,-0.0194474388028,-0.190593494716
1589275379837357878,5272,1589275379837277929,,0.555218572831,-3.5456319097,2.17567384678,0.446568059846,-0.0188153067956,-0.185273974681
1589275379846512398,5273,1589275379846362452,,0.554429325836,-3.54580457407,2.19889891488,0.448154150613,-0.018864907533,-0.181610582929
1589275379849473890,5274,1589275379849354969,,0.55353484298,-3.81069385316,2.22323340872,0.451570092642,-0.0189011591816,-0.177944316129
1589275379855408428,5275,1589275379855289693,,0.553366920086,-3.81073156002,2.22321058017,0.451570700027,-0.0189177866483,-0.177941007795
1589275379858463265,5276,1589275379858371097,,0.552072667408,-4.07589332396,2.2704330607,0.458575976028,-0.0196191794076,-0.177864271442
1589275379861397813,5277,1589275379861306039,,0.551243499223,-4.07615148854,2.31669908709,0.461051761982,-0.0196286069748,-0.178753649281
1589275379864224072,5278,1589275379864131566,,0.550784451563,-4.07629974744,2.33976289144,0.463619580546,-0.0196419664949,-0.177812070325
1589275379870282313,5279,1589275379870111518,,0.550780095714,-4.07622857671,2.33988790496,0.466408266928,-0.0196548248574,-0.17959644916
1589275379873275131,5280,1589275379873180611,,0.573197194701,-4.07651080639,2.38668223087,0.468916312194,-0.0196569468234,-0.182137979422
1589275379879441756,5281,1589275379879307250,,0.551808749568,-3.94357057922,2.31632426978,0.469451810405,-0.0202803737924,-0.185912963826
1589275379882462568,5282,1589275379882377673,,0.552099993409,-3.94348204752,2.31640559278,0.469450607483,-0.0202536553874,-0.18591891391
1589275379885371030,5283,1589275379885277709,,0.575411817257,-3.94353135356,2.31685600459,0.468621436448,-0.0202323615913,-0.189412289668
1589275379891318514,5284,1589275379891194884,,0.576209478803,-3.81107272252,2.29300878942,0.467019099567,-0.0195198524845,-0.192154037297
1589275379894406561,5285,1589275379894312530,,0.646174835418,-3.67899972518,2.29359690644,0.46349541527,-0.0201425790002,-0.197199032735
1589275379897442636,5286,1589275379897319486,,0.623072683743,-3.67889921955,2.29314467654,0.463567602019,-0.0201267858547,-0.2000687807
1589275379903582954,5287,1589275379903436489,,0.64645358965,-3.67896650338,2.29357164449,0.462718053338,-0.0207693835888,-0.202658273121
1589275379906393353,5288,1589275379906292899,,0.693305627859,-3.67907812023,2.27111530913,0.459410878689,-0.0200753801559,-0.210575186723
1589275379909176662,5289,1589275379909074880,,0.69328347049,-3.81145527277,2.27166367224,0.459408245223,-0.0207377274407,-0.210579982736
1589275379915239150,5290,1589275379915139128,,0.693332397254,-3.81143333093,2.27168555424,0.460368575089,-0.0213954331314,-0.212385925225
1589275379918238636,5291,1589275379918150267,,0.71690695206,-3.81134897306,2.24908968114,0.460527623322,-0.0207413044578,-0.213147686945
1589275379921373082,5292,1589275379921296464,,0.716374157705,-3.81150297163,2.27218105376,0.460387515475,-0.0214110362814,-0.213145525545
1589275379927322635,5293,1589275379927227928,,0.692649160161,-3.81158610144,2.29492546078,0.462046645135,-0.020775636392,-0.212361971523
1589275379930340038,5294,1589275379930223378,,0.692099501563,-3.81170729674,2.31807896794,0.463660362958,-0.0201343946464,-0.209626584487
1589275379933429380,5295,1589275379933232312,,0.668255488991,-3.8117507134,2.34079358802,0.465256275445,-0.0194967447047,-0.206114796615
