%time,field.header.seq,field.header.stamp,field.header.frame_id,field.vector.x,field.vector.y,field.vector.z
1588856986944450961,649,1588856986944339569,,0.0994730775005,-0.282860560167,1.12118018941
1588856986950614582,650,1588856986950463741,,0.0999092440265,-0.302644985658,1.13045595989
1588856986956297770,651,1588856986956203077,,0.100819092404,-0.323761031062,1.13953099103
1588856986962296800,652,1588856986962194938,,0.101285226995,-0.345720937758,1.14986277227
1588856986965284173,653,1588856986965200148,,0.102246596479,-0.346513989455,1.14861836296
1588856986968261071,654,1588856986968173849,,0.102776799239,-0.36943193965,1.15939764519
1588856986971261261,655,1588856986971187309,,0.103201410661,-0.369810627339,1.15891623118
1588856986977299704,656,1588856986977211811,,0.104097700254,-0.394278408816,1.16954632785
1588856986980417713,657,1588856986980322014,,0.105148843235,-0.419877324594,1.18084198289
1588856986986395342,658,1588856986986272730,,0.105595004593,-0.420358884447,1.18026052806
1588856986992405958,659,1588856986992328767,,0.10664536049,-0.447109264835,1.19216566263
1588856986998405605,660,1588856986998321507,,0.107146424315,-0.474316175572,1.20482998261
1588856987001412469,661,1588856987001323802,,0.108003883426,-0.503390683115,1.21792850004
1588856987007895754,662,1588856987007748908,,0.108477981697,-0.532700177552,1.23148979896
1588856987013669889,663,1588856987013562281,,0.108941894143,-0.560238684452,1.24436855835
1588856987019598513,664,1588856987019433794,,0.10984269111,-0.564799736303,1.24528289177
1588856987025492918,665,1588856987025402328,,0.110816186238,-0.596470902075,1.25997079328
1588856987031646796,666,1588856987031516353,,0.111198585926,-0.628189732104,1.27506113418
1588856987037481487,667,1588856987037338270,,0.111589821314,-0.660673188636,1.29049603261
1588856987043522201,668,1588856987043419137,,0.112030525911,-0.693847909825,1.30644988824
1588856987049534346,669,1588856987049425792,,0.112812731932,-0.728478075887,1.32245230028
1588856987055630222,670,1588856987055473452,,0.113190751237,-0.763023217437,1.33932380185
1588856987061587223,671,1588856987061450622,,0.114053969551,-0.798999586148,1.35611763939
1588856987067476364,672,1588856987067371462,,0.114538940717,-0.834936537783,1.37379966493
1588856987073479755,673,1588856987073351624,,0.115331615845,-0.835959290768,1.37311666257
1588856987079544058,674,1588856987079391491,,0.115750067634,-0.872625896837,1.39091026049
1588856987085334640,675,1588856987085218355,,0.116155673656,-0.909980946398,1.40909154252
1588856987088271289,676,1588856987088190321,,0.116497340186,-0.947918217423,1.42747195188
1588856987091466562,677,1588856987091337585,,0.116810838565,-0.948298184516,1.42711621742
1588856987097408552,678,1588856987097309006,,0.117527089046,-0.987150099071,1.44548038237
1588856987100349665,679,1588856987100254865,,0.117833139683,-1.02121542415,1.46194047318
1588856987106755497,680,1588856987106648090,,0.118462452165,-1.02695857763,1.46369686147
1588856987112324006,681,1588856987112229504,,0.118688080944,-1.06692562542,1.48291616494
1588856987118337072,682,1588856987118257409,,0.119053251089,-1.10720701161,1.50248643095
1588856987124337378,683,1588856987124247508,,0.119610298511,-1.14836161971,1.52215665046
1588856987130329717,684,1588856987130238507,,0.119943976604,-1.18971204747,1.54254364188
1588856987136447943,685,1588856987136292114,,0.12021861539,-1.23159128352,1.56309132362
1588856987142340662,686,1588856987142259595,,0.120805682699,-1.27383748614,1.58345241949
1588856987148382467,687,1588856987148290708,,0.121189258633,-1.31650380128,1.60465338765
1588856987154378612,688,1588856987154303003,,0.121863330507,-1.35955075456,1.62563319012
1588856987160591646,689,1588856987160509208,,0.122226302997,-1.40336572222,1.64728680945
1588856987166621927,690,1588856987166516560,,0.122894806406,-1.40261595211,1.64640937111
1588856987172430358,691,1588856987172344280,,0.123241265175,-1.44671531646,1.66818575239
1588856987178423677,692,1588856987178327644,,0.123553906985,-1.49132320822,1.69024211752
1588856987184396130,693,1588856987184314849,,0.123983343272,-1.5361013152,1.71245460589
1588856987190476491,694,1588856987190357918,,0.124335279945,-1.58148837422,1.73478881936
1588856987196546494,695,1588856987196396367,,0.12506499869,-1.62710986168,1.75683375389
1588856987202556532,696,1588856987202438199,,0.12549829878,-1.67323317703,1.77977910051
1588856987208443481,697,1588856987208360537,,0.126088875954,-1.71963271682,1.80224249372
1588856987214568115,698,1588856987214375128,,0.126336978773,-1.76668478704,1.82550121401
1588856987220405014,699,1588856987220319071,,0.126736502648,-1.80450450539,1.84414250595
1588856987226052705,700,1588856987225968531,,0.12696012118,-1.81394979626,1.84830786996
1588856987229194717,701,1588856987229131483,,0.127256936085,-1.86185525007,1.87177442197
1588856987232015800,702,1588856987231938384,,0.127616633412,-1.86157480704,1.87123281799
1588856987235483679,703,1588856987235380128,,0.127948644384,-1.90985872542,1.89497603612
1588856987241384193,704,1588856987241293822,,0.128227292518,-1.95859396267,1.91868648595
1588856987247592219,705,1588856987247472760,,0.128498704455,-2.00767375262,1.94261562761
1588856987253547501,706,1588856987253417146,,0.128856885761,-2.00748111055,1.94206511744
1588856987259591325,707,1588856987259493464,,0.129097251508,-2.05675180475,1.96596751378
1588856987265528260,708,1588856987265420400,,0.129343117313,-2.10633795351,1.99030698
1588856987271534085,709,1588856987271439762,,0.12959601357,-2.15618221997,2.01467833074
1588856987277555064,710,1588856987277408496,,0.129892150471,-2.20622087714,2.0392071768
1588856987283542629,711,1588856987283440392,,0.130384130148,-2.25634799616,2.06348945953
1588856987289355274,712,1588856987289237718,,0.130522319896,-2.30688821319,2.08810952502
1588856987292620780,713,1588856987292455681,,0.131091954526,-2.30667947772,2.08744902905
1588856987298610152,714,1588856987298451204,,0.131324218834,-2.35730036719,2.11228981273
1588856987301562987,715,1588856987301450302,,0.131580826204,-2.40808435196,2.13729885089
1588856987307801262,716,1588856987307707870,,0.131857991179,-2.45900123304,2.162417775
1588856987313317041,717,1588856987313204392,,0.132071225123,-2.45885849635,2.16195710707
1588856987316311582,718,1588856987316214237,,0.132588689612,-2.50956261448,2.18671508306
1588856987319247982,719,1588856987319152436,,0.13288017637,-2.50913704004,2.18624618296
1588856987322290287,720,1588856987322203554,,0.13314065856,-2.56007923559,2.21150834081
1588856987325381978,721,1588856987325295388,,0.133377478803,-2.55964301552,2.21092820611
1588856987328300291,722,1588856987328211658,,0.133698421277,-2.61050460333,2.23633360844
1588856987331209934,723,1588856987331107526,,0.134339464643,-2.60906436988,2.23538678798
1588856987334221544,724,1588856987334135001,,0.134613979555,-2.65949116376,2.26061478159
1588856987337385791,725,1588856987337271215,,0.13536708843,-2.65578002203,2.25931754338
1588856987340357642,726,1588856987340211476,,0.13568390233,-2.65481673383,2.25890471935
1588856987343372123,727,1588856987343273158,,0.135947438658,-2.7057738782,2.28437892724
1588856987346298318,728,1588856987346187459,,0.136229782885,-2.70495094502,2.28387786435
1588856987349247323,729,1588856987349162559,,0.136562138157,-2.75559719119,2.30938560916
1588856987352349900,730,1588856987352177766,,0.136917115532,-2.75470069209,2.30896792085
1588856987355395668,731,1588856987355302082,,0.137242593332,-2.80580360982,2.33427444308
1588856987358357747,732,1588856987358262954,,0.137677565768,-2.80496180727,2.33376964244
1588856987361379067,733,1588856987361245181,,0.138357685657,-2.85523738852,2.35862568185
1588856987364267557,734,1588856987364166783,,0.138631534823,-2.85433495919,2.35809384361
1588856987367646963,735,1588856987367538819,,0.139023099872,-2.90528744447,2.38362960584
1588856987373514500,736,1588856987373413744,,0.139330287995,-2.90430538229,2.3828736046
1588856987379512003,737,1588856987379414851,,0.140004140785,-2.95438985568,2.40751915048
1588856987385468427,738,1588856987385386794,,0.140336253757,-3.00528486121,2.43279207959
1588856987391555888,739,1588856987391437566,,0.140610147861,-3.05605804365,2.45782713902
1588856987397498057,740,1588856987397418669,,0.14120957171,-3.10566166776,2.4821474094
1588856987400445506,741,1588856987400346223,,0.141947492506,-3.13853552914,2.49812855375
1588856987406852312,742,1588856987406715551,,0.142387509357,-3.15379244611,2.50558195116
1588856987412546697,743,1588856987412440209,,0.14276915505,-3.20422197982,2.53055243846
1588856987418740703,744,1588856987418603431,,0.143516728788,-3.25367375669,2.55479495238
1588856987424745419,745,1588856987424600487,,0.144112173408,-3.30325770904,2.57877387081
1588856987430455620,746,1588856987430367712,,0.144410820995,-3.353587554,2.60361798238
1588856987436463744,747,1588856987436359120,,0.144705274915,-3.40374660317,2.62814896853
1588856987442588944,748,1588856987442479407,,0.145293074435,-3.45257664721,2.6515948104
1588856987448469850,749,1588856987448365749,,0.145893618094,-3.50169021074,2.67495503566
1588856987454486853,750,1588856987454364298,,0.14612352477,-3.55158027019,2.69920468895
1588856987460694755,751,1588856987460593001,,0.146387293165,-3.58293130243,2.71413518449
1588856987466471018,752,1588856987466367039,,0.146565869748,-3.60018294776,2.72188902743
1588856987472440314,753,1588856987472346306,,0.146707277864,-3.6496438144,2.74570173088
1588856987478557438,754,1588856987478386340,,0.146885942989,-3.69894419298,2.76929717294
1588856987484516156,755,1588856987484386550,,0.146965922328,-3.74815986734,2.79282333107
1588856987490455855,756,1588856987490325329,,0.147036971044,-3.79580732698,2.81439006991
1588856987493619318,757,1588856987493443283,,0.14708354705,-3.79474162675,2.81267904411
1588856987499587727,758,1588856987499434185,,0.147324865928,-3.84177173746,2.83392738426
1588856987505611821,759,1588856987505476449,,0.147541126621,-3.89007053948,2.85682729634
1588856987511418654,760,1588856987511289740,,0.148013422664,-3.9369536724,2.87797315672
1588856987514369971,761,1588856987514288886,,0.148236391675,-3.9844850777,2.90070221722
1588856987517473103,762,1588856987517366503,,0.148678911432,-3.98149682178,2.8972617371
1588856987523348042,763,1588856987523216513,,0.1489436824,-4.02887471845,2.91989637389
1588856987526331856,764,1588856987526255271,,0.14949309285,-4.02572547162,2.91641275113
1588856987529523982,765,1588856987529420758,,0.149846523723,-4.07241632062,2.93877387888
1588856987535338530,766,1588856987535163227,,0.150584180508,-4.11712641547,2.95959546257
1588856987538607909,767,1588856987538524113,,0.150984564194,-4.11508800329,2.95755281329
1588856987544403285,768,1588856987544299516,,0.151794697447,-4.15915365572,2.9776004447
1588856987547339933,769,1588856987547256848,,0.152115909637,-4.20470627123,2.99921373583
1588856987550397896,770,1588856987550308842,,0.152891271945,-4.20033796881,2.99496518948
1588856987553541650,771,1588856987553407576,,0.153246175198,-4.19806711033,2.99278233351
1588856987559452234,772,1588856987559367935,,0.153901265519,-4.24084643847,3.012081662
1588856987565657284,773,1588856987565552647,,0.154430324015,-4.28514329073,3.03322708897
1588856987571555078,774,1588856987571470359,,0.154808470978,-4.32930192936,3.05418434043
1588856987577473597,775,1588856987577373297,,0.155289013479,-4.37316292615,3.07507600033
1588856987583423331,776,1588856987583315267,,0.155815966721,-4.41651210182,3.09585050868
1588856987586277728,777,1588856987586194044,,0.156297775111,-4.41414656926,3.09366236697
1588856987589275267,778,1588856987589183751,,0.156765066106,-4.45694701027,3.11419219698
1588856987592338460,779,1588856987592206700,,0.157774462553,-4.45197431225,3.10968102859
1588856987595328254,780,1588856987595240767,,0.158349527149,-4.49409202306,3.13002005827
1588856987598501311,781,1588856987598356571,,0.159286879449,-4.48876375161,3.12504310121
1588856987601364942,782,1588856987601206381,,0.159934108117,-4.53057568043,3.14471037699
1588856987604735238,783,1588856987604652922,,0.161043825007,-4.52484520216,3.13945951913
1588856987610424756,784,1588856987610280187,,0.161694365486,-4.56615590577,3.15895998432
1588856987613378625,785,1588856987613231656,,0.162849022311,-4.56022883356,3.15337928493
1588856987619557851,786,1588856987619445578,,0.163388176565,-4.60083476591,3.17249151341
1588856987625328261,787,1588856987625229808,,0.163919883881,-4.64126815873,3.19137017646
1588856987628294356,788,1588856987628198326,,0.164578272251,-4.68073988138,3.21009626052
1588856987631320758,789,1588856987631210349,,0.165197589171,-4.67757133015,3.20719887109
1588856987634351890,790,1588856987634267652,,0.16634544435,-4.71349643643,3.22273589311
1588856987637239706,791,1588856987637161146,,0.167158021625,-4.70966944879,3.22007123767
1588856987640419353,792,1588856987640335981,,0.16770632415,-4.72541883735,3.2265162665
1588856987643315439,793,1588856987643217154,,0.168357681209,-4.74495202426,3.23498124703
1588856987646287080,794,1588856987646132181,,0.16892709466,-4.74126708073,3.23248344909
1588856987649258228,795,1588856987649164153,,0.16949850006,-4.77936211581,3.25025668124
1588856987652325012,796,1588856987652248776,,0.17011959255,-4.77563637735,3.24703090971
1588856987655294287,797,1588856987655187414,,0.170725087488,-4.81286102218,3.26466734608
1588856987658590439,798,1588856987658461655,,0.171240609672,-4.80917996343,3.26142888843
1588856987664613380,799,1588856987664480277,,0.171824363968,-4.84599488202,3.27849528001
1588856987670284545,800,1588856987670194836,,0.172558597128,-4.88233519465,3.29560262759
1588856987673486588,801,1588856987673374277,,0.173224162315,-4.87828620955,3.29221742085
1588856987679255250,802,1588856987679164870,,0.173796853455,-4.91401511195,3.3084537295
1588856987682297504,803,1588856987682196430,,0.174506623277,-4.94917450046,3.32495627031
1588856987685381497,804,1588856987685285922,,0.175072908062,-4.9452853361,3.32153364722
1588856987688489451,805,1588856987688378814,,0.175714608298,-4.97996185392,3.33739018317
1588856987694533402,806,1588856987694446319,,0.176304575902,-5.0141130456,3.35305969029
1588856987697598495,807,1588856987697483032,,0.177038688351,-5.01014155126,3.34984381418
1588856987700602580,808,1588856987700494876,,0.177761317651,-5.01947024892,3.35308038736
1588856987706941235,809,1588856987706767691,,0.178320444638,-5.04007909038,3.36144375582
1588856987712473364,810,1588856987712394623,,0.179042828565,-5.07304085941,3.37657637914
1588856987718483392,811,1588856987718387682,,0.179884386458,-5.10530388963,3.39107515735
1588856987724491705,812,1588856987724397859,,0.180664406975,-5.13722440457,3.40580339425
1588856987730517092,813,1588856987730422723,,0.181379178862,-5.16846969497,3.41992277304
1588856987736588032,814,1588856987736434277,,0.182121414674,-5.19922294022,3.43334752994
1588856987742662076,815,1588856987742510560,,0.182911656515,-5.2290212174,3.44685671112
1588856987748478014,816,1588856987748381904,,0.183568624218,-5.25878620365,3.45957420677
1588856987754343108,817,1588856987754126362,,0.184307900329,-5.28782510941,3.47239112335
1588856987757146590,818,1588856987757054624,,0.185124565389,-5.28374001844,3.46858310664
1588856987760400540,819,1588856987760284543,,0.185967598361,-5.27943659162,3.46445274019
1588856987763107965,820,1588856987763039780,,0.186805399841,-5.30746511644,3.47680768575
1588856987766158699,821,1588856987766068466,,0.187675497835,-5.30328829407,3.47292499245
1588856987769172692,822,1588856987769107400,,0.189573438504,-5.32614911437,3.48109109179
1588856987772128994,823,1588856987772052791,,0.191426238768,-5.31669178715,3.4729504409
1588856987775140102,824,1588856987775012348,,0.192351059647,-5.34285010206,3.48460654686
1588856987778850630,825,1588856987778765365,,0.193426996739,-5.33789976595,3.48090425381
1588856987784379355,826,1588856987784288677,,0.195388192577,-5.35811187218,3.48779547365
1588856987790364864,827,1588856987790297285,,0.198681001756,-5.3717205042,3.49045615313
1588856987793299184,828,1588856987793220940,,0.1995879126,-5.36638892162,3.48629904206
1588856987796265049,829,1588856987796138582,,0.201932807473,-5.38421536312,3.49233373907
1588856987799218893,830,1588856987799108768,,0.202839815636,-5.37892685131,3.48801830111
1588856987802660215,831,1588856987802575375,,0.203960697423,-5.40150632935,3.49807766155
1588856987808381147,832,1588856987808298095,,0.205933209909,-5.41817524635,3.50336188699
1588856987811378551,833,1588856987811288830,,0.207008095529,-5.41201965542,3.49870098935
1588856987814422790,834,1588856987814319258,,0.208010414625,-5.43312165966,3.50816596423
1588856987817358559,835,1588856987817279578,,0.209276584664,-5.42732076253,3.50379671795
1588856987820477262,836,1588856987820414526,,0.210487155281,-5.42232207216,3.50034436678
1588856987826569388,837,1588856987826456440,,0.211525525941,-5.44080580836,3.50856653332
1588856987832467415,838,1588856987832359318,,0.212630803583,-5.46051796987,3.51687615287
1588856987835505055,839,1588856987835419923,,0.213714762416,-5.47957425655,3.52542988954
1588856987838410549,840,1588856987838317957,,0.214776595813,-5.47277016727,3.52099747893
1588856987841373493,841,1588856987841282164,,0.215985525323,-5.49069469617,3.52887588877
1588856987844533901,842,1588856987844449034,,0.217107607099,-5.48391636083,3.52468735466
1588856987850348392,843,1588856987850227806,,0.218132525046,-5.50108168028,3.53216343873
1588856987853766190,844,1588856987853628992,,0.219084251794,-5.49448192453,3.52733517471
1588856987859638110,845,1588856987859545440,,0.220226989939,-5.51082961361,3.53447720532
1588856987865532565,846,1588856987865461697,,0.222285584843,-5.51984494647,3.53693916473
1588856987871685638,847,1588856987871571929,,0.223249979065,-5.53500669835,3.54299221872
1588856987877661365,848,1588856987877519305,,0.225310116811,-5.54211898689,3.54431720012
1588856987883641540,849,1588856987883556985,,0.226452299974,-5.55550792056,3.55019079434
1588856987889573068,850,1588856987889479672,,0.227420932553,-5.56811972252,3.55502139938
1588856987895476668,851,1588856987895389059,,0.228495895545,-5.5803100378,3.56028640003
1588856987898513379,852,1588856987898406384,,0.229571930685,-5.57314365893,3.5555325077
1588856987901572501,853,1588856987901466966,,0.230982599134,-5.58371964972,3.56040957241
1588856987910581257,854,1588856987910470266,,0.232972835013,-5.58715589407,3.55979707255
1588856987916566986,855,1588856987916441948,,0.234000303373,-5.59663764532,3.5638471697
1588856987922499877,856,1588856987922382046,,0.235056228085,-5.60579504146,3.56752229344
1588856987925553492,857,1588856987925482132,,0.23621307413,-5.59823129673,3.56301219249
1588856987931590781,858,1588856987931466014,,0.237150957544,-5.60698840265,3.56589338351
1588856987937528363,859,1588856987937452890,,0.2383773835,-5.61437218495,3.56853285217
1588856987943654372,860,1588856987943523199,,0.239481496249,-5.62126054305,3.571196336
1588856987949657357,861,1588856987949568593,,0.24050367748,-5.6275278772,3.57313408407
1588856987955554738,862,1588856987955450406,,0.241706976595,-5.63285934998,3.57499675148
1588856987958431866,863,1588856987958347375,,0.24273420479,-5.62556435111,3.570049157
1588856987961296103,864,1588856987961216972,,0.243714547783,-5.62995341078,3.57124392449
1588856987964323148,865,1588856987964240564,,0.244968235033,-5.6221286657,3.56676053928
1588856987967425237,866,1588856987967332659,,0.245934376178,-5.62572312692,3.56726570712
1588856987970369483,867,1588856987970286586,,0.24706005818,-5.61804543411,3.56251597621
1588856987973888896,868,1588856987973786855,,0.248325159398,-5.59671438943,3.55167095599
1588856987979477058,869,1588856987979397099,,0.249374789256,-5.61248321696,3.55842724638
1588856987982432781,870,1588856987982350098,,0.250554509031,-5.61448183057,3.55852390362
1588856987985311913,871,1588856987985231257,,0.251770694206,-5.60643772025,3.55399642115
1588856987988373882,872,1588856987988292321,,0.252913036277,-5.60725786516,3.55371843382
1588856987991376556,873,1588856987991261826,,0.254121672831,-5.5990722815,3.54876552738
1588856987994384256,874,1588856987994292908,,0.255278103036,-5.59915455508,3.54829221248
1588856987997354009,875,1588856987997262993,,0.256377040375,-5.59067882297,3.54335782553
1588856988000470570,876,1588856988000401140,,0.257485887095,-5.56667469122,3.53059597679
1588856988003739328,877,1588856988003627945,,0.258713839725,-5.58193441556,3.53771911885
1588856988009489074,878,1588856988009394771,,0.259718114462,-5.58033082094,3.53609140776
1588856988012525808,879,1588856988012392756,,0.260856759239,-5.57202912431,3.53092803498
1588856988015504129,880,1588856988015395788,,0.262142761548,-5.56963342012,3.52953078432
1588856988018390482,881,1588856988018308655,,0.263319197355,-5.56074926477,3.52443617838
1588856988021386983,882,1588856988021302733,,0.264357290568,-5.55813130483,3.52218830186
1588856988024109370,883,1588856988024033394,,0.265551790517,-5.54921328669,3.51739413364
1588856988030571277,884,1588856988030453344,,0.267816179878,-5.53649533642,3.51015379236
1588856988036566623,885,1588856988036489803,,0.268961732435,-5.53181520045,3.50726394467
1588856988042363899,886,1588856988042302818,,0.27135199431,-5.51720773521,3.49939014945
1588856988045162645,887,1588856988045074742,,0.272497903738,-5.50840416403,3.49457795979
1588856988048129216,888,1588856988048015932,,0.273559444144,-5.50208361246,3.49090111464
1588856988051474399,889,1588856988051389581,,0.274738414532,-5.49362743857,3.48602482499
1588856988057715770,890,1588856988057611016,,0.275761049523,-5.48703992842,3.48215450641
1588856988063792377,891,1588856988063667884,,0.276825536117,-5.47960134359,3.47799023713
1588856988069667609,892,1588856988069536337,,0.277881182107,-5.47153521832,3.47338625434
1588856988075715999,893,1588856988075573316,,0.278688825185,-5.46274067634,3.46795037259
1588856988081623118,894,1588856988081542829,,0.279935828474,-5.45297592963,3.46295557054
1588856988087787858,895,1588856988087651709,,0.280924300744,-5.44282309769,3.45725175553
1588856988093645361,896,1588856988093490565,,0.281825482502,-5.43411178974,3.45185380125
1588856988099741747,897,1588856988099602211,,0.282695856474,-5.42307890249,3.44518495656
1588856988105836178,898,1588856988105688901,,0.283959280137,-5.41119838692,3.43875649095
1588856988111761658,899,1588856988111648874,,0.284861760449,-5.39860936474,3.43145225368
1588856988117436209,900,1588856988117253728,,0.285594912143,-5.38562972022,3.42395845846
1588856988120135094,901,1588856988120036601,,0.28664778808,-5.37589316963,3.41894202523
1588856988123252998,902,1588856988122992735,,0.287546523301,-5.36224817654,3.41133695837
1588856988126169347,903,1588856988126092456,,0.288335421684,-5.35544230722,3.40741335926
1588856988129082669,904,1588856988129014898,,0.289401718861,-5.34063408667,3.39956566028
1588856988132114115,905,1588856988132000275,,0.290576191481,-5.33014881445,3.3943148176
1588856988135535553,906,1588856988135437970,,0.291360055327,-5.31754385472,3.38722807942
1588856988141432940,907,1588856988141355784,,0.292322207001,-5.30197371216,3.37928405625
1588856988144513462,908,1588856988144434224,,0.293330512379,-5.29214787699,3.37440542393
1588856988150583606,909,1588856988150492431,,0.295051954089,-5.26889742478,3.36172396627
1588856988156656804,910,1588856988156542800,,0.295805836873,-5.25257033246,3.3530416809
1588856988162611223,911,1588856988162518408,,0.296403565836,-5.2368610581,3.3437098721
1588856988168601015,912,1588856988168499985,,0.29717319893,-5.21973532518,3.33384219294
1588856988174637313,913,1588856988174525110,,0.298001044356,-5.20165335103,3.32367211567
1588856988180755898,914,1588856988180661147,,0.2987037902,-5.18289754988,3.3129333359
1588856988186800309,915,1588856988186661276,,0.299490839369,-5.17508865244,3.30751128802
1588856988192739523,916,1588856988192643082,,0.300201713998,-5.15544907644,3.29653264878
1588856988198218216,917,1588856988198079068,,0.300918660415,-5.13509575651,3.28513162988
1588856988201617183,918,1588856988201523646,,0.301815902042,-5.11356574323,3.27353612888
1588856988207853845,919,1588856988207765083,,0.302533527396,-5.09123807847,3.26152744375
1588856988213674032,920,1588856988213575829,,0.303255851502,-5.04976141489,3.24023101128
1588856988219785181,921,1588856988219618143,,0.304269029885,-5.05876879475,3.24458611395
1588856988225535607,922,1588856988225388138,,0.305288694119,-5.0343311583,3.23216869933
1588856988228498355,923,1588856988228359870,,0.306035224297,-5.009320097,3.21940710035
1588856988231464674,924,1588856988231369815,,0.307189626169,-4.99905982073,3.21445289309
1588856988234489253,925,1588856988234362525,,0.308093266142,-4.97337512447,3.20128907662
1588856988237431461,926,1588856988237314699,,0.308993573733,-4.96342882192,3.19618001133
1588856988240768345,927,1588856988240657658,,0.310703819752,-4.94386336193,3.18583068215
1588856988246779204,928,1588856988246659157,,0.3114147512,-4.91775053898,3.17248675781
1588856988252674619,929,1588856988252546179,,0.312060541387,-4.89165853168,3.15879381715
1588856988258496369,930,1588856988258395004,,0.312563054788,-4.86546156229,3.14496895831
1588856988261421416,931,1588856988261337283,,0.313570395888,-4.83276088513,3.12706591786
1588856988264535187,932,1588856988264418203,,0.314390572269,-4.82321864099,3.12239501638
1588856988270545123,933,1588856988270403938,,0.316090764206,-4.78290490466,3.10096355259
1588856988273481202,934,1588856988273371646,,0.316625243106,-4.77575280149,3.09694552301
1588856988279659565,935,1588856988279549838,,0.317338719514,-4.74975595659,3.08403671046
1588856988285529524,936,1588856988285430257,,0.317782942667,-4.72317359205,3.07046334015
1588856988288443171,937,1588856988288366569,,0.318450590817,-4.69554909819,3.05685118469
1588856988291471054,938,1588856988291380612,,0.319065380313,-4.68817397865,3.05298808433
1588856988294508648,939,1588856988294418746,,0.319668187649,-4.65970413662,3.03865825191
1588856988297548688,940,1588856988297410674,,0.320409129488,-4.65124002392,3.03437302863
1588856988300757714,941,1588856988300686708,,0.321122488212,-4.60645437854,3.01194827076
1588856988307402430,942,1588856988307259008,,0.321833539328,-4.57640942575,2.99702100667
1588856988312748000,943,1588856988312590213,,0.322479208601,-4.5824825717,2.99996090599
1588856988318668374,944,1588856988318570101,,0.323302332351,-4.55124594465,2.98476132392
1588856988324648469,945,1588856988324545777,,0.323915116995,-4.51943371187,2.96909960911
1588856988330633330,946,1588856988330533310,,0.324513945187,-4.48690096854,2.95323341954
1588856988336668489,947,1588856988336555973,,0.325149603119,-4.45415252244,2.93740685626
1588856988342567016,948,1588856988342474552,,0.325538482769,-4.42135328058,2.92130801373
1588856988345668002,949,1588856988345486849,,0.326027796665,-4.41201984724,2.91683437654
1588856988348452769,950,1588856988348356550,,0.326645535969,-4.3793085715,2.90088612437
1588856988351745081,951,1588856988351645782,,0.326868399708,-4.37083786669,2.89680117846
1588856988357604770,952,1588856988357498443,,0.327131692131,-4.33851243563,2.88072657557
1588856988363679323,953,1588856988363570704,,0.327374798789,-4.30615560746,2.86458907282
1588856988369246224,954,1588856988369172472,,0.327522496,-4.27401469427,2.84824669354
1588856988372604771,955,1588856988372501985,,0.327986090841,-4.26707400547,2.84525009439
1588856988378718469,956,1588856988378623034,,0.328024861545,-4.23583024972,2.82900997127
1588856988384644889,957,1588856988384530000,,0.328098278725,-4.20573619883,2.81326994478
1588856988390642968,958,1588856988390545229,,0.328475000042,-4.17325626502,2.79697750015
1588856988396633415,959,1588856988396538032,,0.328555697868,-4.14037311944,2.78021578174
1588856988399435597,960,1588856988399290333,,0.328830775029,-4.13587587822,2.77773533956
1588856988402370616,961,1588856988402293060,,0.329007983162,-4.10300341145,2.76124447028
1588856988405796918,962,1588856988405724910,,0.329388102136,-4.09608097031,2.75801875623
1588856988411740206,963,1588856988411649293,,0.329695800949,-4.06252124777,2.74127931228
1588856988417534646,964,1588856988417447213,,0.330063795582,-4.0290358153,2.72478084027
1588856988420615544,965,1588856988420485593,,0.330347601043,-4.02256343931,2.72150879092
1588856988423625994,966,1588856988423546471,,0.330775819419,-3.9884333826,2.70461046372
1588856988429294795,967,1588856988429204834,,0.331094276453,-3.95380683969,2.68737737679
1588856988432193358,968,1588856988432118469,,0.331626845986,-3.94669072728,2.68421809351
1588856988435592475,969,1588856988435500556,,0.332107517539,-3.91136408069,2.66677270678
1588856988441506053,970,1588856988441422735,,0.332959030028,-3.86858949582,2.64580482748
1588856988444507882,971,1588856988444433113,,0.333370138915,-3.86191156568,2.64254559807
1588856988450577778,972,1588856988450499157,,0.334006115643,-3.81980482134,2.62153934303
1588856988453557026,973,1588856988453473535,,0.334390099201,-3.81360579315,2.61852079729
1588856988459620260,974,1588856988459512368,,0.33467192976,-3.77875237131,2.60106266325
1588856988465617634,975,1588856988465506573,,0.334820823494,-3.74367866267,2.58333834652
1588856988471677038,976,1588856988471603676,,0.335101637644,-3.7092722357,2.56591130354
1588856988477808171,977,1588856988477671663,,0.335281365797,-3.67514848602,2.54865098004
1588856988483688770,978,1588856988483603874,,0.335509509389,-3.64083957457,2.53109476367
1588856988489704694,979,1588856988489557358,,0.335709156156,-3.60692843081,2.51373065842
1588856988495527054,980,1588856988495291532,,0.335885389334,-3.57289195548,2.49621888579
1588856988498597948,981,1588856988498487967,,0.336165751505,-3.56839287559,2.49350848831
1588856988501611284,982,1588856988501457081,,0.336290964601,-3.53465450853,2.47600719044
1588856988504883098,983,1588856988504740362,,0.336628027335,-3.5297548092,2.47325029102
1588856988510790881,984,1588856988510659275,,0.336788868483,-3.49607859753,2.45600088327
1588856988516889348,985,1588856988516744215,,0.337354520656,-3.45868546191,2.43669135164
1588856988522743491,986,1588856988522625655,,0.337609463373,-3.42403675432,2.41932096577
1588856988528527423,987,1588856988528428338,,0.338235017823,-3.386277691,2.40024457533
1588856988531558366,988,1588856988531426848,,0.338434226395,-3.3808242867,2.39741012045
1588856988534824956,989,1588856988534693303,,0.338928734221,-3.34279169447,2.37817789637
1588856988540777255,990,1588856988540620920,,0.339194814552,-3.3383577562,2.37596440573
1588856988546552425,991,1588856988546450093,,0.339563019936,-3.30499609862,2.35944163956
1588856988549729538,992,1588856988549579625,,0.339709399923,-3.27179220144,2.34251705004
1588856988555894118,993,1588856988555759284,,0.340188206547,-3.2349222819,2.32391354351
1588856988561576749,994,1588856988561484431,,0.340368977526,-3.20220547264,2.30747276689
1588856988564734265,995,1588856988564630578,,0.340584084327,-3.19844218958,2.30555137707
1588856988570757721,996,1588856988570622783,,0.340747513161,-3.16614102798,2.28926888299
1588856988576643313,997,1588856988576570380,,0.340909025822,-3.13417271887,2.27339078258
1588856988582601883,998,1588856988582450367,,0.341170990414,-3.10254810276,2.25759263364
1588856988585626641,999,1588856988585544735,,0.341306857841,-3.09941193404,2.25571782428
1588856988588581019,1000,1588856988588510175,,0.341441728774,-3.06805306061,2.23993726029
1588856988591801388,1001,1588856988591664544,,0.341720053878,-3.06460575587,2.23835172701
1588856988597430077,1002,1588856988597295249,,0.341920796389,-3.03353662504,2.22268112986
1588856988600571542,1003,1588856988600279609,,0.342197570554,-3.03017516928,2.22103160293
1588856988603918282,1004,1588856988603830356,,0.342321258914,-2.99913404688,2.2054423623
1588856988609649326,1005,1588856988609539546,,0.342551869337,-2.96900367372,2.19025422451
1588856988612441782,1006,1588856988612352143,,0.342773516622,-2.96545538869,2.18857958884
1588856988615673029,1007,1588856988615572833,,0.343123966129,-2.93513286074,2.17353282716
1588856988621384178,1008,1588856988621294255,,0.343374585761,-2.90532606978,2.1587706061
1588856988624509403,1009,1588856988624439294,,0.343698894008,-2.90181561815,2.1570882322
1588856988630400504,1010,1588856988630285614,,0.344148622183,-2.87022667616,2.14126126352
1588856988633656898,1011,1588856988633472061,,0.344450384697,-2.86695443509,2.13980411927
1588856988639575509,1012,1588856988639492126,,0.344697964451,-2.83790968561,2.12538629264
1588856988642640248,1013,1588856988642539555,,0.344973304939,-2.8104113968,2.11179461815
1588856988645589341,1014,1588856988645443526,,0.345305705635,-2.80749138751,2.11066557876
1588856988648557091,1015,1588856988648468550,,0.345544757078,-2.77958294341,2.09704280753
1588856988651387767,1016,1588856988651293358,,0.345614033645,-2.77750966123,2.09575200128
1588856988654309684,1017,1588856988654200829,,0.345896396591,-2.74928494636,2.08163384673
1588856988657582769,1018,1588856988657499467,,0.345985642321,-2.7476598492,2.08081545647
1588856988661049160,1019,1588856988660941575,,0.346220302147,-2.72052027886,2.0672548229
1588856988666631473,1020,1588856988666466633,,0.346409375361,-2.71915579783,2.06646481184
1588856988669572989,1021,1588856988669491178,,0.346567203825,-2.69408195728,2.05399786694
1588856988672657024,1022,1588856988672560550,,0.346665415417,-2.69279303363,2.05324398024
1588856988675904340,1023,1588856988675759001,,0.346802326428,-2.66882020354,2.04102890541
1588856988681491663,1024,1588856988681363120,,0.346911998528,-2.64519965176,2.02922209801
1588856988684444202,1025,1588856988684348311,,0.34704710937,-2.64317686443,2.02755347993
1588856988687834096,1026,1588856988687743238,,0.347235692123,-2.62033024708,2.01606810693
1588856988693315159,1027,1588856988693234742,,0.347402377533,-2.61922878996,2.01538839281
1588856988696337743,1028,1588856988696259858,,0.347571253335,-2.59713475859,2.00410953398
1588856988699581159,1029,1588856988699458278,,0.347930364371,-2.59457767918,2.00258119996
1588856988702509559,1030,1588856988702428648,,0.348139712058,-2.57304224199,1.99182147192
1588856988705798117,1031,1588856988705661171,,0.348500714654,-2.57105693208,1.99063922393
1588856988711623966,1032,1588856988711540926,,0.348718424268,-2.55014023306,1.98018260732
1588856988714955483,1033,1588856988714834548,,0.348924984138,-2.5302571148,1.97022255477
1588856988720908242,1034,1588856988720827067,,0.349173006669,-2.51087104334,1.9606902863
1588856988726616479,1035,1588856988726533320,,0.349413732053,-2.50981829455,1.96025734146
1588856988732680759,1036,1588856988732589171,,0.34971006301,-2.49132840723,1.95112212151
1588856988738738593,1037,1588856988738600716,,0.349931778044,-2.47359748578,1.94238041779
1588856988744582018,1038,1588856988744489352,,0.350233196928,-2.45674696883,1.9340583939
1588856988750749815,1039,1588856988750637596,,0.350767831356,-2.44011843703,1.92590894729
1588856988756866305,1040,1588856988756692649,,0.351073931883,-2.42531068514,1.91861205927
1588856988762792509,1041,1588856988762679369,,0.351325568066,-2.41158437188,1.91175222286
1588856988768784595,1042,1588856988768641155,,0.351494763817,-2.39883786725,1.90528549293
1588856988774896507,1043,1588856988774763424,,0.351688095706,-2.38708569144,1.89949010375
1588856988781195266,1044,1588856988781089274,,0.351902337131,-2.37643794119,1.89419290394
1588856988786685627,1045,1588856988786523733,,0.352104444942,-2.37586159974,1.89399130554
1588856988792733142,1046,1588856988792621465,,0.352292695238,-2.36622260608,1.88922997096
1588856988798739443,1047,1588856988798598599,,0.35250076402,-2.35773039803,1.88519809305
1588856988801635562,1048,1588856988801535173,,0.352734984545,-2.35039683583,1.88174027539
1588856988804942026,1049,1588856988804816598,,0.352937743276,-2.34989446282,1.88133123207
1588856988810688975,1050,1588856988810602885,,0.353091867055,-2.34383630005,1.8784934578
1588856988816391465,1051,1588856988816256827,,0.353239076887,-2.33916241795,1.87605182922
1588856988819642769,1052,1588856988819551564,,0.353277563494,-2.3391268717,1.87591804806
1588856988822826539,1053,1588856988822663397,,0.353366304928,-2.33562331896,1.87421720133
1588856988828727573,1054,1588856988828627496,,0.353486485072,-2.3335404179,1.87318973973
1588856988834634398,1055,1588856988834543144,,0.353454582179,-2.33290472954,1.87266006373
1588856988837675868,1056,1588856988837588566,,0.353580691411,-2.33275204171,1.87273415273
1588856988843468339,1057,1588856988843370739,,0.353710879961,-2.33262193558,1.87267368686
1588856988846764820,1058,1588856988846687198,,0.353755522477,-2.33267825201,1.87261289912
1588856988852692046,1059,1588856988852552973,,0.353761864892,-2.33210359282,1.87285101352
1588856988855687374,1060,1588856988855512520,,0.353801263667,-2.3301258863,1.87380985115
1588856988858596821,1061,1588856988858504904,,0.353817038894,-2.33011417834,1.87360815705
1588856988861741467,1062,1588856988861642884,,0.353955793867,-2.32706941931,1.87510927554
1588856988870537123,1063,1588856988870429977,,0.354158165348,-2.32278150995,1.87739051588
1588856988873810223,1064,1588856988873544545,,0.354192061413,-2.32272698504,1.87726021207
1588856988879511899,1065,1588856988879425285,,0.354398260724,-2.31719345518,1.88013227069
1588856988882568609,1066,1588856988882498592,,0.354468539027,-2.31018504481,1.8835720984
1588856988885552133,1067,1588856988885454551,,0.354630030238,-2.31037477496,1.88366832967
1588856988888665064,1068,1588856988888557663,,0.354720477031,-2.30224947443,1.88773722842
1588856988891604310,1069,1588856988891523487,,0.35497879184,-2.30265766117,1.88785318969
1588856988894548285,1070,1588856988894447322,,0.355145052185,-2.29318352046,1.89282235107
1588856988897542777,1071,1588856988897465761,,0.355332742847,-2.29337239167,1.89310791369
1588856988900961635,1072,1588856988900858895,,0.355564630075,-2.29345785337,1.89340640703
1588856988907793188,1073,1588856988907682181,,0.355770827041,-2.27112189206,1.90510165645
1588856988912695850,1074,1588856988912619695,,0.356088036755,-2.27138398702,1.90555624513
1588856988918759632,1075,1588856988918645429,,0.356382214144,-2.25845679905,1.91258971884
1588856988921711311,1076,1588856988921602632,,0.356714146727,-2.24448294607,1.92027356508
1588856988924722145,1077,1588856988924621078,,0.357063516985,-2.24472102297,1.92092589096
1588856988930887540,1078,1588856988930720613,,0.357370063931,-2.22961892491,1.92915673523
1588856988936874110,1079,1588856988936721032,,0.357674041277,-2.21343897341,1.93800867442
1588856988942820024,1080,1588856988942721718,,0.357920709191,-2.19625016023,1.94735289674
1588856988948654937,1081,1588856988948571351,,0.358164641714,-2.17795853047,1.95724310313
1588856988951873040,1082,1588856988951620757,,0.358424232469,-2.17819589384,1.95785360289
1588856988957744935,1083,1588856988957660384,,0.358691496441,-2.15875999855,1.96841405532
1588856988963772142,1084,1588856988963632289,,0.358976638005,-2.13839993604,1.97948758403
1588856988969624107,1085,1588856988969541767,,0.359244000277,-2.11704478773,1.9909641001
1588856988972662328,1086,1588856988972582944,,0.359509066694,-2.11739988158,1.99162434051
1588856988978532113,1087,1588856988978446613,,0.359771172673,-2.09487520048,2.00361003701
1588856988981615045,1088,1588856988981513609,,0.360046624247,-2.07155011001,2.01616129963
1588856988984818515,1089,1588856988984722179,,0.360315933552,-2.07180622858,2.01678065162
1588856988990750316,1090,1588856988990656099,,0.360538288344,-2.04745016664,2.02980116145
1588856988996715546,1091,1588856988996616387,,0.360747998068,-2.02222227063,2.04332548476
1588856988999711924,1092,1588856988999605787,,0.361033666586,-2.02225305034,2.04401374106
1588856989002661155,1093,1588856989002575366,,0.361298563825,-1.99612614238,2.0580410207
1588856989005784899,1094,1588856989005653613,,0.361580078927,-1.99610420657,2.05877303003
1588856989008687327,1095,1588856989008552548,,0.361836306362,-1.96890359818,2.07333415273
1588856989011871895,1096,1588856989011756373,,0.362095704809,-1.96898884804,2.07424006294
1588856989017774428,1097,1588856989017682253,,0.362380627801,-1.94075855386,2.08912827095
1588856989023855671,1098,1588856989023734038,,0.362634367787,-1.91151782168,2.1046730896
1588856989029735802,1099,1588856989029656375,,0.362838867092,-1.8814753233,2.12049691872
1588856989035557545,1100,1588856989035479338,,0.363132339787,-1.85043589875,2.13679840909
1588856989038553403,1101,1588856989038446636,,0.363418905954,-1.85028609827,2.13774862796
1588856989041495513,1102,1588856989041415010,,0.363845518733,-1.81812135285,2.15480734444
1588856989044649482,1103,1588856989044565360,,0.36421526499,-1.81765430554,2.15580627424
1588856989050792876,1104,1588856989050705842,,0.365136199107,-1.78370182807,2.17439583845
1588856989056753869,1105,1588856989056602881,,0.36556091167,-1.74953257367,2.19221197299
1588856989059687269,1106,1588856989059591681,,0.365983644762,-1.74870966815,2.19331116755
1588856989062756750,1107,1588856989062621186,,0.366546892605,-1.71365546181,2.21138633744
1588856989065839856,1108,1588856989065741029,,0.366961228988,-1.71258256179,2.21243531623
1588856989071790077,1109,1588856989071689845,,0.367417055982,-1.67677373698,2.23072265593
1588856989077699331,1110,1588856989077603725,,0.367913641131,-1.6402337443,2.24960010975
1588856989080691203,1111,1588856989080560372,,0.368296088633,-1.60728348326,2.2663405837
1588856989083588192,1112,1588856989083491191,,0.368820616955,-1.60169372042,2.2695859766
1588856989086583706,1113,1588856989086466610,,0.369241276861,-1.60062498007,2.27045721744
1588856989089800971,1114,1588856989089714101,,0.369618794682,-1.56243105277,2.28992571004
1588856989095627811,1115,1588856989095512056,,0.370416969782,-1.52258855873,2.31035227411
1588856989098538169,1116,1588856989098451440,,0.370786553815,-1.52139062011,2.31115869118
1588856989102079665,1117,1588856989101977668,,0.371505607904,-1.48048809803,2.33141009128
1588856989108121276,1118,1588856989108022829,,0.37183626008,-1.44003378909,2.35174765638
1588856989113907701,1119,1588856989113709483,,0.372245273239,-1.43860997276,2.3526366954
1588856989119797235,1120,1588856989119652367,,0.372489573583,-1.39791191001,2.37310736432
1588856989125670247,1121,1588856989125587339,,0.372774704243,-1.35621407996,2.393950362
1588856989128793140,1122,1588856989128688003,,0.373032311045,-1.31426555075,2.41506361966
1588856989134862597,1123,1588856989134784885,,0.373588218513,-1.27012042688,2.43696989103
1588856989140869118,1124,1588856989140774830,,0.373836902911,-1.26875831786,2.43769857638
1588856989146823986,1125,1588856989146729360,,0.373967941066,-1.22541911343,2.45929258161
1588856989152935202,1126,1588856989152838640,,0.374151534454,-1.18126135632,2.48142001172
1588856989158867141,1127,1588856989158685036,,0.374374731436,-1.13663976274,2.50368241892
1588856989164725243,1128,1588856989164641481,,0.374501694931,-1.09155928912,2.52631533696
1588856989170723449,1129,1588856989170609752,,0.374972518388,-1.04224051146,2.55094448638
1588856989173752683,1130,1588856989173674172,,0.375109075779,-1.04054123366,2.55179637242
1588856989179824366,1131,1588856989179681807,,0.3753182799,-0.993788724877,2.57517554624
1588856989185598591,1132,1588856989185514953,,0.375384808043,-0.946840125498,2.59852304168
1588856989188618472,1133,1588856989188505468,,0.375451955075,-0.899259464131,2.62196266327
1588856989191630372,1134,1588856989191527955,,0.375467583595,-0.897143070294,2.62280620448
1588856989195047603,1135,1588856989194900719,,0.375376537397,-0.849161003531,2.64626476133
1588856989197812132,1136,1588856989197648675,,0.375082022867,-0.846862167946,2.64633708252
1588856989200814118,1137,1588856989200746510,,0.374730818197,-0.806565026083,2.66547532122
1588856989206941019,1138,1588856989206869552,,0.374373471989,-0.795663935676,2.66999083783
1588856989212698262,1139,1588856989212588742,,0.373960816612,-0.746593453334,2.69351530003
1588856989215741870,1140,1588856989215672419,,0.373657233673,-0.697407597573,2.71713007311
1588856989221664994,1141,1588856989221589547,,0.373318674073,-0.647503640326,2.74090197466
1588856989224723361,1142,1588856989224627662,,0.372835044991,-0.644781885435,2.74041065536
1588856989227961206,1143,1588856989227881465,,0.372538787866,-0.594644043484,2.76416624486
1588856989233399560,1144,1588856989233308596,,0.372135176091,-0.592080487781,2.76417468658
1588856989236531428,1145,1588856989236456836,,0.371694446735,-0.541127659095,2.78842024378
1588856989239545855,1146,1588856989239465702,,0.371189199854,-0.538362978203,2.78830744611
1588856989242614224,1147,1588856989242491913,,0.370874545257,-0.487302092112,2.81277128416
1588856989245603081,1148,1588856989245449218,,0.370574776447,-0.484548639908,2.81269398193
1588856989248540849,1149,1588856989248453004,,0.370393026921,-0.432916670446,2.83732195118
1588856989251642096,1150,1588856989251517863,,0.37003993327,-0.43036750103,2.83721715716
1588856989254553281,1151,1588856989254379566,,0.369776176461,-0.378643221295,2.8616756827
1588856989257755990,1152,1588856989257659228,,0.369386614759,-0.375624456437,2.86179698128
1588856989260679328,1153,1588856989260563854,,0.368623352129,-0.370497774055,2.86190058703
1588856989263600909,1154,1588856989263470369,,0.368233658895,-0.318311382077,2.88671894907
1588856989266332975,1155,1588856989266277316,,0.367726239119,-0.31564513177,2.88665012047
1588856989269609680,1156,1588856989269537882,,0.367291763332,-0.263500362823,2.91113853954
1588856989272808180,1157,1588856989272716209,,0.366484985642,-0.258404213814,2.91097551074
1588856989278877771,1158,1588856989278743473,,0.3660946132,-0.206201428458,2.93618343268
1588856989284580916,1159,1588856989284470133,,0.365550299173,-0.153627331063,2.96088485267
1588856989287543514,1160,1588856989287475898,,0.36505978229,-0.100981922749,2.98620163107
1588856989290668682,1161,1588856989290562421,,0.364676641886,-0.0988122796611,2.98633322238
1588856989293626801,1162,1588856989293556049,,0.364281198166,-0.0967789444422,2.98644966369
1588856989299624891,1163,1588856989299563566,,0.363350152677,-0.0422182807009,3.01154893072
1588856989302826639,1164,1588856989302717712,,0.362917036981,0.0103685100957,3.03674343277
1588856989309123099,1165,1588856989308955607,,0.362533827731,0.062614675484,3.06246283672
1588856989314803371,1166,1588856989314704203,,0.362027801787,0.114928069921,3.08801819319
1588856989321248357,1167,1588856989320965288,,0.361398713399,0.116157947511,3.08775649349
1588856989326744680,1168,1588856989326672769,,0.360924723776,0.168296028595,3.11333095587
1588856989329482846,1169,1588856989329405671,,0.360437689011,0.220576717401,3.13875990762
1588856989332661457,1170,1588856989332587741,,0.360040850446,0.221292473721,3.1386142413
1588856989335862670,1171,1588856989335773371,,0.359579614749,0.273431984044,3.16398526034
1588856989338730279,1172,1588856989338599650,,0.359202279922,0.273959689303,3.16389704418
1588856989341802322,1173,1588856989341724660,,0.358912563944,0.326107615221,3.189539808
1588856989344578263,1174,1588856989344450698,,0.35857817351,0.326306413715,3.18943163471
1588856989350572522,1175,1588856989350472278,,0.357963516678,0.378229017814,3.2149324655
1588856989353580685,1176,1588856989353425660,,0.357770618497,0.378197414044,3.21487406925
1588856989356561541,1177,1588856989356486219,,0.357616102185,0.429834668247,3.24044810726
1588856989359764232,1178,1588856989359660299,,0.357400952625,0.429664061353,3.24029044338
1588856989362653376,1179,1588856989362546125,,0.357255849091,0.481039669581,3.26596287529
1588856989365647742,1180,1588856989365558650,,0.357164775537,0.48085788122,3.26591552683
1588856989368514818,1181,1588856989368438982,,0.356981451702,0.532222495983,3.29154136669
1588856989371749890,1182,1588856989371687439,,0.356876459039,0.531777120461,3.29148222407
1588856989374920794,1183,1588856989374796091,,0.356698930725,0.583050981005,3.31709871934
1588856989377750954,1184,1588856989377678729,,0.356598379582,0.582534807946,3.31691535496
1588856989381130674,1185,1588856989380877088,,0.356454782286,0.581754841982,3.31663595058
1588856989386651170,1186,1588856989386588884,,0.356244437871,0.632660646999,3.34213966722
1588856989392593747,1187,1588856989392503087,,0.355981747822,0.683438173638,3.36753688413
1588856989395650876,1188,1588856989395579323,,0.35568425567,0.733681418102,3.39275793697
1588856989398737243,1189,1588856989398651434,,0.355292007857,0.732149136324,3.39170867785
1588856989401647899,1190,1588856989401547500,,0.354810009404,0.782186225856,3.41682740249
1588856989404774225,1191,1588856989404680534,,0.354457241664,0.780325721199,3.41562697942
1588856989408009622,1192,1588856989407949456,,0.354027709812,0.829637733536,3.43969780466
1588856989413874638,1193,1588856989413727099,,0.353337666218,0.824505197248,3.43635331645
1588856989419986751,1194,1588856989419824336,,0.352957581668,0.873236573468,3.46037998445
1588856989425996651,1195,1588856989425853404,,0.352681677409,0.921598555949,3.48449577026
1588856989431715686,1196,1588856989431641122,,0.352413989422,0.969908400471,3.50854601842
1588856989434870336,1197,1588856989434784689,,0.352861519941,1.01482624528,3.53217516597
1588856989440905529,1198,1588856989440809735,,0.35334186933,1.04527991588,3.54809831178
1588856989446824117,1199,1588856989446728741,,0.354175997116,1.0560152047,3.55469380488
1588856989452697588,1200,1588856989452631144,,0.354738547793,1.10375619305,3.57967658719
1588856989455731164,1201,1588856989455643835,,0.355277046615,1.15167630968,3.6044555036
1588856989458801867,1202,1588856989458689224,,0.355895732975,1.14848463107,3.60388164023
1588856989461630684,1203,1588856989461553523,,0.356461736616,1.19618006163,3.62856951849
1588856989464593772,1204,1588856989464500817,,0.357125270355,1.19289626295,3.62741161437
1588856989470741235,1205,1588856989470635914,,0.358365264398,1.23751612287,3.65012731941
1588856989473953268,1206,1588856989473717054,,0.358801326842,1.23464081734,3.64875884229
1588856989479848253,1207,1588856989479742886,,0.359362632263,1.28238899888,3.67232721429
1588856989485428607,1208,1588856989485288408,,0.360001020341,1.33005175841,3.6958494366
1588856989488353176,1209,1588856989488260337,,0.360583361225,1.37802322657,3.7199084752
1588856989491723750,1210,1588856989491611691,,0.361248468431,1.37557649259,3.71801781012
1588856989494842163,1211,1588856989494746654,,0.361938008394,1.42313320578,3.74125363079
1588856989497770450,1212,1588856989497678131,,0.362715292004,1.42098280804,3.73976232077
1588856989500864787,1213,1588856989500630059,,0.363482820927,1.41875741276,3.73831356705
1588856989504069615,1214,1588856989503990838,,0.364164505797,1.46659934056,3.76203770523
1588856989509662582,1215,1588856989509582153,,0.365025729952,1.51431377276,3.78524350172
1588856989512647903,1216,1588856989512583968,,0.365766334018,1.5127197802,3.78394170012
1588856989515678450,1217,1588856989515490780,,0.366544629318,1.56030399048,3.80696075297
1588856989518579253,1218,1588856989518501716,,0.367227228722,1.55872259021,3.80511859581
1588856989521770879,1219,1588856989521697060,,0.367935259679,1.60609883276,3.82745067185
1588856989524712434,1220,1588856989524620980,,0.368646063113,1.60430472228,3.82530104007
1588856989528410205,1221,1588856989528329773,,0.369306060477,1.65156113641,3.84731182379
1588856989533754825,1222,1588856989533628906,,0.369919186697,1.65019947458,3.84475376983
1588856989536661144,1223,1588856989536546908,,0.370434469047,1.69723992648,3.86611337348
1588856989539689624,1224,1588856989539624625,,0.370925983199,1.69574192986,3.86356456867
1588856989542622419,1225,1588856989542549535,,0.371437357287,1.74250380562,3.88493744682
1588856989545636842,1226,1588856989545514073,,0.372006096381,1.74119198357,3.88213208705
1588856989548638430,1227,1588856989548567534,,0.372502919307,1.78759250085,3.90336212874
1588856989551716383,1228,1588856989551635053,,0.37305787731,1.78620813533,3.90067922591
1588856989554436317,1229,1588856989554360819,,0.373538181243,1.83234593457,3.92166756299
1588856989557663980,1230,1588856989557560588,,0.374064624428,1.83074186229,3.91905543372
1588856989561134031,1231,1588856989561048962,,0.374522912108,1.87643853109,3.94023954441
1588856989566828828,1232,1588856989566723956,,0.375092404793,1.8753108071,3.93790728298
1588856989572859834,1233,1588856989572785654,,0.375576812706,1.92056639037,3.95855863172
1588856989578839604,1234,1588856989578734033,,0.375986806358,1.96558897599,3.97922433672
1588856989581816771,1235,1588856989581705862,,0.376552177444,2.01037323693,3.99938089948
1588856989584895764,1236,1588856989584779636,,0.376889723927,2.00885392893,3.99663871849
1588856989587867637,1237,1588856989587730402,,0.377234372424,2.05303841284,4.0165671515
1588856989590792227,1238,1588856989590699582,,0.377505294358,2.05123192786,4.01336896904
1588856989593803802,1239,1588856989593709171,,0.377720204214,2.04955518171,4.01033028619
1588856989596864569,1240,1588856989596793944,,0.377827588512,2.09316894187,4.02977262989
1588856989599886637,1241,1588856989599782728,,0.377837531483,2.09125316495,4.0266703608
1588856989605897726,1242,1588856989605825122,,0.377925040287,2.13439553036,4.04585167254
1588856989608915441,1243,1588856989608802115,,0.377998927393,2.1769566505,4.06499133886
1588856989614828065,1244,1588856989614710333,,0.378065200187,2.21917422188,4.08416461338
1588856989617886369,1245,1588856989617785851,,0.378074705416,2.21687456959,4.08048661711
1588856989621148115,1246,1588856989621044717,,0.37815959067,2.25851910809,4.09972084708
1588856989626968788,1247,1588856989626872190,,0.378097889053,2.25586150848,4.09665005811
1588856989632738290,1248,1588856989632660869,,0.378068343648,2.29664328178,4.11526828531
1588856989635806486,1249,1588856989635663725,,0.377988726373,2.33707312276,4.1337850459
1588856989638706562,1250,1588856989638603339,,0.377785459933,2.33450903857,4.1307751111
1588856989641671251,1251,1588856989641490094,,0.377656072505,2.37480192024,4.14918398278
1588856989644627176,1252,1588856989644543864,,0.377429256464,2.37216589304,4.14637781006
1588856989647845651,1253,1588856989647770715,,0.377226229183,2.41108707347,4.16420963283
1588856989650755338,1254,1588856989650653608,,0.377003728048,2.40875309877,4.16192417349
1588856989653846245,1255,1588856989653772140,,0.376705327625,2.42422700196,4.16836633138
1588856989656799098,1256,1588856989656668007,,0.376399879148,2.4446299205,4.17677855172
1588856989659783708,1257,1588856989659684220,,0.376074540049,2.44154204962,4.17406299772
1588856989662625191,1258,1588856989662494207,,0.375689776419,2.47984305573,4.19195925432
1588856989665501143,1259,1588856989665422166,,0.375316441284,2.47683156469,4.18927217224
1588856989668694807,1260,1588856989668627912,,0.374959141839,2.51472140077,4.20660638002
1588856989671599462,1261,1588856989671490195,,0.374551610144,2.5120488724,4.20411346171
1588856989674939871,1262,1588856989674818142,,0.374213381189,2.54917113072,4.22108550112
1588856989681018226,1263,1588856989680935906,,0.373753745527,2.56219273264,4.22633052283
1588856989687043082,1264,1588856989686812522,,0.373297024684,2.58270252778,4.23483784671
1588856989692641903,1265,1588856989692577384,,0.372907078169,2.61894662838,4.25164512333
1588856989695898052,1266,1588856989695805356,,0.372496696805,2.65476596839,4.26780973451
1588856989698666917,1267,1588856989698605198,,0.372123329589,2.65176064167,4.26472571638
1588856989701831484,1268,1588856989701748028,,0.371656338446,2.68697166074,4.2808677156
1588856989705017074,1269,1588856989704937803,,0.371179414513,2.68401360302,4.2779499762
1588856989710568783,1270,1588856989710511246,,0.370748359422,2.71904058147,4.29377588798
1588856989713859766,1271,1588856989713594995,,0.370347603842,2.71641532169,4.29072712729
1588856989719562049,1272,1588856989719478553,,0.369927731734,2.75073820927,4.30591221384
1588856989722624481,1273,1588856989722486432,,0.369519253012,2.78438529439,4.32113843324
1588856989725547803,1274,1588856989725453297,,0.369098444788,2.78173072454,4.31800695154
1588856989728567491,1275,1588856989728470596,,0.368634676598,2.81509569147,4.33277452035
1588856989731623519,1276,1588856989731521977,,0.368229046637,2.81256008552,4.32982882501
1588856989734627247,1277,1588856989734422956,,0.367919157958,2.84517252708,4.3441092938
1588856989737802428,1278,1588856989737659544,,0.36750734327,2.84261649949,4.34086870487
1588856989741093471,1279,1588856989740919697,,0.367101876063,2.8400760141,4.33742545907
1588856989746616961,1280,1588856989746535248,,0.366689490744,2.87212500201,4.35091658586
1588856989749701502,1281,1588856989749573976,,0.366331638248,2.90418730083,4.36510802087
1588856989752605944,1282,1588856989752493962,,0.365908874631,2.90159414071,4.36160924883
1588856989755592406,1283,1588856989755509714,,0.365454851562,2.93234217646,4.37469232168
1588856989758610903,1284,1588856989758523582,,0.365014329364,2.93028738759,4.37208969735
1588856989761528210,1285,1588856989761444256,,0.364648233967,2.96078139263,4.38508277792
1588856989764497454,1286,1588856989764420714,,0.364218578556,2.95805878148,4.38155580312
1588856989767787068,1287,1588856989767723407,,0.36371814077,2.98779949119,4.39424376346
1588856989770468508,1288,1588856989770408540,,0.363285819281,2.98539704767,4.39081102746
1588856989773717971,1289,1588856989773499376,,0.362838147763,2.98306187208,4.38762047192
1588856989776607697,1290,1588856989776475873,,0.362415595553,3.01243636245,4.40006040064
1588856989781057043,1291,1588856989780979395,,0.361963385456,3.041200772,4.41211835526
1588856989785746823,1292,1588856989785672274,,0.361506959315,3.03900872343,4.40866414059
1588856989788530386,1293,1588856989788453129,,0.361136770111,3.06747344254,4.42041736865
1588856989791558556,1294,1588856989791451250,,0.360725648985,3.06522936983,4.416462803
1588856989794707746,1295,1588856989794630771,,0.360306496623,3.09286383194,4.42777889135
1588856989797589058,1296,1588856989797504779,,0.359923530417,3.09061259903,4.42399988495
1588856989800769213,1297,1588856989800646696,,0.359363755704,3.08860459441,4.42011591846
1588856989803921937,1298,1588856989803826423,,0.358789935703,3.11563116254,4.43071533866
1588856989806931589,1299,1588856989806868405,,0.358126113873,3.11350789836,4.42654873389
1588856989812596270,1300,1588856989812483449,,0.357264374429,3.14000579089,4.43655297168
1588856989815575994,1301,1588856989815503332,,0.356249657323,3.16592386141,4.44602906391
1588856989818488390,1302,1588856989818422143,,0.355502282319,3.16400059989,4.44168997772
1588856989821564092,1303,1588856989821460664,,0.354802266439,3.18916783182,4.45152604614
1588856989824601495,1304,1588856989824511698,,0.35408938418,3.1869360949,4.44733933247
1588856989828265588,1305,1588856989828146798,,0.353421359934,3.21137516795,4.45643764291
1588856989833825226,1306,1588856989833690713,,0.352803983069,3.20916305444,4.45217914746
1588856989836687248,1307,1588856989836601555,,0.352210826594,3.23262650057,4.46114477531
1588856989839855959,1308,1588856989839745939,,0.351536311659,3.23017368971,4.45707140624
1588856989842669076,1309,1588856989842576249,,0.350825777678,3.25303256946,4.46584998976
1588856989845632957,1310,1588856989845566982,,0.350136784183,3.2505607329,4.46219637767
1588856989848722650,1311,1588856989848623335,,0.349433271895,3.2727721474,4.47098438196
1588856989851521376,1312,1588856989851433758,,0.34885615064,3.27015085688,4.46756550786
1588856989854609712,1313,1588856989854457709,,0.348202524387,3.29142968812,4.47617099221
1588856989857462486,1314,1588856989857404595,,0.347531788054,3.28877029346,4.47266725025
1588856989863497256,1315,1588856989863403143,,0.346296659134,3.30701493321,4.47799320445
1588856989867025722,1316,1588856989866936705,,0.345626661785,3.304228204,4.47477785593
1588856989872743870,1317,1588856989872673674,,0.344921054908,3.32426750505,4.48315111199
1588856989875753258,1318,1588856989875672878,,0.344270575012,3.34364595003,4.49125950727
1588856989878928131,1319,1588856989878838988,,0.343614606196,3.34130147987,4.48816734142
