%time,field.header.seq,field.header.stamp,field.header.frame_id,field.wrench.force.x,field.wrench.force.y,field.wrench.force.z,field.wrench.torque.x,field.wrench.torque.y,field.wrench.torque.z
1588856986944054598,649,1588856986943958471,,0.183886519895,-0.000832865512344,0.887693029375,0.191525154089,-0.00298338959183,-0.0514933492666
1588856986950195242,650,1588856986950071560,,0.183880659311,-0.000827029249558,0.887694248837,0.191525520409,-0.00298196938588,-0.0514920690165
1588856986955965354,651,1588856986955878869,,0.205894103876,-0.126999227493,0.911984296452,0.191408035362,-0.00297712559212,-0.0522348095434
1588856986962017088,652,1588856986961881999,,0.206042770018,-0.126826746215,0.888773230241,0.190642059911,-0.00297261096989,-0.0522386131805
1588856986965010285,653,1588856986964910766,,0.228200406649,-0.127069070461,0.912663191726,0.19233727704,-0.00297344832359,-0.0529708496688
1588856986968023994,654,1588856986967869942,,0.228207640206,-0.127063110014,0.91266221288,0.192337026512,-0.00297043023448,-0.0529719286548
1588856986970972364,655,1588856986970881040,,0.205921308825,-0.126968772829,0.911982394605,0.19234145803,-0.00296874080694,-0.0531133871554
1588856986977005206,656,1588856986976907120,,0.183728127689,-0.253006079212,0.889365028399,0.19064550923,-0.00296057010106,-0.0523806961629
1588856986980128894,657,1588856986979928069,,0.183367343695,-0.127020147349,0.934654292886,0.19221036114,-0.00232351347678,-0.0532493290253
1588856986986076563,658,1588856986985956294,,0.183553476084,-0.126856067704,0.911326337702,0.191439936904,-0.00295777482986,-0.0532541164138
1588856986992144106,659,1588856986991977396,,0.205922621879,-0.126929415997,0.911987576628,0.192343066003,-0.00231963117897,-0.0531114695085
1588856986998104977,660,1588856986998009333,,0.206071008956,-0.126762101006,0.888775905638,0.191576009701,-0.00295519230383,-0.0531158945504
1588856987001127048,661,1588856987000988731,,0.205924866608,-0.253382366419,0.913185918334,0.191437213676,-0.00231704848719,-0.0531134695947
1588856987007503235,662,1588856987007299954,,0.205750512006,-0.253669411045,0.936450581226,0.192232926618,-0.00295934415666,-0.0539907588959
1588856987013104371,663,1588856987012983418,,0.205749101425,-0.253670134252,0.936450695242,0.193140432282,-0.00232455211046,-0.0539859177445
1588856987019112566,664,1588856987018986147,,0.205736611343,-0.253673814963,0.936452442318,0.193140859087,-0.00232788638243,-0.053984247105
1588856987025135705,665,1588856987025038664,,0.205635562417,-0.381193808482,0.961322694174,0.193879616842,-0.00233262022456,-0.0530988553656
1588856987031143366,666,1588856987031015796,,0.205633441555,-0.381199936606,0.961320717833,0.19387959959,-0.00233346110537,-0.0530988814133
1588856987037027422,667,1588856987036926755,,0.205629788442,-0.381200375723,0.961321325126,0.194852119976,-0.00233573671449,-0.0548625581338
1588856987043121498,668,1588856987042997621,,0.20562991667,-0.381202121622,0.961320605381,0.194852146401,-0.00233534771644,-0.0548624808416
1588856987049117870,669,1588856987049010346,,0.206041930004,-0.508724859685,0.940367930347,0.194937373012,-0.00233630620285,-0.0530912303151
1588856987055179777,670,1588856987055064014,,0.206038536136,-0.508734362488,0.940363533033,0.194937601204,-0.00233552638043,-0.0530904267561
1588856987061142671,671,1588856987061000348,,0.20561309583,-0.381247894458,0.961306051309,0.195759451961,-0.00233658570447,-0.0548551277781
1588856987067149439,672,1588856987067005250,,0.206029849166,-0.508759617582,0.940351772996,0.195909324548,-0.00297423495751,-0.05485336995
1588856987073090964,673,1588856987072991988,,0.205795109536,-0.509184972309,0.963385453745,0.196703644737,-0.00233834721376,-0.0557309575838
1588856987079192279,674,1588856987078980474,,0.205797074569,-0.509184234867,0.963385423744,0.196703455664,-0.00233888456169,-0.0557316023675
1588856987084996469,675,1588856987084885009,,0.206283482188,-0.637382734435,0.942704324564,0.196909848884,-0.00233991317469,-0.0574917902003
1588856987087963024,676,1588856987087865670,,0.206282516775,-0.637383305961,0.942704149395,0.196909867168,-0.00234008466724,-0.0574917205994
1588856987091070404,677,1588856987090969007,,0.205789036482,-0.509192923589,0.963382548447,0.198582128726,-0.00234503725217,-0.057483207283
1588856987097118121,678,1588856987096951771,,0.22823490508,-0.63839763225,0.989231975824,0.199427686776,-0.00234722056667,-0.059991412103
1588856987099975432,679,1588856987099875231,,0.228233971431,-0.638396939306,0.989232638423,0.199427458872,-0.00234874031057,-0.0599921102323
1588856987106363343,680,1588856987106277292,,0.228235382077,-0.638400122505,0.989230258689,0.200371390392,-0.00235222046566,-0.0608705774695
1588856987112023108,681,1588856987111859997,,0.25058607682,-0.638970428561,1.01279999491,0.202094852407,-0.00235707785335,-0.0624890145375
1588856987118022709,682,1588856987117924166,,0.227980612266,-0.638823556089,1.01222491115,0.203920165578,-0.00300219245369,-0.0626304598538
1588856987124100587,683,1588856987123931517,,0.227974044895,-0.63882628308,1.01222466925,0.20392019899,-0.00300393556494,-0.0626302674858
1588856987130021077,684,1588856987129922670,,0.250578666623,-0.638981359248,1.01279493212,0.20391480093,-0.00365325858182,-0.0624813155283
1588856987136074345,685,1588856987135979202,,0.250324496093,-0.639388142408,1.03590262876,0.20665838939,-0.00300977931343,-0.0669025782517
1588856987141979246,686,1588856987141886829,,0.250321702239,-0.639401571228,1.03589501513,0.206658464986,-0.00300943932471,-0.0669023600345
1588856987148033477,687,1588856987147928910,,0.272857214702,-0.639564463141,1.03646668727,0.207615729441,-0.00366035292012,-0.0685234849075
1588856987154018699,688,1588856987153913820,,0.250569514047,-0.768732910148,1.03804421101,0.209443122462,-0.00301429873454,-0.0686561322844
1588856987160115774,689,1588856987160024235,,0.273147630034,-0.768894928426,1.03859204372,0.210438928515,-0.00366591203777,-0.0711726384154
1588856987166197797,690,1588856987166002787,,0.250295040713,-0.769141208382,1.06101461116,0.212085675241,-0.00367060680849,-0.0704236975316
1588856987172056352,691,1588856987171962204,,0.250296719274,-0.76913899645,1.06101581863,0.212141873044,-0.00432060731545,-0.0722031173525
1588856987178095702,692,1588856987177930560,,0.272606591515,-0.769674921706,1.08455808902,0.212932063298,-0.00367312545771,-0.0729417923206
1588856987184079739,693,1588856987183924596,,0.272608324792,-0.769669048157,1.0845618216,0.213847770839,-0.00367489546339,-0.0729372998262
1588856987190089433,694,1588856987189976220,,0.25022276585,-0.899354658049,1.08610499262,0.214738397396,-0.00432975290744,-0.0721911038553
1588856987196106102,695,1588856987196002838,,0.29559487208,-0.899663334043,1.08716520815,0.216693562662,-0.00368372069831,-0.0763289258239
1588856987202131476,696,1588856987201975569,,0.29559113913,-0.899657714203,1.08717087368,0.216693897057,-0.00368385840849,-0.0763279698421
1588856987208091549,697,1588856987207995050,,0.318252802461,-1.03044753411,1.1126434725,0.218444623303,-0.00434161914799,-0.0788474248232
1588856987214150783,698,1588856987213953462,,0.31824327721,-1.03044384143,1.11264961686,0.218445055146,-0.00434263828539,-0.078846172278
1588856987220044602,699,1588856987219958732,,0.318238450904,-1.03043880836,1.11265565847,0.21756882705,-0.00434053983793,-0.0797357258673
1588856987225862547,700,1588856987225764739,,0.295542848652,-1.03027828413,1.11213949069,0.218420281125,-0.00498643407065,-0.0781019370555
1588856987229049601,701,1588856987228973296,,0.295537589769,-1.03028210713,1.11213734659,0.218449781518,-0.0043451827831,-0.0789881154952
1588856987231892750,702,1588856987231764095,,0.295537516084,-1.03027866591,1.11214055409,0.218449916744,-0.00434502566894,-0.0789877501542
1588856987235119306,703,1588856987234963005,,0.318225059173,-1.03043310902,1.1126647668,0.218532329665,-0.0043452975298,-0.0815141226358
1588856987241026163,704,1588856987240939026,,0.318220435574,-1.03042923634,1.1126696756,0.220352373947,-0.00435218016533,-0.0815068779803
1588856987247171052,705,1588856987247066624,,0.318215849553,-1.0304317416,1.11266866709,0.220352364587,-0.00435305053192,-0.081506856805
1588856987253171028,706,1588856987253016370,,0.318216581314,-1.03043347496,1.11266685256,0.220381006441,-0.00435312356586,-0.0823943849698
1588856987259197676,707,1588856987259083491,,0.318159375634,-1.16144252066,1.13756325944,0.222092375409,-0.00435874001983,-0.0832760009197
1588856987265118369,708,1588856987265023038,,0.318152005803,-1.16144228792,1.13756555827,0.222092581315,-0.00435967290215,-0.083275402944
1588856987271093518,709,1588856987270992738,,0.295086778622,-1.16163581429,1.15999873003,0.224681372409,-0.00501144377135,-0.0834173875655
1588856987277142468,710,1588856987277033726,,0.295090877015,-1.16163704923,1.15999645077,0.224680970434,-0.00501165280627,-0.0834184577026
1588856987283125274,711,1588856987283015644,,0.317835323693,-1.16178517455,1.16049640681,0.225705861071,-0.00501354528741,-0.0868242996224
1588856987289059681,712,1588856987288939538,,0.341239438303,-1.29257568918,1.13980834398,0.224966155706,-0.00436865921644,-0.0875767988683
1588856987292183205,713,1588856987292085793,,0.31837043213,-1.29242385331,1.13931380043,0.226759668383,-0.00567081999128,-0.0868215207396
1588856987298217215,714,1588856987298008364,,0.318367836355,-1.29242666465,1.13931133662,0.226759568567,-0.00567132301572,-0.0868217485796
1588856987301171803,715,1588856987301061899,,0.317694248232,-1.2930666018,1.18516857356,0.229310005399,-0.00502541002461,-0.0903750885375
1588856987307452877,716,1588856987307335435,,0.340759377645,-1.42441605352,1.18728483269,0.231125404574,-0.00503073235058,-0.0902272990751
1588856987313078634,717,1588856987312924268,,0.340761183188,-1.42441070157,1.18729073534,0.231125492725,-0.0050306277358,-0.0902270791009
1588856987316023982,718,1588856987315911395,,0.340408445642,-1.42469931199,1.21023661481,0.232833262592,-0.0056900901468,-0.0911077222597
1588856987319000546,719,1588856987318870672,,0.317493301914,-1.42456174396,1.20975264056,0.232809185603,-0.00569076998602,-0.0903581507211
1588856987322035263,720,1588856987321941306,,0.317841593476,-1.42425866281,1.18682414239,0.233017024224,-0.00569085028331,-0.092145529459
1588856987325114536,721,1588856987324969361,,0.317498085274,-1.42455212782,1.20976270872,0.233752647882,-0.00569402990784,-0.0912537812837
1588856987328126131,722,1588856987327911856,,0.340409405237,-1.42467900272,1.21026025271,0.233805502705,-0.0056942563258,-0.0928925269028
1588856987331009944,723,1588856987330834006,,0.34043607755,-1.42465882847,1.2102764985,0.233833672402,-0.00569215069452,-0.093783552393
1588856987333943359,724,1588856987333850533,,0.36345705136,-1.55620754144,1.2122643575,0.233857290472,-0.00568888883876,-0.0945317852426
1588856987337054565,725,1588856987336915144,,0.340588666858,-1.42463174083,1.21026545281,0.234765815857,-0.0056738914696,-0.0946844869504
1588856987340128398,726,1588856987339880039,,0.340591087765,-1.42462884261,1.21026818309,0.235738495864,-0.00567470716909,-0.0964592937164
1588856987343099994,727,1588856987342987066,,0.340758997043,-1.55603831417,1.21178974075,0.236643348389,-0.00567645445858,-0.0964551201207
1588856987345982048,728,1588856987345896860,,0.340766220168,-1.55603752714,1.21178872018,0.236643700684,-0.00567462895945,-0.0964543632084
1588856987349118317,729,1588856987348876339,,0.340536880791,-1.68790834804,1.23623448051,0.2383556881,-0.00567738129971,-0.0973352220143
1588856987351995618,730,1588856987351900465,,0.386275288797,-1.68817557258,1.23716289945,0.239337388973,-0.00568044768469,-0.0997268264525
1588856987355092796,731,1588856987355010666,,0.3862479156,-1.68818321663,1.23716101504,0.239337147715,-0.00568450163397,-0.09972717446
1588856987358113894,732,1588856987357935530,,0.386205223101,-1.68819708475,1.23715541912,0.240280033097,-0.00569310165537,-0.100614640505
1588856987361041325,733,1588856987360944949,,0.386520750222,-1.68793396759,1.21414207966,0.23959924002,-0.00569731881557,-0.103300668722
1588856987363985748,734,1588856987363894706,,0.386151020266,-1.68819289674,1.2371780532,0.24318571659,-0.00636361165125,-0.105970389245
1588856987367225787,735,1588856987367070762,,0.386145845613,-1.6881915855,1.23718145756,0.243186748481,-0.00636264671909,-0.105968079125
1588856987373171835,736,1588856987373026825,,0.409124989604,-1.68833500329,1.23764828788,0.245086453939,-0.00636812063464,-0.108498167131
1588856987379099737,737,1588856987378995325,,0.409105758324,-1.68832333191,1.23767056618,0.245087505994,-0.00637029729681,-0.108495662833
1588856987385134416,738,1588856987385027599,,0.408752611917,-1.68857405766,1.26061816478,0.24960377085,-0.00638298290769,-0.112056783681
1588856987391179267,739,1588856987391043591,,0.408747245414,-1.68857269561,1.26062172929,0.24960424502,-0.0063831092022,-0.112055720279
1588856987397138707,740,1588856987397032067,,0.431639093838,-1.68869580359,1.26111824886,0.251504342049,-0.00704298646303,-0.11459193896
1588856987400067396,741,1588856987399938330,,0.431282415151,-1.68893986986,1.28408050215,0.254086679388,-0.00769758010859,-0.11457885527
1588856987406531376,742,1588856987406338019,,0.431269781689,-1.6889400848,1.28408446255,0.255059848268,-0.00705359694784,-0.1163592109
1588856987412197869,743,1588856987412084913,,0.453902038401,-1.68934298139,1.30761154754,0.256794588356,-0.0070579162328,-0.118007656407
1588856987418307099,744,1588856987418167113,,0.454050920768,-1.82103329719,1.30888626781,0.25872824623,-0.00706452693,-0.12158383554
1588856987424289036,745,1588856987424170685,,0.45402517622,-1.82102318704,1.30890926416,0.261508177836,-0.00772211148073,-0.12335712555
1588856987430062503,746,1588856987429970730,,0.454021608313,-1.82101495042,1.3089219609,0.261509295567,-0.00772156173401,-0.123354790424
1588856987436065474,747,1588856987435984648,,0.476601699331,-1.82138097093,1.33236091045,0.265113552665,-0.00773138942378,-0.126786728372
1588856987442159251,748,1588856987442054002,,0.476617696083,-1.82137748519,1.33235995323,0.265113670917,-0.00772890800413,-0.126786632397
1588856987448160976,749,1588856987447987682,,0.47624460898,-1.8216134498,1.35533079806,0.2677532807,-0.00773789213452,-0.128573127158
1588856987454113058,750,1588856987454010596,,0.476243655479,-1.82161335471,1.35533126091,0.268723533445,-0.00774123010993,-0.130360754574
1588856987460202734,751,1588856987460051261,,0.4758889005,-1.8218476266,1.37830340649,0.269514817776,-0.0084015896031,-0.13126352509
1588856987466066453,752,1588856987465974667,,0.475890386237,-1.82185806576,1.37828909487,0.27226585852,-0.00775051404499,-0.13214574242
1588856987472125247,753,1588856987471958032,,0.475666690864,-1.95386605326,1.4025442977,0.274058372509,-0.00841373270042,-0.135734160597
1588856987478167071,754,1588856987478030006,,0.475666104506,-1.95387119125,1.40253733887,0.274057143993,-0.00841531843648,-0.135736542741
1588856987484159563,755,1588856987484038002,,0.474818490596,-1.8225883861,1.44730507445,0.275555495482,-0.00842130156867,-0.134834419967
1588856987490082567,756,1588856987489959613,,0.474811239609,-1.82260724026,1.44728370999,0.275554383564,-0.00842275232368,-0.134836601708
1588856987493129843,757,1588856987493016863,,0.498197796918,-1.82251532712,1.42476500327,0.278419996868,-0.00909157255029,-0.13467373015
1588856987499167365,758,1588856987499038543,,0.498252492532,-1.82252866278,1.42472881772,0.278416043144,-0.00908812858887,-0.134682136078
1588856987505202225,759,1588856987505096545,,0.475355468812,-1.95414054794,1.42543721785,0.282066401613,-0.00910011390773,-0.134815427478
1588856987511068922,760,1588856987510939317,,0.474970835894,-1.95435614428,1.44844156442,0.285582860694,-0.00845490883772,-0.135690819005
1588856987514028347,761,1588856987513937477,,0.47460205083,-1.95458523253,1.47142721759,0.289190824597,-0.00846470060546,-0.139268417643
1588856987517079021,762,1588856987516968301,,0.498032528845,-1.95451073736,1.44887542307,0.290238785582,-0.00912505204781,-0.139124831345
1588856987523001863,763,1588856987522903711,,0.498028462361,-1.95452428095,1.44885855061,0.291180045416,-0.00912796277668,-0.140017996836
1588856987526025592,764,1588856987525943063,,0.497685591297,-1.95474152992,1.4718512934,0.294694068938,-0.00913784165624,-0.140897090866
1588856987529151277,765,1588856987529062821,,0.49768389698,-1.95473322459,1.47186289641,0.294694598889,-0.00913799521717,-0.140895972481
1588856987534967792,766,1588856987534878529,,0.497677967425,-1.95472349504,1.47187782276,0.296569498221,-0.00848497855729,-0.142689447701
1588856987538200137,767,1588856987538086499,,0.497316269167,-1.95494061412,1.49498075537,0.298249141766,-0.00980173215336,-0.142681118772
1588856987544091643,768,1588856987543991658,,0.497031515428,-2.08699605914,1.5190807982,0.302705632234,-0.00981677066022,-0.144450720631
1588856987547029652,769,1588856987546943649,,0.497042745952,-2.08697779217,1.51910221951,0.302704004378,-0.0098194485635,-0.144453949847
1588856987550088882,770,1588856987550001362,,0.496623255124,-1.95535922574,1.54101084749,0.305312185818,-0.00982940714219,-0.145351452149
1588856987553134855,771,1588856987553048730,,0.519320205114,-2.08750326496,1.56559574085,0.307013810666,-0.00983418986504,-0.146094926706
1588856987559121139,772,1588856987559033752,,0.542291135924,-2.08761801947,1.56608001386,0.308881623002,-0.0105028796837,-0.147735974403
1588856987565283267,773,1588856987565155594,,0.542305111578,-2.08761730465,1.56607612727,0.308880329117,-0.0105029045579,-0.147738677816
1588856987571104235,774,1588856987570993178,,0.519709517066,-2.08728299875,1.54259279069,0.309912607961,-0.00984429280152,-0.146980126426
1588856987577141086,775,1588856987577043057,,0.51933294931,-2.08748110885,1.56562105517,0.313438409932,-0.0105171155056,-0.147853872422
1588856987583142298,776,1588856987582977483,,0.519341029685,-2.08747000102,1.56563318506,0.313437660018,-0.0105181414991,-0.147855389186
1588856987586082628,777,1588856987585897599,,0.542035027741,-2.21968097273,1.59027497893,0.316101230488,-0.00986747015915,-0.150400836251
1588856987589008449,778,1588856987588920762,,0.541685341036,-2.21989093047,1.61326908459,0.316865189433,-0.00986689063001,-0.150397285974
1588856987592013527,779,1588856987591925854,,0.541593137402,-2.08800156715,1.61224388082,0.317807558905,-0.00987182670769,-0.151287824997
1588856987595075540,780,1588856987594927005,,0.541652915128,-2.21987065696,1.61330786803,0.318740532803,-0.00987465116669,-0.152177462512
1588856987598178389,781,1588856987598089860,,0.541656104421,-2.21987123408,1.61330600315,0.319656577519,-0.00987496108988,-0.152168986254
1588856987601033012,782,1588856987600947374,,0.541666675692,-2.21988526073,1.61328315332,0.322417475189,-0.0098811495364,-0.153060646082
1588856987604395252,783,1588856987604295415,,0.541688577045,-2.21989410761,1.61326362621,0.322416463155,-0.00987850315357,-0.153062948701
1588856987610094039,784,1588856987609998255,,0.563689512938,-2.22057996184,1.68293895752,0.326582922894,-0.00989186549483,-0.154690482247
1588856987612989978,785,1588856987612913403,,0.563701388961,-2.22060502389,1.68290191057,0.326580843415,-0.00989130847139,-0.154694907991
1588856987619255634,786,1588856987619156300,,0.540589535557,-2.2204944742,1.68242794057,0.327465058411,-0.0105523862874,-0.153926331715
1588856987625100127,787,1588856987624954269,,0.540597638951,-2.22049912765,1.68241919509,0.32746395215,-0.0105526040649,-0.153928670238
1588856987628068069,788,1588856987627928514,,0.540551180425,-2.08864370416,1.68138166952,0.329338179552,-0.00989304623943,-0.155713081535
1588856987631053617,789,1588856987630964238,,0.563993467719,-2.08855783147,1.65872802833,0.328591998218,-0.00989300324665,-0.156477089711
1588856987634123080,790,1588856987634007053,,0.56367794777,-2.22061698157,1.68289398389,0.330277931705,-0.00989669400944,-0.156459225948
1588856987636968528,791,1588856987636885168,,0.563685477512,-2.22062084869,1.68288635905,0.33027919446,-0.00989286258225,-0.156456802615
1588856987640225291,792,1588856987640040204,,0.564029012111,-2.22042546026,1.65976340748,0.331332718705,-0.00989760552745,-0.156446251131
1588856987643039252,793,1588856987642956959,,0.540943540579,-2.22030640121,1.65929086411,0.332250141551,-0.0105609912686,-0.156593448855
1588856987645961547,794,1588856987645880815,,0.540930826688,-2.2203385289,1.6592520179,0.332252758934,-0.0105554906283,-0.156588266225
1588856987648988458,795,1588856987648888638,,0.540924587476,-2.22031126416,1.65929053574,0.332252789304,-0.0105590361836,-0.156587962742
1588856987652098571,796,1588856987652003918,,0.563673758632,-2.22062339464,1.6828869248,0.333973183718,-0.0105633382702,-0.158236081202
1588856987655006633,797,1588856987654927215,,0.563672270765,-2.22064201894,1.68286284752,0.333975457002,-0.0105578235442,-0.158231651178
1588856987658209016,798,1588856987658037844,,0.563680728094,-2.22065475118,1.68284321358,0.3348652651,-0.0105572030055,-0.157323857409
1588856987664142517,799,1588856987664040929,,0.540571507199,-2.22053772794,1.68237664496,0.335748699166,-0.0105606797771,-0.156558497557
1588856987670055308,800,1588856987669927467,,0.540956625681,-2.35230510619,1.66022977007,0.335895843352,-0.0112260066247,-0.156555277949
1588856987673228413,801,1588856987673098827,,0.540550996041,-2.22053573218,1.68238586951,0.336665383414,-0.0105645474739,-0.156548554596
1588856987678977782,802,1588856987678901751,,0.540580724517,-2.22053799998,1.68237332422,0.336664428238,-0.0105611095547,-0.156550840696
1588856987682032262,803,1588856987681949629,,0.563376801934,-2.35279343999,1.70684302497,0.337425418949,-0.0105616325008,-0.156393318961
1588856987685137290,804,1588856987685034607,,0.563024020209,-2.35297642794,1.72988054954,0.338189085781,-0.0105636198934,-0.156390447694
1588856987688135872,805,1588856987687998685,,0.562991803796,-2.35297496167,1.72989302908,0.338190444085,-0.010566460742,-0.156387318455
1588856987694182081,806,1588856987694072849,,0.539860678686,-2.35289143569,1.72939404642,0.340042621172,-0.00990772103927,-0.157423758896
1588856987697232770,807,1588856987697052837,,0.539477285748,-2.35306496016,1.75255778085,0.339897412762,-0.00990671434027,-0.157420927644
1588856987700145016,808,1588856987700054629,,0.562601366762,-2.35316758842,1.75303243423,0.339918281113,-0.0105691238551,-0.158179717958
1588856987706442036,809,1588856987706337652,,0.562609778299,-2.3531698748,1.75302666558,0.340805662507,-0.0105745655453,-0.157277237963
1588856987712153183,810,1588856987712011745,,0.585622933287,-2.35327338698,1.7535064558,0.342700779803,-0.0105799934304,-0.159816489912
1588856987718138004,811,1588856987718032492,,0.562593087507,-2.35314224458,1.75306911079,0.344448779926,-0.0105885618376,-0.157246204219
1588856987724175670,812,1588856987724044583,,0.562574253332,-2.35316542997,1.75304403289,0.344449768001,-0.0105877316142,-0.15724409572
1588856987730178690,813,1588856987730063441,,0.562237212491,-2.48534187127,1.77702298758,0.34615858982,-0.00992578225397,-0.158127655235
1588856987736170181,814,1588856987736076348,,0.562259408311,-2.48533801363,1.77702136012,0.346157681054,-0.00992429731058,-0.15812973781
1588856987742166144,815,1588856987742036345,,0.56225839762,-2.48535171725,1.7770025139,0.346157745075,-0.0105838811884,-0.15812793212
1588856987748101996,816,1588856987748013696,,0.562617574805,-2.35316583663,1.753029584,0.346295202248,-0.00992742992759,-0.158134796627
1588856987754047513,817,1588856987753929285,,0.562260346162,-2.48533877556,1.77701999775,0.347975542779,-0.0105959343107,-0.158120448498
1588856987757084197,818,1588856987756867127,,0.562237633834,-2.48534074681,1.77702442693,0.34800488054,-0.00993151822565,-0.159014378778
1588856987760170402,819,1588856987760040945,,0.539123422509,-2.61731850631,1.77742979965,0.348870571646,-0.00993502590712,-0.157354303413
1588856987762945169,820,1588856987762865232,,0.539128591773,-2.61729690361,1.77746004194,0.348871819035,-0.00993413992557,-0.157351593734
1588856987765953290,821,1588856987765875218,,0.539139368989,-2.61731978247,1.77742308355,0.348869992426,-0.00993354656009,-0.157355680991
1588856987769020726,822,1588856987768928616,,0.561892685391,-2.61758395597,1.80094820711,0.350586833577,-0.00929128412642,-0.15900526522
1588856987771986241,823,1588856987771878575,,0.538748489719,-2.61748889882,1.80047779021,0.349658930815,-0.00928873979406,-0.158255323423
1588856987774942503,824,1588856987774814393,,0.538787085064,-2.61745786463,1.80051135722,0.348716775782,-0.00928536032575,-0.157364811412
1588856987778677978,825,1588856987778550423,,0.561915118656,-2.61757632365,1.80095230098,0.348738657325,-0.00993728514364,-0.158120800334
1588856987784063170,826,1588856987783973310,,0.51613421085,-2.6172188407,1.77695617879,0.340532901314,-0.00925842956943,-0.153062995639
1588856987790102391,827,1588856987790002460,,0.539247109633,-2.61728817661,1.77743694013,0.337801567845,-0.00924507865698,-0.152940939026
1588856987793158830,828,1588856987792994206,,0.562859474178,-2.61714576376,1.7549327087,0.337008759789,-0.00857363611651,-0.151893221258
1588856987795989334,829,1588856987795907844,,0.562815838063,-2.61719411592,1.75487459396,0.33700913722,-0.00857502846542,-0.151892305242
1588856987798950103,830,1588856987798866576,,0.563212444759,-2.6169991926,1.73176474755,0.336217443495,-0.00790889901631,-0.150995277532
1588856987802244885,831,1588856987802143212,,0.539716901717,-2.61705023262,1.754463857,0.337842888906,-0.00857344126394,-0.14932588348
1588856987808035920,832,1588856987807952267,,0.53972292269,-2.61700952904,1.75452271892,0.337840104241,-0.00858067543428,-0.149331767992
1588856987811153781,833,1588856987810955925,,0.54010069269,-2.61684468887,1.73137434374,0.339859819645,-0.00858556917907,-0.151115269293
1588856987814074466,834,1588856987813990284,,0.53974945545,-2.61696137642,1.7545863784,0.340629685875,-0.00858573305706,-0.151106405202
1588856987817013907,835,1588856987816925441,,0.539704608298,-2.61694955456,1.75461780576,0.340632416733,-0.0085886230311,-0.15110008481
1588856987820109339,836,1588856987819999834,,0.562885910718,-2.61706913497,1.7550385018,0.342474244408,-0.00858891938673,-0.151846833962
1588856987826152835,837,1588856987826072308,,0.51670567605,-2.61685909395,1.75413521623,0.343373744543,-0.00924889468163,-0.15122131106
1588856987832102019,838,1588856987832021175,,0.516327945377,-2.61703866229,1.77716525343,0.34504352222,-0.00859376046568,-0.15121295792
1588856987835153628,839,1588856987835064473,,0.539375563085,-2.61711888751,1.77764722356,0.345980689575,-0.00925836508108,-0.151958649289
1588856987838067154,840,1588856987837997467,,0.539420424904,-2.61712361968,1.77762664397,0.345979132851,-0.00925412637038,-0.151962451788
1588856987841093160,841,1588856987840967644,,0.539091823352,-2.61726594898,1.80069911478,0.347650198869,-0.00859311867951,-0.151951578299
1588856987844170584,842,1588856987844089717,,0.515644698121,-2.61734226733,1.82329541,0.349263283681,-0.0085945459564,-0.149375282536
1588856987850161749,843,1588856987850032465,,0.515679397179,-2.61733605723,1.82329451104,0.349263226335,-0.00859016497686,-0.149375668622
1588856987853243731,844,1588856987853118133,,0.515304723087,-2.61751132748,1.84643920934,0.352794910509,-0.00859829519735,-0.150247228807
1588856987859225925,845,1588856987859059696,,0.515263782682,-2.61751764478,1.84644167912,0.352798970386,-0.00859648322251,-0.150237799159
1588856987865166381,846,1588856987865084515,,0.537958901774,-2.61778790935,1.86994061652,0.358147261008,-0.00860467639035,-0.150945678662
1588856987871242066,847,1588856987871141688,,0.537971728011,-2.61778596226,1.86993965232,0.362723195835,-0.00861480281801,-0.151806556936
1588856987877252257,848,1588856987877159074,,0.537210241069,-2.75024374653,1.91688530418,0.367888868766,-0.00795697532139,-0.150854591051
1588856987883211878,849,1588856987883108293,,0.536433585331,-2.75056808297,1.96312416411,0.374843959491,-0.00863896261639,-0.14898828421
1588856987889185032,850,1588856987889083686,,0.536423747259,-2.75054405796,1.96316051377,0.374845098818,-0.00864003524052,-0.148985355512
1588856987895170995,851,1588856987895027174,,0.536465391934,-2.75054060486,1.96315397219,0.376668291641,-0.00797768263915,-0.148971167805
1588856987898177684,852,1588856987898052876,,0.513364013013,-2.7504199811,1.96275307956,0.376651217105,-0.00732696411547,-0.148209235687
1588856987901162745,853,1588856987901075200,,0.512606022422,-2.75077866607,2.00884992286,0.379126054843,-0.00732484279298,-0.149082922062
1588856987910141998,854,1588856987910071908,,0.53564546874,-2.7508479156,2.00933789769,0.379147211294,-0.00732901203787,-0.149836576812
1588856987916173581,855,1588856987916082684,,0.535653313545,-2.75087366989,2.00930054746,0.380031799009,-0.00732453697016,-0.148922411371
1588856987922071542,856,1588856987921998973,,0.512614717053,-2.75076788087,2.00886247261,0.380031730101,-0.00798061852979,-0.149074676613
1588856987925203434,857,1588856987925115408,,0.534908448899,-2.75116328109,2.05559741966,0.384330254012,-0.00733660038104,-0.149786353039
1588856987931109784,858,1588856987931035696,,0.534877335001,-2.75116582337,2.05560211337,0.385247188164,-0.00734306680355,-0.149776951816
1588856987937157670,859,1588856987937087045,,0.511821736312,-2.75105361702,2.0551773242,0.391613292781,-0.00867683490862,-0.148958719299
1588856987943147907,860,1588856987943060881,,0.511813000588,-2.7510489954,2.05518568619,0.391614569814,-0.00867584322011,-0.148955419694
1588856987949253880,861,1588856987949176440,,0.465149367179,-2.75104618344,2.0773641865,0.400485322049,-0.00870226819958,-0.144632417797
1588856987955252854,862,1588856987955135781,,0.465185085377,-2.75103168836,2.07737538412,0.400483643834,-0.00870152934316,-0.144637109119
1588856987958209803,863,1588856987958070220,,0.464651512866,-2.88333759461,2.10126100012,0.406657374694,-0.00805756723964,-0.141852239244
1588856987961025765,864,1588856987960945445,,0.464647307528,-2.88337205213,2.10121464686,0.406658647661,-0.00805310379174,-0.141848843363
1588856987964083448,865,1588856987963936923,,0.464130926544,-3.0156997566,2.12518756501,0.408302361092,-0.00805747492444,-0.140021333557
1588856987967082233,866,1588856987967004546,,0.417154477244,-2.88367782124,2.16970485091,0.411554237798,-0.00806758210504,-0.135753173322
1588856987970078619,867,1588856987969982248,,0.417096265258,-2.88369370747,2.16969492825,0.411556654974,-0.00806943229994,-0.135745735132
1588856987973346089,868,1588856987973204959,,0.439367530025,-3.01624802675,2.21719835285,0.415827258881,-0.00741963810447,-0.135538015674
1588856987979192761,869,1588856987979064786,,0.439439710791,-3.016242179,2.21719200327,0.415822209889,-0.00742146411118,-0.135553404915
1588856987982107984,870,1588856987982027272,,0.438929298901,-3.14854542958,2.24109589489,0.418357559237,-0.00742951268234,-0.132817962612
1588856987985024921,871,1588856987984957797,,0.438493205957,-3.1486643739,2.26423975913,0.420905447761,-0.00744232279687,-0.130974765971
1588856987988071730,872,1588856987987979130,,0.438558579228,-3.14865059695,2.26424625624,0.420903266159,-0.00743935331318,-0.130981945335
1588856987991144800,873,1588856987990937418,,0.438578878744,-3.14858661285,2.26433129786,0.421809986632,-0.00744538273606,-0.130975271522
1588856987994112372,874,1588856987994020899,,0.438553303917,-3.14853498613,2.26440803715,0.423615921761,-0.00678856416775,-0.13004843973
1588856987997081934,875,1588856987996990493,,0.438604075576,-3.14853158218,2.26440293651,0.423613582387,-0.00678738035615,-0.13005612148
1588856988000266110,876,1588856988000053050,,0.438614473173,-3.14846907214,2.26448783695,0.425470667508,-0.00679662960597,-0.130939984845
1588856988003424114,877,1588856988003317100,,0.438611098773,-3.14842516428,2.26454953731,0.426399926742,-0.00680417551656,-0.131834130685
1588856988009222106,878,1588856988009036512,,0.438637223188,-3.1483869665,2.26459758315,0.426399653222,-0.00680343374243,-0.131835053628
1588856988012198734,879,1588856988012063869,,0.462118698006,-3.14829358677,2.2419834546,0.423958297314,-0.00680638078639,-0.138057557302
1588856988015127741,880,1588856988015049198,,0.439400060437,-3.14805922775,2.21846749711,0.423173745431,-0.00746630635706,-0.137301735637
1588856988018074285,881,1588856988017997149,,0.439429201938,-3.14809949558,2.21840458273,0.423172661083,-0.00746221284826,-0.137305300162
1588856988021065013,882,1588856988020990936,,0.416209560674,-3.14802419928,2.21796358801,0.42223189515,-0.00812398039292,-0.136564080815
1588856988024029270,883,1588856988023880277,,0.462478834505,-3.14818624682,2.2188445115,0.423214061045,-0.00746916952435,-0.138963802672
1588856988030198078,884,1588856988030071119,,0.462505385977,-3.1482079868,2.21880813119,0.423280411423,-0.00812058423536,-0.14168134396
1588856988036244776,885,1588856988036118878,,0.439483701786,-3.14813155314,2.21834829328,0.425084811163,-0.00811820204976,-0.140910571032
1588856988042224422,886,1588856988042099294,,0.439517051785,-3.14814006134,2.21832961159,0.425085915865,-0.00811064488066,-0.140907673629
1588856988045061175,887,1588856988044900676,,0.46220211793,-3.14839822623,2.24181931063,0.426793632893,-0.00745355766944,-0.141637150967
1588856988047944365,888,1588856988047854380,,0.415941460926,-3.14824696994,2.24092451666,0.427683955153,-0.00810683115652,-0.141014873112
1588856988051111195,889,1588856988051020703,,0.415523158733,-3.14836409472,2.26406477053,0.429324084498,-0.00811492330254,-0.139190846357
1588856988057299318,890,1588856988057191438,,0.461426249278,-3.1487000026,2.2880951326,0.431935479468,-0.00746669488386,-0.139779811231
1588856988063308107,891,1588856988063170311,,0.437804281709,-3.28097965813,2.31150489303,0.437166881916,-0.00681080820323,-0.135327860691
1588856988069260599,892,1588856988069147577,,0.437794624111,-3.2809766042,2.31151105696,0.437169012743,-0.00680734437569,-0.13532115131
1588856988075190874,893,1588856988075116952,,0.414460608325,-3.41316457219,2.31178235368,0.437990501231,-0.00747526600787,-0.13184588044
1588856988081232683,894,1588856988081130452,,0.413544358526,-3.5456858944,2.35873370855,0.44220567364,-0.00681682808543,-0.129075755131
1588856988087307945,895,1588856988087101187,,0.413529064475,-3.54566965092,2.35876080717,0.442206142282,-0.00681856930108,-0.12907405761
1588856988093235266,896,1588856988093106093,,0.390889990829,-3.54540171362,2.33530894924,0.445968366739,-0.00682380493762,-0.127374144947
1588856988099267482,897,1588856988099161453,,0.390979573487,-3.54532846302,2.33540515685,0.445968346913,-0.00681644139763,-0.127374608636
1588856988105380493,898,1588856988105254709,,0.391047413616,-3.41302616828,2.33472599635,0.446898797756,-0.00682684027021,-0.128263749611
1588856988111310570,899,1588856988111203643,,0.436921156958,-3.54567257952,2.35927171092,0.448707902287,-0.00681978994129,-0.133382752173
1588856988117204706,900,1588856988117096670,,0.437006386202,-3.54569399749,2.35922373655,0.448708159403,-0.00680698623263,-0.13338254125
1588856988119978826,901,1588856988119869751,,0.436611303468,-3.54582276267,2.38243005665,0.449502802448,-0.00680265858784,-0.134268868687
1588856988122898275,902,1588856988122835009,,0.436553958684,-3.54585429547,2.38239363369,0.449502770596,-0.00680836948311,-0.13426868586
1588856988126086073,903,1588856988125912346,,0.436436483436,-3.54583020336,2.38245101404,0.45044518186,-0.00682154683722,-0.135151616266
1588856988128945046,904,1588856988128852620,,0.436119585674,-3.54592915075,2.40558905633,0.451235575175,-0.00681166531643,-0.136052288846
1588856988131920085,905,1588856988131847285,,0.436300660215,-3.54594797872,2.40552846776,0.451236744236,-0.00612108176078,-0.13605309206
1588856988135139877,906,1588856988135068137,,0.436202550808,-3.54586278966,2.40567183021,0.453065820432,-0.00613631820216,-0.136021400259
1588856988141155000,907,1588856988141028974,,0.436431739045,-3.41353434628,2.40502501088,0.453084872651,-0.00613086181966,-0.136933679991
1588856988144196897,908,1588856988144099281,,0.436412503582,-3.54591173541,2.40556160481,0.453971905476,-0.00677633308451,-0.136015277835
1588856988150209636,909,1588856988150103213,,0.412726908933,-3.54593718153,2.42829558426,0.458386018645,-0.00678933788258,-0.135192571427
1588856988156303948,910,1588856988156150264,,0.412773377733,-3.54593507159,2.42829076677,0.458387605257,-0.00677961652012,-0.135187679592
1588856988162240486,911,1588856988162121293,,0.41186316489,-3.54613702301,2.47471507407,0.4653387289,-0.00747841253326,-0.132384005325
1588856988168229098,912,1588856988168086039,,0.411803585088,-3.54604522958,2.47485651855,0.465338744726,-0.00749116143109,-0.132383228892
1588856988174222506,913,1588856988174111548,,0.388102023675,-3.67837821513,2.49826213441,0.467892181756,-0.00684112472647,-0.130697864324
1588856988180335990,914,1588856988180164135,,0.411230979599,-3.67843680344,2.49870972498,0.471541508247,-0.0061890112753,-0.130503076103
1588856988186363407,915,1588856988186209592,,0.411157923895,-3.67843992637,2.49871714985,0.471541228457,-0.00619902950133,-0.130503611565
1588856988192337132,916,1588856988192201524,,0.364628599152,-3.67834052182,2.49781993948,0.473355837329,-0.00687946488558,-0.129862255955
1588856988198044101,917,1588856988197906602,,0.36450023799,-3.67836726504,2.49779929134,0.473359338136,-0.00688595802801,-0.129849150457
1588856988201264478,918,1588856988201161029,,0.387275928667,-3.67857102305,2.52134264496,0.473258130106,-0.00755507242617,-0.131510136427
1588856988207590049,919,1588856988207436516,,0.433708793215,-3.67875248593,2.52214305399,0.474226614035,-0.00621448837307,-0.133920421545
1588856988213272342,920,1588856988213155589,,0.433761242786,-3.67870654087,2.52220104776,0.474225760086,-0.00621216374465,-0.133923553282
1588856988219323074,921,1588856988219188031,,0.410892376607,-3.67851079738,2.49865649772,0.471680314249,-0.00686984728567,-0.135902832073
1588856988225179540,922,1588856988225032055,,0.410876940512,-3.67847857347,2.49870647525,0.471684525364,-0.0068635503879,-0.135888533827
1588856988228129132,923,1588856988228032666,,0.410576527345,-3.67858736718,2.52182752943,0.472453949923,-0.00684742001559,-0.135873105878
1588856988231130783,924,1588856988231042067,,0.410640002925,-3.6785835638,2.5218227422,0.472455329995,-0.00683604662958,-0.135868879753
1588856988234173623,925,1588856988234033886,,0.433938918688,-3.67869576646,2.52218620002,0.471522172442,-0.00615901267319,-0.13482811188
1588856988237097199,926,1588856988237008612,,0.433702109122,-3.54653619696,2.54461261004,0.47322126321,-0.00615254796685,-0.135715565046
1588856988240228075,927,1588856988240080165,,0.433753917782,-3.54658224824,2.54453959416,0.474118790352,-0.00614246747676,-0.134788037975
1588856988246319922,928,1588856988246202536,,0.410089329559,-3.67897304709,2.56791520732,0.474870322276,-0.0067947936722,-0.134018170659
1588856988252249586,929,1588856988252147921,,0.410109474551,-3.67898305991,2.56789764499,0.474869633035,-0.00679336710269,-0.134020685158
1588856988258198140,930,1588856988258081029,,0.386560722813,-3.679065494,2.59055312092,0.47827743318,-0.00680255601695,-0.129599442268
1588856988261123611,931,1588856988261026628,,0.386392156102,-3.67904430697,2.59060835769,0.478276222822,-0.0068287568306,-0.129602531059
1588856988264180417,932,1588856988264068776,,0.40962093007,-3.67918728414,2.59092016259,0.480142506786,-0.00681779451254,-0.131251549745
1588856988270175854,933,1588856988270084168,,0.386680044106,-3.6790512029,2.56731529644,0.481140114655,-0.00684748844072,-0.128666025632
1588856988273157201,934,1588856988273067489,,0.386475962761,-3.81140096938,2.5679252302,0.481117171547,-0.00685790651798,-0.127768705084
1588856988279308265,935,1588856988279191170,,0.38638586538,-3.81137329414,2.56797986418,0.482047729152,-0.00687071607942,-0.128656620866
1588856988285204697,936,1588856988285093063,,0.386350327833,-3.81138685487,2.56796508422,0.482027319333,-0.00620884234818,-0.127754241346
1588856988288233705,937,1588856988288069445,,0.385905216775,-3.8114878406,2.59112333878,0.483713845842,-0.00621742995993,-0.127731049731
1588856988291128047,938,1588856988291032979,,0.362545981149,-3.81138656693,2.59075508071,0.483697636592,-0.00689297126249,-0.126958774047
1588856988294272257,939,1588856988294070201,,0.362389561049,-3.94374358688,2.5913683103,0.484635413723,-0.00689851836031,-0.127857332849
1588856988297233136,940,1588856988297088300,,0.385629707047,-3.94377752464,2.59185387031,0.484654916746,-0.00623364762625,-0.128616670283
1588856988300404395,941,1588856988300179505,,0.385552821061,-3.94372450948,2.59194597462,0.484655024532,-0.00624552767745,-0.128615687781
1588856988306659702,942,1588856988306558607,,0.362474275459,-3.81123519397,2.59098779138,0.484657769698,-0.00691376545597,-0.128755390477
1588856988312304867,943,1588856988312233995,,0.409116300893,-3.9435502116,2.56944940377,0.483925843534,-0.00625148121591,-0.130288810908
1588856988318300523,944,1588856988318205977,,0.385806797819,-3.8111639966,2.59161429575,0.484697173878,-0.0062458948968,-0.130434078023
1588856988324256249,945,1588856988324162718,,0.385866591132,-3.81117250442,2.59159288229,0.484697665474,-0.00623655559283,-0.130432698109
1588856988330237444,946,1588856988330158377,,0.409154433408,-3.81122750375,2.59202308172,0.484735616495,-0.0062221981493,-0.132099255686
1588856988336173678,947,1588856988336048749,,0.386538206633,-3.81103030518,2.56846593026,0.48396978919,-0.00687348093271,-0.132256832918
1588856988342227755,948,1588856988342130311,,0.386620109604,-3.811023303,2.56846399273,0.483970680368,-0.00686116791324,-0.132254211129
1588856988345263133,949,1588856988345115761,,0.433276217387,-3.67882682112,2.56866646296,0.484027190917,-0.00618205342071,-0.134684318991
1588856988348209545,950,1588856988348085331,,0.409663706613,-3.67890042218,2.5913207054,0.48383744175,-0.00683888459824,-0.133016525828
1588856988351225799,951,1588856988351069986,,0.409817359313,-3.67890109944,2.59129544816,0.483836194495,-0.00682171754128,-0.133021944021
1588856988357229825,952,1588856988357125082,,0.409851338621,-3.67893594129,2.59124060774,0.482052818471,-0.00681013318154,-0.134860111038
1588856988363321483,953,1588856988363141335,,0.409853877957,-3.67898290221,2.59117353165,0.482053290027,-0.00680615641214,-0.134858626227
1588856988369088595,954,1588856988368986424,,0.43309579908,-3.67906046444,2.59159343301,0.481107462872,-0.00680962520886,-0.133823718847
1588856988372179467,955,1588856988372101279,,0.433045794897,-3.67909076339,2.59155877581,0.481110158472,-0.00680777009504,-0.133814121951
1588856988378301553,956,1588856988378197012,,0.409681667162,-3.67902019405,2.59114781717,0.481092316198,-0.00682380703509,-0.133051235195
1588856988384263914,957,1588856988384169318,,0.432768343208,-3.67903775325,2.59168037488,0.481988140593,-0.00617945769758,-0.131989552796
1588856988390285553,958,1588856988390188504,,0.43271226947,-3.67900132596,2.59174144731,0.480204122022,-0.00618450153867,-0.133818580012
1588856988396286610,959,1588856988396180331,,0.432703675108,-3.67903158408,2.59169993,0.480203480249,-0.00618572044809,-0.133820826637
1588856988399148235,960,1588856988399028514,,0.409727294396,-3.67880507523,2.56821362314,0.479397944935,-0.00620092390366,-0.132159791032
1588856988402141068,961,1588856988402025972,,0.410087434671,-3.67868292145,2.54499974197,0.478628034262,-0.00620324105263,-0.132165901579
1588856988405414962,962,1588856988405306862,,0.410115374417,-3.6787420421,2.54490978125,0.477666329681,-0.00619498806636,-0.13036263472
1588856988411318430,963,1588856988411213713,,0.410118478784,-3.67874713839,2.54490191412,0.477665772109,-0.00619574810498,-0.130364641604
1588856988417231764,964,1588856988417127037,,0.386943674081,-3.67867041255,2.5444852706,0.477627607464,-0.00619783940233,-0.128699295942
1588856988420122649,965,1588856988420042505,,0.387356995075,-3.67853067761,2.52138905409,0.475055730651,-0.00618902301917,-0.129630875082
1588856988423234234,966,1588856988423149376,,0.387369473752,-3.6785222738,2.52139939752,0.475011347503,-0.00619185680948,-0.127830652012
1588856988429124978,967,1588856988429022884,,0.387443736957,-3.67848028133,2.52144925001,0.475011185232,-0.00618473680113,-0.127831599679
1588856988432052578,968,1588856988431936851,,0.388017319375,-3.54604100929,2.49766772639,0.472416996327,-0.00617532461118,-0.127863504375
1588856988435166736,969,1588856988435090730,,0.388077810421,-3.54599084916,2.49772954138,0.472395925931,-0.00616885535303,-0.126959722513
1588856988441164426,970,1588856988441083174,,0.38818668969,-3.54598440971,2.49772176416,0.470589409294,-0.00615324879464,-0.127890101987
1588856988444155571,971,1588856988444073861,,0.388137921987,-3.54599318015,2.49771689168,0.470590540712,-0.00615636772041,-0.127885788599
1588856988450261666,972,1588856988450181008,,0.365049654542,-3.54594371398,2.49723450059,0.470570748373,-0.00680451619132,-0.127128243571
1588856988453169205,973,1588856988453088589,,0.36502861521,-3.54592083252,2.49727006619,0.470571780786,-0.00680578186831,-0.127124354231
1588856988459258439,974,1588856988459156524,,0.388158888348,-3.67830439616,2.49836198602,0.469673183415,-0.0061312663341,-0.127894597993
1588856988465229528,975,1588856988465121175,,0.365936707692,-3.54571845965,2.45085135214,0.467185248938,-0.0061196038675,-0.126267565786
1588856988471319681,976,1588856988471194701,,0.365925140936,-3.54574214909,2.45081880661,0.465391453781,-0.0061158857706,-0.12809599408
1588856988477365242,977,1588856988477235982,,0.365861608096,-3.54574849917,2.45081910467,0.465393328474,-0.00611921328483,-0.128089023929
1588856988483292818,978,1588856988483198538,,0.389584679697,-3.41343593768,2.42740742373,0.461931764925,-0.00544826671699,-0.129795560216
1588856988489280543,979,1588856988489182334,,0.389535365166,-3.41345557143,2.42738772866,0.461932062424,-0.00545322510707,-0.129794293209
1588856988495200749,980,1588856988495121647,,0.389371434525,-3.54575405323,2.42806594105,0.461931530436,-0.00612240479016,-0.129792366098
1588856988498248042,981,1588856988498152384,,0.389837848396,-3.41331529665,2.40430439067,0.461143604303,-0.00612781181664,-0.128894515677
1588856988501259980,982,1588856988501136045,,0.390185960468,-3.41320147005,2.381178031,0.45945748395,-0.00613190333607,-0.128916209786
1588856988504535467,983,1588856988504420766,,0.390151607268,-3.41319758697,2.38118922597,0.459458117438,-0.00613520052789,-0.128913795138
1588856988510327233,984,1588856988510225537,,0.390080719593,-3.4132101607,2.38118281644,0.45945862516,-0.00614290184447,-0.12891161881
1588856988516395138,985,1588856988516245502,,0.389152281013,-3.41340222998,2.42752417962,0.458261510303,-0.00548888588015,-0.128919500012
1588856988522341122,986,1588856988522209902,,0.389735317779,-3.28101784222,2.40368654862,0.454747894604,-0.00614106844002,-0.128963937102
1588856988528304328,987,1588856988528141000,,0.389702146381,-3.28097098432,2.40375588611,0.454748888898,-0.00614563307968,-0.128960213559
1588856988531204519,988,1588856988531118164,,0.389822567631,-3.28098519226,2.40371696687,0.45380672589,-0.00613129382277,-0.128077087878
1588856988534402813,989,1588856988534292942,,0.390252025656,-3.28083619798,2.38062096993,0.453037950733,-0.00613044981407,-0.128091174564
1588856988540262172,990,1588856988540157585,,0.390304447873,-3.28085406184,2.3805877566,0.452128914003,-0.00612205230843,-0.128105311357
1588856988546248852,991,1588856988546102825,,0.39070865298,-3.280725745,2.35736922106,0.452267079962,-0.00612080597383,-0.128101483956
1588856988549334304,992,1588856988549201315,,0.390880456554,-3.14849551178,2.35662702996,0.452287416093,-0.00611758907169,-0.129009227029
1588856988555324930,993,1588856988555185274,,0.390780863668,-3.2807055034,2.35738542168,0.451379143679,-0.00545064784568,-0.129024037277
1588856988561318620,994,1588856988561218738,,0.390905578266,-3.14850544095,2.3566095974,0.450459050578,-0.00611421667471,-0.129038092401
1588856988564392789,995,1588856988564243175,,0.390861586265,-3.14853801031,2.35657338002,0.450459753166,-0.00611694331969,-0.129035510484
1588856988570334240,996,1588856988570228188,,0.390833827376,-3.14854077724,2.35657428713,0.450459965361,-0.00612024848359,-0.12903461299
1588856988576283423,997,1588856988576160645,,0.390535450492,-3.01653487133,2.37898542711,0.450345199224,-0.00611776661259,-0.129935639386
1588856988582233604,998,1588856988582138914,,0.413199489906,-3.01676491248,2.40253124486,0.449339335026,-0.0061184603863,-0.132518515067
1588856988585260880,999,1588856988585170293,,0.413157972589,-3.0167531754,2.40255312251,0.449339536766,-0.00612482266418,-0.132517537107
1588856988588248066,1000,1588856988588152629,,0.413527749497,-3.01660324331,2.37945179162,0.448572334199,-0.00612773112312,-0.132526113865
1588856988591384597,1001,1588856988591261678,,0.413546399383,-3.01659751731,2.37945580962,0.448594894087,-0.00612387096157,-0.133426898043
1588856988597150944,1002,1588856988597051067,,0.413502576191,-3.01662185008,2.37943257709,0.448594773086,-0.00612944636386,-0.133427048853
1588856988600185501,1003,1588856988600049470,,0.413566784119,-2.88454303303,2.37859717923,0.448617432717,-0.00613272542477,-0.134327310161
1588856988603586177,1004,1588856988603504564,,0.436673683463,-3.01673142524,2.37983953423,0.447727088015,-0.00613043277766,-0.135101784647
1588856988609300078,1005,1588856988609167142,,0.413521114902,-2.88454375784,2.3786042403,0.44679114195,-0.00613583364133,-0.134349226326
1588856988612160658,1006,1588856988612071474,,0.436729137119,-2.88463162423,2.37903515589,0.445007390671,-0.00546227265093,-0.136043357763
1588856988615339801,1007,1588856988615196189,,0.43674559543,-2.88464129743,2.37902040548,0.444097927044,-0.00612347620767,-0.136055370789
1588856988621156521,1008,1588856988621082250,,0.436708712419,-2.88464675295,2.37902056125,0.443159458228,-0.00545870770703,-0.135150976796
1588856988624287702,1009,1588856988624205665,,0.460289586376,-2.75252594225,2.35541729037,0.440601066911,-0.00678544460914,-0.136854102811
1588856988630178283,1010,1588856988630041836,,0.460686593467,-2.75235045766,2.33232852272,0.437088245625,-0.00678293980456,-0.13690080793
1588856988633349186,1011,1588856988633258227,,0.461200629759,-2.62017512205,2.30836562689,0.434538962552,-0.00677426161988,-0.138739347818
1588856988639204411,1012,1588856988639121860,,0.461257866165,-2.62017870483,2.30835012383,0.434536884774,-0.00677021217624,-0.138746053017
1588856988642320720,1013,1588856988642148326,,0.438528624315,-2.61994509562,2.28478908746,0.430985550953,-0.00676741283001,-0.137124814502
1588856988645196427,1014,1588856988645101212,,0.461633787209,-2.62002711508,2.28523269978,0.43014173515,-0.00676066776968,-0.139707365383
1588856988648232088,1015,1588856988648128348,,0.461694138616,-2.62004932816,2.28519503977,0.428292923081,-0.00674586080198,-0.138818044036
1588856988651165625,1016,1588856988651087557,,0.461712664873,-2.62005354019,2.28518646745,0.428291036401,-0.00674769875573,-0.138823775518
1588856988654160454,1017,1588856988653997864,,0.461695890949,-2.62007680951,2.28516317709,0.42739565085,-0.00674833163254,-0.139747424149
1588856988657264676,1018,1588856988657174990,,0.461771634303,-2.4881310354,2.28427503609,0.426510185267,-0.00674593725244,-0.140660907011
1588856988660528702,1019,1588856988660348693,,0.461764011886,-2.48812265051,2.28428571011,0.425593333524,-0.0067431874323,-0.14066871093
1588856988666249780,1020,1588856988666161351,,0.461749263788,-2.4881225747,2.28428877394,0.425592968417,-0.00674680611129,-0.140669642046
1588856988669257627,1021,1588856988669176122,,0.46215090236,-2.48796673351,2.26106384475,0.421150096888,-0.00606906063403,-0.1398178485
1588856988672303039,1022,1588856988672213850,,0.462145373679,-2.48797404694,2.26105692742,0.421149915151,-0.00607008091677,-0.139818351626
1588856988675363146,1023,1588856988675220240,,0.462185547286,-2.35610875764,2.2601306057,0.419346597965,-0.00673285083931,-0.140739895486
1588856988681171712,1024,1588856988681089019,,0.462585207895,-2.3559378969,2.23701421108,0.416745799906,-0.00605854765925,-0.140768102599
1588856988684151874,1025,1588856988684067022,,0.462564708238,-2.35594742288,2.23700841762,0.416745420828,-0.0060627706015,-0.140769043044
1588856988687633655,1026,1588856988687536328,,0.46295478193,-2.35577362571,2.2138988776,0.414130832981,-0.00605460982976,-0.139894802445
1588856988693126523,1027,1588856988693030663,,0.462940507395,-2.35578287022,2.21389202559,0.414131450984,-0.00605483850078,-0.139892963062
1588856988696143142,1028,1588856988696055453,,0.462959924311,-2.35576543972,2.21390651281,0.411396649617,-0.00671360022326,-0.139926133871
1588856988699203168,1029,1588856988699129545,,0.440317933401,-2.35550664212,2.1903388503,0.409714862835,-0.0067090328952,-0.140092757218
1588856988702208495,1030,1588856988702106327,,0.463413006479,-2.2237865813,2.18983128259,0.409734787863,-0.00604523015506,-0.140850806045
1588856988705466240,1031,1588856988705323256,,0.463392939006,-2.22380080632,2.18982108352,0.407908355356,-0.00604812597225,-0.140874512306
1588856988711291493,1032,1588856988711195671,,0.463783104564,-2.22361939473,2.16661337915,0.40713769832,-0.00604671584742,-0.140884527419
1588856988714526192,1033,1588856988714380543,,0.486918719523,-2.22370371835,2.16708217714,0.406216060159,-0.00604669461017,-0.140754336209
1588856988720427111,1034,1588856988720181812,,0.463817966445,-2.09190887199,2.16560799888,0.404348797736,-0.00537834373451,-0.139104229148
1588856988726267214,1035,1588856988726175280,,0.440745875186,-2.22353954129,2.16614619186,0.401610032461,-0.00537314853495,-0.139289363113
1588856988732294227,1036,1588856988732178718,,0.441556438724,-2.09145389514,2.1189189772,0.392681033562,-0.00601877033509,-0.135763601647
1588856988738375256,1037,1588856988738214396,,0.441557955389,-2.09146313613,2.1189095399,0.392680683785,-0.00601893766928,-0.135764605915
1588856988744283159,1038,1588856988744183215,,0.41845119444,-2.0913834229,2.11843492647,0.388964617825,-0.00534654980256,-0.133245456686
1588856988750379239,1039,1588856988750256203,,0.418833019679,-2.09121370855,2.09521121255,0.38266263102,-0.00468184789911,-0.131504719925
1588856988756376964,1040,1588856988756271098,,0.39580898766,-2.09113111376,2.09474857924,0.381687051592,-0.00533543556866,-0.128959564127
1588856988762373716,1041,1588856988762265783,,0.39580715494,-2.09114049614,2.09473955932,0.378921609735,-0.00467776842355,-0.128090341775
1588856988768389906,1042,1588856988768260456,,0.396205168544,-2.0909421269,2.07164239465,0.373539176744,-0.00466725508733,-0.12634025706
1588856988774487259,1043,1588856988774375871,,0.373097225672,-2.09085973278,2.07117837184,0.369845626562,-0.00465929889744,-0.124721459426
1588856988780847687,1044,1588856988780562118,,0.373157068792,-1.95923323767,2.07010284189,0.367996317878,-0.00465677217172,-0.123832860203
1588856988786293435,1045,1588856988786096430,,0.373093377439,-2.09088352062,2.0711550509,0.366147711649,-0.00465292073307,-0.122952780101
1588856988792308660,1046,1588856988792230068,,0.350167551871,-1.95916716017,2.06962426784,0.36333863487,-0.00398364740432,-0.120430317221
1588856988798332105,1047,1588856988798221849,,0.350161581729,-1.95918151153,2.06961169244,0.363338966989,-0.0039828620008,-0.120429341189
1588856988801240791,1048,1588856988801149824,,0.350607624018,-1.82745014489,2.04540601916,0.359782457322,-0.00397490878966,-0.118657429405
1588856988804556390,1049,1588856988804425071,,0.350611921441,-1.82746795768,2.04538936769,0.35978147888,-0.00397639526534,-0.118660346305
1588856988810324815,1050,1588856988810236661,,0.35061534886,-1.8274673405,2.0453893316,0.358875308825,-0.00331107242166,-0.118669170183
1588856988816199914,1051,1588856988816071106,,0.350616468416,-1.82748061437,2.04537727998,0.358874594169,-0.00331255562462,-0.118671290008
1588856988819405522,1052,1588856988819270292,,0.350617502961,-1.82748262198,2.0453753089,0.357025730607,-0.00330950406715,-0.117792091654
1588856988822390079,1053,1588856988822276040,,0.327720454515,-1.69599271913,2.04378168937,0.35514675985,-0.00330390710417,-0.116159588127
1588856988828374069,1054,1588856988828229710,,0.327712253055,-1.69599966574,2.04377723993,0.355146866094,-0.0033048615461,-0.116159236144
1588856988834285554,1055,1588856988834188828,,0.327724541619,-1.69600364855,2.04377196438,0.354190833823,-0.00330352669919,-0.114364701586
1588856988837334068,1056,1588856988837179929,,0.328096790102,-1.69579670926,2.02065166022,0.351623305593,-0.00329712720397,-0.115288139774
1588856988843219365,1057,1588856988843061408,,0.328478817605,-1.69558789638,1.9974335809,0.349004558097,-0.00329071820293,-0.114416424092
1588856988846356940,1058,1588856988846252696,,0.328491197331,-1.6955832893,1.99743545587,0.349003897817,-0.00329080314622,-0.114418435684
1588856988852344874,1059,1588856988852236494,,0.328549844944,-1.564307574,1.99626661595,0.348062571665,-0.00328985058145,-0.113529847266
1588856988855304835,1060,1588856988855197447,,0.328180099265,-1.56452913236,2.01948594415,0.34703163945,-0.00328707771323,-0.114438519325
1588856988858241970,1061,1588856988858160137,,0.328564077028,-1.56431375415,1.99625943067,0.345318449933,-0.00394566837732,-0.113559911615
1588856988861369049,1062,1588856988861278243,,0.351530592898,-1.56440324443,1.99672423059,0.344431581859,-0.0032828312223,-0.114324704388
1588856988870234090,1063,1588856988870127120,,0.328629256131,-1.43318617413,1.99507833071,0.342562216201,-0.00328182671283,-0.11268247648
1588856988873382592,1064,1588856988873226213,,0.305535738393,-1.56423247026,1.99578518928,0.341672509207,-0.00327704127461,-0.113741433599
1588856988879319612,1065,1588856988879224339,,0.305609173091,-1.43310736793,1.99459874161,0.340730484,-0.00327795212586,-0.112854722481
1588856988882290328,1066,1588856988882195630,,0.305980755744,-1.43288510961,1.97146649284,0.338090630376,-0.00327290415448,-0.111075902179
1588856988885255584,1067,1588856988885154789,,0.329014131412,-1.43296542852,1.97194342385,0.337179659565,-0.00327155367651,-0.110943361445
1588856988888362114,1068,1588856988888255227,,0.329017182115,-1.43297105063,1.97193882938,0.337179200551,-0.00327245579955,-0.110944729868
1588856988891243723,1069,1588856988891163154,,0.305978779947,-1.43289072056,1.97146272137,0.336192591679,-0.00327361994024,-0.10839506505
1588856988894257014,1070,1588856988894156882,,0.305974343273,-1.43289356111,1.9714613454,0.336192874934,-0.00327329460896,-0.108394196341
1588856988897324410,1071,1588856988897176232,,0.305968424174,-1.43288347443,1.97146959518,0.336193349213,-0.00327320885173,-0.108392727908
1588856988900610520,1072,1588856988900320927,,0.305959666813,-1.43289525574,1.97146239146,0.336193650356,-0.0032733369764,-0.108391790002
1588856988907134968,1073,1588856988906800542,,0.306249828745,-1.56379929629,1.94954667974,0.339078192807,-0.00262825860653,-0.10836176579
1588856988912371862,1074,1588856988912273965,,0.283001404054,-1.43280056674,1.97100661092,0.340742876998,-0.00263271331113,-0.107590245837
1588856988918417327,1075,1588856988918288298,,0.282995708806,-1.43279879456,1.97100871691,0.340743409419,-0.00263183394788,-0.107588581135
1588856988921308042,1076,1588856988921207800,,0.259844741579,-1.56384224604,1.97175465842,0.340699338329,-0.00328408538984,-0.105932113488
1588856988924337036,1077,1588856988924238357,,0.282881586489,-1.56391184288,1.97222745171,0.340720009767,-0.00328432571717,-0.106686381041
1588856988930457083,1078,1588856988930304001,,0.259835231356,-1.56382954222,1.97176598729,0.340700127022,-0.00328363944958,-0.105929590681
1588856988936382207,1079,1588856988936286673,,0.259826937111,-1.56383296408,1.97176436635,0.340676843471,-0.00328344427583,-0.105030947816
1588856988942462963,1080,1588856988942341724,,0.259822401606,-1.56383758884,1.97176129604,0.340654064111,-0.00263264384347,-0.104123909851
1588856988948311909,1081,1588856988948211214,,0.236385710099,-1.69527015892,1.99559884474,0.341353415132,-0.00263377645561,-0.101570937349
