%time,field.header.seq,field.header.stamp,field.header.frame_id,field.wrench.force.x,field.wrench.force.y,field.wrench.force.z,field.wrench.torque.x,field.wrench.torque.y,field.wrench.torque.z
1588858573603941009,749,1588858573603755128,,-0.0764221024533,-0.000114633470176,0.625391363342,0.140752458279,0.00537213724012,-0.00907787648881
1588858573606981699,750,1588858573606884668,,-0.0758220658899,-0.000102808181925,0.602117461219,0.139064656921,0.00537112345799,-0.00909859140008
1588858573612922827,751,1588858573612807717,,-0.0758237394715,-0.000103094061387,0.60211725042,0.139963758765,0.00537066362877,-0.00822771351866
1588858573616057081,752,1588858573615942121,,-0.0541050281278,-0.0001537157917,0.602349571855,0.140001602087,0.00537195446928,-0.00981004745016
1588858573618982735,753,1588858573618831167,,-0.0541052376251,-0.000151453736455,0.60234955361,0.140001603163,0.00537197814761,-0.00981001912584
1588858573624924092,754,1588858573624777942,,-0.0546499221004,-0.000157998378708,0.625634757792,0.140770063608,0.00537098706775,-0.00980019646027
1588858573627992283,755,1588858573627879565,,-0.0758308764745,-0.000100660921593,0.602116352037,0.140873342432,0.00537100926603,-0.00821425064285
1588858573630958408,756,1588858573630860026,,-0.0758315003173,-9.87503013265e-05,0.602116273786,0.140873383458,0.00537013635379,-0.00821411777326
1588858573637054920,757,1588858573636940933,,-0.0758338701028,-9.80005631884e-05,0.602115975449,0.14087341845,0.00537005673033,-0.00821356969161
1588858573639939489,758,1588858573639856072,,-0.0762392622848,-0.122989282927,0.603044375489,0.139963959445,0.00536943952023,-0.00822509822646
1588858573642993087,759,1588858573642915845,,-0.0762415849433,-0.12298973345,0.603043989962,0.139963998264,0.00536917696618,-0.00822460903378
1588858573648988192,760,1588858573648880614,,-0.075834106389,-9.71162253373e-05,0.602115945833,0.139943758011,0.00536807607917,-0.00735712341921
1588858573651916965,761,1588858573651826344,,-0.0758376831415,-9.58760344715e-05,0.602115495543,0.13906837436,0.00600352611892,-0.00909488040769
1588858573658074908,762,1588858573657880046,,-0.0758379756912,-9.23914622782e-05,0.602115459241,0.139068368091,0.00600371909179,-0.00909484889065
1588858573660994795,763,1588858573660919949,,-0.0762421576211,-0.122983368682,0.603045215607,0.139964010325,0.00536893021711,-0.00822456486683
1588858573663875796,764,1588858573663798255,,-0.076241713235,-0.122978768732,0.603046209873,0.139964020748,0.00536824710668,-0.00822483338836
1588858573666943727,765,1588858573666865120,,-0.07624650992,-0.12297374479,0.603046627928,0.140853406953,0.00536743958863,-0.00734344902949
1588858573673258824,766,1588858573673162595,,-0.0758422068602,-7.71058535095e-05,0.60211492845,0.139964116123,0.00536758925051,-0.00822363962451
1588858573675933906,767,1588858573675845525,,-0.0541213202558,-0.000123616437946,0.602348115149,0.141810176227,0.0053686634666,-0.00892421393589
1588858573682001420,768,1588858573681900396,,-0.0764428252569,-7.70473057866e-05,0.625388836451,0.143504533114,0.00600476018869,-0.00903836379007
1588858573684972319,769,1588858573684865812,,-0.0762467158386,-0.122959702957,0.603049465144,0.142712591883,0.00536768417897,-0.00818814142707
1588858573687984013,770,1588858573687898796,,-0.0762458198539,-0.122956641924,0.603050202553,0.142712571099,0.00536797276498,-0.00818831448406
1588858573691065955,771,1588858573690924783,,-0.0768327710099,-0.123290601414,0.626260459267,0.143480974047,0.00536863721927,-0.00817929235854
1588858573699960892,772,1588858573699827124,,-0.0768253532195,-0.123292701735,0.626260955786,0.144390346924,0.00537054871367,-0.00816862613698
1588858573705958864,773,1588858573705860531,,-0.0768214419791,-0.123294616594,0.626261058594,0.144390268223,0.00537162857896,-0.0081693072045
1588858573708923204,774,1588858573708803503,,-0.0768186647515,-0.123297509836,0.62626082965,0.144390215734,0.00537228582481,-0.00816980273111
1588858573711974468,775,1588858573711866739,,-0.0768173734868,-0.12329947156,0.626260601813,0.145289761774,0.00537261755214,-0.00728745517016
1588858573717977143,776,1588858573717890358,,-0.0764249363726,-8.60167783268e-05,0.625391021624,0.14530968941,0.00537301964704,-0.00815798692318
1588858573721105513,777,1588858573720922572,,-0.0768165855662,-0.123306054956,0.626259402271,0.146216177173,0.00473694134005,-0.00814592171069
1588858573723912303,778,1588858573723811698,,-0.0768153044128,-0.123307736717,0.626259228286,0.14621919376,0.0053735532666,-0.0081460323944
1588858573729963384,779,1588858573729822692,,-0.0768140609709,-0.123310156362,0.62625890438,0.146219178193,0.00537356137292,-0.00814630647875
1588858573732997884,780,1588858573732789469,,-0.0768150704537,-0.123312081593,0.62625840148,0.146216167178,0.00473656947136,-0.00814631733353
1588858573735894232,781,1588858573735799554,,-0.0979074181628,-0.122975059754,0.602863558465,0.145431068345,0.00473667213886,-0.00743381896822
1588858573741923674,782,1588858573741804119,,-0.0768157800917,-0.123318775214,0.626256996407,0.145329720912,0.00537478397925,-0.00901882603142
1588858573745082277,783,1588858573744990897,,-0.0773977202302,-0.12363052268,0.649475088324,0.1460982078,0.00537439276668,-0.00900877368842
1588858573748011865,784,1588858573747907860,,-0.0779559707117,-0.248045744246,0.651759828442,0.14607815431,0.00537476988094,-0.008147318114
1588858573754160776,785,1588858573753978295,,-0.0779554013792,-0.248048705456,0.651758769558,0.146078151181,0.00537455243657,-0.00814751766487
1588858573763082730,786,1588858573762932400,,-0.0779717799207,-0.1239376912,0.67279766581,0.147762680479,0.00601220464776,-0.0081244489138
1588858573766094221,787,1588858573765996829,,-0.0773969289621,-0.123639821269,0.649473412522,0.146098160447,0.00537596304912,-0.00900860469151
1588858573769040090,788,1588858573768949765,,-0.0779562681325,-0.248054250365,0.651756555558,0.146078154767,0.00537508428437,-0.00814710250498
1588858573772168998,789,1588858573772022984,,-0.0779551180573,-0.248054385572,0.651756641658,0.146078143634,0.00537487905978,-0.00814743751869
1588858573778105757,790,1588858573777985298,,-0.0779555125707,-0.248056874793,0.651755647085,0.146081354235,0.00601214732342,-0.00814689347572
1588858573781030388,791,1588858573780941350,,-0.0773979679075,-0.123644821095,0.649472336877,0.146971024353,0.00601163745644,-0.00726377002272
1588858573787023139,792,1588858573786905563,,-0.0773984901701,-0.123646740493,0.649471909226,0.146971022857,0.00601189049706,-0.00726359085913
1588858573790153332,793,1588858573790072285,,-0.0779568571102,-0.24805880895,0.651754750125,0.14698768528,0.00537582720134,-0.0081345781375
1588858573792937612,794,1588858573792862771,,-0.076815985544,-0.123332333847,0.626254301169,0.146202507076,0.00601076795949,-0.0072746443133
1588858573795985952,795,1588858573795873595,,-0.0768164777068,-0.123331251108,0.62625445403,0.146202504304,0.00601102481395,-0.00727448778809
1588858573802010667,796,1588858573801920737,,-0.0560137745389,-0.248065732425,0.652036778989,0.146098232254,0.00601260969628,-0.00887262936212
1588858573804828034,797,1588858573804712372,,-0.0560121273353,-0.248067372826,0.652036296402,0.146098223606,0.00601187315001,-0.00887327084448
1588858573810946619,798,1588858573810758273,,-0.0555325173486,-0.123672751612,0.649734302824,0.146118545592,0.00601296826701,-0.0097341777835
1588858573813829445,799,1588858573813748892,,-0.0555343864535,-0.123673425335,0.64973401483,0.14700773875,0.00601253910907,-0.00886053221377
1588858573819903304,800,1588858573819826879,,-0.0774004560006,-0.247526304248,0.628677416542,0.146239203395,0.00537629710523,-0.00900621674626
1588858573826137641,801,1588858573825953553,,-0.0773981740442,-0.123649780034,0.649471368223,0.146098179441,0.0053760328932,-0.00900825497301
1588858573829066333,802,1588858573828981420,,-0.0773998939321,-0.123648994481,0.649471312817,0.147007673125,0.00537683513897,-0.00899592251301
1588858573835121598,803,1588858573834942358,,-0.0773985789142,-0.123651093026,0.649471069998,0.147007655993,0.00537682108014,-0.00899621087528
1588858573837979967,804,1588858573837910225,,-0.0773988522805,-0.123649546842,0.649471331792,0.146098167967,0.00537685671091,-0.00900794936458
1588858573841060479,805,1588858573840967824,,-0.0773986780121,-0.1236509747,0.649471080716,0.146061452496,0.0060121081139,-0.00727590230204
1588858573843883752,806,1588858573843759446,,-0.0773985245319,-0.123649611241,0.64947135859,0.146061427307,0.00601282927497,-0.00727581203067
1588858573849914850,807,1588858573849783781,,-0.0551792047543,-0.000178510535249,0.648921578747,0.146098135206,0.00601437509078,-0.00887303085567
1588858573852957105,808,1588858573852882960,,-0.077399928823,-0.123649920566,0.649471132346,0.146118520514,0.00537889166285,-0.0098688157342
1588858573859011748,809,1588858573858928484,,-0.0773976618726,-0.123650442825,0.649471303072,0.146101314457,0.00601508297075,-0.00900772440407
1588858573862029136,810,1588858573861899010,,-0.0768150727112,-0.123336585664,0.626253575783,0.145373996172,0.00601639412826,-0.0107402329186
1588858573865006053,811,1588858573864863192,,-0.0773949756054,-0.12365078561,0.649471557928,0.147031040361,0.00601680048905,-0.00985809468849
1588858573871127689,812,1588858573871038894,,-0.0773984967453,-0.123650830246,0.64947112982,0.146058161025,0.00537820583282,-0.00727565153967
1588858573874109278,813,1588858573874029297,,-0.0773975411489,-0.123650118587,0.649471379189,0.146058144327,0.0053784157544,-0.00727583156501
1588858573877004934,814,1588858573876910030,,-0.05553213761,-0.123675728587,0.649733768625,0.145178657966,0.00601557279637,-0.00888413563429
1588858573883017678,815,1588858573882901536,,-0.0773959894323,-0.123652776593,0.649471058054,0.146101248229,0.0060165664277,-0.00900780786768
1588858573886015928,816,1588858573885923458,,-0.0779708740217,-0.123949238907,0.672795643462,0.146869818438,0.00538048816091,-0.00899767528553
1588858573889006270,817,1588858573888898249,,-0.0779704344655,-0.123949015923,0.672795735483,0.146869820757,0.00538016406353,-0.00899783123193
1588858573894976144,818,1588858573894884910,,-0.0779680418168,-0.123950583481,0.67279572397,0.145930250103,0.00538026193583,-0.00814888392042
1588858573898129361,819,1588858573897945146,,-0.0773961226869,-0.123652084234,0.649471173992,0.146098040425,0.00538044199567,-0.0090078771677
1588858573901085192,820,1588858573900968123,,-0.0773961863186,-0.123651615217,0.649471255704,0.146098053763,0.00537994264435,-0.00900795908704
1588858573906902797,821,1588858573906833084,,-0.0773972836981,-0.123652373479,0.649470980566,0.146098046899,0.00538082692724,-0.00900754222715
1588858573909862750,822,1588858573909770812,,-0.0773973408691,-0.123653920438,0.649470679227,0.145178577062,0.00538051557333,-0.00901944564445
1588858573912985844,823,1588858573912897357,,-0.0773991968724,-0.12365350714,0.649470536733,0.147007576671,0.00538035300108,-0.0089953954073
1588858573919054090,824,1588858573918945025,,-0.0768150727029,-0.123339063553,0.626253087775,0.145349995441,0.00538083420788,-0.00987891251112
1588858573922079806,825,1588858573921890362,,-0.0768176441165,-0.123337816224,0.626253018022,0.145350035809,0.00538082267812,-0.00987832483634
1588858573925065105,826,1588858573924987827,,-0.0768175792036,-0.123337339338,0.626253119905,0.145347019742,0.0047441494665,-0.00987858174481
1588858573931163021,827,1588858573930983159,,-0.0550024568271,-0.123362216424,0.62650579938,0.14536747358,0.00538135414551,-0.010604743721
1588858573934057706,828,1588858573933953170,,-0.0551842310041,-0.000180549004518,0.64892115077,0.147066204723,0.00538258660423,-0.0114455646372
1588858573936973616,829,1588858573936915686,,-0.0555324317837,-0.123677323426,0.649733439905,0.146156879785,0.0053820081002,-0.0114564966276
1588858573944104633,830,1588858573943966483,,-0.0555322776942,-0.123677609377,0.649733398644,0.146156884495,0.00538167627742,-0.011456592409
1588858573948999277,831,1588858573948931225,,-0.0555309644223,-0.123679750974,0.649733103228,0.146135865731,0.00538119414007,-0.0105953147581
1588858573952043259,832,1588858573951945616,,-0.0555305128512,-0.123681307561,0.649732845516,0.146135875529,0.00538047858054,-0.0105955430091
1588858573955042735,833,1588858573954956267,,-0.0773972319013,-0.123657175879,0.649470072395,0.145202259508,0.00601583970521,-0.00988062471417
1588858573958027955,834,1588858573957922866,,-0.0773979815207,-0.123659745325,0.649469493842,0.145202262286,0.00601617929589,-0.00988037713366
1588858573961054793,835,1588858573960912290,,-0.077951832844,-0.248069120888,0.651751426233,0.145181833415,0.00601493541865,-0.00901987124571
1588858573967042164,836,1588858573966925562,,-0.0779512129246,-0.24807219883,0.651750328845,0.145181834994,0.00601441093127,-0.00902019556213
1588858573976043290,837,1588858573975946596,,-0.100410750448,-0.248584215468,0.674699116526,0.147765806806,0.00601324657816,-0.00826321082944
1588858573979035180,838,1588858573978962861,,-0.100413612337,-0.248581680002,0.67469962476,0.147765876023,0.00601152858554,-0.00826322308457
1588858573982090092,839,1588858573981956845,,-0.0785099270331,-0.248572422067,0.674946909144,0.147782697226,0.00601032727629,-0.00898681682944
1588858573987995813,840,1588858573987922146,,-0.0785092878823,-0.248565885104,0.674949390915,0.147779520578,0.00537151888301,-0.00898780772968
1588858573991010951,841,1588858573990912111,,-0.0779579575414,-0.248052858879,0.651756883076,0.146081512714,0.00600571411889,-0.00814879653228
1588858573994093646,842,1588858573993979802,,-0.101159152404,-0.374497715578,0.677720655764,0.148662711486,0.00536878649304,-0.00739043392762
1588858574000056410,843,1588858573999950589,,-0.1011619959,-0.37449009654,0.677724441434,0.148662751442,0.00536767534538,-0.00739043728761
1588858574003077862,844,1588858574002971133,,-0.0786353960645,-0.373857449925,0.654956688959,0.146991074778,0.00600449584097,-0.00813691738813
1588858574006066099,845,1588858574005981779,,-0.0786375141027,-0.373853549974,0.654958660785,0.146991095872,0.00600500745725,-0.00813615873194
1588858574012070449,846,1588858574011924206,,-0.101162812345,-0.374478503883,0.677730725189,0.147746395912,0.00600505700665,-0.0074025137795
1588858574015049263,847,1588858574014965018,,-0.101964698024,-0.501809236061,0.681105780917,0.147723671264,0.00536710502357,-0.00653141977445
1588858574018029860,848,1588858574017936377,,-0.101964612266,-0.501808619541,0.681106247981,0.147723670484,0.00536708784504,-0.00653145152677
1588858574024009977,849,1588858574023915048,,-0.0791637060718,-0.374459102001,0.678007480941,0.148659461551,0.00536768689391,-0.00724163746827
1588858574027053115,850,1588858574026971314,,-0.079161514658,-0.374465030767,0.678004462353,0.148659433384,0.00536826447016,-0.00724178755251
1588858574029984515,851,1588858574029904611,,-0.0791611510884,-0.374465052467,0.678004492818,0.148659422551,0.00536901504913,-0.0072414534882
1588858574036000448,852,1588858574035910153,,-0.0791617913416,-0.374468482141,0.678002523827,0.148676204795,0.00473265111698,-0.00811282060758
1588858574039088535,853,1588858574038997887,,-0.0803470616983,-0.502411735058,0.704253775846,0.14944474969,0.0047329391972,-0.00810194111993
1588858574044910819,854,1588858574044769979,,-0.0803478705629,-0.502414104068,0.704251993515,0.149447746878,0.005370726317,-0.00810136495614
1588858574048097892,855,1588858574047988625,,-0.080345299642,-0.502416524151,0.704250560331,0.148528177287,0.00537123082608,-0.00811391556409
1588858574050956176,856,1588858574050887141,,-0.0798525713443,-0.501804134217,0.681399971432,0.14869912179,0.00537185029029,-0.00897382496684
1588858574054004388,857,1588858574053905333,,-0.0798525763974,-0.501806357731,0.68139833337,0.148699121649,0.00537185479764,-0.00897382460486
1588858574060037096,858,1588858574059927625,,-0.0798468225306,-0.501807253058,0.681398348285,0.149608558844,0.00537298722267,-0.00896233688834
1588858574063041786,859,1588858574062928126,,-0.0798499805627,-0.501808056411,0.681397386597,0.149608606166,0.0053736988727,-0.00896112018799
1588858574069099273,860,1588858574069018643,,-0.0798443363869,-0.50181063096,0.681396151983,0.149588673086,0.00537371913458,-0.00809939732119
1588858574072265865,861,1588858574072167931,,-0.0798404919176,-0.501812694441,0.681395082815,0.149588630893,0.0053746256067,-0.00809957511761
1588858574075124864,862,1588858574075020279,,-0.0805205242629,-0.630394278448,0.684768607712,0.15052792491,0.00537610985744,-0.00895068451312
1588858574078029511,863,1588858574077962900,,-0.081638016703,-0.760524057346,0.710618524645,0.152235962925,0.00537686779316,-0.00979207136796
1588858574084040864,864,1588858574083961525,,-0.0816350211767,-0.760523920716,0.710619014998,0.152235937212,0.00537732684446,-0.00979221904127
1588858574087031035,865,1588858574086939064,,-0.0582057699589,-0.630400298381,0.685116154887,0.150541855107,0.0047399472792,-0.00967893358144
1588858574092988247,866,1588858574092910599,,-0.0798263390127,-0.501820968601,0.681390647432,0.150545033436,0.00474080521084,-0.00981418548304
1588858574095942620,867,1588858574095861343,,-0.080979476208,-0.630994438921,0.707525228301,0.151313447173,0.00474123664678,-0.00980480263566
1588858574098865467,868,1588858574098781545,,-0.0809741723919,-0.630995569549,0.707524826994,0.152235777241,0.00537986501981,-0.00979331184037
1588858574105064198,869,1588858574104995831,,-0.0809730708446,-0.6309950577,0.707525409547,0.151316289626,0.00537978095839,-0.00980549156366
1588858574108058428,870,1588858574107959894,,-0.0586409331726,-0.631001418843,0.707875476952,0.151333410525,0.00538079722553,-0.0105337478535
1588858574111107300,871,1588858574111031427,,-0.0809656623166,-0.630998176353,0.707523476051,0.151316210015,0.00538085373613,-0.00980613145364
1588858574120040911,872,1588858574119912253,,-0.0809628794887,-0.630998110762,0.707523852995,0.151316183068,0.00538137167281,-0.00980626305087
1588858574122881700,873,1588858574122779951,,-0.080960421893,-0.631000185772,0.707522283635,0.151316144627,0.00538120505917,-0.00980694761241
1588858574128796941,874,1588858574128726274,,-0.0809606702101,-0.631000370631,0.707522090355,0.151316141657,0.00538092142294,-0.00980714907808
1588858574131810256,875,1588858574131743798,,-0.0596181401064,-0.76108344277,0.733711511503,0.153021163266,0.00538166438447,-0.0105135037389
1588858574134868235,876,1588858574134773196,,-0.0586315932519,-0.631006453485,0.707871762701,0.153162173005,0.0053819146166,-0.010511648176
1588858574140823958,877,1588858574140758852,,-0.0809556725485,-0.631002821279,0.707520476607,0.153145037475,0.0053814391783,-0.00978412840853
1588858574143942058,878,1588858574143836943,,-0.0815942893143,-0.760541601664,0.710604770059,0.152235520359,0.00538185109416,-0.00979621338451
1588858574147052573,879,1588858574146958113,,-0.0809521284613,-0.631005300521,0.707518670998,0.1531652783,0.00538197699655,-0.0106488478541
1588858574153030144,880,1588858574152916567,,-0.08095090664,-0.63100628447,0.707517933251,0.154126339503,0.00538345602735,-0.0123752302249
1588858574156057750,881,1588858574155928846,,-0.0814225857605,-0.631584924612,0.730308967177,0.154871023403,0.00474384999778,-0.0115016216947
1588858574158954015,882,1588858574158813341,,-0.0814226858725,-0.631582918929,0.730310690563,0.154912962608,0.00474508459932,-0.0132308258791
1588858574165009981,883,1588858574164935974,,-0.081423798994,-0.631583810121,0.730309795744,0.154912971129,0.00474483394489,-0.0132308160052
1588858574167999684,884,1588858574167884289,,-0.0590735925211,-0.631588952266,0.730663616273,0.154933809742,0.00538481411932,-0.0139597861784
1588858574174295672,885,1588858574174213680,,-0.0590733074748,-0.631591389809,0.730661532288,0.154933808066,0.00538494747035,-0.0139597533385
1588858574180034233,886,1588858574179931908,,-0.0149227689205,-0.761157504592,0.734479436588,0.154010709159,0.00602429336298,-0.0136917081307
1588858574182993421,887,1588858574182872835,,-0.0368276712666,-0.63161596779,0.731031237961,0.154032889083,0.00538660535993,-0.0146945265805
1588858574188986278,888,1588858574188895874,,-0.0590745832396,-0.631593161452,0.730659897712,0.154933863997,0.00538570778089,-0.0139588392442
1588858574191844197,889,1588858574191766416,,-0.0363957637968,-0.631035272382,0.708236227153,0.155096047132,0.00602564045632,-0.0146824242605
1588858574197890218,890,1588858574197816872,,-0.059077522089,-0.631595235529,0.730657867229,0.155843197313,0.00538623072508,-0.0139472189615
1588858574201074731,891,1588858574200955301,,-0.0820522634502,-0.761082267747,0.733337542659,0.154937626354,0.00538679012326,-0.0141021181778
1588858574203940329,892,1588858574203831788,,-0.0590853541358,-0.631593398526,0.730658821864,0.155843368667,0.00538670287108,-0.0139451217857
1588858574207000091,893,1588858574206914102,,-0.0590888170401,-0.631596140453,0.730656171649,0.155865284631,0.00538702097976,-0.0148192505464
1588858574212978961,894,1588858574212861204,,-0.0590936924118,-0.631596948859,0.73065507855,0.155865397721,0.00538733350757,-0.0148179474258
1588858574215922506,895,1588858574215836415,,-0.0816139005775,-0.760550461643,0.710593035196,0.155078994883,0.00538697927692,-0.0140961729067
1588858574222000851,896,1588858574221846662,,-0.0586520604256,-0.631017997205,0.707859776726,0.155097410213,0.00538734961881,-0.0148242015535
1588858574224903890,897,1588858574224828647,,-0.0596409070353,-0.76109676556,0.73369584111,0.155862872237,0.00474770717876,-0.0148152191703
1588858574227927780,898,1588858574227857648,,-0.0596440548648,-0.761097440228,0.733694885357,0.155865784277,0.00538747847858,-0.0148138280815
1588858574233856426,899,1588858574233792237,,-0.0820876618899,-0.761086837698,0.733328838201,0.155847543006,0.00538671350085,-0.0140842133874
1588858574239900985,900,1588858574239815375,,-0.0820925578444,-0.761089423281,0.733325606675,0.156764093075,0.00474744196626,-0.0140724432579
1588858574246013541,901,1588858574245869302,,-0.0820916987103,-0.761088559715,0.73332659911,0.156764097589,0.00474775601085,-0.014072287023
1588858574248936349,902,1588858574248855993,,-0.0820912803609,-0.761088172207,0.73332704812,0.156764097027,0.00474786611591,-0.0140722561362
1588858574251911797,903,1588858574251842139,,-0.081634147694,-0.760549159966,0.710592102648,0.156883490283,0.00474661030547,-0.0131960499065
1588858574257934238,904,1588858574257849249,,-0.0820885060405,-0.76108494476,0.733330708293,0.156742427063,0.00474685203213,-0.0131984669737
1588858574260888525,905,1588858574260820362,,-0.0822357859931,-0.890841868903,0.713389910932,0.15690493612,0.00474722826941,-0.0140724626589
1588858574263827318,906,1588858574263755086,,-0.0822350114307,-0.890839492323,0.71339296795,0.157824227577,0.00474730194514,-0.0140613468967
1588858574273403871,907,1588858574273313231,,-0.0600814504225,-0.761609321537,0.756476971912,0.16028809341,0.00474694182339,-0.0147637905105
1588858574276028939,908,1588858574275943734,,-0.060077603565,-0.761607681387,0.756478928703,0.160288059573,0.0047475584556,-0.0147639595865
1588858574282060770,909,1588858574281971423,,-0.0831158215471,-0.891786467119,0.758857860203,0.161210676093,0.00474793547897,-0.0148893466847
1588858574284982185,910,1588858574284900777,,-0.060574508029,-0.891799945901,0.759236987128,0.162148096867,0.00474843283941,-0.0156096225242
1588858574288036281,911,1588858574287956323,,-0.0605723583658,-0.89179934175,0.759237868268,0.162148092647,0.00474889384715,-0.0156095261217
1588858574294114338,912,1588858574294020012,,-0.0605663832655,-0.891802210211,0.759234975641,0.162148010827,0.00474943871669,-0.0156102102594
1588858574297029991,913,1588858574296942357,,-0.0377005615383,-0.761629914036,0.756865135272,0.161269179915,0.00475195264815,-0.0172157985373
1588858574300038044,914,1588858574299973641,,-0.0376967155963,-0.761630127386,0.756865112141,0.161269151087,0.00475270588176,-0.0172158606588
1588858574306016511,915,1588858574305941108,,-0.0609807488993,-0.892283957181,0.782085361048,0.162941110499,0.00475289790368,-0.0164699604953
1588858574308985762,916,1588858574308910315,,-0.0609591633877,-0.892286569891,0.782084062961,0.162940887165,0.00475561614456,-0.0164713852694
1588858574312004394,917,1588858574311889830,,-0.0376633943329,-0.761633802633,0.756863072622,0.162210138141,0.00475750821039,-0.018075828953
1588858574318025614,918,1588858574317946443,,-0.0376585631267,-0.761636462338,0.756860636541,0.162210059927,0.00475801811317,-0.0180763966085
1588858574320977245,919,1588858574320898158,,-0.0605103412581,-0.891813237632,0.7592264912,0.164042001147,0.00475787851512,-0.0182056073557
1588858574324011542,920,1588858574323905004,,-0.0372296572967,-0.761110973996,0.734091524586,0.163312946652,0.00411741400483,-0.0198112911894
1588858574330290128,921,1588858574330147176,,-0.0372363852167,-0.761113743909,0.734088311471,0.163312969316,0.00411591838599,-0.0198114151347
1588858574333112578,922,1588858574333007274,,-0.0595860967603,-0.761088153174,0.733709228354,0.16422812114,0.00475500102203,-0.0199415602803
1588858574336096548,923,1588858574335984584,,-0.0376790778641,-0.761646080538,0.756849936498,0.165015370862,0.0047531518336,-0.0206629741188
1588858574342029652,924,1588858574341938207,,-0.0376849959372,-0.761648244706,0.75684746396,0.165018062929,0.00539347050966,-0.0206627588223
1588858574345125243,925,1588858574345027182,,-0.0600505165567,-0.761618129517,0.756470560314,0.164996250636,0.00474970782876,-0.0199338703874
1588858574348144221,926,1588858574348032346,,-0.0376923132438,-0.761644447041,0.756850921317,0.165015431221,0.00475003054578,-0.020663209846
1588858574353872422,927,1588858574353798773,,-0.0376980950827,-0.761644683537,0.756850395357,0.165015515297,0.00474928294181,-0.020662710264
1588858574363004085,928,1588858574362896402,,-0.0600669314528,-0.761617667432,0.756469722309,0.165915318682,0.00474590139443,-0.0199241794585
1588858574366063943,929,1588858574365964531,,-0.0381419497872,-0.762167372713,0.779737113386,0.166726580621,0.00410441983752,-0.0215237890318
1588858574369075006,930,1588858574368979794,,-0.0377172771398,-0.761639399736,0.756854756912,0.165957887226,0.00474564956239,-0.0215312941431
1588858574375103708,931,1588858574375001126,,-0.0161887895325,-0.762723293542,0.802944364206,0.168422797842,0.00410202184748,-0.0222373027708
1588858574378097381,932,1588858574378008452,,-0.0161970237098,-0.762720823669,0.802946544293,0.168422928571,0.00410099314912,-0.0222365023704
1588858574381194735,933,1588858574381077360,,-0.0157793827468,-0.762202854357,0.780139817535,0.167657413329,0.00474398226666,-0.022244622981
1588858574386994459,934,1588858574386886744,,-0.015782835396,-0.762200703727,0.78014184887,0.167655024648,0.00410194518184,-0.0222439481961
1588858574389932690,935,1588858574389803391,,-0.0377300586813,-0.761631378407,0.756862191804,0.166864311123,0.00410037427326,-0.021522378268
1588858574393141024,936,1588858574393034410,,-0.0381590721485,-0.762158318834,0.779745125409,0.166729177466,0.00474219105767,-0.0215237925585
1588858574398985038,937,1588858574398910718,,-0.015785953526,-0.76220222079,0.780140303604,0.167657405368,0.00474204200581,-0.022245096678
1588858574401832184,938,1588858574401759632,,-0.0381570404088,-0.762157991162,0.779745545117,0.166729119552,0.00474216340756,-0.0215242472633
1588858574405027472,939,1588858574404869237,,-0.0381537640533,-0.762159301412,0.77974442474,0.166729071819,0.00474263376933,-0.0215245133713
1588858574411072402,940,1588858574410979312,,-0.0385830825623,-0.762675124655,0.80255246726,0.167494520148,0.0040998247281,-0.0215169437491
1588858574414037943,941,1588858574413961096,,-0.0385777946221,-0.762675536717,0.802552329875,0.165690079258,0.00410257558013,-0.0224043597657
1588858574417124716,942,1588858574417023400,,-0.0153628316076,-0.761673498773,0.757258573719,0.164197434824,0.00474687612825,-0.0240164600673
1588858574422936335,943,1588858574422854813,,-0.0153658483569,-0.761649658111,0.757282491414,0.164197530333,0.00474611865433,-0.0240159567809
1588858574426085057,944,1588858574425971258,,0.00738025429997,-0.761167744291,0.734939130464,0.163452818296,0.00538607088205,-0.0247524839745
1588858574429171974,945,1588858574429016772,,-0.0372872598723,-0.761081080218,0.734119593918,0.16340939737,0.00474578957142,-0.0232957539856
1588858574435164970,946,1588858574435053093,,-0.0372860551256,-0.761087502141,0.734112997274,0.163409256285,0.00474513357815,-0.0232968772356
1588858574438001803,947,1588858574437904287,,-0.0157698944384,-0.762192820893,0.780149812037,0.163165154155,0.0047462764203,-0.0248973670007
1588858574441196005,948,1588858574441042196,,-0.0157733064123,-0.762198585176,0.780144111413,0.163165017214,0.00474441808857,-0.0248986186083
1588858574447078592,949,1588858574446882873,,-0.0150115464605,-0.63220953022,0.754256114108,0.162416294925,0.0041038886787,-0.025783856272
1588858574449990504,950,1588858574449898338,,-0.0377156114807,-0.761617314803,0.756877063814,0.163304126516,0.00410222829543,-0.0250473053678
1588858574455931652,951,1588858574455837139,,-0.0368445234803,-0.631586689719,0.731055684248,0.161628011073,0.0041033305576,-0.0250617017696
1588858574458990727,952,1588858574458909394,,-0.0153640562637,-0.761660620026,0.757271502484,0.16150050815,0.00474375672269,-0.025791506783
1588858574462077112,953,1588858574461982077,,-0.0153708804581,-0.7616623664,0.7572696075,0.162393953686,0.00474037026862,-0.0249070245288
1588858574465097549,954,1588858574464994727,,-0.0153796685771,-0.761664171903,0.757267613089,0.162394052335,0.00473891216556,-0.0249066588012
1588858574471539268,955,1588858574471437732,,-0.0157309122818,-0.891865249379,0.760029923783,0.161475644987,0.00473909661882,-0.0249142127336
1588858574474581119,956,1588858574474436743,,0.00670257876353,-0.89191841753,0.760446143598,0.16147461836,0.00537953557825,-0.0247736935531
1588858574480275094,957,1588858574480096701,,0.00642912688638,-1.02268866813,0.762931108359,0.161474581208,0.00537876142883,-0.0247741037982
1588858574483218948,958,1588858574483054384,,0.00641785327742,-1.02269312461,0.76292522945,0.161474619378,0.00537700117786,-0.0247742371201
1588858574486152302,959,1588858574486048015,,-0.0165130624678,-1.02306780244,0.785351599657,0.16217455241,0.00473364859432,-0.022302259629
1588858574492005952,960,1588858574491841278,,-0.0390258409807,-1.02302505544,0.784946744896,0.162154664387,0.00473454505737,-0.0215741864774
1588858574495082868,961,1588858574494963365,,-0.0381811085105,-1.02216007301,0.739390029907,0.160639468152,0.00473701349984,-0.0224554674782
1588858574498054227,962,1588858574497959925,,-0.0381840842202,-1.02215189675,0.739401179269,0.160639743313,0.00473788559282,-0.0224533149691
1588858574504062660,963,1588858574503943366,,-0.0156816650011,-1.02219602974,0.739803553243,0.162463587911,0.00473830844746,-0.0222945902464
1588858574507136985,964,1588858574507027608,,-0.038594521348,-1.02258694437,0.762117921201,0.161407870819,0.00474159897636,-0.0224429295405
1588858574510272571,965,1588858574510154930,,-0.0385877532555,-1.02259854752,0.762102694921,0.161407762064,0.00474251270924,-0.0224435186251
1588858574516078976,966,1588858574515990363,,-0.0385816565064,-1.02260672173,0.762092035218,0.161407710233,0.00474356019794,-0.0224436700088
1588858574519033219,967,1588858574518934626,,-0.0160748809004,-1.02265022607,0.762494934259,0.161427853464,0.00474306361091,-0.0231719115418
1588858574522234594,968,1588858574522068646,,-0.0160699707101,-1.02264618172,0.762500461977,0.162346453599,0.0047433839198,-0.0231635473091
1588858574528143506,969,1588858574528045159,,-0.0160569405898,-1.02264700629,0.762499630584,0.163231280052,0.00474441559934,-0.0222869503375
1588858574531183587,970,1588858574531052037,,-0.0160473804112,-1.02264739175,0.762499314866,0.163228682865,0.00410480434124,-0.0222871116689
1588858574534041970,971,1588858574533893883,,-0.0160423904572,-1.02264760706,0.762499131108,0.16325241823,0.00410618930998,-0.0231554624944
1588858574540023439,972,1588858574539928503,,-0.016037396355,-1.02265009835,0.762495894885,0.16421908264,0.00410714298321,-0.0248852391117
1588858574543115965,973,1588858574542959812,,-0.0160298694981,-1.02265521851,0.762489186019,0.164197297977,0.00474869887627,-0.0240170353307
1588858574546109336,974,1588858574546034337,,-0.0160207851101,-1.02265372588,0.762491378859,0.166048291363,0.00474877066258,-0.0248713278212
1588858574552155748,975,1588858574552028426,,-0.0160235218429,-1.02265329259,0.762491902488,0.166048396745,0.0047488497679,-0.0248706091494
1588858574555163285,976,1588858574555040767,,-0.0389592019305,-1.02304092965,0.784929365931,0.166772943857,0.00410485573287,-0.0232653148211
1588858574558083566,977,1588858574558006630,,-0.0164244763577,-1.02308800633,0.785327137303,0.166819147931,0.00474937146173,-0.0248651124633
1588858574564145102,978,1588858574564034515,,-0.016417286699,-1.02309181615,0.785322324347,0.166818987517,0.00474989652807,-0.0248660883627
1588858574567173680,979,1588858574567063635,,-0.0164181992003,-1.02308863274,0.785326452499,0.166818948797,0.00474938900496,-0.0248664450605
1588858574570067736,980,1588858574569931356,,-0.0389377546144,-1.02305027901,0.784918244493,0.166775028821,0.00474848581239,-0.0232677880794
1588858574576180094,981,1588858574576009621,,-0.0389225783739,-1.02304957962,0.78491990877,0.166774844316,0.00475018345417,-0.0232687640065
1588858574579106377,982,1588858574579014038,,-0.0171270813577,-1.15463763955,0.810277277911,0.168494743698,0.00475143913579,-0.0248542052012
1588858574584976813,983,1588858574584895992,,-0.017131202568,-1.15463225773,0.810284859786,0.16849468281,0.00475024814201,-0.024854845631
1588858574588095983,984,1588858574587979348,,0.00546845101468,-1.15469185265,0.810688794854,0.168512245064,0.00410869913091,-0.0255859807322
1588858574590962700,985,1588858574590866880,,-0.0167945707799,-1.02351100476,0.808093756012,0.169389475566,0.00474952035912,-0.0239770041666
1588858574593962357,986,1588858574593875704,,0.00548154883073,-1.15467757642,0.810709040136,0.170325427804,0.00410780363235,-0.0246996574504
1588858574600042795,987,1588858574599949156,,0.00548193698831,-1.15468137596,0.810703625872,0.171257798429,0.00410763367088,-0.0255622730373
1588858574603021505,988,1588858574602927347,,0.0280800768816,-1.15474309387,0.811126294297,0.171280247398,0.00475093958412,-0.0262936272079
1588858574609081244,989,1588858574608950362,,0.0280793656273,-1.15474186248,0.811128071954,0.171280312184,0.00475111953569,-0.0262931726643
1588858574612075511,990,1588858574611986237,,0.00547754134636,-1.15467475781,0.810713081703,0.171260207539,0.00474948780009,-0.0255624433642
1588858574615015113,991,1588858574614936187,,-0.0171218582519,-1.15462544829,0.810294760456,0.172182958158,0.00474892359421,-0.0257029863237
1588858574618146868,992,1588858574618021689,,-0.0171225694291,-1.15462549296,0.810294681779,0.172183124337,0.00474969837785,-0.0257017299007
1588858574624044041,993,1588858574623946309,,-0.01713520293,-1.15461878017,0.810303979997,0.172180854514,0.00410505710537,-0.0257011273615
1588858574626979526,994,1588858574626906464,,-0.0397362197237,-1.15456851559,0.809908683909,0.17307221892,0.00474695649795,-0.0249601247149
1588858574633087689,995,1588858574632975204,,-0.017138800946,-1.15461620714,0.81030757024,0.172204902309,0.00410549798569,-0.026571593881
1588858574636027894,996,1588858574635951391,,-0.0175613672494,-1.15500080851,0.833076559304,0.173881428576,0.00410359287801,-0.0265547591815
1588858574639016174,997,1588858574638932825,,0.00503706395479,-1.1550636725,0.833476666233,0.173904102262,0.00474764744785,-0.0272855480976
1588858574645084714,998,1588858574644936967,,-0.0171588378553,-1.15462480392,0.810294896402,0.174943571523,0.00474672635009,-0.0265429548656
1588858574648004751,999,1588858574647904061,,-0.017165883145,-1.15462148951,0.810299470019,0.174943668756,0.0047459136837,-0.0265424593206
1588858574651135101,1000,1588858574650952230,,-0.0175719747278,-1.1550053873,0.83306998743,0.173881797317,0.00410390115533,-0.0265522968914
1588858574657184966,1001,1588858574657098252,,-0.0175668165078,-1.15501043829,0.833063093243,0.174802745973,0.00474769895633,-0.0265437240317
1588858574660131294,1002,1588858574660043007,,-0.0175629724591,-1.15501568988,0.833055893117,0.175735369161,0.00474920318983,-0.0274063896237
1588858574663154582,1003,1588858574663012584,,-0.0175717939087,-1.15501213849,0.833060631005,0.175735539482,0.00474845478135,-0.027405427155
1588858574669154946,1004,1588858574669040480,,-0.017577192898,-1.15500613431,0.833068841651,0.176654191372,0.00474734781286,-0.0273963693627
1588858574672365109,1005,1588858574672288906,,-0.0175747943926,-1.15500228657,0.833074226922,0.177596713183,0.0047475601703,-0.0282606061044
1588858574675463324,1006,1588858574675349681,,-0.0175746708039,-1.15500778384,0.833066607876,0.177596794436,0.00474818587695,-0.0282599903615
1588858574681144074,1007,1588858574681000428,,0.0272280130387,-1.15551606127,0.856775221047,0.17934393937,0.00539280471335,-0.0305931588154
1588858574684128253,1008,1588858574684028382,,0.0042080099768,-1.15583835289,0.879149981304,0.179180203224,0.00474748050578,-0.0298610172893
1588858574687149320,1009,1588858574687068416,,-0.0179956316696,-1.15539528468,0.855946109789,0.178416561964,0.00474809764172,-0.0300081233873
1588858574693169130,1010,1588858574693093561,,-0.0179934676269,-1.15538958285,0.855953851817,0.17841655219,0.00474822635657,-0.030008161135
1588858574696140331,1011,1588858574696054466,,0.00502403177683,-1.15506277441,0.833477989494,0.178572341574,0.00410449629859,-0.0307400194362
1588858574699127316,1012,1588858574699038510,,0.0050321700643,-1.15505875918,0.833483504815,0.178572378907,0.00410591537717,-0.0307396130469
1588858574705355149,1013,1588858574705223812,,-0.0175838881654,-1.15500390317,0.833071793712,0.180356903054,0.00474655272273,-0.0291161522099
1588858574708236399,1014,1588858574708111913,,-0.0175898990882,-1.1549973812,0.833080709062,0.180357035748,0.00474593429467,-0.0291154310475
1588858574711236806,1015,1588858574711149181,,-0.0175964042872,-1.15500407161,0.833071295902,0.179473004362,0.00474715423106,-0.0299958638398
1588858574720390849,1016,1588858574720297259,,0.00499020656591,-1.15506381025,0.833476757204,0.179493546232,0.0047450712502,-0.0307293175115
1588858574723349624,1017,1588858574723171809,,-0.017611199176,-1.15501364472,0.833057710551,0.179470802282,0.00410100621404,-0.0299953894504
1588858574729341381,1018,1588858574729206015,,-0.0176171979151,-1.15500999932,0.833062637943,0.179470808995,0.00409987656726,-0.0299955037123
1588858574732276276,1019,1588858574732168906,,-0.017619865555,-1.1550078406,0.833065574507,0.181297675899,0.00409780424135,-0.0299791999481
1588858574735305773,1020,1588858574735167321,,-0.0180357121522,-1.15540016425,0.855938679477,0.182068619972,0.00409729386629,-0.0299719228093
1588858574741274954,1021,1588858574741171280,,-0.0180501626248,-1.15540128035,0.855936868277,0.182068727748,0.00409534588207,-0.0299715343374
1588858574744306740,1022,1588858574744188393,,-0.018055801181,-1.15539730499,0.855942115529,0.18206889781,0.00409507009086,-0.0299705389259
1588858574747165891,1023,1588858574747080300,,-0.0184001479004,-1.2867681889,0.857912054609,0.181175114823,0.00409537047876,-0.0308509761349
1588858574753315701,1024,1588858574753221488,,-0.018390728383,-1.28676759173,0.857913152275,0.181174969115,0.00409617513025,-0.0308517249798
1588858574756104372,1025,1588858574755989253,,-0.0180611583209,-1.15539822897,0.855940755267,0.182093401147,0.00409581551758,-0.0308432006042
1588858574759070145,1026,1588858574758986534,,0.00466728553279,-1.28648121334,0.835433881766,0.181370634599,0.00474103880402,-0.0324663286513
1588858574765029370,1027,1588858574764953977,,0.00426920184302,-1.28682664349,0.858320108189,0.182141276742,0.00474176101918,-0.0324600111883
1588858574768046471,1028,1588858574767959375,,0.00386574080367,-1.28717646079,0.881113121774,0.182933542821,0.00474269053541,-0.0333275860662
1588858574774430326,1029,1588858574774367607,,0.0269517176713,-1.28689429693,0.858733002972,0.183070172939,0.00474406863492,-0.0331867680412
1588858574777099290,1030,1588858574777025525,,0.0269504728987,-1.28689666577,0.85872949209,0.183067863472,0.00409862970314,-0.0331869098452
1588858574780069113,1031,1588858574780004365,,0.003882084316,-1.28719344242,0.881088241749,0.183841662829,0.00474485658622,-0.0333200463112
1588858574786153424,1032,1588858574786053762,,0.0261425052672,-1.28760741819,0.904312561844,0.184627479001,0.00409750744982,-0.0340489965282
1588858574789076462,1033,1588858574788997642,,0.026138903286,-1.28760111583,0.904321639526,0.185570556605,0.00409635801632,-0.034916750153
1588858574792034201,1034,1588858574791960533,,0.0261310703328,-1.2876005785,0.904322630963,0.185597987196,0.00474169619434,-0.0357919342851
1588858574798159281,1035,1588858574797988333,,0.0261446289697,-1.28760324908,0.904318436615,0.185597771471,0.00474309772967,-0.0357928672031
1588858574801157271,1036,1588858574801075644,,0.0263599855143,-1.15631102247,0.902350136028,0.185646587116,0.00409706231228,-0.0375534272699
1588858574803929423,1037,1588858574803863648,,0.0263572874126,-1.15630769039,0.902354484695,0.185646494389,0.00409605403902,-0.0375539956509
1588858574810004127,1038,1588858574809930931,,0.0263585614925,-1.1562990561,0.90236551164,0.186566621065,0.00474091056257,-0.0375470815849
1588858574812979448,1039,1588858574812906692,,0.0263482476526,-1.15629957027,0.902365153995,0.187499976229,0.00473872619009,-0.0384166801852
1588858574819122253,1040,1588858574819024200,,0.0263383697826,-1.15629955082,0.902365467295,0.187500221952,0.00473798422382,-0.0384155723891
1588858574822160227,1041,1588858574822035467,,0.0488812836845,-1.28767066234,0.904753844256,0.188439643653,0.00473775283544,-0.039147208588
1588858574825157985,1042,1588858574825058894,,0.0484891974527,-1.28801131318,0.927583789079,0.18920437474,0.00409057136223,-0.039141854156
1588858574828162600,1043,1588858574828057979,,0.0484896619252,-1.28800959382,0.927586152235,0.189204621014,0.00409151053837,-0.0391405655306
1588858574834224239,1044,1588858574834111123,,0.0484887426839,-1.28800980842,0.927585902314,0.189204683434,0.00409160952492,-0.0391402534413
1588858574837096615,1045,1588858574837010064,,0.0484875658405,-1.28801184462,0.927583136426,0.189204883336,0.00409226720381,-0.039139218339
1588858574843165146,1046,1588858574842979271,,0.0484901176247,-1.28801861857,0.927573596875,0.189228381025,0.00345628278156,-0.0400162477392
1588858574846214565,1047,1588858574846115088,,0.0480883689677,-1.28836855562,0.950502674302,0.190906519041,0.00345371598827,-0.040003679346
1588858574849137489,1048,1588858574849049706,,0.0480913457063,-1.28836850622,0.950502590653,0.190906492077,0.00345408752893,-0.0400037759451
1588858574852082438,1049,1588858574851989904,,0.0257137219545,-1.28794430514,0.927149650411,0.190114266955,0.00345388140844,-0.0392719555599
1588858574858122960,1050,1588858574858018134,,0.0484658124052,-1.28801396589,0.927581327765,0.192907532743,0.00408582547902,-0.0408758501727
1588858574861110258,1051,1588858574860991753,,0.0484672045674,-1.28801790486,0.927575785454,0.192907552975,0.00408630114123,-0.0408757071444
1588858574867124034,1052,1588858574867014342,,0.0484795110576,-1.2880173565,0.927575903783,0.19290528088,0.00344998304172,-0.0408765263836
1588858574870494744,1053,1588858574870034629,,0.0480729263837,-1.28837085984,0.950500332168,0.193701320933,0.00344864092057,-0.0417481255586
1588858574873223590,1054,1588858574873143003,,0.0484761168199,-1.28802320512,0.927567959814,0.193892910678,0.00408857322579,-0.0435120701266
1588858574879306894,1055,1588858574879096660,,0.0707527033602,-1.28845879708,0.950921036575,0.195600454343,0.00344719259499,-0.044237054664
1588858574882170515,1056,1588858574882079998,,0.0707544084069,-1.28845159844,0.950930663486,0.195600680925,0.0034479347313,-0.0442359949461
1588858574885276316,1057,1588858574885051460,,0.0707554571114,-1.28845159797,0.950930586091,0.195600916999,0.00344893768484,-0.0442348728862
1588858574891035182,1058,1588858574890947318,,0.0707462441181,-1.28845022623,0.950933130172,0.195601358863,0.00344892073868,-0.0442329202973
1588858574894097210,1059,1588858574893949241,,0.0703599399059,-1.28880017574,0.973771925451,0.19642032547,0.00344962360638,-0.0459852757557
1588858574897219174,1060,1588858574897138130,,0.0708873861114,-1.15722609433,0.948984733242,0.196571014157,0.00344893413294,-0.0459842153288
1588858574903179331,1061,1588858574903062463,,0.0708787732389,-1.15722746395,0.948983706403,0.196571249501,0.00344830880635,-0.0459832561761
1588858574906221667,1062,1588858574906130361,,0.048248089998,-1.15714624976,0.948546435338,0.196549188813,0.00344960649762,-0.0452458380347
1588858574909154591,1063,1588858574909064548,,0.0707606933836,-1.28845799557,0.95092152805,0.19560122293,0.00345117018336,-0.0442333459499
1588858574915278166,1064,1588858574915166063,,0.0707505207654,-1.28845564798,0.950925465852,0.195601202374,0.00344932238715,-0.0442335809761
1588858574918173997,1065,1588858574918074103,,0.070892954644,-1.15722948757,0.948980179408,0.196570703806,0.00344894458093,-0.0459855411955
1588858574921234980,1066,1588858574921102860,,0.070897311558,-1.15722632126,0.948983715048,0.197530618827,0.00344786238592,-0.0477490428243
1588858574927158850,1067,1588858574927046234,,0.0709069273843,-1.15722133119,0.948989081667,0.19753010556,0.00344750326994,-0.0477511920131
1588858574930098072,1068,1588858574930030610,,0.0707603097668,-1.28845723667,0.950922584874,0.197529630917,0.00344530006299,-0.0477533144125
1588858574933135782,1069,1588858574933047274,,0.0707718644753,-1.28845726284,0.950921689533,0.197529062092,0.00344533893681,-0.0477556644678
1588858574939266083,1070,1588858574939143846,,0.0707907789988,-1.28846291839,0.950912618556,0.198443972695,0.00279795807018,-0.0477512099852
1588858574942282426,1071,1588858574942095994,,0.0707854109426,-1.28846128779,0.950915227583,0.198472165907,0.00344512226504,-0.0486315003497
1588858574945887423,1072,1588858574945763526,,0.0707877909338,-1.28846263614,0.950913223445,0.199350962484,0.00279484694746,-0.0477467574421
1588858574951291684,1073,1588858574951127642,,0.0705494329866,-1.15761630643,0.971817200344,0.199236722702,0.0027970869582,-0.0486267467826
1588858574954148549,1074,1588858574954055712,,0.0705436698279,-1.15761306683,0.971821477653,0.199236720556,0.0027958562888,-0.0486268263492
1588858574957279651,1075,1588858574957192743,,0.0704118007029,-1.28880614928,0.973760270709,0.200091245099,0.00279516945231,-0.0468523157998
1588858574963218079,1076,1588858574963075387,,0.0704069042754,-1.28880615514,0.973760617006,0.200091229673,0.00279430718526,-0.0468524331136
1588858574966153228,1077,1588858574965996284,,0.0931792760289,-1.28888053778,0.974217792092,0.200168627601,0.00344185288712,-0.0493609327978
1588858574972388380,1078,1588858574972293340,,0.0699943420413,-1.28914112772,0.996631560068,0.200912953135,0.00344001270909,-0.0486144174786
1588858574975427898,1079,1588858574975345536,,0.0699862250937,-1.28914012121,0.996633432009,0.200912927743,0.00343851537089,-0.0486146283494
1588858574978087282,1080,1588858574978023224,,0.0924127271352,-1.28956248521,1.01994750444,0.202645343226,0.00343868829431,-0.0502253003747
1588858574981054125,1081,1588858574980991976,,0.069600163623,-1.28947898266,1.01950682119,0.202623490123,0.0034383013302,-0.0494818332553
1588858574987135113,1082,1588858574987059405,,0.0696058272248,-1.28947950116,1.01950577873,0.203528411372,0.00278743710765,-0.0494776547368
1588858574990250252,1083,1588858574990176320,,0.0696098655118,-1.28947183116,1.01951520402,0.203528345389,0.00278751473068,-0.0494779217842
1588858574996242882,1084,1588858574996062926,,0.092813395324,-1.2892143333,0.997085449294,0.202783491488,0.0027902124045,-0.0502267008877
1588858574999167618,1085,1588858574999086650,,0.0696182176059,-1.28948088882,1.01950317759,0.204469903683,0.00213802200884,-0.0503634675198
1588858575002109318,1086,1588858575001980687,,0.0696180606322,-1.28948117942,1.01950282075,0.204469945304,0.00213815073756,-0.0503632930799
1588858575005261705,1087,1588858575005120838,,0.0926972981578,-1.42065942832,0.998842221827,0.20560283219,0.00213929257457,-0.0528607309217
1588858575011082489,1088,1588858575010987379,,0.0926801006881,-1.42066090679,0.998841714846,0.205603120017,0.0021375774468,-0.0528596807842
1588858575014063744,1089,1588858575013960836,,0.115517743824,-1.28931696097,0.997515954003,0.206544039268,0.00278692700244,-0.0535945031961
1588858575020064853,1090,1588858575019990943,,0.115429026402,-1.42076249476,0.999262662423,0.206544308719,0.00278695884207,-0.0535934631107
1588858575023073674,1091,1588858575022985817,,0.0926886918837,-1.42067067136,0.998827029272,0.206520289352,0.00213797155917,-0.0528534156518
1588858575026065112,1092,1588858575025989966,,0.115073977497,-1.42108130334,1.02211778373,0.208244469222,0.00278981127781,-0.0544637574702
1588858575032095551,1093,1588858575031988205,,0.115077418905,-1.42107319366,1.02212867132,0.208271895699,0.00279195341848,-0.0553531883074
1588858575035079380,1094,1588858575034967651,,0.0923266864803,-1.42098232152,1.02169399102,0.20736948057,0.00279403222204,-0.0554995404074
1588858575038086328,1095,1588858575038006384,,0.114688393721,-1.42138336275,1.04510879037,0.209041896403,0.00279100240353,-0.0553470082519
1588858575044234426,1096,1588858575044137806,,0.114690530922,-1.42138863433,1.04510138626,0.209959061413,0.00279060874683,-0.0553404553161
1588858575047078404,1097,1588858575046981320,,0.114702894907,-1.42138741513,1.04510168752,0.209041551264,0.00279247188081,-0.055348237684
1588858575050432210,1098,1588858575050192777,,0.114704918482,-1.42139047133,1.04509730885,0.209041799431,0.00279368830574,-0.0553472390019
1588858575056096118,1099,1588858575056001691,,0.114719211302,-1.42139243355,1.04509307129,0.209985154214,0.00279432853316,-0.0562244889324
1588858575059085957,1100,1588858575059002998,,0.114724997955,-1.42137548694,1.04511548416,0.210009799698,0.00214395194621,-0.0571080608792
1588858575062041811,1101,1588858575061959155,,0.114342629174,-1.42169171449,1.0679956625,0.210775771038,0.00214217507646,-0.0571045027507
1588858575068195686,1102,1588858575068095022,,0.114615449191,-1.55299567682,1.04670690996,0.210916549571,0.00214145552401,-0.0571030715358
1588858575071618675,1103,1588858575071533718,,0.114628525031,-1.55299249139,1.04671020427,0.210916135235,0.00214206808963,-0.0571045789377
1588858575074393218,1104,1588858575074317114,,0.115026845878,-1.55270057009,1.02373928368,0.211090189637,0.00214327757331,-0.0579862437546
1588858575080118894,1105,1588858575080029422,,0.114734523271,-1.42136049874,1.04513482244,0.212803506365,0.00213873205752,-0.0588688641134
1588858575083102666,1106,1588858575082986209,,0.114631865723,-1.55297119954,1.04674142821,0.213710335582,0.00213708588017,-0.0588633728399
1588858575086113354,1107,1588858575086031660,,0.137127158491,-1.55335490382,1.07005860327,0.214501023814,0.0027860441283,-0.0596026083252
1588858575092033696,1108,1588858575091951889,,0.137125718947,-1.55333826315,1.07008294382,0.21450109464,0.00278509243006,-0.0596023979103
1588858575095119348,1109,1588858575095035873,,0.114342712624,-1.42165075044,1.0680501818,0.214503342484,0.00213372690519,-0.0597418623892
1588858575098235860,1110,1588858575098108505,,0.114321996912,-1.42165856417,1.06804199869,0.214532628622,0.00278394960719,-0.0606228348838
1588858575104123405,1111,1588858575103974256,,0.137107113971,-1.55332345916,1.07010681698,0.214582271019,0.002783291066,-0.062262271111
1588858575107327917,1112,1588858575107212713,,0.113828101118,-1.55352105318,1.09255855654,0.215296681734,0.00213100298733,-0.0606194486504
1588858575110259079,1113,1588858575110113153,,0.113829957057,-1.55352760929,1.09254904091,0.215296791369,0.00213192723519,-0.0606190267689
1588858575116338578,1114,1588858575116189803,,0.11384263869,-1.55351938101,1.09255941952,0.214389990073,0.0021348614907,-0.0606246179124
1588858575119229848,1115,1588858575119134129,,0.113855806326,-1.55352250069,1.09255361148,0.214390043421,0.00213709290443,-0.0606243506322
1588858575122338955,1116,1588858575122163164,,0.113838391723,-1.55352202557,1.09255610171,0.215296896199,0.00213312753334,-0.0606186122232
1588858575128213184,1117,1588858575128109261,,0.13674813788,-1.55362150568,1.09298035037,0.216236142703,0.00213391013857,-0.0613581889554
1588858575131228835,1118,1588858575131095062,,0.136755793684,-1.55362091401,1.09298023353,0.216236255104,0.00213530379268,-0.0613577443498
1588858575134408729,1119,1588858575134211207,,0.136781811565,-1.5536100012,1.09299248973,0.216261407567,0.00149656819017,-0.0622525549883
1588858575140312966,1120,1588858575140193207,,0.136784846942,-1.5536185014,1.09298002735,0.218086465194,0.00213570225129,-0.0622413293205
1588858575143268330,1121,1588858575143109065,,0.136796887254,-1.55362150055,1.09297425729,0.218086605229,0.00213803324105,-0.0622407586212
1588858575149253758,1122,1588858575149155429,,0.136796230227,-1.55362826183,1.09296472855,0.216288241097,0.00149971968998,-0.0631370468914
1588858575152263514,1123,1588858575152148923,,0.113522191731,-1.55382995757,1.11542139647,0.217938542097,0.00149886584258,-0.0623808585085
1588858575155192498,1124,1588858575155041466,,0.1135312353,-1.55383506126,1.11541336634,0.217938298654,0.00149984023106,-0.0623816855939
1588858575161343633,1125,1588858575161205519,,0.136428472388,-1.55393048193,1.11584294705,0.218906249258,0.00214077247344,-0.0640053183829
1588858575164245149,1126,1588858575164107548,,0.136436690502,-1.5539191019,1.11585778998,0.218905884095,0.00214039658572,-0.0640065798422
1588858575167345931,1127,1588858575167216625,,0.136503500992,-1.42238789942,1.11425499494,0.218879185762,0.00213898199706,-0.0631215437451
1588858575173320946,1128,1588858575173217848,,0.136427590943,-1.55392705959,1.11584782078,0.217989622999,0.00214193829194,-0.0640109528554
1588858575176167446,1129,1588858575176026474,,0.158869380015,-1.55430087575,1.13930441347,0.218781334433,0.00214262715321,-0.0647496720997
1588858575179315973,1130,1588858575179153806,,0.158849301477,-1.55430228223,1.13930529433,0.218780070194,0.00149887550714,-0.0647486015594
1588858575185115398,1131,1588858575185008232,,0.159229348972,-1.55401261881,1.11630079288,0.218012204782,0.00214090970267,-0.0647537906266
1588858575188087540,1132,1588858575187991699,,0.159541081613,-1.68546467666,1.0948764367,0.219067161287,0.0014943065485,-0.064749435398
1588858575191222501,1133,1588858575191093097,,0.136702468584,-1.68537321372,1.09444061678,0.219045059989,0.0014944203087,-0.064005153733
1588858575200179424,1134,1588858575200047227,,0.136399519872,-1.55390275014,1.1158851049,0.218930993777,0.00149192217333,-0.0648922400143
1588858575203261148,1135,1588858575203166124,,0.13598773719,-1.55419968769,1.13888364287,0.218757025276,0.00148928935766,-0.0640077043624
1588858575209153737,1136,1588858575209030311,,0.136376325116,-1.55390932855,1.11587877918,0.217987175615,0.00148957452463,-0.0640140817313
1588858575212132126,1137,1588858575212021015,,0.13599839909,-1.5541994615,1.13888267843,0.21875668003,0.00148994635225,-0.0640088689959
1588858575215289260,1138,1588858575215188082,,0.159089681072,-1.68573135258,1.11778517526,0.219833319658,0.00148424604446,-0.0647446222204
1588858575221231070,1139,1588858575221092564,,0.159095280458,-1.6857299254,1.11778653064,0.219833321367,0.00148494001255,-0.0647446005037
1588858575224135070,1140,1588858575224033094,,0.136249122269,-1.68563420435,1.11735735432,0.219810439163,0.00148228437156,-0.0640031625794
1588858575230285280,1141,1588858575230031393,,0.159066404345,-1.68572135744,1.11780356137,0.219833051042,0.00147981580869,-0.0647456356798
1588858575233142181,1142,1588858575233039207,,0.136339006299,-1.55392144355,1.11586646866,0.218930685013,0.00148323869803,-0.0648934807568
1588858575236087069,1143,1588858575236017143,,0.135975373182,-1.55422287775,1.13885347173,0.219699980337,0.00148588558523,-0.0648888441345
1588858575239138907,1144,1588858575239034625,,0.13635753827,-1.55393039981,1.11585173188,0.218930480267,0.00148598768919,-0.0648941086128
1588858575245195498,1145,1588858575245105663,,0.15880405234,-1.55431244613,1.13929773615,0.21972223252,0.00148771450093,-0.0656328359838
1588858575248249170,1146,1588858575248036067,,0.135624192595,-1.55453278949,1.16173637051,0.220465388198,0.00148904574216,-0.06488628715
1588858575254311759,1147,1588858575254145006,,0.158429933575,-1.55462454664,1.16217957802,0.220515431463,0.00148883057021,-0.0665232423868
1588858575260313797,1148,1588858575260196081,,0.159131513202,-1.68578335676,1.11770078881,0.221747028356,0.00148932538356,-0.0674003921506
1588858575263144600,1149,1588858575263053152,,0.159126415974,-1.68578913218,1.11769280364,0.221747163016,0.00148927476013,-0.0673999502361
1588858575269204581,1150,1588858575269046042,,0.158814786544,-1.55434903529,1.13924632056,0.223397271425,0.00212708697223,-0.0665057630556
1588858575272322813,1151,1588858575272236539,,0.158727951863,-1.68605176501,1.14070943133,0.223424774776,0.00212718328531,-0.0673891859959
1588858575278202429,1152,1588858575278095603,,0.159112600103,-1.68577930021,1.11770959967,0.223572620237,0.00212763903016,-0.0673862640461
1588858575281239526,1153,1588858575281093651,,0.135482818172,-1.68622665736,1.16319378473,0.22419598762,0.00212568847543,-0.0675238392351
1588858575284058919,1154,1588858575283969417,,0.135456012681,-1.68622996726,1.16319210838,0.224196382668,0.00212306711229,-0.0675226100375
1588858575290074598,1155,1588858575289999995,,0.135444428592,-1.68622311282,1.16320339381,0.2241962025,0.00212060309028,-0.0675232856782
1588858575293243888,1156,1588858575293177714,,0.135821183732,-1.6859479987,1.14030012798,0.222467400339,0.00147650296613,-0.0657654525281
1588858575296069096,1157,1588858575296001378,,0.158678841492,-1.68605233889,1.14071541566,0.223425358665,0.00212168295882,-0.0673874235193
1588858575302094258,1158,1588858575302001333,,0.135824006791,-1.68595257711,1.14029302246,0.223429451305,0.00211854473368,-0.0675305745286
1588858575305189595,1159,1588858575305032042,,0.13581578947,-1.68594886272,1.14029949302,0.222521624461,0.00147736577913,-0.0675349365371
1588858575308203398,1160,1588858575308098747,,0.135842469659,-1.68595750571,1.14028353602,0.223429568641,0.00212170439726,-0.0675300871167
1588858575314132362,1161,1588858575314031219,,0.135477742182,-1.686228991,1.16319099297,0.22421968423,0.000830179504775,-0.0684204752553
1588858575320170479,1162,1588858575320057311,,0.158216787015,-1.81816664468,1.16496809324,0.226093860024,0.00147878670332,-0.0700390632244
1588858575326102237,1163,1588858575326018471,,0.158210195826,-1.81816458484,1.16497220318,0.22609427401,0.00147870158582,-0.070037728615
1588858575329164572,1164,1588858575329059581,,0.158194110327,-1.81816070588,1.1649804414,0.227010911815,0.00147509423672,-0.0700315444166
1588858575332051791,1165,1588858575331977290,,0.158233312624,-1.81815955705,1.16497691036,0.226092211045,0.000828049405875,-0.0700393598921
1588858575338118557,1166,1588858575338025065,,0.158231439942,-1.8181591387,1.16497781763,0.226121153446,0.00148109773444,-0.0709245568956
1588858575341272534,1167,1588858575341160246,,0.181093923106,-1.81825861492,1.16540378903,0.227086270351,0.000827728391313,-0.0725484538596
1588858575344202130,1168,1588858575344113962,,0.181139311842,-1.68640516377,1.16408549372,0.227994727393,0.0014756342962,-0.0725412833469
1588858575350403009,1169,1588858575350280993,,0.180736081713,-1.68665799959,1.18703085152,0.229702897866,0.000816899719844,-0.0734271664878
1588858575353239187,1170,1588858575353161067,,0.180351084135,-1.68692122545,1.20996525512,0.230468794962,0.000815217117034,-0.0734222929356
1588858575356178500,1171,1588858575356090307,,0.180357928225,-1.68693268843,1.20994825321,0.230468889788,0.000817125458393,-0.0734219740653
1588858575362248450,1172,1588858575362144609,,0.18034292607,-1.68690412249,1.20999031548,0.231429767611,0.000812785764901,-0.0751899631539
