%time,field.header.seq,field.header.stamp,field.header.frame_id,field.vector.x,field.vector.y,field.vector.z
1588858573603751033,749,1588858573603566061,,0.499439464058,-0.200510688026,0.214997090542
1588858573606804958,750,1588858573606621755,,0.499439577825,-0.200509897287,0.21499655333
1588858573612735068,751,1588858573612591883,,0.499440331103,-0.200508333239,0.214996148791
1588858573615770586,752,1588858573615642486,,0.499440449892,-0.200506834533,0.214996391019
1588858573618858921,753,1588858573618604706,,0.499440405007,-0.200505482247,0.214995523923
1588858573624704267,754,1588858573624597303,,0.499440537239,-0.200506234396,0.21499530244
1588858573627803075,755,1588858573627688788,,0.499440700214,-0.200503483177,0.214994734301
1588858573630745025,756,1588858573630631805,,0.499440794877,-0.200501846264,0.214994090687
1588858573636783865,757,1588858573636654804,,0.499441368581,-0.200500884691,0.214993721405
1588858573639752105,758,1588858573639603220,,0.499441478981,-0.200499783651,0.214993829192
1588858573642767510,759,1588858573642668809,,0.499441384328,-0.200498861869,0.214993001568
1588858573648780516,760,1588858573648681878,,0.499441473544,-0.200497887821,0.214991797909
1588858573651758098,761,1588858573651636946,,0.499441951423,-0.200494824705,0.214991506486
1588858573657789019,762,1588858573657634373,,0.499441987441,-0.200493115899,0.214990518158
1588858573660817307,763,1588858573660672052,,0.499442323106,-0.200491609522,0.214990138334
1588858573663758862,764,1588858573663610868,,0.499441572902,-0.200491304909,0.214988144768
1588858573666753817,765,1588858573666628327,,0.499442473877,-0.200490026258,0.21498818458
1588858573673086190,766,1588858573672960943,,0.499442720007,-0.200486719292,0.214986963217
1588858573675757768,767,1588858573675628341,,0.499442590789,-0.200484856329,0.214985654325
1588858573681870856,768,1588858573681661173,,0.499442421242,-0.200482421934,0.214983636881
1588858573684717969,769,1588858573684632038,,0.499442656648,-0.200480073268,0.214982410654
1588858573687766089,770,1588858573687656946,,0.499442074202,-0.200477047829,0.214979869822
1588858573690785027,771,1588858573690693833,,0.499441665523,-0.200471597386,0.214977588192
1588858573699765778,772,1588858573699600483,,0.499440675313,-0.200460942445,0.214971141319
1588858573705768633,773,1588858573705626523,,0.499439884776,-0.200456174368,0.214968799409
1588858573708836572,774,1588858573708647657,,0.499439830777,-0.200451749845,0.214966943983
1588858573711707507,775,1588858573711619260,,0.499439509314,-0.200448533317,0.214965123982
1588858573717768975,776,1588858573717636282,,0.499439752144,-0.200445449964,0.214963359785
1588858573720820629,777,1588858573720685292,,0.499440565457,-0.20044129369,0.214962687751
1588858573723747080,778,1588858573723639653,,0.49943956761,-0.20044027984,0.214960642024
1588858573729732765,779,1588858573729577961,,0.499439998509,-0.200437430759,0.214959844879
1588858573732776594,780,1588858573732637885,,0.499439867366,-0.200436211432,0.214958838265
1588858573735755683,781,1588858573735609585,,0.499440203227,-0.20043381046,0.214958412786
1588858573741796578,782,1588858573741641133,,0.499439740865,-0.200431932314,0.214957811144
1588858573744863947,783,1588858573744720981,,0.499439917875,-0.200431631589,0.214956857392
1588858573747851427,784,1588858573747679550,,0.499440262475,-0.200429466587,0.214957325358
1588858573753902450,785,1588858573753739648,,0.499440169141,-0.200427980545,0.214955812273
1588858573762803651,786,1588858573762682983,,0.499439993186,-0.200426081029,0.214955389143
1588858573765832630,787,1588858573765720397,,0.499439782165,-0.20042546457,0.214954950081
1588858573768891522,788,1588858573768695125,,0.499439698173,-0.200424528026,0.214954250287
1588858573771911870,789,1588858573771771408,,0.499439555539,-0.200424855906,0.214953483553
1588858573777918501,790,1588858573777728022,,0.499439456462,-0.200423477006,0.214953570344
1588858573780821359,791,1588858573780686807,,0.499439539112,-0.200423554442,0.21495357522
1588858573786832366,792,1588858573786662653,,0.499438823247,-0.200423253096,0.214952449091
1588858573789907915,793,1588858573789728647,,0.499438684772,-0.200422697258,0.214952104026
1588858573792731101,794,1588858573792647365,,0.499438457474,-0.200424045162,0.214951358005
1588858573795732270,795,1588858573795622494,,0.49943801724,-0.200424031223,0.214950637736
1588858573801795243,796,1588858573801685077,,0.499438401708,-0.20042326502,0.214951879801
1588858573804750176,797,1588858573804594127,,0.499437461978,-0.200423001078,0.214950092389
1588858573810759526,798,1588858573810636748,,0.499437768672,-0.200422856125,0.214950688929
1588858573813746666,799,1588858573813622765,,0.499438125044,-0.200423676323,0.214950932864
1588858573819833160,800,1588858573819659328,,0.499437277984,-0.200422820344,0.214949931659
1588858573825843369,801,1588858573825715649,,0.499437279134,-0.200423731247,0.214950479439
1588858573828825023,802,1588858573828710834,,0.49943698697,-0.200423629955,0.214950124102
1588858573834880764,803,1588858573834706913,,0.499436393976,-0.20042397375,0.214948852271
1588858573837784207,804,1588858573837658232,,0.499436415037,-0.200424015988,0.21494902199
1588858573840809826,805,1588858573840692462,,0.499436576437,-0.200424971081,0.214949516403
1588858573843798439,806,1588858573843635084,,0.499436415761,-0.200424442767,0.214949358927
1588858573849801681,807,1588858573849634395,,0.499435741428,-0.200424777386,0.214948796776
1588858573852888692,808,1588858573852737482,,0.499436419215,-0.200424598673,0.214949925599
1588858573858774399,809,1588858573858646479,,0.499435436234,-0.200424405807,0.214948926781
1588858573861931283,810,1588858573861658491,,0.499435367464,-0.200424896837,0.214948735745
1588858573864768650,811,1588858573864664394,,0.499435352782,-0.200425140165,0.214948250654
1588858573870991550,812,1588858573870895469,,0.499435498267,-0.200425845769,0.214949396831
1588858573874012861,813,1588858573873913806,,0.499435793756,-0.20042553421,0.214949181798
1588858573876847801,814,1588858573876674418,,0.49943586752,-0.200426024857,0.214949662715
1588858573882999288,815,1588858573882667980,,0.49943528535,-0.20042549853,0.214948723242
1588858573885817265,816,1588858573885652973,,0.499435639352,-0.200425654985,0.214948838346
1588858573888836057,817,1588858573888692249,,0.499434829229,-0.200426504638,0.214947891112
1588858573894846514,818,1588858573894695281,,0.499434852998,-0.200424858279,0.214948132872
1588858573897811552,819,1588858573897708883,,0.499434726823,-0.200426151611,0.214948369296
1588858573900840494,820,1588858573900715513,,0.499435083409,-0.200426720879,0.214948955199
1588858573906890853,821,1588858573906694574,,0.499434552126,-0.200425317665,0.21494851653
1588858573909717986,822,1588858573909593287,,0.499434650769,-0.200424357077,0.214948819067
1588858573912809289,823,1588858573912664734,,0.499434959902,-0.200425731164,0.214949004561
1588858573918836878,824,1588858573918724911,,0.499434000969,-0.200425178928,0.214948119474
1588858573921801884,825,1588858573921656498,,0.49943469497,-0.200424133057,0.214949156019
1588858573924818438,826,1588858573924712787,,0.49943404517,-0.200424954908,0.214948456426
1588858573930888752,827,1588858573930744636,,0.499434138662,-0.200423077501,0.214948642765
1588858573933857977,828,1588858573933716185,,0.499433850094,-0.20042259734,0.214948596317
1588858573936796048,829,1588858573936723814,,0.499433548823,-0.200421601723,0.214948096705
1588858573943828137,830,1588858573943762027,,0.499433420703,-0.200421685116,0.21494781694
1588858573948774301,831,1588858573948698431,,0.499432680946,-0.200419061999,0.214947475059
1588858573951826759,832,1588858573951690069,,0.499432629226,-0.200418100884,0.214946708026
1588858573954774365,833,1588858573954656838,,0.499432168403,-0.200417168528,0.21494664427
1588858573957769375,834,1588858573957686249,,0.499431569058,-0.200414669836,0.214946030677
1588858573960756068,835,1588858573960659654,,0.499431227847,-0.200413017235,0.214944972341
1588858573966775461,836,1588858573966694865,,0.499430529724,-0.200410560797,0.214943701462
1588858573975775190,837,1588858573975695668,,0.499429969711,-0.200403752671,0.214940985311
1588858573978792662,838,1588858573978715628,,0.499430703659,-0.20039911385,0.214939572714
1588858573981847646,839,1588858573981698295,,0.499430388406,-0.20039293552,0.214936832699
1588858573987849304,840,1588858573987700689,,0.499430123711,-0.20038605688,0.214933109712
1588858573990798830,841,1588858573990684192,,0.499430046694,-0.200379238647,0.214929691827
1588858573993879255,842,1588858573993712503,,0.499430034648,-0.200371499092,0.214927795034
1588858573999844987,843,1588858573999711936,,0.499429823459,-0.200363826418,0.21492510147
1588858574002835768,844,1588858574002714917,,0.499429979142,-0.200355564247,0.214923289081
1588858574005839665,845,1588858574005710505,,0.499429757473,-0.200346982596,0.214922190854
1588858574011784589,846,1588858574011676943,,0.499429343432,-0.200338369828,0.214919206763
1588858574014806365,847,1588858574014685454,,0.499429229785,-0.200330837853,0.214918003103
1588858574017771669,848,1588858574017682544,,0.4994290589,-0.200323038095,0.214916063473
1588858574023812410,849,1588858574023695084,,0.499428670203,-0.200315731905,0.214914792136
1588858574026852359,850,1588858574026709826,,0.499429245951,-0.200306310207,0.214913660333
1588858574029763116,851,1588858574029701812,,0.499428662909,-0.20030030943,0.214913102932
1588858574035749316,852,1588858574035657264,,0.499428777768,-0.200294000248,0.214912706317
1588858574038845092,853,1588858574038735248,,0.499428852413,-0.200288406673,0.214912493273
1588858574044764956,854,1588858574044649096,,0.499428331049,-0.200283194898,0.214912272013
1588858574047839599,855,1588858574047704740,,0.499427792121,-0.200278180718,0.214911409526
1588858574050830900,856,1588858574050695801,,0.499427865938,-0.200273482262,0.214911001449
1588858574053768093,857,1588858574053666956,,0.499427437971,-0.200270325792,0.214910678419
1588858574059784102,858,1588858574059685578,,0.49942681801,-0.200265139642,0.214908769712
1588858574062823916,859,1588858574062696289,,0.499427612805,-0.200260871755,0.214909940614
1588858574068867087,860,1588858574068773773,,0.499426715882,-0.200257206291,0.214907670446
1588858574071975901,861,1588858574071861753,,0.499426774156,-0.200252099116,0.214906850461
1588858574074950707,862,1588858574074762863,,0.499425746883,-0.200249362498,0.214905593819
1588858574077850351,863,1588858574077757800,,0.499425434824,-0.20024627855,0.214904456059
1588858574083799157,864,1588858574083692453,,0.49942489433,-0.200243437057,0.214902959678
1588858574086790274,865,1588858574086695796,,0.499424811283,-0.200241285139,0.21490196172
1588858574092837937,866,1588858574092716617,,0.49942417944,-0.200238997336,0.214901537759
1588858574095774657,867,1588858574095667826,,0.499423770684,-0.200236093192,0.21489986393
1588858574098762803,868,1588858574098647374,,0.499423516938,-0.200235175962,0.21489928942
1588858574104926302,869,1588858574104772898,,0.499422746451,-0.200233041492,0.214896975225
1588858574107899416,870,1588858574107749468,,0.499422719638,-0.200230830092,0.214896667589
1588858574110901890,871,1588858574110793817,,0.499422389914,-0.200229428646,0.214895762105
1588858574119818852,872,1588858574119670796,,0.499421703354,-0.200228331484,0.214894913372
1588858574122876531,873,1588858574122663865,,0.49942145457,-0.20022796693,0.214893681066
1588858574128778458,874,1588858574128630052,,0.499421563491,-0.200227759613,0.214892424666
1588858574131755267,875,1588858574131613902,,0.499420759311,-0.200226532211,0.214891394016
1588858574134752638,876,1588858574134647643,,0.499421227432,-0.200225910177,0.214891770506
1588858574140810512,877,1588858574140654972,,0.499420463457,-0.200226732025,0.214889866823
1588858574143739104,878,1588858574143654048,,0.499420258899,-0.200224943044,0.214888324535
1588858574146881709,879,1588858574146728661,,0.499420250871,-0.200225809734,0.214887892189
1588858574152822455,880,1588858574152703077,,0.499419762379,-0.200225526253,0.214887771293
1588858574155799185,881,1588858574155713952,,0.499419548694,-0.200225605662,0.214886223503
1588858574158800127,882,1588858574158668220,,0.499419408532,-0.200226135722,0.21488559865
1588858574164840194,883,1588858574164716502,,0.499419828851,-0.200226261832,0.214885540083
1588858574167790965,884,1588858574167708710,,0.499418879219,-0.20022611464,0.214884113263
1588858574174154071,885,1588858574174047361,,0.499419034043,-0.200226253269,0.214883347579
1588858574179839695,886,1588858574179706789,,0.499419202043,-0.20022624927,0.214882078854
1588858574182782550,887,1588858574182654765,,0.499419040965,-0.200226683733,0.214882057827
1588858574188772353,888,1588858574188670165,,0.499418455517,-0.200227129199,0.214879391445
1588858574191751232,889,1588858574191634797,,0.499418111251,-0.200227117828,0.214878371858
1588858574197761576,890,1588858574197680268,,0.499418085297,-0.200226907738,0.214877667642
1588858574200880746,891,1588858574200717407,,0.499418002644,-0.200226830305,0.214877662771
1588858574203814326,892,1588858574203700245,,0.499417810369,-0.200227103022,0.214876743216
1588858574206831327,893,1588858574206704843,,0.499417635797,-0.200227842961,0.214874676577
1588858574212815913,894,1588858574212683467,,0.499417857037,-0.200227684132,0.214873792425
1588858574215794371,895,1588858574215671099,,0.49941753034,-0.200227272973,0.214872519619
1588858574221879004,896,1588858574221713432,,0.499417196268,-0.200226663996,0.214870321605
1588858574224848906,897,1588858574224701284,,0.499417364282,-0.200226915499,0.214868677816
1588858574227850933,898,1588858574227712684,,0.499417744353,-0.200225475284,0.214867443347
1588858574233797648,899,1588858574233683425,,0.499417563737,-0.200224852669,0.214864706853
1588858574239783983,900,1588858574239656018,,0.499418509548,-0.200221289998,0.214860508728
1588858574245828588,901,1588858574245687735,,0.499418973754,-0.200219365277,0.21485837114
1588858574248825530,902,1588858574248692665,,0.49941993697,-0.200216803296,0.214855805404
1588858574251735834,903,1588858574251668546,,0.499420198851,-0.200215478939,0.214851188637
1588858574257898538,904,1588858574257728804,,0.499420936666,-0.200212070095,0.214847234246
1588858574260859602,905,1588858574260721964,,0.499421537078,-0.200209612581,0.214842677808
1588858574263769887,906,1588858574263661443,,0.499422500067,-0.200206157333,0.214839623129
1588858574273214230,907,1588858574273074902,,0.499423627919,-0.200198485854,0.214831371595
1588858574275879265,908,1588858574275733055,,0.499424581645,-0.200193867554,0.21482851336
1588858574281881993,909,1588858574281762455,,0.499424433895,-0.200189346453,0.21482518372
1588858574284859831,910,1588858574284723326,,0.499424496415,-0.200184693939,0.214822091296
1588858574287883292,911,1588858574287774193,,0.499424746979,-0.200180084884,0.214818866823
1588858574293911086,912,1588858574293771431,,0.499424826951,-0.200174363405,0.214815691123
1588858574296833376,913,1588858574296761225,,0.499424386459,-0.20016854519,0.214812416897
1588858574299870618,914,1588858574299790474,,0.499424535831,-0.200162288617,0.214809057392
1588858574305820502,915,1588858574305726614,,0.499424146466,-0.200155808651,0.214805140358
1588858574308808437,916,1588858574308718376,,0.499422567008,-0.200146735703,0.214800038791
1588858574311793211,917,1588858574311699904,,0.499422477086,-0.200141356176,0.214796851119
1588858574317814198,918,1588858574317727510,,0.499422169004,-0.200134459556,0.214793169777
1588858574320848343,919,1588858574320708470,,0.49942202705,-0.200127192433,0.214789586147
1588858574323779387,920,1588858574323701793,,0.499422212859,-0.200121126065,0.214785849468
1588858574329933872,921,1588858574329813462,,0.499422080091,-0.200115766841,0.214782280743
1588858574332903954,922,1588858574332792119,,0.499422826406,-0.200111027408,0.21477904899
1588858574335827723,923,1588858574335709775,,0.499423167151,-0.200105704924,0.214776046339
1588858574341883685,924,1588858574341747033,,0.499423160259,-0.200100365366,0.214772923432
1588858574344969432,925,1588858574344808312,,0.499423236515,-0.200096013375,0.214769830474
1588858574347961212,926,1588858574347790886,,0.499423871532,-0.200089493865,0.214766667537
1588858574353785590,927,1588858574353683840,,0.499424373934,-0.200084879537,0.214764766806
1588858574362897198,928,1588858574362732151,,0.499425673476,-0.2000725868,0.214758547889
1588858574365838424,929,1588858574365732492,,0.499425914285,-0.200065938506,0.214755212313
1588858574368834359,930,1588858574368737578,,0.499426707276,-0.200059546655,0.214752533093
1588858574374912679,931,1588858574374769769,,0.499427581158,-0.2000505553,0.214748713332
1588858574377923071,932,1588858574377737814,,0.499429434391,-0.20004125175,0.214746098343
1588858574380873668,933,1588858574380786948,,0.499430064333,-0.200031637834,0.214741342513
1588858574386906872,934,1588858574386778496,,0.499431145132,-0.200021082638,0.214737209123
1588858574389816710,935,1588858574389698989,,0.499432011055,-0.200012464204,0.214733295064
1588858574392859575,936,1588858574392775287,,0.499432842066,-0.200000377093,0.214727604237
1588858574398818106,937,1588858574398725350,,0.499434147069,-0.199985982908,0.214722796135
1588858574401753151,938,1588858574401650786,,0.499434971296,-0.199974778309,0.214718818807
1588858574404885220,939,1588858574404761288,,0.499436422191,-0.199962026689,0.214714697598
1588858574410876241,940,1588858574410746465,,0.499437449877,-0.199950630824,0.214710583686
1588858574413871108,941,1588858574413742306,,0.499438846633,-0.199937857102,0.214706244764
1588858574416994632,942,1588858574416875482,,0.499440409412,-0.19992566901,0.214702881463
1588858574422855208,943,1588858574422686211,,0.499441241316,-0.199910863114,0.214696115592
1588858574425896570,944,1588858574425753993,,0.499443492925,-0.199895351407,0.214689503435
1588858574428912806,945,1588858574428785405,,0.499444580137,-0.19987967657,0.214683196632
1588858574434958870,946,1588858574434786104,,0.499444977555,-0.19986606962,0.214678595265
1588858574437900573,947,1588858574437720387,,0.499445515092,-0.199851696458,0.214673393504
1588858574440898001,948,1588858574440771747,,0.499446507749,-0.199840217622,0.214668467834
1588858574446910799,949,1588858574446737701,,0.499447891566,-0.19982379492,0.214662346842
1588858574449915277,950,1588858574449740926,,0.499448988159,-0.199809472491,0.214656478729
1588858574455890550,951,1588858574455681580,,0.499450459109,-0.199794948625,0.214651671179
1588858574458847260,952,1588858574458710119,,0.499451640145,-0.199779099719,0.214646812117
1588858574461873823,953,1588858574461760643,,0.49945334157,-0.199766217701,0.214642420872
1588858574464890750,954,1588858574464754308,,0.499455658865,-0.199751327118,0.214637320406
1588858574471249260,955,1588858574471135512,,0.499457785959,-0.199733382857,0.214632753006
1588858574474360488,956,1588858574474154304,,0.49946013124,-0.199716959223,0.214628356984
1588858574479968437,957,1588858574479809562,,0.499462006649,-0.199699164353,0.214623358756
1588858574482897094,958,1588858574482811034,,0.499463140858,-0.199682478925,0.214617194962
1588858574485903068,959,1588858574485797675,,0.49946500283,-0.199662533686,0.214612721436
1588858574491836653,960,1588858574491718620,,0.499465684798,-0.199642733952,0.214607300427
1588858574494814154,961,1588858574494713821,,0.499466745893,-0.199620249788,0.21460260925
1588858574497917097,962,1588858574497741388,,0.499468026837,-0.19959585976,0.21459917829
1588858574503805495,963,1588858574503715000,,0.49947003677,-0.199569913732,0.21459716414
1588858574506922824,964,1588858574506796584,,0.499471517225,-0.199545436568,0.214592573971
1588858574509951680,965,1588858574509878264,,0.499472348627,-0.199523154,0.214585518615
1588858574515922255,966,1588858574515752535,,0.499473646678,-0.199500109992,0.214579454561
1588858574518840278,967,1588858574518720352,,0.499475723262,-0.199480024646,0.214574079838
1588858574521961859,968,1588858574521790781,,0.499477424681,-0.199456808388,0.214567945174
1588858574527946903,969,1588858574527792366,,0.49947936476,-0.199433187303,0.214561120154
1588858574530898080,970,1588858574530771485,,0.499480936023,-0.199412918184,0.214554586772
1588858574533843464,971,1588858574533724862,,0.499481783514,-0.19939508921,0.214549324963
1588858574539865126,972,1588858574539750858,,0.499482565121,-0.199376737907,0.214544070089
1588858574542948125,973,1588858574542775302,,0.499483226751,-0.199356902233,0.214536722895
1588858574545923016,974,1588858574545784395,,0.499483838821,-0.199339374156,0.214529937623
1588858574551992011,975,1588858574551787814,,0.499485504479,-0.199322409661,0.214525460905
1588858574554945707,976,1588858574554800677,,0.49948676946,-0.199306907735,0.214518896381
1588858574557916672,977,1588858574557811828,,0.499488065254,-0.199288418398,0.214512376243
1588858574563926608,978,1588858574563759083,,0.499488973704,-0.199271396404,0.214505699834
1588858574566961952,979,1588858574566786169,,0.499490618971,-0.199253326325,0.214499038923
1588858574569829570,980,1588858574569730679,,0.49949152279,-0.19923359436,0.214491724751
1588858574575944486,981,1588858574575772007,,0.499493351601,-0.199213751363,0.214485420892
1588858574578913561,982,1588858574578771835,,0.499494745799,-0.199193636626,0.214477354465
1588858574584845013,983,1588858574584755900,,0.499496032691,-0.199177617546,0.214470908896
1588858574587934317,984,1588858574587792419,,0.499497202657,-0.199159726826,0.214463577364
1588858574590892435,985,1588858574590727164,,0.499497827973,-0.199141611883,0.214457109773
1588858574593830344,986,1588858574593725520,,0.499499852516,-0.19912027114,0.214449900529
1588858574599902354,987,1588858574599783589,,0.499501191126,-0.199099581491,0.21444191223
1588858574602993286,988,1588858574602782643,,0.499502390655,-0.199081595743,0.214434778472
1588858574608881198,989,1588858574608733509,,0.499503924772,-0.199060942155,0.214427874172
1588858574611876749,990,1588858574611742700,,0.499504861907,-0.199042861877,0.214419960869
1588858574614860017,991,1588858574614744058,,0.499506725859,-0.199021839807,0.214412532404
1588858574617899327,992,1588858574617760406,,0.499508387381,-0.199000043546,0.214405805458
1588858574623929400,993,1588858574623748524,,0.499510147384,-0.198981758071,0.214398575805
1588858574626876784,994,1588858574626736548,,0.499512046567,-0.198961686399,0.214391843207
1588858574632984242,995,1588858574632771409,,0.499513090977,-0.198941132893,0.214382903525
1588858574635928398,996,1588858574635791789,,0.499514427216,-0.198920899794,0.214376701109
1588858574638862635,997,1588858574638755168,,0.499516608491,-0.198899587125,0.214369842936
1588858574644877937,998,1588858574644769333,,0.4995182988,-0.198878404547,0.21436337303
1588858574647907431,999,1588858574647750498,,0.499519722802,-0.19885893857,0.214355518754
1588858574650912568,1000,1588858574650799946,,0.499520847673,-0.198837997358,0.21434727043
1588858574656971797,1001,1588858574656876576,,0.499522270176,-0.198815274016,0.214339171666
1588858574659951210,1002,1588858574659805205,,0.49952459401,-0.198790948609,0.214332696965
1588858574662877680,1003,1588858574662769897,,0.499526565496,-0.198772193073,0.214326698149
1588858574668888637,1004,1588858574668771723,,0.499528549037,-0.198752723287,0.214319644652
1588858574672205413,1005,1588858574672045585,,0.499530082529,-0.198731570389,0.214311423359
1588858574675220865,1006,1588858574675119616,,0.499532633605,-0.198707810668,0.21430524439
1588858574680965196,1007,1588858574680791323,,0.499534861061,-0.198686370965,0.214298096526
1588858574683859801,1008,1588858574683772986,,0.499536917933,-0.198663868378,0.214291420997
1588858574686875315,1009,1588858574686791454,,0.49953779185,-0.198642742893,0.214282848541
1588858574692985365,1010,1588858574692838341,,0.499539336564,-0.198620802267,0.214275872528
1588858574695899381,1011,1588858574695796987,,0.49954060308,-0.198596323035,0.214268524414
1588858574698919798,1012,1588858574698794279,,0.499542485966,-0.198571613352,0.214261437875
1588858574705024479,1013,1588858574704867442,,0.499544644419,-0.198548300359,0.214255338037
1588858574707952195,1014,1588858574707809562,,0.499546319025,-0.19852631282,0.214249757951
1588858574710921206,1015,1588858574710833136,,0.499547604225,-0.198501965071,0.21424292967
1588858574720054205,1016,1588858574719933763,,0.499550152014,-0.198454501242,0.214227969099
1588858574722959340,1017,1588858574722829338,,0.499552098217,-0.19842688236,0.214221142122
1588858574729010405,1018,1588858574728836188,,0.49955371561,-0.198403268023,0.214213752455
1588858574731980274,1019,1588858574731837147,,0.49955511624,-0.19837795472,0.214205630007
1588858574734972586,1020,1588858574734838042,,0.499556543003,-0.198351952795,0.214200056439
1588858574740997471,1021,1588858574740840764,,0.499558788561,-0.198325685495,0.214192434811
1588858574744015121,1022,1588858574743868557,,0.499560952243,-0.198300591845,0.214187042846
1588858574746958794,1023,1588858574746829878,,0.499562783181,-0.198278809282,0.214181858269
1588858574752951105,1024,1588858574752831752,,0.499563696975,-0.198252518321,0.214173790323
1588858574755917879,1025,1588858574755775342,,0.499565815752,-0.198224785398,0.214166525297
1588858574758869343,1026,1588858574758778467,,0.499568001728,-0.198200163235,0.214160382775
1588858574764893343,1027,1588858574764775500,,0.499569615518,-0.198172546933,0.214152508663
1588858574767945495,1028,1588858574767763023,,0.499571477304,-0.198144688406,0.214145945923
1588858574774269470,1029,1588858574774150516,,0.499571867292,-0.198115596906,0.21413680348
1588858574776930008,1030,1588858574776848722,,0.499572961042,-0.198087118937,0.214128541733
1588858574779930553,1031,1588858574779812943,,0.49957504242,-0.198056948345,0.214121880356
1588858574785915969,1032,1588858574785820501,,0.499574926276,-0.198032611846,0.214113288598
1588858574788958838,1033,1588858574788803615,,0.499575380785,-0.198007905091,0.214105075376
1588858574791921754,1034,1588858574791781841,,0.499576249896,-0.197980673343,0.214096544337
1588858574797896630,1035,1588858574797782661,,0.499577208376,-0.197949334414,0.21408681427
1588858574800986321,1036,1588858574800817274,,0.499578806186,-0.197920449945,0.214078731789
1588858574803860032,1037,1588858574803732493,,0.499580465457,-0.197893797324,0.214069549964
1588858574809972047,1038,1588858574809782328,,0.499581376814,-0.197865096328,0.214061126374
1588858574812938653,1039,1588858574812773040,,0.499582292736,-0.197838008082,0.214051939882
1588858574818979205,1040,1588858574818821994,,0.499584995327,-0.197808903759,0.214045513517
1588858574821919897,1041,1588858574821805283,,0.499586121032,-0.197778434717,0.214036317464
1588858574824954504,1042,1588858574824866356,,0.499587720678,-0.197749724249,0.214028511855
1588858574828031910,1043,1588858574827831400,,0.499590403701,-0.197719639935,0.214022773201
1588858574833971778,1044,1588858574833803778,,0.499592124304,-0.197690178401,0.214015679426
1588858574836901557,1045,1588858574836801884,,0.499594148179,-0.197658245583,0.214008081778
1588858574842944932,1046,1588858574842786540,,0.499596832501,-0.197626876861,0.214000495732
1588858574845964673,1047,1588858574845831409,,0.499599534644,-0.19759637364,0.21399222879
1588858574848972160,1048,1588858574848861428,,0.499602657641,-0.197562021394,0.213983473943
1588858574851959655,1049,1588858574851807026,,0.499604524756,-0.197530449326,0.213972771801
1588858574857940502,1050,1588858574857803682,,0.499607632515,-0.19750087348,0.21396633796
1588858574860942119,1051,1588858574860790730,,0.499610512353,-0.197467176459,0.213958421952
1588858574866977810,1052,1588858574866810701,,0.499612947236,-0.197431539736,0.213949726473
1588858574869989072,1053,1588858574869859062,,0.499615116539,-0.197398270934,0.213941362442
1588858574873082850,1054,1588858574872944034,,0.499617896725,-0.197361747736,0.213933947374
1588858574878982420,1055,1588858574878825614,,0.499619865453,-0.197328257674,0.213926989166
1588858574881971848,1056,1588858574881829908,,0.499622690925,-0.197293070025,0.213920219941
1588858574884970325,1057,1588858574884817950,,0.49962579733,-0.197256028202,0.213913010886
1588858574890884218,1058,1588858574890775224,,0.499629544638,-0.197222015975,0.213908034256
1588858574893875319,1059,1588858574893759671,,0.499632659052,-0.197187242126,0.213900774647
1588858574897050271,1060,1588858574896920806,,0.499636297742,-0.197152591119,0.213894101731
1588858574903026112,1061,1588858574902867325,,0.499640492861,-0.197117322632,0.213887792154
1588858574906053199,1062,1588858574905907040,,0.499643058285,-0.197079411682,0.213879125097
1588858574908997868,1063,1588858574908849445,,0.499647147895,-0.197043013063,0.213871393203
1588858574915084519,1064,1588858574914926390,,0.499650561879,-0.197012013505,0.21386458615
1588858574917963271,1065,1588858574917866208,,0.499653985942,-0.196975171889,0.213857367408
1588858574920998688,1066,1588858574920864164,,0.499657384864,-0.196937103951,0.213847300706
1588858574927019202,1067,1588858574926805781,,0.499660247974,-0.196900488419,0.213838345368
1588858574929950039,1068,1588858574929781268,,0.499663850834,-0.196865536445,0.213831781752
1588858574932907554,1069,1588858574932808238,,0.499666864851,-0.196827550005,0.213823416904
1588858574939005422,1070,1588858574938878637,,0.499670523418,-0.196785674497,0.213814777787
1588858574941966611,1071,1588858574941828922,,0.49967424393,-0.196748788497,0.213806643964
1588858574945665313,1072,1588858574945457164,,0.499676458255,-0.196712419824,0.213799747842
1588858574951054005,1073,1588858574950886885,,0.499680759163,-0.196671148619,0.213793811981
1588858574953966909,1074,1588858574953854802,,0.499684247718,-0.196633056229,0.213784592095
1588858574957104939,1075,1588858574957015953,,0.499687789403,-0.196592405367,0.21377760015
1588858574962987590,1076,1588858574962849506,,0.499691704396,-0.196550864228,0.213769825729
1588858574965961184,1077,1588858574965824740,,0.499694984164,-0.196514716893,0.213764181559
1588858574972258888,1078,1588858574972093801,,0.499698864717,-0.19647219645,0.213755753207
1588858574975269705,1079,1588858574975157394,,0.49970329015,-0.196430957233,0.213748848817
1588858574977934718,1080,1588858574977832879,,0.499706252273,-0.196389582609,0.213739680351
1588858574980941898,1081,1588858574980819780,,0.499710513105,-0.196346618507,0.213733034286
1588858574986996674,1082,1588858574986857530,,0.499713818657,-0.196304675071,0.21372372063
1588858574989893357,1083,1588858574989830647,,0.499716847798,-0.196262568029,0.21371456698
1588858574996005735,1084,1588858574995856165,,0.499719605331,-0.196218816989,0.213702876009
1588858574999045998,1085,1588858574998876051,,0.499723532067,-0.19617645532,0.213695182604
1588858575001958911,1086,1588858575001814422,,0.499727622388,-0.19613240448,0.213686372623
1588858575005056239,1087,1588858575004921105,,0.499731246815,-0.196089014396,0.213677963285
1588858575010916223,1088,1588858575010825614,,0.499735466333,-0.196046008703,0.213670641568
1588858575013867859,1089,1588858575013796812,,0.499737441168,-0.196002635556,0.213660904407
1588858575019964685,1090,1588858575019814518,,0.499741167181,-0.195958936064,0.213654693519
1588858575022941261,1091,1588858575022822208,,0.499744456465,-0.195915064784,0.21364593514
1588858575025908200,1092,1588858575025817293,,0.49974829509,-0.195867422341,0.21363769347
1588858575031931089,1093,1588858575031831541,,0.499751532239,-0.195824737111,0.213631509431
1588858575034927233,1094,1588858575034811785,,0.499755336627,-0.195780729727,0.213625348474
1588858575037910080,1095,1588858575037840850,,0.499758704736,-0.195738857651,0.213618246077
1588858575044027212,1096,1588858575043891085,,0.499761925849,-0.195694428272,0.213610592504
1588858575046937654,1097,1588858575046792498,,0.499765799576,-0.19565050362,0.213602755293
1588858575049999591,1098,1588858575049868249,,0.49977045336,-0.195605634278,0.213595339869
1588858575055935492,1099,1588858575055821882,,0.499774181374,-0.195561358484,0.213588027396
1588858575058924296,1100,1588858575058828967,,0.49977672238,-0.195520508651,0.213578758745
1588858575061929967,1101,1588858575061810408,,0.499780373842,-0.195477387222,0.213569872126
1588858575068007721,1102,1588858575067855942,,0.499784144275,-0.195434411388,0.213562018448
1588858575071483275,1103,1588858575071302815,,0.499787428022,-0.195390693753,0.213552804705
1588858575074227076,1104,1588858575074125521,,0.499790989343,-0.195350293558,0.21354462488
1588858575079952207,1105,1588858575079838127,,0.499794071239,-0.195310056961,0.21353525614
1588858575082923554,1106,1588858575082810110,,0.499798796749,-0.195265515723,0.213527013072
1588858575085920316,1107,1588858575085799247,,0.49980355193,-0.195222815275,0.213519167561
1588858575091950738,1108,1588858575091810639,,0.499807289645,-0.195183604414,0.21351108452
1588858575094929441,1109,1588858575094827391,,0.499811881683,-0.195138778299,0.213500352993
1588858575097987512,1110,1588858575097873655,,0.499817315928,-0.195095792113,0.213494964741
1588858575103926299,1111,1588858575103814667,,0.499820444208,-0.195054125675,0.213484873741
1588858575106985214,1112,1588858575106911714,,0.499825610385,-0.195010752034,0.213477106889
1588858575109961719,1113,1588858575109886756,,0.499830876099,-0.194965918593,0.213470708861
1588858575116069680,1114,1588858575115920631,,0.499834883675,-0.194920585373,0.213462346089
1588858575119046880,1115,1588858575118903872,,0.499839916007,-0.194873393723,0.21345484097
1588858575122111568,1116,1588858575121930656,,0.499844575433,-0.194830028872,0.213447692133
1588858575128120780,1117,1588858575127867734,,0.499849391907,-0.194782806292,0.213439784461
1588858575130971719,1118,1588858575130858529,,0.49985447448,-0.194736860877,0.213431587272
1588858575134088230,1119,1588858575133898379,,0.499857563011,-0.194692861795,0.213422535163
1588858575140122429,1120,1588858575139927758,,0.499862852844,-0.194647293455,0.21341568492
1588858575142975074,1121,1588858575142838701,,0.499867820399,-0.194597402952,0.213407350771
1588858575148989396,1122,1588858575148864253,,0.49987220014,-0.194555452299,0.213399955319
1588858575152041692,1123,1588858575151901507,,0.499876476478,-0.194511045371,0.213392595207
1588858575154997229,1124,1588858575154873381,,0.499880981482,-0.194465981408,0.213384281387
1588858575161075556,1125,1588858575160953043,,0.499885679924,-0.194422325304,0.213376455774
1588858575164002756,1126,1588858575163856961,,0.49988937703,-0.194378223599,0.213366883973
1588858575167045293,1127,1588858575166885951,,0.499894470916,-0.194333831913,0.213359884897
1588858575173157565,1128,1588858575173000957,,0.499898560641,-0.194289781412,0.213352003071
1588858575175961112,1129,1588858575175824017,,0.49990299641,-0.194246506095,0.213343764613
1588858575179074521,1130,1588858575178949906,,0.499908301123,-0.194204383531,0.213337013625
1588858575184944156,1131,1588858575184832159,,0.499912277028,-0.194161937769,0.213328694158
1588858575187981820,1132,1588858575187823663,,0.499916264763,-0.194120895192,0.21332036125
1588858575191043703,1133,1588858575190858475,,0.499921256941,-0.19407598097,0.213314208414
1588858575200001925,1134,1588858575199875667,,0.499929225038,-0.193992712225,0.213298953842
1588858575203045235,1135,1588858575202914905,,0.499935133163,-0.193950104801,0.213293100581
1588858575208974349,1136,1588858575208836326,,0.499938518547,-0.193906617917,0.21328394268
1588858575212003003,1137,1588858575211851229,,0.499942911599,-0.193860987903,0.213278018801
1588858575215027797,1138,1588858575214929666,,0.49994893777,-0.193818327502,0.213271785756
1588858575221073348,1139,1588858575220892929,,0.499953389089,-0.193772531003,0.213265045204
1588858575224050485,1140,1588858575223856899,,0.499957492271,-0.193729438523,0.213256281462
1588858575229946652,1141,1588858575229846638,,0.499961099183,-0.193692842915,0.213250363438
1588858575232970886,1142,1588858575232859438,,0.499966385065,-0.193644188141,0.213243749734
1588858575235950302,1143,1588858575235838856,,0.499970756846,-0.193592892195,0.213236745452
1588858575238954060,1144,1588858575238841821,,0.499973809526,-0.193555545664,0.213229370078
1588858575245041582,1145,1588858575244890783,,0.499978147018,-0.193506459099,0.21322054109
1588858575248009332,1146,1588858575247875383,,0.499983357954,-0.193458024528,0.213212941505
1588858575254066944,1147,1588858575253908493,,0.499988712269,-0.193416590147,0.213207265626
1588858575260132036,1148,1588858575259949251,,0.499998785638,-0.193326915902,0.2131933754
1588858575263007394,1149,1588858575262888384,,0.500003545666,-0.193284101527,0.213186673261
1588858575269027649,1150,1588858575268876937,,0.500006906423,-0.193243185707,0.213178243225
1588858575272159444,1151,1588858575272091357,,0.500012832421,-0.193197852993,0.213172615502
1588858575278015824,1152,1588858575277890035,,0.500017647704,-0.193152191715,0.213166470435
1588858575281096740,1153,1588858575280899992,,0.500022640767,-0.193108452025,0.213160835557
1588858575283988705,1154,1588858575283830350,,0.50002737057,-0.193065265416,0.213153548897
1588858575290010786,1155,1588858575289855444,,0.500031236261,-0.193027311063,0.213147075795
1588858575293105044,1156,1588858575292909653,,0.500035359374,-0.192987295898,0.21313786104
1588858575296055220,1157,1588858575295863380,,0.500041245467,-0.192932496567,0.213130608601
1588858575301990318,1158,1588858575301856883,,0.500044678104,-0.192895963605,0.21312457492
1588858575304980247,1159,1588858575304872569,,0.500049240619,-0.192853196489,0.213118651785
1588858575308067733,1160,1588858575307931541,,0.500053893708,-0.192803078768,0.213109511153
1588858575313986976,1161,1588858575313882689,,0.500057944005,-0.192753958294,0.213101859459
1588858575320028837,1162,1588858575319900235,,0.500066400396,-0.192667148111,0.213085890306
1588858575325970588,1163,1588858575325854708,,0.500070736307,-0.192622634744,0.213080056943
1588858575329054501,1164,1588858575328886895,,0.500076091892,-0.192579422558,0.213073415403
1588858575331901538,1165,1588858575331814755,,0.500078764547,-0.192534012764,0.213064423548
1588858575337971530,1166,1588858575337851990,,0.50008447098,-0.192485286951,0.213055348006
1588858575341056654,1167,1588858575340893230,,0.50008907225,-0.192436866242,0.213048061169
1588858575343970805,1168,1588858575343844487,,0.500092730567,-0.192396113619,0.213042048387
1588858575350081536,1169,1588858575349913960,,0.500096411206,-0.192354806763,0.21303475564
1588858575353045408,1170,1588858575352886632,,0.500101230194,-0.19230959378,0.213027697878
1588858575355999217,1171,1588858575355894038,,0.500106184479,-0.192258871438,0.213019250247
1588858575362020405,1172,1588858575361899822,,0.500108908378,-0.192222266007,0.21301251466
1588858575365019300,1173,1588858575364865357,,0.500114662945,-0.192178691253,0.213006839627
1588858575368002039,1174,1588858575367879698,,0.500119196821,-0.192127905956,0.212996263105
1588858575374420186,1175,1588858575374281746,,0.500123054941,-0.192083765303,0.212988820494
1588858575383026964,1176,1588858575382889526,,0.500132030138,-0.191995723997,0.212974416013
1588858575386094963,1177,1588858575385900401,,0.500135053442,-0.191954777114,0.212965677913
1588858575389179113,1178,1588858575388971431,,0.500139757648,-0.191910609373,0.212957866726
1588858575392076961,1179,1588858575391917779,,0.500144181928,-0.191863387649,0.212950001362
1588858575397992447,1180,1588858575397884861,,0.500148693171,-0.191818633796,0.212943075365
1588858575400944619,1181,1588858575400832633,,0.500154016542,-0.191771663368,0.212935568986
1588858575407032342,1182,1588858575406869615,,0.500157996567,-0.191728837855,0.212926706776
1588858575409981213,1183,1588858575409888819,,0.500163193218,-0.191688086433,0.212920158833
1588858575412971507,1184,1588858575412841675,,0.500168497257,-0.191641612642,0.212913160325
1588858575418968639,1185,1588858575418849826,,0.500173154575,-0.191587186131,0.212903065176
1588858575422091785,1186,1588858575421959592,,0.500177579139,-0.191549523766,0.212898411237
1588858575425089893,1187,1588858575424936437,,0.500183132397,-0.191502096886,0.212891653969
1588858575431080182,1188,1588858575430928154,,0.500188354795,-0.1914479971,0.212883851476
1588858575434094695,1189,1588858575433948759,,0.500193604971,-0.191398913829,0.212877468553
1588858575443037778,1190,1588858575442910454,,0.500202738012,-0.191309039446,0.212862427748
1588858575446058677,1191,1588858575445926578,,0.500208593605,-0.191261364395,0.212855711951
1588858575449175564,1192,1588858575448971867,,0.500213082473,-0.191216355389,0.212848050557
1588858575455019462,1193,1588858575454920512,,0.500217734461,-0.191168188589,0.212840544494
1588858575457972226,1194,1588858575457877234,,0.500222802796,-0.191118723792,0.212833329034
1588858575461009248,1195,1588858575460873624,,0.500229050107,-0.191074106728,0.212827786096
1588858575467052929,1196,1588858575466905328,,0.50023192886,-0.191038636252,0.212820925126
1588858575473420393,1197,1588858575473239736,,0.500241605317,-0.19094907102,0.212807337213
1588858575479054980,1198,1588858575478966820,,0.500245712449,-0.190907811483,0.21280085414
1588858575482163806,1199,1588858575482012806,,0.500249358516,-0.190870671283,0.212794819928
1588858575485034296,1200,1588858575484900011,,0.50025529381,-0.190820269758,0.212788431347
1588858575490971064,1201,1588858575490874808,,0.500259935274,-0.190772262671,0.212780572222
1588858575494014596,1202,1588858575493878872,,0.500264548309,-0.190727070705,0.212773026653
1588858575502984066,1203,1588858575502850986,,0.50027251423,-0.190655788692,0.212762719025
1588858575505994050,1204,1588858575505862697,,0.500277368456,-0.190611643285,0.212756941438
1588858575508980818,1205,1588858575508854455,,0.500281017595,-0.190559331042,0.212749617744
1588858575515098764,1206,1588858575514969761,,0.500284307062,-0.190521993793,0.21274215336
1588858575518020602,1207,1588858575517887144,,0.500289210681,-0.190476430447,0.212736672401
1588858575521084842,1208,1588858575520893799,,0.50029447288,-0.190423357759,0.212728232992
1588858575527048509,1209,1588858575526905209,,0.50029875171,-0.190387215224,0.212722018267
1588858575530224523,1210,1588858575530139023,,0.500301826814,-0.190352890882,0.21271507647
1588858575533053617,1211,1588858575532941620,,0.500307681224,-0.19030262993,0.21270824537
1588858575539094268,1212,1588858575538958658,,0.500311479156,-0.190259521299,0.212702217243
1588858575542020472,1213,1588858575541922953,,0.500314723121,-0.19022768071,0.212697884637
1588858575545020983,1214,1588858575544928702,,0.500319473254,-0.190174647612,0.212691181546
1588858575550978469,1215,1588858575550856838,,0.500322666715,-0.190125434306,0.212683575293
1588858575553973196,1216,1588858575553886731,,0.500327068002,-0.190083459287,0.212677255881
1588858575559980468,1217,1588858575559890952,,0.50033183781,-0.190041831587,0.212672675478
1588858575562979179,1218,1588858575562874006,,0.500335474095,-0.190002251299,0.212664263667
1588858575566001552,1219,1588858575565882665,,0.500339868622,-0.189963405856,0.212658398524
1588858575572158560,1220,1588858575572066730,,0.500345383142,-0.189920201484,0.212650455806
1588858575575023299,1221,1588858575574930234,,0.500350012112,-0.189875776883,0.212645930169
1588858575578036792,1222,1588858575577887502,,0.500354492397,-0.189833498859,0.212637914344
1588858575583999915,1223,1588858575583872183,,0.500360121194,-0.189784067755,0.212631965526
1588858575587019811,1224,1588858575586905847,,0.500364938178,-0.189736917261,0.212624443898
1588858575593013890,1225,1588858575592915125,,0.500369258843,-0.189691392826,0.212616820601
1588858575596019022,1226,1588858575595892106,,0.500374363978,-0.18963998523,0.212609219286
1588858575599042790,1227,1588858575598906331,,0.500381523776,-0.189589094037,0.212604312458
1588858575602092208,1228,1588858575601953935,,0.500386080637,-0.189541397883,0.21259741593
1588858575608034879,1229,1588858575607923379,,0.500391310561,-0.189490513594,0.212589899492
1588858575611035219,1230,1588858575610949553,,0.500398996612,-0.189433803795,0.212585214588
1588858575614074486,1231,1588858575613936227,,0.500403438214,-0.189380916385,0.212576254498
1588858575620181943,1232,1588858575619982065,,0.500409088091,-0.189325017355,0.212569976425
1588858575623058956,1233,1588858575622945151,,0.500415499904,-0.189270664838,0.212563312088
1588858575626031224,1234,1588858575625897807,,0.500421408776,-0.189215958646,0.212556145641
1588858575632037195,1235,1588858575631944637,,0.500425963484,-0.18915658216,0.21254617455
1588858575635058383,1236,1588858575634956266,,0.500431929683,-0.189104181055,0.212540209628
1588858575641111461,1237,1588858575640943745,,0.500437027667,-0.189049197556,0.212531769603
1588858575644005618,1238,1588858575643893974,,0.500443962959,-0.188993663042,0.212524704819
1588858575647016723,1239,1588858575646932191,,0.50044810492,-0.188945001635,0.212516974824
1588858575656086544,1240,1588858575655916903,,0.50045897483,-0.188837662996,0.212503659241
1588858575659132219,1241,1588858575658988625,,0.500462620262,-0.188789932618,0.212493793646
1588858575665095881,1242,1588858575664971948,,0.50046875651,-0.188738855334,0.212487443311
1588858575668108209,1243,1588858575667943750,,0.500473134242,-0.188693579208,0.212479003081
1588858575674431925,1244,1588858575674269949,,0.500478372183,-0.188646731119,0.212472211345
1588858575677307341,1245,1588858575677083020,,0.500484792625,-0.188597405362,0.212465728296
1588858575680168975,1246,1588858575679899833,,0.500487691745,-0.18856215977,0.212459068155
1588858575682996752,1247,1588858575682887403,,0.50049191966,-0.1885305778,0.21245341452
1588858575689046849,1248,1588858575688891973,,0.50049736683,-0.188479123581,0.212447447277
1588858575692055404,1249,1588858575691954440,,0.500502382723,-0.18843678129,0.212442457512
1588858575695079151,1250,1588858575694974472,,0.500505856957,-0.188399623497,0.212435388391
1588858575701120324,1251,1588858575700932688,,0.500511176445,-0.1883557428,0.212428694738
1588858575704480939,1252,1588858575704351341,,0.500517431569,-0.188308921358,0.212422540495
1588858575707139696,1253,1588858575706950566,,0.500522368839,-0.188264224518,0.212414474046
1588858575713001674,1254,1588858575712908412,,0.500528268133,-0.188228259336,0.212409704282
1588858575716059854,1255,1588858575715888124,,0.500533602711,-0.188191711602,0.212403975753
1588858575719032283,1256,1588858575718890117,,0.50053860479,-0.188149992555,0.212397021071
1588858575725104592,1257,1588858575724892871,,0.500543332395,-0.188106657701,0.212391311052
1588858575728060187,1258,1588858575727918061,,0.500549331201,-0.188064050361,0.212386163155
1588858575731058079,1259,1588858575730937934,,0.500554841655,-0.188019087056,0.212380238007
1588858575737221591,1260,1588858575737101712,,0.50056072087,-0.187972200961,0.212374672081
1588858575740035146,1261,1588858575739951458,,0.500567206959,-0.187926280717,0.212369987833
1588858575746000491,1262,1588858575745909768,,0.500572431306,-0.187880156399,0.212362284613
1588858575749073685,1263,1588858575748953111,,0.500579992847,-0.187832347519,0.212358038574
1588858575752137802,1264,1588858575751918214,,0.500585914186,-0.187783494854,0.212352905328
1588858575755153831,1265,1588858575754986592,,0.500591716,-0.187736368696,0.212344759831
1588858575761127805,1266,1588858575760968266,,0.500598817147,-0.187688774781,0.212338655413
1588858575764058300,1267,1588858575763942082,,0.500605717186,-0.187641121346,0.212331755229
1588858575773451550,1268,1588858575773289548,,0.500617124185,-0.187549074588,0.212316922114
1588858575776068389,1269,1588858575775944999,,0.500622617458,-0.187501137553,0.212308565601
1588858575779013388,1270,1588858575778878355,,0.500629445249,-0.187450922484,0.212303871313
1588858575785092646,1271,1588858575784991505,,0.50063458942,-0.187405601471,0.212298064018
1588858575787982742,1272,1588858575787896849,,0.500639906237,-0.187359805972,0.212290930593
1588858575794078013,1273,1588858575793902744,,0.500646050069,-0.187313711799,0.212285868119
1588858575797236057,1274,1588858575797125511,,0.500649773533,-0.187268119879,0.212275971555
1588858575800051272,1275,1588858575799942359,,0.500655175972,-0.187230583502,0.212270692326
1588858575803105780,1276,1588858575802984878,,0.500660321144,-0.187188111447,0.212263103263
1588858575809109846,1277,1588858575808975266,,0.50066616626,-0.187140884998,0.212256361966
1588858575812073229,1278,1588858575811957287,,0.500670931507,-0.187105179921,0.212249543883
1588858575818062647,1279,1588858575817941311,,0.50067546523,-0.187059352925,0.212241811498
1588858575821106873,1280,1588858575820978188,,0.500682329617,-0.187008726719,0.212234669636
1588858575824198018,1281,1588858575824078192,,0.500687424843,-0.186966734572,0.212228347675
1588858575830054501,1282,1588858575829932192,,0.500691196557,-0.186925921847,0.212221256816
1588858575833028741,1283,1588858575832930555,,0.500695698105,-0.186880617285,0.212212823486
1588858575836088924,1284,1588858575835958470,,0.500700952046,-0.186837045562,0.212206361648
1588858575842095126,1285,1588858575841969849,,0.500705116339,-0.186796353855,0.212197222307
1588858575845065728,1286,1588858575844948910,,0.50070971287,-0.186753628865,0.212189062782
1588858575848157593,1287,1588858575847990734,,0.500714212281,-0.186711121623,0.212182104842
1588858575854126640,1288,1588858575854002954,,0.500719767349,-0.186668484633,0.212175814513
1588858575860192678,1289,1588858575860025582,,0.500728994424,-0.18657767595,0.212159493558
1588858575866198450,1290,1588858575866055904,,0.500734805168,-0.186534830634,0.212153174375
1588858575869189072,1291,1588858575868992887,,0.500738697846,-0.186495083397,0.212143847608
1588858575872309499,1292,1588858575872181069,,0.500744823169,-0.186449503354,0.212139052251
1588858575878081386,1293,1588858575877952781,,0.500749496462,-0.186405593532,0.212132141785
1588858575881154424,1294,1588858575880993922,,0.500754712529,-0.186364708707,0.212124605578
1588858575884135830,1295,1588858575883977820,,0.500758986831,-0.186318678753,0.212116202174
1588858575893155550,1296,1588858575893027853,,0.500767267185,-0.186242641558,0.212101923577
1588858575896114769,1297,1588858575895965779,,0.500771505515,-0.186193730518,0.212093140886
1588858575902236431,1298,1588858575902044873,,0.500776154963,-0.186157056157,0.212085950361
1588858575905115848,1299,1588858575905018895,,0.500779397529,-0.186116820431,0.212078742845
1588858575908123480,1300,1588858575907990520,,0.500784029644,-0.186069537586,0.21207041238
1588858575914131525,1301,1588858575913986053,,0.50078976953,-0.18602480615,0.212062718396
1588858575920224896,1302,1588858575920026998,,0.500795565267,-0.185955651868,0.212049796873
1588858575926110405,1303,1588858575925999264,,0.500799898064,-0.185911187464,0.212042098075
1588858575929081343,1304,1588858575928963597,,0.50080539294,-0.185867143708,0.212036654095
1588858575935155539,1305,1588858575934998706,,0.500808392719,-0.185830945776,0.212031221071
1588858575938116790,1306,1588858575938011351,,0.500812516634,-0.185790102216,0.212024597523
1588858575941129197,1307,1588858575940986781,,0.500817725236,-0.185742631042,0.212017781296
1588858575947203767,1308,1588858575947062694,,0.500823123029,-0.185700984906,0.212013790144
1588858575950823377,1309,1588858575950701693,,0.500825357534,-0.185668510368,0.21200756965
1588858575956103787,1310,1588858575955967618,,0.500829954192,-0.185629664889,0.212002050342
1588858575959227578,1311,1588858575959075772,,0.500835494826,-0.185585816946,0.211996069127
1588858575962102996,1312,1588858575961974201,,0.500838337721,-0.185550853095,0.211990462766
1588858575965107186,1313,1588858575964986461,,0.500842650453,-0.185513203471,0.21198508272
1588858575971504893,1314,1588858575971405373,,0.5008469689,-0.185467888289,0.211977580488
1588858575974420309,1315,1588858575974301496,,0.500852148474,-0.185425393105,0.211971274557
1588858575977264746,1316,1588858575977136422,,0.500856333029,-0.185381302465,0.211962687803
1588858575983095421,1317,1588858575983000920,,0.500860970672,-0.18534409148,0.211957971099
1588858575986153562,1318,1588858575986021253,,0.500866730973,-0.18530385388,0.2119520315
1588858575989207719,1319,1588858575989049734,,0.500872392274,-0.185263097714,0.211947251268
1588858575995122188,1320,1588858575994958592,,0.500877326174,-0.185220657193,0.211940533124
1588858575998080926,1321,1588858575997943147,,0.500882999235,-0.18517963873,0.211934819877
1588858576001103711,1322,1588858576000936439,,0.500888757581,-0.185135165702,0.211929433275
1588858576007125828,1323,1588858576006949354,,0.500893953247,-0.185088853965,0.211923789508
1588858576013199120,1324,1588858576012989964,,0.500905076201,-0.185001900242,0.211912271059
1588858576019165407,1325,1588858576018997357,,0.500910877674,-0.184954670584,0.211905824762
1588858576022192947,1326,1588858576022040647,,0.500915881184,-0.184910060002,0.211899260876
1588858576028233264,1327,1588858576028057312,,0.500921367153,-0.184864816747,0.211894570231
1588858576031161456,1328,1588858576031017842,,0.500927170701,-0.184815510548,0.21188883378
1588858576034131786,1329,1588858576033977621,,0.500931150844,-0.184771487891,0.211881693811
1588858576043143174,1330,1588858576043006932,,0.50093970199,-0.18468715424,0.211868755848
1588858576046087736,1331,1588858576045967654,,0.50094386064,-0.184641298253,0.211861538847
1588858576052125528,1332,1588858576051987603,,0.500949678979,-0.184591771826,0.211857205376
1588858576055165787,1333,1588858576055016838,,0.50095349702,-0.184554445531,0.211851735899
1588858576058157688,1334,1588858576058050991,,0.500957142141,-0.184509787262,0.211847417131
1588858576064125901,1335,1588858576064010413,,0.50096160715,-0.18446308839,0.211840115401
1588858576067150889,1336,1588858576067025172,,0.500966711849,-0.18442616193,0.211835501332
1588858576076065122,1337,1588858576075975646,,0.50097318545,-0.184353894263,0.211827179217
1588858576079113925,1338,1588858576078992918,,0.500975997181,-0.184321466582,0.211822864639
1588858576082194581,1339,1588858576082001273,,0.500978839618,-0.184289367388,0.21181979121
1588858576088108260,1340,1588858576087985345,,0.500982569853,-0.184249331825,0.211815104644
1588858576091235767,1341,1588858576091032193,,0.500985770819,-0.184206330594,0.211808091293
1588858576094128292,1342,1588858576094012225,,0.500988999867,-0.184174898071,0.211800769163
1588858576100127993,1343,1588858576100012026,,0.500993107117,-0.184144079487,0.211795472183
1588858576103093479,1344,1588858576102980062,,0.500996373911,-0.184118231744,0.211789204611
1588858576106118577,1345,1588858576105974175,,0.500999370891,-0.184087129508,0.211781743625
1588858576112197976,1346,1588858576112077425,,0.501003261882,-0.184050942009,0.21177528275
1588858576115116240,1347,1588858576115000217,,0.501005874064,-0.18402207716,0.211765703139
1588858576118097779,1348,1588858576117985627,,0.501010151007,-0.183985907645,0.211758840642
1588858576124117051,1349,1588858576124022578,,0.501014684185,-0.183949282906,0.211752453244
1588858576127147423,1350,1588858576126985269,,0.501019058411,-0.183910702269,0.211745555387
1588858576136084881,1351,1588858576135976535,,0.501028962303,-0.183835014744,0.211732097645
1588858576139107287,1352,1588858576138994414,,0.501032884054,-0.183798986296,0.211725748768
1588858576142090597,1353,1588858576141959877,,0.501038512809,-0.183757782921,0.211721141803
1588858576148146864,1354,1588858576148025030,,0.501043046405,-0.183718056059,0.211718095978
1588858576151120980,1355,1588858576151040473,,0.501046819579,-0.183676841245,0.211714059593
1588858576160179657,1356,1588858576159993115,,0.501055066468,-0.183599706821,0.211706906084
1588858576163172002,1357,1588858576162992778,,0.501058641024,-0.183564421306,0.211703145795
1588858576166095770,1358,1588858576165956556,,0.501063688419,-0.183520186866,0.211698191862
1588858576172354850,1359,1588858576172216993,,0.501067426429,-0.183482135367,0.211692903909
1588858576175406901,1360,1588858576175270205,,0.501070326646,-0.183450111612,0.21168795854
1588858576181105684,1361,1588858576180985686,,0.501075592823,-0.18340622911,0.211684005453
1588858576184164258,1362,1588858576184033878,,0.501079258188,-0.183365989168,0.211678928518
1588858576187191820,1363,1588858576187009470,,0.501081981648,-0.183336168395,0.211673861588
1588858576196102098,1364,1588858576195943088,,0.501088633588,-0.183263506514,0.21166342402
1588858576199080564,1365,1588858576198983006,,0.501090373038,-0.183239170383,0.211658716358
1588858576205050544,1366,1588858576204976625,,0.501093517335,-0.183207705052,0.211652496296
1588858576208098255,1367,1588858576208012216,,0.501098049528,-0.18317046597,0.211647182178
1588858576211222302,1368,1588858576211060180,,0.501102916457,-0.183137953856,0.211643938277
1588858576217289897,1369,1588858576217203259,,0.501106367797,-0.183106019663,0.21163717305
1588858576220078030,1370,1588858576220010607,,0.501108873664,-0.18308171865,0.211631637895
1588858576223146482,1371,1588858576222972695,,0.501111359323,-0.183059737079,0.211626569868
1588858576229152169,1372,1588858576229043247,,0.501115574412,-0.183024788377,0.211623200415
1588858576232210869,1373,1588858576232049535,,0.501119147183,-0.18298951057,0.211618049506
1588858576235101482,1374,1588858576235021755,,0.501122686975,-0.182958929294,0.211613516818
1588858576241250744,1375,1588858576241087363,,0.501126888773,-0.182923447414,0.211608017048
1588858576244125370,1376,1588858576243997103,,0.501131011858,-0.182884374276,0.21160176942
1588858576247145441,1377,1588858576247008972,,0.501136507196,-0.18284791045,0.211597669466
1588858576253213442,1378,1588858576253083548,,0.501140632601,-0.182814767273,0.211592806505
1588858576256200374,1379,1588858576256057538,,0.501144321463,-0.182781887845,0.211588701169
1588858576259092546,1380,1588858576259011954,,0.501147661925,-0.182745467083,0.211583731682
1588858576265177952,1381,1588858576265066694,,0.501151553968,-0.182705060253,0.21157900041
1588858576268206253,1382,1588858576268050434,,0.501154853773,-0.182667201954,0.21157476338
1588858576271499708,1383,1588858576271385357,,0.501158236092,-0.182625367092,0.211569645869
1588858576277387885,1384,1588858576277284685,,0.501162363431,-0.182584466744,0.211565001189
1588858576280190815,1385,1588858576280052133,,0.501166711479,-0.182545528707,0.211560571338
1588858576283229382,1386,1588858576283041650,,0.501171504742,-0.182501525923,0.211556279687
1588858576289129242,1387,1588858576289020304,,0.50117566487,-0.182458819806,0.211552307207
1588858576292298450,1388,1588858576292020448,,0.501179367098,-0.182418172839,0.211546220857
1588858576298205319,1389,1588858576298038441,,0.50118383006,-0.182373621047,0.211540539221
1588858576301128319,1390,1588858576301019919,,0.501189089539,-0.182329869721,0.211536732659
1588858576304093711,1391,1588858576304010411,,0.501192669537,-0.182290933822,0.211530723035
1588858576307092510,1392,1588858576306997147,,0.501197600972,-0.182247195405,0.21152644379
1588858576313174468,1393,1588858576313070262,,0.50120160964,-0.182208093734,0.211520299411
1588858576316222016,1394,1588858576316062040,,0.50120659321,-0.182167441199,0.211516672235
1588858576322201463,1395,1588858576322025833,,0.501210354126,-0.182129538019,0.211511488338
1588858576325099375,1396,1588858576325001371,,0.501214536789,-0.182087772058,0.211506257776
1588858576328190466,1397,1588858576328035599,,0.501218937314,-0.182050048296,0.211501583469
1588858576331181349,1398,1588858576331041199,,0.501224292176,-0.182010892705,0.21149672922
1588858576340191909,1399,1588858576340050054,,0.501233086986,-0.181934301129,0.211485924517
1588858576346175786,1400,1588858576346027087,,0.501237717736,-0.181897992272,0.211482049642
1588858576349218070,1401,1588858576349079761,,0.501241745531,-0.181860004266,0.211478348609
1588858576352077668,1402,1588858576351981070,,0.501246738631,-0.181822334279,0.211474220081
1588858576358219592,1403,1588858576358061801,,0.501251085662,-0.181784464223,0.211469918831
1588858576361169996,1404,1588858576361049140,,0.501255390472,-0.181746235237,0.211465865046
