%time,field.header.seq,field.header.stamp,field.header.frame_id,field.vector.x,field.vector.y,field.vector.z
1589276016739162403,21548,1589276016739075854,,0.0118486339382,-4.02185094163,1.12654181702
1589276016745221085,21549,1589276016745093897,,0.0120511818764,-4.05419841441,1.13419015961
1589276016748247120,21550,1589276016748138550,,0.0123398265175,-4.04282534469,1.13460193583
1589276016751251261,21551,1589276016751159018,,0.0125641606699,-4.0748405037,1.14179128592
1589276016754265871,21552,1589276016754158093,,0.0126187445304,-4.064255402,1.14058319186
1589276016760346437,21553,1589276016760242641,,0.013039926439,-4.09693969255,1.14901589452
1589276016763385263,21554,1589276016763194821,,0.0134555406055,-4.12826589622,1.15668885686
1589276016769676674,21555,1589276016769558829,,0.0133244341965,-4.16094733756,1.16413972158
1589276016772519099,21556,1589276016772424911,,0.0137953751262,-4.14938183148,1.16385906173
1589276016775652314,21557,1589276016775483526,,0.0140354092275,-4.1388898748,1.16284864794
1589276016778496501,21558,1589276016778395907,,0.014067382535,-4.17102566796,1.17047449091
1589276016784555334,21559,1589276016784417613,,0.0144732562385,-4.20252509037,1.17950666381
1589276016787527411,21560,1589276016787446240,,0.0144250435004,-4.19193279159,1.17767048147
1589276016793537694,21561,1589276016793422193,,0.0148009921545,-4.22346791181,1.18678912652
1589276016796744645,21562,1589276016796654553,,0.014961702859,-4.25634976728,1.19430844937
1589276016799840241,21563,1589276016799745816,,0.0151050448078,-4.24504998022,1.19376463378
1589276016805521583,21564,1589276016805421915,,0.0158905270304,-4.27641117988,1.20239979155
1589276016808486301,21565,1589276016808398254,,0.0159434145996,-4.26541872074,1.2013627923
1589276016814514941,21566,1589276016814388148,,0.0161986537897,-4.29711770126,1.20954994677
1589276016817488309,21567,1589276016817415983,,0.0167453640783,-4.32854870109,1.21891138126
1589276016820499167,21568,1589276016820374534,,0.0169748009647,-4.31693937187,1.21818869057
1589276016823652115,21569,1589276016823534179,,0.0173901704401,-4.34835109978,1.22620851454
1589276016832503927,21570,1589276016832370098,,0.018622567222,-4.36714192719,1.23517162804
1589276016835598029,21571,1589276016835458360,,0.0190659252059,-4.35563990521,1.23486914055
1589276016841420604,21572,1589276016841307300,,0.0197054284997,-4.38634984868,1.24374924571
1589276016844538393,21573,1589276016844408621,,0.0202673890723,-4.41743766629,1.25133827349
1589276016847616970,21574,1589276016847489227,,0.020798718178,-4.40529898814,1.25138491711
1589276016853718879,21575,1589276016853613904,,0.0214033631049,-4.43687253948,1.25991372552
1589276016856318080,21576,1589276016856258057,,0.0216782897096,-4.4677303393,1.26745041597
1589276016859332262,21577,1589276016859233787,,0.0225163162278,-4.45791780115,1.26793622834
1589276016865400724,21578,1589276016865323781,,0.0229406784986,-4.4894682485,1.27634754313
1589276016868398450,21579,1589276016868323488,,0.0234701060346,-4.4764937079,1.2746065413
1589276016871661367,21580,1589276016871561013,,0.0236004868439,-4.51036154243,1.28302938319
1589276016877702964,21581,1589276016877573563,,0.0240743825042,-4.54230762461,1.29167759746
1589276016880704536,21582,1589276016880577780,,0.0243355883856,-4.53092894987,1.29083700835
1589276016886609277,21583,1589276016886490323,,0.0246986923818,-4.56232749122,1.29898948398
1589276016892331956,21584,1589276016892251978,,0.0256106420741,-4.58447238272,1.30760239801
1589276016896302926,21585,1589276016896224983,,0.0260152629397,-4.61712917941,1.31590860508
1589276016901428500,21586,1589276016901324252,,0.0265881277882,-4.60709761083,1.31522160398
1589276016904644688,21587,1589276016904470313,,0.0273456244262,-4.63931164066,1.32379620751
1589276016910624471,21588,1589276016910498979,,0.0278856089018,-4.6714655778,1.33217590892
1589276016913630810,21589,1589276016913515758,,0.0286494971758,-4.66063728774,1.33168615223
1589276016916226171,21590,1589276016916153279,,0.029266412157,-4.69217394804,1.34068111375
1589276016922312173,21591,1589276016922175346,,0.0299499101687,-4.68311013675,1.34039533115
1589276016925313565,21592,1589276016925218177,,0.0304521889023,-4.71409176518,1.3487104798
1589276016928322231,21593,1589276016928239482,,0.0312978562238,-4.70225918644,1.3483134306
1589276016934375656,21594,1589276016934288639,,0.0321630201657,-4.73492830911,1.35652791822
1589276016937351766,21595,1589276016937274154,,0.0330460909483,-4.76547209836,1.36510096604
1589276016940370838,21596,1589276016940202449,,0.0338578843248,-4.75344331744,1.36436153197
1589276016946294397,21597,1589276016946209791,,0.0348286868268,-4.78449912953,1.37229931089
1589276016952415159,21598,1589276016952288867,,0.0362339061675,-4.80452490449,1.37970515867
1589276016958449726,21599,1589276016958344979,,0.0367346463064,-4.83616430922,1.38722588937
1589276016961220516,21600,1589276016961146159,,0.0375618472035,-4.82561997986,1.38761776848
1589276016964458118,21601,1589276016964350907,,0.0381532137333,-4.85655652613,1.39519105816
1589276016971023442,21602,1589276016970875548,,0.0388985181366,-4.88807873238,1.40325701736
1589276016976970207,21603,1589276016976839176,,0.0397828294407,-4.91933763162,1.41139483732
1589276016983057167,21604,1589276016982958854,,0.0407056833966,-4.94954822076,1.4193241792
1589276016988895446,21605,1589276016988751114,,0.0414996390399,-4.94195242573,1.42022559524
1589276016994576483,21606,1589276016994488033,,0.0423307669783,-4.97308650324,1.42855231489
1589276016997698001,21607,1589276016997600947,,0.0430306799826,-5.00206580981,1.43590864201
1589276017000492761,21608,1589276017000381487,,0.043566135333,-4.99359906118,1.43593312051
1589276017003602841,21609,1589276017003433769,,0.0443058115403,-5.02421503563,1.44436946465
1589276017006572610,21610,1589276017006472534,,0.0450746802722,-5.0122494156,1.4439551611
1589276017009728787,21611,1589276017009564646,,0.0457089204239,-5.04261385969,1.4521222421
1589276017012432770,21612,1589276017012339133,,0.0464057408136,-5.03232538313,1.4517101649
1589276017015452087,21613,1589276017015307038,,0.0472203725358,-5.02154467322,1.45126812757
1589276017018393085,21614,1589276017018317790,,0.0478578177304,-5.05197683541,1.45891568353
1589276017021424632,21615,1589276017021321450,,0.0487245504017,-5.04060786847,1.45856426138
1589276017024531254,21616,1589276017024384928,,0.0494530604959,-5.06999909937,1.46618244206
1589276017030534399,21617,1589276017030439383,,0.0501195572554,-5.099873274,1.47383346674
1589276017033484933,21618,1589276017033374697,,0.0508820337682,-5.08772006351,1.47278599415
1589276017039468005,21619,1589276017039367960,,0.051725644042,-5.11704042347,1.48090194294
1589276017042789379,21620,1589276017042695886,,0.0524563083717,-5.14642392738,1.48913647951
1589276017045446711,21621,1589276017045343535,,0.053679183851,-5.1342682278,1.48832651254
1589276017048630612,21622,1589276017048453557,,0.0542257446134,-5.12357155153,1.48803038025
1589276017054257950,21623,1589276017054164552,,0.055317122938,-5.15198155314,1.49590692437
1589276017057415460,21624,1589276017057312522,,0.0564366338034,-5.18090272416,1.50405346009
1589276017063516887,21625,1589276017063424521,,0.0573780118523,-5.20914014391,1.51132584092
1589276017066487110,21626,1589276017066395264,,0.0583612080812,-5.19828880891,1.51156280286
1589276017069472404,21627,1589276017069382126,,0.0590482372612,-5.22664933191,1.51855694073
1589276017075487715,21628,1589276017075390075,,0.0599299173422,-5.21512663843,1.51790322287
1589276017078571275,21629,1589276017078467168,,0.0608415087369,-5.24316781499,1.52547937188
1589276017081606865,21630,1589276017081502566,,0.0616177312998,-5.23154820945,1.52454081064
1589276017087612708,21631,1589276017087513886,,0.0623517340287,-5.2599157875,1.5320181064
1589276017090603876,21632,1589276017090498039,,0.0634290506427,-5.28692409256,1.5393958056
1589276017093523336,21633,1589276017093431596,,0.0645434433874,-5.27555655028,1.53849791048
1589276017099834709,21634,1589276017099749555,,0.0655354021842,-5.30298671332,1.54530443936
1589276017102520760,21635,1589276017102447006,,0.0661580860371,-5.30110406675,1.54683788692
1589276017108697957,21636,1589276017108608247,,0.0673853782502,-5.31791032916,1.55242141407
1589276017111385173,21637,1589276017111267272,,0.0681350281406,-5.3452504561,1.55926619272
1589276017114530749,21638,1589276017114439226,,0.068971631987,-5.33326690351,1.55832130986
1589276017117417451,21639,1589276017117297087,,0.0698201567184,-5.36006974213,1.56616766035
1589276017123372239,21640,1589276017123285301,,0.0706383949429,-5.38730970784,1.57365612094
1589276017126379042,21641,1589276017126263232,,0.0714849025202,-5.37549318079,1.57332603296
1589276017132320293,21642,1589276017132242770,,0.0725621087432,-5.40258973376,1.58148613638
1589276017135402979,21643,1589276017135296259,,0.0735200503197,-5.39084172324,1.5808936117
1589276017138189167,21644,1589276017138127994,,0.0744754370816,-5.41825579502,1.58815223585
1589276017141225620,21645,1589276017141118044,,0.0755618775072,-5.40673813227,1.58771311019
1589276017147290798,21646,1589276017147226826,,0.0765291263068,-5.43441403898,1.59477740879
1589276017150273319,21647,1589276017150169372,,0.0772409470452,-5.46151414245,1.60166007947
1589276017156298182,21648,1589276017156197407,,0.0778269873374,-5.48869926565,1.60873037679
1589276017159234440,21649,1589276017159177522,,0.0787951855537,-5.47743547194,1.60837946405
1589276017162578105,21650,1589276017162359534,,0.0792785681044,-5.46690216233,1.60646675968
1589276017165281361,21651,1589276017165206963,,0.0799497945014,-5.49309957753,1.61332026667
1589276017171216131,21652,1589276017171144777,,0.0807199213529,-5.51993314209,1.62021633516
1589276017174196744,21653,1589276017174122356,,0.0814314753313,-5.50970867604,1.61914220419
1589276017180350485,21654,1589276017180273736,,0.0821672202874,-5.53587432586,1.62534162975
1589276017183328813,21655,1589276017183209374,,0.0829600361939,-5.56230898932,1.63222732787
1589276017186342968,21656,1589276017186269484,,0.0837169592487,-5.55102345895,1.63140259576
1589276017192191042,21657,1589276017192130112,,0.0846408412176,-5.57749301268,1.63862178933
1589276017198763365,21658,1589276017198705869,,0.0862140817499,-5.59209860523,1.64531801737
1589276017204313486,21659,1589276017204252079,,0.0871869011143,-5.61728273902,1.65293752408
1589276017207292617,21660,1589276017207218037,,0.0879848098852,-5.6056150293,1.65222274162
1589276017210214475,21661,1589276017210156513,,0.0886254222916,-5.63204133326,1.65891411382
1589276017216228196,21662,1589276017216165597,,0.0899849744035,-5.65688795043,1.66648425427
1589276017219245384,21663,1589276017219192383,,0.0908975701877,-5.64551688915,1.6659081575
1589276017222517893,21664,1589276017222463214,,0.0918663725389,-5.63491740856,1.66546879219
1589276017228233416,21665,1589276017228159214,,0.0927849865811,-5.66208194834,1.67228908322
1589276017231321899,21666,1589276017231215864,,0.0940238724663,-5.68739157016,1.67905540514
1589276017234327865,21667,1589276017234262582,,0.0951145187888,-5.67586241388,1.67757308731
1589276017240209661,21668,1589276017240144900,,0.095914609636,-5.70346014785,1.684194517
1589276017243239082,21669,1589276017243181938,,0.0968439624149,-5.72937891327,1.69107736198
1589276017249391894,21670,1589276017249334838,,0.0980355073592,-5.75450969519,1.69762671258
1589276017252215417,21671,1589276017252155211,,0.0988245644838,-5.74413378359,1.69673013363
1589276017255227549,21672,1589276017255162209,,0.0997639163986,-5.73425298187,1.69551491738
1589276017258274395,21673,1589276017258224692,,0.100725881274,-5.76088661573,1.70187997805
1589276017264208098,21674,1589276017264151865,,0.101507228057,-5.78752883766,1.70899359256
1589276017267219695,21675,1589276017267160920,,0.102738137632,-5.77782220538,1.7084374831
1589276017273277589,21676,1589276017273174371,,0.10386789244,-5.80404139564,1.71559770027
1589276017276359009,21677,1589276017276302963,,0.104815897132,-5.82989596557,1.72277074559
1589276017279291158,21678,1589276017279237235,,0.106160276711,-5.82004665337,1.72239948889
1589276017282437129,21679,1589276017282380770,,0.107517997022,-5.84560112663,1.73015159881
1589276017288250872,21680,1589276017288187992,,0.108517034455,-5.83542666456,1.73005356553
1589276017291506408,21681,1589276017291396544,,0.109942571344,-5.86028700633,1.73747335234
1589276017294223959,21682,1589276017294155605,,0.111097463398,-5.85054459811,1.7372552791
1589276017300512886,21683,1589276017300401534,,0.112497454628,-5.87479709969,1.74439978995
1589276017303475830,21684,1589276017303419597,,0.113419437386,-5.90010236321,1.7510611864
1589276017309443957,21685,1589276017309366400,,0.114708632772,-5.92452784969,1.75789093539
1589276017312408322,21686,1589276017312312228,,0.115943224472,-5.91409147617,1.75763130253
1589276017315407485,21687,1589276017315322651,,0.117091505529,-5.90477224589,1.75701688556
1589276017321307854,21688,1589276017321242189,,0.118060770347,-5.92914667,1.76292573031
1589276017324292744,21689,1589276017324241768,,0.119646817005,-5.95326609574,1.77004371049
1589276017327639671,21690,1589276017327493491,,0.120949987888,-5.94350867125,1.76960853985
1589276017333311613,21691,1589276017333232405,,0.122159812814,-5.9676803319,1.77616247712
1589276017336289303,21692,1589276017336234514,,0.123162761852,-5.99237213293,1.78280024505
1589276017339428733,21693,1589276017339371543,,0.124443477268,-5.98341511102,1.78254425869
1589276017345397299,21694,1589276017345343027,,0.125711709097,-6.00737693292,1.78921223366
1589276017348313586,21695,1589276017348261097,,0.127086833705,-5.99781852929,1.7896837986
1589276017351596021,21696,1589276017351505596,,0.128115307403,-6.0224514853,1.79565860689
1589276017357454123,21697,1589276017357389508,,0.129451800694,-6.04640536226,1.80226959011
1589276017360500184,21698,1589276017360403474,,0.130672041855,-6.03721088485,1.80253814636
1589276017363205677,21699,1589276017363151499,,0.131942806606,-6.06099589529,1.80922826654
1589276017369574187,21700,1589276017369471939,,0.133226132145,-6.08394070113,1.8160401425
1589276017372220680,21701,1589276017372133274,,0.134525210008,-6.07468891555,1.8162510313
1589276017375642076,21702,1589276017375582411,,0.135879071564,-6.06663384873,1.81637250247
1589276017381428840,21703,1589276017381387367,,0.137186874164,-6.08829290627,1.82273173112
1589276017384262558,21704,1589276017384198244,,0.138546129837,-6.11109469811,1.82915325489
1589276017387213729,21705,1589276017387165353,,0.139820542184,-6.10177839503,1.82901890601
1589276017393488146,21706,1589276017393397048,,0.141109585942,-6.12457967481,1.83496165056
1589276017396576633,21707,1589276017396531219,,0.14259007591,-6.14740753658,1.84152071889
1589276017399747888,21708,1589276017399662876,,0.143925083431,-6.13839109879,1.84143963332
1589276017405319561,21709,1589276017405276194,,0.145274936376,-6.16056984007,1.84838034666
1589276017408515602,21710,1589276017408459642,,0.146864813282,-6.15179359714,1.84857542781
1589276017411521202,21711,1589276017411451274,,0.148088835464,-6.17448958221,1.8548397645
1589276017417514206,21712,1589276017417423783,,0.149361652111,-6.19734093883,1.86100197255
1589276017420461409,21713,1589276017420407913,,0.150649404977,-6.18893310293,1.86139506666
1589276017423243121,21714,1589276017423161321,,0.152130780669,-6.21102339307,1.86769291315
1589276017429222677,21715,1589276017429153535,,0.15356454103,-6.23349518542,1.87377663086
1589276017432226706,21716,1589276017432140086,,0.154990593227,-6.22430807811,1.87366928938
1589276017438323899,21717,1589276017438242333,,0.156208965716,-6.24686124579,1.87961738596
1589276017441291422,21718,1589276017441232091,,0.157691963554,-6.2381602767,1.87971261111
1589276017444430058,21719,1589276017444354904,,0.158898141624,-6.25979575553,1.88561774864
1589276017450278879,21720,1589276017450204136,,0.160366915725,-6.2817129409,1.89145476091
1589276017453225125,21721,1589276017453146876,,0.162001065928,-6.27222164675,1.89151601573
1589276017456145053,21722,1589276017456079214,,0.163367875853,-6.29359973821,1.897135347
1589276017465195170,21723,1589276017465116531,,0.166473180926,-6.3045603945,1.902411846
1589276017468258922,21724,1589276017468183925,,0.167980471179,-6.29529115878,1.90264670181
1589276017474310813,21725,1589276017474251172,,0.169871183626,-6.31514934205,1.90917399341
1589276017477443610,21726,1589276017477383622,,0.171309495973,-6.33572077505,1.91522277158
1589276017480312799,21727,1589276017480234982,,0.172796797594,-6.32642497025,1.91449561469
1589276017486437640,21728,1589276017486378162,,0.174692004447,-6.34507820595,1.92027185369
1589276017489698328,21729,1589276017489630204,,0.176063982677,-6.36555117563,1.92552793788
1589276017492198622,21730,1589276017492146846,,0.177261470934,-6.35840681095,1.92537584611
1589276017498518058,21731,1589276017498444538,,0.178744143252,-6.37776948317,1.93141729438
1589276017501209630,21732,1589276017501141024,,0.180358762787,-6.36831360021,1.93164485814
1589276017504330776,21733,1589276017504269916,,0.180975750913,-6.39016397795,1.93676433866
1589276017510321245,21734,1589276017510256419,,0.182157822238,-6.40958188441,1.9423970393
1589276017513424319,21735,1589276017513354708,,0.183410737974,-6.40011897842,1.94219781609
1589276017519420050,21736,1589276017519305788,,0.184514530486,-6.41986253164,1.94769982152
1589276017525510444,21737,1589276017525404991,,0.186591103878,-6.43090282484,1.9526843584
1589276017528381051,21738,1589276017528304693,,0.187896656026,-6.42268769502,1.95236835487
1589276017534349423,21739,1589276017534269571,,0.188686465575,-6.44190960834,1.95772689159
1589276017537485301,21740,1589276017537421382,,0.189623157992,-6.46024509647,1.9626848682
1589276017543310297,21741,1589276017543253807,,0.190613200071,-6.47743472676,1.96805810972
1589276017546454178,21742,1589276017546395159,,0.191633647198,-6.46757187204,1.96800418141
1589276017549583676,21743,1589276017549518189,,0.192892564278,-6.48339108512,1.97328817173
1589276017552353678,21744,1589276017552297441,,0.193765059026,-6.4742174443,1.97285880837
1589276017558588092,21745,1589276017558474657,,0.195171333669,-6.48947900808,1.97848198801
1589276017561432184,21746,1589276017561368479,,0.19631389225,-6.47644902911,1.9771406976
1589276017567523499,21747,1589276017567465552,,0.19750561092,-6.49281495689,1.98191601763
1589276017570327720,21748,1589276017570273353,,0.198731692528,-6.50698658398,1.98697013443
1589276017573368403,21749,1589276017573299777,,0.200165862609,-6.49263018004,1.98605433176
1589276017579428908,21750,1589276017579339415,,0.201111653126,-6.50689544828,1.99036474725
1589276017585539647,21751,1589276017585442058,,0.203502619511,-6.5081894457,1.99429984032
1589276017591603734,21752,1589276017591499059,,0.204598750617,-6.52313983584,1.99935860075
1589276017594525900,21753,1589276017594446576,,0.205818102158,-6.5103539769,1.9979575778
1589276017597628525,21754,1589276017597563314,,0.206865339065,-6.52435889924,2.00156679032
1589276017600451970,21755,1589276017600393153,,0.208071405025,-6.51230401953,2.00106335675
1589276017606491487,21756,1589276017606403258,,0.209020070973,-6.52617015106,2.00544076338
1589276017615696047,21757,1589276017615581565,,0.211038328004,-6.52528350817,2.00792304621
1589276017618676952,21758,1589276017618592109,,0.211884739139,-6.54428482965,2.01333912037
1589276017621647794,21759,1589276017621541188,,0.212528998503,-6.53228167707,2.0119875178
1589276017627347685,21760,1589276017627297710,,0.213432648184,-6.54813079313,2.01661271886
1589276017630465224,21761,1589276017630406661,,0.214401868878,-6.56120172155,2.02136293757
1589276017633434975,21762,1589276017633374492,,0.214984124349,-6.54997760998,2.02012004865
1589276017639451307,21763,1589276017639406911,,0.215551447558,-6.56660825353,2.02417989993
1589276017642623497,21764,1589276017642563946,,0.21641722137,-6.55786132589,2.02403661972
1589276017645471696,21765,1589276017645410134,,0.217410872229,-6.56984582181,2.02775222268
1589276017651492701,21766,1589276017651364593,,0.218001205305,-6.58454325388,2.03127059201
1589276017654286515,21767,1589276017654192291,,0.21887701274,-6.57525396554,2.03124329465
1589276017660207873,21768,1589276017660143107,,0.219697013459,-6.58732946391,2.03494832786
1589276017663281926,21769,1589276017663228611,,0.220519179755,-6.59890630651,2.03813121289
1589276017666235196,21770,1589276017666181336,,0.221031221616,-6.58873748117,2.0375117284
1589276017669293278,21771,1589276017669236731,,0.221886146055,-6.60117674891,2.04172656975
1589276017675468977,21772,1589276017675259401,,0.222789369388,-6.59188808081,2.04105099527
1589276017678360482,21773,1589276017678283383,,0.223624828391,-6.60433395403,2.04505832834
1589276017681280811,21774,1589276017681218218,,0.224661842794,-6.59435882522,2.04390853874
1589276017687379434,21775,1589276017687268443,,0.225648046169,-6.60639037965,2.04732427331
1589276017690422508,21776,1589276017690367480,,0.226732748041,-6.61775545048,2.05085705518
1589276017693264638,21777,1589276017693207043,,0.227448360757,-6.60748162984,2.05008513153
1589276017699666544,21778,1589276017699590489,,0.228322078805,-6.61895748802,2.05368338821
1589276017708466806,21779,1589276017708392260,,0.229629431164,-6.61872152987,2.0560000392
1589276017711301532,21780,1589276017711243260,,0.230593415631,-6.62890320007,2.05976013036
1589276017714229983,21781,1589276017714192881,,0.231671799218,-6.61662155378,2.05875574228
1589276017720281228,21782,1589276017720235676,,0.232114152705,-6.62745895726,2.06199229782
1589276017723333207,21783,1589276017723249440,,0.232964788559,-6.63677415989,2.06519120267
1589276017726244880,21784,1589276017726192219,,0.234011046518,-6.62476225444,2.06455217461
1589276017732354629,21785,1589276017732264706,,0.234682455898,-6.63429220592,2.06760057836
1589276017735350113,21786,1589276017735284698,,0.235618853116,-6.6236951768,2.0669608
1589276017738517456,21787,1589276017738456733,,0.236365371654,-6.63309536161,2.06990031177
1589276017744394499,21788,1589276017744335850,,0.237286983881,-6.63997112869,2.07291573124
1589276017747249849,21789,1589276017747176485,,0.23817785301,-6.6290813435,2.07231511055
1589276017750238546,21790,1589276017750175540,,0.23922832885,-6.63707030083,2.07552692631
1589276017756228826,21791,1589276017756171973,,0.240102735371,-6.6434356342,2.07899520674
1589276017759571606,21792,1589276017759486441,,0.240972150719,-6.631603559,2.07817113518
1589276017768380966,21793,1589276017768271560,,0.242906939014,-6.62811570914,2.08092312828
1589276017771375268,21794,1589276017771255826,,0.243668064032,-6.63588396036,2.08347351494
1589276017774329637,21795,1589276017774265986,,0.244524935364,-6.62476378937,2.08296286805
1589276017780297378,21796,1589276017780206579,,0.24557238111,-6.63298623293,2.08644045053
1589276017783284680,21797,1589276017783221732,,0.246449701641,-6.64117070282,2.08935586899
1589276017786240620,21798,1589276017786187909,,0.247126891552,-6.63102659849,2.08849251556
1589276017792369026,21799,1589276017792302059,,0.247716652927,-6.64199413826,2.09176773981
1589276017798703930,21800,1589276017798626240,,0.249045438143,-6.64144714405,2.09382979255
1589276017804372511,21801,1589276017804301187,,0.249800145086,-6.65006875548,2.09640324088
1589276017807375225,21802,1589276017807251405,,0.25054858864,-6.64167539528,2.09631407673
1589276017810228018,21803,1589276017810169952,,0.251258791707,-6.64878427473,2.09945156785
1589276017816337205,21804,1589276017816270012,,0.252038456981,-6.655274078,2.10184341831
1589276017819488734,21805,1589276017819423558,,0.252713020457,-6.64489406628,2.10114613286
1589276017828397008,21806,1589276017828333070,,0.254099904969,-6.64570750729,2.10322501744
1589276017831271563,21807,1589276017831217719,,0.255177761089,-6.65188299518,2.10565167065
1589276017837407140,21808,1589276017837342760,,0.256155502263,-6.6566923925,2.10801508194
1589276017840431739,21809,1589276017840338777,,0.256876147135,-6.64794064657,2.10720542844
1589276017843443021,21810,1589276017843378410,,0.257894510157,-6.65294802058,2.11008640316
1589276017852507727,21811,1589276017852358042,,0.259580107262,-6.64813403381,2.11260512537
1589276017855773859,21812,1589276017855607284,,0.260176618896,-6.63986070194,2.11224078987
1589276017861716056,21813,1589276017861600306,,0.261042056964,-6.64466206863,2.11477130002
1589276017864382206,21814,1589276017864276030,,0.262136956131,-6.65021609862,2.11756278925
1589276017867394531,21815,1589276017867306090,,0.26277779001,-6.64239670394,2.11754913766
1589276017873377882,21816,1589276017873287762,,0.26347173314,-6.64676530924,2.12007552394
1589276017876348208,21817,1589276017876291771,,0.263998830112,-6.65115636709,2.122080942
1589276017879310336,21818,1589276017879229317,,0.264365267051,-6.64448099014,2.12185987115
1589276017885412882,21819,1589276017885340680,,0.265030787289,-6.65026010005,2.12458500976
1589276017888473498,21820,1589276017888393174,,0.265492841126,-6.64047199276,2.12373408279
1589276017891400921,21821,1589276017891295032,,0.265982098621,-6.6477510718,2.12600486885
1589276017897534831,21822,1589276017897449942,,0.266336433677,-6.65343340904,2.12784674175
1589276017900385233,21823,1589276017900293934,,0.266801789352,-6.6439302208,2.12677319781
1589276017903435592,21824,1589276017903339637,,0.267377380244,-6.64838520792,2.12950225004
1589276017909676670,21825,1589276017909596241,,0.267619664649,-6.65322308159,2.13156558701
1589276017912431737,21826,1589276017912336876,,0.268383993598,-6.6438643283,2.13163870482
1589276017915567926,21827,1589276017915493444,,0.26911475023,-6.61978132466,2.12888921933
1589276017921520682,21828,1589276017921431349,,0.269656650172,-6.63806688283,2.13339286826
1589276017924330356,21829,1589276017924252037,,0.270475612918,-6.64096128119,2.13588521996
1589276017930631004,21830,1589276017930529376,,0.271229790902,-6.64305312249,2.13852065852
1589276017933647567,21831,1589276017933558911,,0.272063464156,-6.63259873308,2.1386062238
1589276017936684617,21832,1589276017936603363,,0.272747375035,-6.63320075172,2.14053279314
1589276017939494628,21833,1589276017939415920,,0.273502536911,-6.62110915342,2.13936501825
1589276017945786252,21834,1589276017945684075,,0.274268331279,-6.62057223162,2.14159406809
1589276017948572299,21835,1589276017948433757,,0.27537536886,-6.60753554048,2.14155153063
1589276017954755745,21836,1589276017954654513,,0.276202418106,-6.60635893304,2.1420037668
1589276017957389677,21837,1589276017957312436,,0.277003447326,-6.6052677906,2.14375057476
1589276017960272342,21838,1589276017960177699,,0.278124534808,-6.59178961388,2.14367949878
1589276017963635915,21839,1589276017963540705,,0.278933832223,-6.58992267998,2.14433301804
1589276017969625654,21840,1589276017969537140,,0.279672716789,-6.58852836694,2.14601207873
1589276017972557374,21841,1589276017972486313,,0.280471904436,-6.57583532818,2.14562433939
1589276017978902799,21842,1589276017978780118,,0.280846007923,-6.57513027671,2.14740126137
1589276017981885386,21843,1589276017981779543,,0.281668884286,-6.56372446677,2.14704940986
1589276017984872272,21844,1589276017984738030,,0.282384016803,-6.56329177831,2.14946472775
1589276017990786648,21845,1589276017990674077,,0.282873314159,-6.56369868673,2.15082877104
1589276017993840082,21846,1589276017993674724,,0.283327106762,-6.55346479259,2.15014691929
1589276017996954692,21847,1589276017996880960,,0.283874988166,-6.55357722266,2.15210364159
1589276018005742908,21848,1589276018005596443,,0.284565685439,-6.54455650313,2.15341095823
1589276018008692236,21849,1589276018008589575,,0.285076980111,-6.5353111087,2.15302663435
1589276018014784030,21850,1589276018014647219,,0.285267628805,-6.53530286666,2.15426474946
1589276018017686636,21851,1589276018017569146,,0.285591517584,-6.53460264125,2.1556358278
1589276018020696575,21852,1589276018020590619,,0.286156182706,-6.52455698729,2.15500529272
1589276018026776372,21853,1589276018026660590,,0.286519748246,-6.5228365127,2.15543279612
1589276018029821299,21854,1589276018029717065,,0.287045258612,-6.52139599753,2.15688730324
1589276018032687776,21855,1589276018032593060,,0.287831744702,-6.51227105461,2.1566952723
1589276018038791521,21856,1589276018038708120,,0.288749739927,-6.50910732956,2.15804228325
1589276018041668197,21857,1589276018041581201,,0.289789344185,-6.49702501857,2.15787174408
1589276018044789171,21858,1589276018044690686,,0.29046731907,-6.49523609869,2.15896485769
1589276018050716817,21859,1589276018050631939,,0.291290454497,-6.49096004576,2.16000892541
1589276018053722990,21860,1589276018053601697,,0.292099618222,-6.4781547265,2.15963369049
1589276018056659004,21861,1589276018056529375,,0.29309395244,-6.4744109767,2.16125531058
1589276018063296925,21862,1589276018063178177,,0.293771740899,-6.47081396628,2.16325178761
1589276018065783581,21863,1589276018065674891,,0.294421538631,-6.45958551092,2.16254884166
1589276018068836746,21864,1589276018068734808,,0.295260281792,-6.44824120921,2.16211689639
1589276018074787092,21865,1589276018074714641,,0.295712604323,-6.44538849376,2.16344156043
1589276018078051861,21866,1589276018077864606,,0.296409225645,-6.44243740514,2.16415513703
1589276018080784392,21867,1589276018080663799,,0.29705076343,-6.43199137458,2.16350121284
1589276018086762947,21868,1589276018086631856,,0.297714123725,-6.42847154086,2.16508854438
1589276018089827455,21869,1589276018089724082,,0.298010114651,-6.42573386046,2.16501093431
1589276018099161006,21870,1589276018099000518,,0.298763077538,-6.41246079233,2.16531084663
1589276018101849390,21871,1589276018101727628,,0.299246458471,-6.40367795958,2.16519037225
1589276018104736276,21872,1589276018104623596,,0.299585820279,-6.400076687,2.16587817464
1589276018110749938,21873,1589276018110648244,,0.299917015401,-6.39663811361,2.16663320855
1589276018113897461,21874,1589276018113771974,,0.300393733846,-6.38709621059,2.16651389218
1589276018119874158,21875,1589276018119728626,,0.300739683587,-6.38352524635,2.16725407438
1589276018125743510,21876,1589276018125649794,,0.301787479567,-6.37059467084,2.16796164251
1589276018131753298,21877,1589276018131668882,,0.302235156306,-6.36597658707,2.16823375735
1589276018134732979,21878,1589276018134620023,,0.302904024732,-6.35516342745,2.16767684258
1589276018137754117,21879,1589276018137638324,,0.303701465693,-6.35022874214,2.16865102704
1589276018143841643,21880,1589276018143730860,,0.304391501566,-6.34333488083,2.16900664174
1589276018146741849,21881,1589276018146647948,,0.305000577777,-6.33212720429,2.16866870892
1589276018149878154,21882,1589276018149743758,,0.305598720653,-6.32566712518,2.16891639593
1589276018155954663,21883,1589276018155854505,,0.306386253973,-6.29739451037,2.1648554996
1589276018158968536,21884,1589276018158836840,,0.306996177795,-6.31050967308,2.16865232397
1589276018161949282,21885,1589276018161853490,,0.307703480405,-6.2995655715,2.16807684109
1589276018167787848,21886,1589276018167698387,,0.30832600971,-6.29473086017,2.16848905409
1589276018170790676,21887,1589276018170675009,,0.308905129755,-6.28791731866,2.16869526157
1589276018173774478,21888,1589276018173672650,,0.309404045111,-6.27749316162,2.1677619354
1589276018179578698,21889,1589276018179445613,,0.310008967812,-6.27107690941,2.16825695208
1589276018185850128,21890,1589276018185668539,,0.310723599903,-6.25691234911,2.16850980388
1589276018191911125,21891,1589276018191713661,,0.311124004393,-6.25104642847,2.16914963481
1589276018194705237,21892,1589276018194608176,,0.311518684774,-6.24274855542,2.16839528568
1589276018197900984,21893,1589276018197759104,,0.311926708094,-6.2369883154,2.1687200994
1589276018203534644,21894,1589276018203436060,,0.31236200016,-6.23002839614,2.16893834529
1589276018206571834,21895,1589276018206397648,,0.312717544265,-6.22155074626,2.16829074988
1589276018216104662,21896,1589276018215847271,,0.313385251423,-6.20735634639,2.16832999854
1589276018218671922,21897,1589276018218530292,,0.313498216859,-6.19940039099,2.16799062452
1589276018221738397,21898,1589276018221625768,,0.314015915428,-6.18966624496,2.16809331835
1589276018227749051,21899,1589276018227598287,,0.314281868456,-6.18280585819,2.16751335514
1589276018230682355,21900,1589276018230582660,,0.314915317086,-6.17348897867,2.16807092507
1589276018236619919,21901,1589276018236543039,,0.315659396369,-6.16322348869,2.16822183956
1589276018239450447,21902,1589276018239364677,,0.315853437587,-6.15579191977,2.16740764093
1589276018243452003,21903,1589276018243340495,,0.316560123696,-6.14810928505,2.16822693481
1589276018248765504,21904,1589276018248681386,,0.317038591143,-6.13812364629,2.16767514697
1589276018251675746,21905,1589276018251583073,,0.317646923962,-6.1292966877,2.16743708039
1589276018254722914,21906,1589276018254616696,,0.318181501528,-6.12152551856,2.16781223428
1589276018260632434,21907,1589276018260546275,,0.318792763567,-6.11173538299,2.16749909103
1589276018263741626,21908,1589276018263603779,,0.319066193853,-6.1010620009,2.16688709274
1589276018266743522,21909,1589276018266591649,,0.319667934275,-6.09180256414,2.16694371219
1589276018272434354,21910,1589276018272332434,,0.319788495832,-6.08366078374,2.16647419441
1589276018275697335,21911,1589276018275334962,,0.320260655881,-6.07614455802,2.16624264134
1589276018278501452,21912,1589276018278424574,,0.320405667737,-6.06748300718,2.16503230947
1589276018284542432,21913,1589276018284349736,,0.320684364542,-6.0583412358,2.16452090424
1589276018287427305,21914,1589276018287303032,,0.3212240655,-6.05044887798,2.16430636906
1589276018293386767,21915,1589276018293284699,,0.321569563596,-6.04091924338,2.1632276359
1589276018297171891,21916,1589276018297051673,,0.321918477374,-6.03162255046,2.16284365044
1589276018300091752,21917,1589276018299979662,,0.322108251115,-6.02350609868,2.16260578832
1589276018303219242,21918,1589276018303067509,,0.322735954547,-6.01270307844,2.16228733198
1589276018308780994,21919,1589276018308629479,,0.323077932323,-6.0041850855,2.16207738293
1589276018311850969,21920,1589276018311725573,,0.32352420375,-5.99312226624,2.16110851828
1589276018317640674,21921,1589276018317564598,,0.324282195778,-5.98083317935,2.16019588844
1589276018320573478,21922,1589276018320479347,,0.324644912743,-5.97136597716,2.15981784286
1589276018323727874,21923,1589276018323634261,,0.325441323728,-5.95779001651,2.15903237103
1589276018326651206,21924,1589276018326558829,,0.326125560125,-5.94760396734,2.15878534732
1589276018332657900,21925,1589276018332576234,,0.326993310888,-5.93392111383,2.15783712426
1589276018336077389,21926,1589276018335874269,,0.327622908456,-5.92269397257,2.15695751876
1589276018341777696,21927,1589276018341691246,,0.328150681146,-5.90836485262,2.15556325069
1589276018344703700,21928,1589276018344616194,,0.329231018045,-5.8932563741,2.15405343221
1589276018347636225,21929,1589276018347554433,,0.330074962268,-5.88166939504,2.15313852527
1589276018350691050,21930,1589276018350589737,,0.330813454626,-5.86727812583,2.15207176951
1589276018356606295,21931,1589276018356503101,,0.331712097731,-5.85262237277,2.15107250691
1589276018359588378,21932,1589276018359514465,,0.332500751582,-5.84186977078,2.15054713805
1589276018365673076,21933,1589276018365585075,,0.333206626893,-5.82792798955,2.14903813336
1589276018368956111,21934,1589276018368696431,,0.333831831825,-5.81737020023,2.14873792149
1589276018371658573,21935,1589276018371544942,,0.334243525059,-5.80482609034,2.14787315615
1589276018377691065,21936,1589276018377574307,,0.334610766448,-5.7927090252,2.14735728683
1589276018380727187,21937,1589276018380619062,,0.335078386124,-5.78424015537,2.14693640128
1589276018383558047,21938,1589276018383470883,,0.335516105193,-5.77206541711,2.14604275807
1589276018392493563,21939,1589276018392396483,,0.336087562656,-5.75337533197,2.14481236895
1589276018396276346,21940,1589276018396164113,,0.336757072505,-5.7411084038,2.14407403216
1589276018401618232,21941,1589276018401543955,,0.337035805631,-5.73399528432,2.14377332181
1589276018404629357,21942,1589276018404493352,,0.337369720317,-5.72161207775,2.14261267117
1589276018407528376,21943,1589276018407444658,,0.33768072371,-5.71332981133,2.14217988182
1589276018413652322,21944,1589276018413502187,,0.338104138101,-5.69966863369,2.14089716004
1589276018416574784,21945,1589276018416454309,,0.338745957776,-5.68509273539,2.13953445427
1589276018419581578,21946,1589276018419454539,,0.339124382847,-5.67799350746,2.13916815279
1589276018425503703,21947,1589276018425444573,,0.339964296433,-5.66257721555,2.13809479883
1589276018428607728,21948,1589276018428538182,,0.340755746536,-5.65143074957,2.13754375114
1589276018431564543,21949,1589276018431437980,,0.341545549484,-5.63665064495,2.13603924056
1589276018437510240,21950,1589276018437450251,,0.342318222133,-5.62075290651,2.13464839346
1589276018440597873,21951,1589276018440488148,,0.343227905068,-5.60921792975,2.1338372263
1589276018443437864,21952,1589276018443292706,,0.344183217254,-5.59205593572,2.13222701121
1589276018449568030,21953,1589276018449449858,,0.344710545389,-5.57517560813,2.13015513674
1589276018452422125,21954,1589276018452336739,,0.345594031817,-5.56562068126,2.1301596778
1589276018455412700,21955,1589276018455323971,,0.346336772356,-5.55635314352,2.12993705634
1589276018461413133,21956,1589276018461285585,,0.346812878183,-5.54019865123,2.1279047439
1589276018464413169,21957,1589276018464344596,,0.347268065296,-5.52465101841,2.12598103174
1589276018467641406,21958,1589276018467528543,,0.347694887299,-5.51657293343,2.1256550253
1589276018473409029,21959,1589276018473346415,,0.348449062654,-5.50108415464,2.12434568313
1589276018476584310,21960,1589276018476500721,,0.34887741577,-5.48674734358,2.12239517745
1589276018485401063,21961,1589276018485317298,,0.349370476482,-5.46560921806,2.12036682193
1589276018488387819,21962,1589276018488272574,,0.349517611882,-5.45936313995,2.12000465432
1589276018494396051,21963,1589276018494310437,,0.349757928887,-5.44572631143,2.11837370728
1589276018497749021,21964,1589276018497569731,,0.35014545773,-5.43142742153,2.11670976411
1589276018500766522,21965,1589276018500694956,,0.350337653796,-5.42571655256,2.11695926925
1589276018506850818,21966,1589276018506729935,,0.35054966724,-5.41106442965,2.1148299178
1589276018512384371,21967,1589276018512316625,,0.351503796033,-5.39015540217,2.11316925503
1589276018518329509,21968,1589276018518261933,,0.351753010926,-5.37459807967,2.11105952172
1589276018521359540,21969,1589276018521256645,,0.352634303567,-5.36575388317,2.11090599862
1589276018524804585,21970,1589276018524720664,,0.353144640778,-5.35023009839,2.10899956693
1589276018530360406,21971,1589276018530300970,,0.353831405376,-5.33300403458,2.10688485408
1589276018533631495,21972,1589276018533556519,,0.354506546376,-5.32357609937,2.10646963131
1589276018536775453,21973,1589276018536716182,,0.355084198872,-5.30555469426,2.10410523767
1589276018543297818,21974,1589276018543224131,,0.35590352856,-5.2890266554,2.10216395388
1589276018545855295,21975,1589276018545789091,,0.356449609199,-5.28070202942,2.10162465653
1589276018549084815,21976,1589276018548692763,,0.357192541948,-5.27178742671,2.10094251584
1589276018554574158,21977,1589276018554488541,,0.357692698812,-5.25532148066,2.09847869615
1589276018557767378,21978,1589276018557692687,,0.358430948942,-5.23763800728,2.09627003593
1589276018560890894,21979,1589276018560725505,,0.359112637829,-5.22973783666,2.09581188511
1589276018566877450,21980,1589276018566780846,,0.359602042611,-5.21282607002,2.09345533154
1589276018569826168,21981,1589276018569724209,,0.359771209327,-5.19724523479,2.09086830907
1589276018572876024,21982,1589276018572749085,,0.360037239926,-5.19109274511,2.09074256184
1589276018578847876,21983,1589276018578740897,,0.360503454065,-5.1755101612,2.08859234337
1589276018581967930,21984,1589276018581856770,,0.360586699349,-5.17042725588,2.08794649611
1589276018584849336,21985,1589276018584723453,,0.36075778866,-5.15509632747,2.08581849714
1589276018590412830,21986,1589276018590295567,,0.360938190634,-5.14011452777,2.08381383894
1589276018593888182,21987,1589276018593777602,,0.360820304559,-5.1355106853,2.08318024835
1589276018596860176,21988,1589276018596777731,,0.360830923807,-5.12054794923,2.08086999029
1589276018605483926,21989,1589276018605396708,,0.361156902835,-5.0996698622,2.07825275916
1589276018608899002,21990,1589276018608761001,,0.36108465283,-5.09488994261,2.07792639979
1589276018614913419,21991,1589276018614812588,,0.361428338884,-5.07828656162,2.0756448807
1589276018621165585,21992,1589276018621046728,,0.36174220772,-5.06098703234,2.07309855107
1589276018623929398,21993,1589276018623759775,,0.362036073324,-5.04369326327,2.07060324623
1589276018626807832,21994,1589276018626722575,,0.36233151989,-5.03751773757,2.07026185617
1589276018629762257,21995,1589276018629674186,,0.362707587317,-5.01950745132,2.06805406258
1589276018635745745,21996,1589276018635485955,,0.363281958997,-5.01358250487,2.06820949871
1589276018638835849,21997,1589276018638765724,,0.363823471595,-4.99495626063,2.06583799316
1589276018641796715,21998,1589276018641707636,,0.364368803461,-4.98721304097,2.06554681243
1589276018647888831,21999,1589276018647774079,,0.36464451686,-4.96942137188,2.06300708443
1589276018650559026,22000,1589276018650484345,,0.365020262038,-4.95090297128,2.06041502514
1589276018653701697,22001,1589276018653619868,,0.365345672504,-4.94382156541,2.05986356161
1589276018659868060,22002,1589276018659756482,,0.36588465797,-4.92461379073,2.05742664635
1589276018663471262,22003,1589276018663389634,,0.36601622352,-4.90648035371,2.05422934801
1589276018665560268,22004,1589276018665460865,,0.36617381825,-4.90125305562,2.05336297787
1589276018671550753,22005,1589276018671472649,,0.366429468599,-4.88386398428,2.05051045327
1589276018674784852,22006,1589276018674662012,,0.366444981633,-4.87903370891,2.04952242784
1589276018677843293,22007,1589276018677716696,,0.366703691761,-4.86201853869,2.0470761329
1589276018683829414,22008,1589276018683718980,,0.366803641894,-4.84524130678,2.04459748341
1589276018686807664,22009,1589276018686672686,,0.367065689575,-4.84101863922,2.04466197894
1589276018689839019,22010,1589276018689730066,,0.367129747146,-4.8243680136,2.04205776991
1589276018695757239,22011,1589276018695570215,,0.366968263744,-4.82076082882,2.04180772457
1589276018698718958,22012,1589276018698586925,,0.367287225771,-4.80425485994,2.03967436808
1589276018701789842,22013,1589276018701671152,,0.367359094341,-4.80044024314,2.03972778772
1589276018707386942,22014,1589276018707289573,,0.367544638191,-4.78360502863,2.037415155
1589276018710345147,22015,1589276018710266001,,0.367688843653,-4.76658555953,2.03514557088
1589276018713772210,22016,1589276018713661053,,0.367756576686,-4.76239726539,2.03481047752
1589276018719636977,22017,1589276018719577774,,0.368170520561,-4.74450364861,2.03224959569
1589276018723810790,22018,1589276018723733619,,0.368519694508,-4.72626363813,2.02945137571
1589276018728717275,22019,1589276018728623220,,0.368717355981,-4.72156748091,2.02907960854
1589276018731654420,22020,1589276018731578228,,0.368798038959,-4.70442645982,2.02579147426
1589276018734676238,22021,1589276018734587959,,0.36917360207,-4.69900488032,2.02573583591
1589276018740792516,22022,1589276018740671190,,0.369535777801,-4.67988110324,2.02279835665
1589276018743752007,22023,1589276018743641392,,0.370004677848,-4.66089128415,2.0197517711
1589276018746732651,22024,1589276018746638218,,0.37037744575,-4.65539624443,2.01940388949
1589276018752796680,22025,1589276018752665886,,0.370734374778,-4.63702209733,2.01645432792
1589276018756167154,22026,1589276018756063191,,0.371152352412,-4.63178176244,2.01630979046
1589276018758741153,22027,1589276018758654202,,0.371596972629,-4.61344922957,2.01366532833
1589276018761643352,22028,1589276018761556908,,0.372056239394,-4.60864332413,2.01375988555
1589276018767573230,22029,1589276018767468703,,0.372514128748,-4.5898519631,2.01089187345
1589276018770585592,22030,1589276018770495992,,0.373195776396,-4.5715439666,2.0084289565
1589276018776846792,22031,1589276018776763078,,0.373439959074,-4.55376192281,2.00584123936
1589276018779698294,22032,1589276018779543665,,0.373660197141,-4.55009503805,2.00587656664
1589276018788714858,22033,1589276018788645633,,0.374050235457,-4.52897777936,2.00322740891
1589276018791714425,22034,1589276018791598086,,0.374260460139,-4.51121456871,2.00052677216
1589276018794627229,22035,1589276018794479485,,0.374393421319,-4.50779345068,2.00050117568
1589276018800997723,22036,1589276018800909778,,0.374490793692,-4.49069514262,1.99716240637
1589276018803638250,22037,1589276018803506710,,0.374806205952,-4.47334168474,1.99436422116
1589276018806563729,22038,1589276018806469577,,0.374868157349,-4.47041566056,1.99431143518
1589276018812711464,22039,1589276018812587042,,0.375012960005,-4.45386094777,1.99161009854
1589276018815745282,22040,1589276018815445707,,0.375064799656,-4.45157967457,1.9915621318
1589276018818646794,22041,1589276018818563213,,0.375027839067,-4.43450135424,1.98870907066
1589276018824659529,22042,1589276018824578894,,0.374992274327,-4.4177335641,1.98588733684
1589276018827600367,22043,1589276018827496009,,0.374974660508,-4.41533777385,1.98589931907
1589276018830634366,22044,1589276018830518899,,0.375026898615,-4.39818549503,1.98336790882
1589276018836594750,22045,1589276018836523257,,0.375201403178,-4.38085218492,1.98058224204
1589276018839591237,22046,1589276018839518264,,0.375280277132,-4.37810600627,1.98069387606
1589276018845652876,22047,1589276018845527109,,0.375469175432,-4.36110839995,1.97810252632
1589276018848788854,22048,1589276018848658969,,0.375627498883,-4.35846804969,1.97800313094
1589276018851586724,22049,1589276018851480627,,0.375796996897,-4.34181042088,1.97524970807
1589276018854521375,22050,1589276018854435441,,0.375765928895,-4.33945580222,1.97512002841
1589276018860524570,22051,1589276018860385181,,0.375901316727,-4.32240701165,1.97209999161
1589276018863510305,22052,1589276018863386108,,0.375926806233,-4.3053346757,1.96893290376
1589276018869729872,22053,1589276018869655832,,0.376127860513,-4.28804429439,1.96624865387
1589276018872442714,22054,1589276018872345661,,0.37611077194,-4.28525746285,1.96632098991
1589276018875730924,22055,1589276018875635785,,0.376170310503,-4.28262933429,1.96622404919
1589276018881427528,22056,1589276018881369229,,0.376077385309,-4.26548753509,1.96367519946
1589276018884548593,22057,1589276018884456346,,0.376197997155,-4.24825307348,1.96079504581
1589276018887632370,22058,1589276018887472557,,0.376363943897,-4.24591857577,1.96114161842
1589276018893534828,22059,1589276018893437922,,0.376406677682,-4.22903042717,1.95821643057
1589276018896894658,22060,1589276018896773248,,0.376552013308,-4.21180252521,1.95561267672
1589276018900088031,22061,1589276018899943009,,0.376702867924,-4.20931077392,1.95577064963
1589276018908498225,22062,1589276018908417829,,0.376976024819,-4.1894169265,1.95273687006
1589276018911426686,22063,1589276018911362310,,0.377025077356,-4.17222345367,1.94987133384
1589276018917705990,22064,1589276018917641350,,0.377198038389,-4.15505627641,1.94701185699
1589276018920749108,22065,1589276018920555138,,0.377113616784,-4.15252909083,1.94659872071
1589276018923675013,22066,1589276018923596784,,0.377304639829,-4.13550207375,1.94398800987
1589276018929626222,22067,1589276018929537610,,0.377515546204,-4.11840673928,1.94121075283
1589276018932696713,22068,1589276018932566082,,0.377421448425,-4.11640604248,1.9411984391
1589276018935749205,22069,1589276018935372966,,0.377559323324,-4.1143668342,1.94154599946
1589276018941502685,22070,1589276018941360156,,0.377622111163,-4.0976568014,1.93874778111
1589276018944502217,22071,1589276018944432435,,0.377639404403,-4.08110853024,1.93586567557
1589276018947494868,22072,1589276018947420128,,0.377675068402,-4.07954376398,1.93623808005
1589276018953626566,22073,1589276018953537316,,0.377766344371,-4.06287838452,1.93362294807
1589276018956634892,22074,1589276018956531427,,0.377700457775,-4.04636091138,1.93086524583
1589276018959630002,22075,1589276018959551557,,0.377931455281,-4.04477012626,1.93138927019
1589276018965395959,22076,1589276018965326098,,0.378002817737,-4.02837498069,1.92850279372
1589276018968593946,22077,1589276018968444220,,0.37803525658,-4.02668819887,1.92858875611
1589276018971498455,22078,1589276018971330980,,0.378162557802,-4.01079619047,1.92579354609
1589276018977977710,22079,1589276018977846977,,0.378237542195,-3.99500329785,1.92316217125
1589276018980871100,22080,1589276018980776922,,0.378330031277,-3.99344530778,1.92300003223
1589276018983996656,22081,1589276018983886985,,0.378527920017,-3.9778652051,1.92027442141
1589276018990199798,22082,1589276018990082911,,0.378651890085,-3.96186486941,1.91742413704
1589276018992683859,22083,1589276018992553881,,0.37872856082,-3.96033424525,1.91734785627
1589276018996221013,22084,1589276018996106357,,0.37899893286,-3.94472183236,1.91472727617
1589276019001829889,22085,1589276019001726767,,0.379186732664,-3.9429949906,1.91506118966
1589276019004640268,22086,1589276019004548083,,0.379339107349,-3.92746358281,1.9123183911
1589276019010939298,22087,1589276019010823726,,0.379592196073,-3.91200267086,1.90994395414
1589276019013809836,22088,1589276019013698682,,0.379813733272,-3.91022893602,1.91025765072
1589276019017077648,22089,1589276019016937389,,0.37994261818,-3.89510578577,1.90777777625
1589276019025818458,22090,1589276019025707678,,0.380446391055,-3.87811758625,1.90610581279
1589276019029009881,22091,1589276019028925942,,0.380761058799,-3.85853463636,1.902817083
1589276019034778097,22092,1589276019034670919,,0.381001148361,-3.86087495484,1.90422940401
1589276019037728282,22093,1589276019037602821,,0.381149411394,-3.84539022551,1.90174160234
1589276019043700357,22094,1589276019043624173,,0.381511442649,-3.83004399867,1.89981231645
1589276019046761840,22095,1589276019046653974,,0.381852024123,-3.82848795274,1.9002064832
1589276019051082155,22096,1589276019050977667,,0.382127164586,-3.81341458001,1.89793425359
1589276019056165941,22097,1589276019056050422,,0.38233562685,-3.79857813014,1.89539477574
1589276019059013321,22098,1589276019058873529,,0.382720674721,-3.79702276991,1.89578826175
1589276019061823628,22099,1589276019061718021,,0.383078562634,-3.79564017753,1.89632089867
1589276019064835228,22100,1589276019064709097,,0.383336055223,-3.78108346853,1.89388459739
1589276019070884169,22101,1589276019070783879,,0.38368336713,-3.76645186294,1.89153386189
1589276019073732287,22102,1589276019073660096,,0.384067652531,-3.7649977233,1.89205551255
1589276019076760357,22103,1589276019076644007,,0.384296127519,-3.75053044075,1.8894146405
1589276019083430463,22104,1589276019083345898,,0.384638480581,-3.73607811267,1.88703531882
1589276019085853865,22105,1589276019085774156,,0.38494605421,-3.73518974713,1.88716899386
1589276019091903809,22106,1589276019091793102,,0.385350882343,-3.720926447,1.88507186568
1589276019094965154,22107,1589276019094872143,,0.385615587104,-3.71956553444,1.88518676965
1589276019098139822,22108,1589276019098024945,,0.385945051519,-3.70578634968,1.8828538474
1589276019101162848,22109,1589276019101076023,,0.386321096316,-3.70457613128,1.88308242864
1589276019107021442,22110,1589276019106849574,,0.386662410387,-3.69059333929,1.88084192311
1589276019109842633,22111,1589276019109714384,,0.387126783751,-3.67655097998,1.87864620349
1589276019116031714,22112,1589276019115875959,,0.387482842752,-3.67553616311,1.87910578373
1589276019118783963,22113,1589276019118677202,,0.387810856084,-3.66181192105,1.87667312001
1589276019121740540,22114,1589276019121655686,,0.388165651487,-3.66045218697,1.87696354384
1589276019124896378,22115,1589276019124811371,,0.388636608607,-3.64655884851,1.87492957418
1589276019130845181,22116,1589276019130739857,,0.388977619844,-3.63326725405,1.87272615193
1589276019133722580,22117,1589276019133647805,,0.38948459987,-3.63195083911,1.87322893094
1589276019139804251,22118,1589276019139701016,,0.389886042966,-3.61868124226,1.87112835394
1589276019145674569,22119,1589276019145584163,,0.390630479549,-3.6043979175,1.86927332136
1589276019148904369,22120,1589276019148653803,,0.391126053214,-3.60342014133,1.86979885683
1589276019154904850,22121,1589276019154810183,,0.391517653739,-3.5903592954,1.86779650797
1589276019157896560,22122,1589276019157796676,,0.392029186288,-3.57800678834,1.8658497227
1589276019163944285,22123,1589276019163839546,,0.392508535449,-3.56526438097,1.86378313107
1589276019166858328,22124,1589276019166758718,,0.392904097337,-3.56399000346,1.86421510377
1589276019169874807,22125,1589276019169766231,,0.393384200817,-3.55188855404,1.86232607235
1589276019176231652,22126,1589276019176130075,,0.393768711877,-3.5511801598,1.86290680208
1589276019178855801,22127,1589276019178770314,,0.394223110224,-3.53870504297,1.86090824038
1589276019181891818,22128,1589276019181805386,,0.394756410513,-3.5382396703,1.8614549697
1589276019188089008,22129,1589276019187888932,,0.395135946408,-3.52604863726,1.85942660818
1589276019190789875,22130,1589276019190651824,,0.395674577395,-3.51472356069,1.85794376379
1589276019193802160,22131,1589276019193666273,,0.396231497607,-3.51377139509,1.85858289084
1589276019200110143,22132,1589276019199982373,,0.396787169183,-3.5024203326,1.85702011383
1589276019205756390,22133,1589276019205680375,,0.397987721069,-3.49077111433,1.85624574335
1589276019211896289,22134,1589276019211807799,,0.398772509063,-3.47992488093,1.85530154247
1589276019214807698,22135,1589276019214708479,,0.399447002532,-3.47902973558,1.85598514286
1589276019217896831,22136,1589276019217805603,,0.40041220335,-3.4687900287,1.85550705557
1589276019223859809,22137,1589276019223780333,,0.401354073295,-3.45842404747,1.85472289433
1589276019227022080,22138,1589276019226880022,,0.402546883486,-3.45770137029,1.85613211296
1589276019232759878,22139,1589276019232683647,,0.403451100565,-3.44778376199,1.85530118405
1589276019236188848,22140,1589276019236004207,,0.404350726595,-3.44703607304,1.85652357109
1589276019238867341,22141,1589276019238761664,,0.405158769144,-3.43730356252,1.85566764177
1589276019241986667,22142,1589276019241896729,,0.40589843092,-3.436702081,1.85646831234
1589276019247955631,22143,1589276019247851433,,0.406669014166,-3.42735709205,1.85581634765
1589276019250833151,22144,1589276019250723234,,0.407124645777,-3.41797627757,1.85451019493
1589276019256899648,22145,1589276019256799871,,0.407877625184,-3.40892672694,1.85394995635
1589276019259746905,22146,1589276019259652023,,0.408392193772,-3.4087726702,1.85461553299
1589276019265799663,22147,1589276019265676053,,0.409340420302,-3.39909777588,1.85376055651
1589276019271791355,22148,1589276019271680963,,0.409794950812,-3.39111417764,1.85282429419
1589276019274684662,22149,1589276019274591224,,0.410284083227,-3.39081899728,1.8533279974
1589276019280881886,22150,1589276019280744609,,0.410785516029,-3.38266041074,1.85234890572
1589276019283926440,22151,1589276019283820584,,0.411226451876,-3.37493815606,1.85153307692
1589276019286908448,22152,1589276019286788967,,0.411667347481,-3.37441413255,1.85203561252
1589276019292953070,22153,1589276019292835304,,0.412183875286,-3.36713428938,1.85119615771
1589276019296459223,22154,1589276019296360141,,0.412634103395,-3.36683418235,1.85184116704
1589276019298910157,22155,1589276019298817500,,0.41307362237,-3.35962317565,1.85097340088
1589276019304910186,22156,1589276019304770298,,0.413522950525,-3.35290378573,1.85023680305
1589276019308008440,22157,1589276019307907722,,0.413966821421,-3.35238075332,1.85072538869
1589276019310738851,22158,1589276019310646210,,0.414239637446,-3.34552608531,1.84986635083
1589276019317425750,22159,1589276019317320064,,0.414651838022,-3.33916487752,1.849055011
1589276019320075853,22160,1589276019319975441,,0.415009812181,-3.33885067869,1.84938067217
1589276019329019379,22161,1589276019328909807,,0.415567950593,-3.33224999163,1.84884261808
1589276019331986715,22162,1589276019331875119,,0.415797833079,-3.32625453244,1.84785296878
1589276019334704110,22163,1589276019334596566,,0.416070865013,-3.32565213344,1.84818932888
1589276019340972627,22164,1589276019340868683,,0.416383316585,-3.32009895793,1.84762074978
1589276019343979639,22165,1589276019343815243,,0.416620639338,-3.31506122412,1.84701260036
1589276019346917263,22166,1589276019346791100,,0.416877430981,-3.31400074618,1.84754576988
1589276019352835472,22167,1589276019352763655,,0.417200188926,-3.30921511835,1.84702334234
1589276019355929774,22168,1589276019355483602,,0.41732125117,-3.30871520066,1.84733518416
1589276019358937722,22169,1589276019358809986,,0.417616398655,-3.3038297714,1.84712539163
1589276019364974971,22170,1589276019364836294,,0.417876058803,-3.29923746482,1.84684486624
1589276019367834459,22171,1589276019367755450,,0.417990194942,-3.29879791417,1.84731177116
1589276019370726426,22172,1589276019370632678,,0.418190086244,-3.29458682333,1.84698689443
1589276019376681784,22173,1589276019376602191,,0.418344012623,-3.2910133031,1.84682069765
1589276019379886288,22174,1589276019379776949,,0.418506953719,-3.29043201427,1.84717071483
1589276019383662959,22175,1589276019383555008,,0.41879954632,-3.2871716137,1.84733987167
1589276019390046692,22176,1589276019389904817,,0.418781267032,-3.28431557914,1.84716257125
1589276019394904008,22177,1589276019394749196,,0.418959894362,-3.28371783218,1.84761797135
1589276019398193716,22178,1589276019398060840,,0.419114341714,-3.28095503469,1.84753908933
1589276019401230239,22179,1589276019401114048,,0.419248175886,-3.28028183746,1.84816742202
1589276019403823428,22180,1589276019403719387,,0.419427899344,-3.27798984016,1.84806699016
1589276019406838912,22181,1589276019406736226,,0.419568139582,-3.27708395168,1.84848996982
1589276019412937037,22182,1589276019412789523,,0.419709482753,-3.27501590244,1.84856901995
1589276019416432579,22183,1589276019416084271,,0.42000300512,-3.27392674684,1.8491777768
1589276019421884736,22184,1589276019421775567,,0.420121485738,-3.27219744619,1.84918749377
1589276019424844591,22185,1589276019424762369,,0.420254357586,-3.27118424823,1.84947251074
1589276019427822714,22186,1589276019427727790,,0.420484991794,-3.27018529257,1.84982006471
1589276019433861521,22187,1589276019433746868,,0.420731498027,-3.26877878614,1.85003342475
1589276019437009728,22188,1589276019436921089,,0.420890174523,-3.26704938636,1.85061335506
1589276019439806829,22189,1589276019439725573,,0.421057073887,-3.2658438683,1.85065563606
1589276019445787078,22190,1589276019445608838,,0.421150908165,-3.26417739766,1.85118975184
1589276019448847727,22191,1589276019448629894,,0.421358799247,-3.26334950905,1.8516826863
1589276019451829667,22192,1589276019451751908,,0.421538328667,-3.26094278191,1.85218418208
1589276019458082853,22193,1589276019457926508,,0.421598784763,-3.25846679645,1.85283230127
1589276019460936452,22194,1589276019460841709,,0.421730280564,-3.25786718322,1.8528746541
1589276019463906154,22195,1589276019463814538,,0.421902075351,-3.25496408248,1.85384461812
1589276019470229705,22196,1589276019470142716,,0.42187019279,-3.25170641619,1.8543022867
1589276019472874191,22197,1589276019472771877,,0.421963356254,-3.25120241541,1.85465817871
1589276019478878348,22198,1589276019478726608,,0.422005274953,-3.24782691304,1.85515285048
1589276019481841476,22199,1589276019481747311,,0.422128603832,-3.2473627528,1.85562811475
1589276019484853806,22200,1589276019484723784,,0.422087821844,-3.24336232185,1.85615772664
1589276019487992901,22201,1589276019487892778,,0.422213893033,-3.24296317394,1.85627325477
1589276019493863984,22202,1589276019493780794,,0.422188133067,-3.23890228028,1.85734391617
1589276019497158885,22203,1589276019497073074,,0.42220024871,-3.2339774058,1.85824707153
1589276019505940323,22204,1589276019505770607,,0.42237375989,-3.2281999567,1.85957538824
1589276019509007936,22205,1589276019508916782,,0.422410020571,-3.22770761027,1.85971285175
1589276019512019744,22206,1589276019511851311,,0.422498607771,-3.22225872761,1.86113056354
