%time,field.header.seq,field.header.stamp,field.header.frame_id,field.wrench.force.x,field.wrench.force.y,field.wrench.force.z,field.wrench.torque.x,field.wrench.torque.y,field.wrench.torque.z
1589276016738944840,21548,1589276016738853593,,0.0697762086901,-1.15833243532,1.01759497514,0.206480692015,-0.00626224202087,-0.0238701124498
1589276016744963081,21549,1589276016744884203,,0.0697773125488,-1.15833035591,1.01759726644,0.208308961474,-0.0062691392423,-0.0238487204965
1589276016748063306,21550,1589276016747915106,,0.0925240170158,-1.15841888832,1.01804124381,0.210198501827,-0.00692425373793,-0.0263323250557
1589276016751035523,21551,1589276016750918811,,0.0921431668776,-1.15878314667,1.04103484855,0.21193214677,-0.0069328033314,-0.0280743497235
1589276016754024530,21552,1589276016753913571,,0.0921561152684,-1.15878164843,1.0410353701,0.211931748212,-0.0069331208605,-0.0280772798529
1589276016760068163,21553,1589276016759937482,,0.0920178165084,-1.2898867953,1.04294806267,0.212840834509,-0.00693909448573,-0.028065654823
1589276016763036395,21554,1589276016762936224,,0.0916486815351,-1.29023998967,1.0658195971,0.214571505609,-0.0075831273821,-0.0298174163153
1589276016769278033,21555,1589276016769177706,,0.137181658695,-1.29041339917,1.06673135954,0.218332126413,-0.00695846721917,-0.0339112573717
1589276016772131529,21556,1589276016772047518,,0.136809817514,-1.29075125004,1.08962844131,0.22001830563,-0.00760479363068,-0.0338929243855
1589276016775173524,21557,1589276016775059198,,0.136794472101,-1.29074230703,1.08964096152,0.220017949487,-0.00760898596017,-0.0338942953606
1589276016778136821,21558,1589276016778012204,,0.136817186441,-1.29075196598,1.08962666799,0.22094978751,-0.00696765852643,-0.0347669063482
1589276016784206085,21559,1589276016784056943,,0.13681159163,-1.29073903578,1.08964268716,0.222845960717,-0.00761290350849,-0.0373986083713
1589276016787142394,21560,1589276016787060218,,0.136820137609,-1.2907366422,1.08964444944,0.222845087724,-0.00761552617447,-0.037403275982
1589276016793159954,21561,1589276016793072876,,0.136804517789,-1.29071405999,1.08967315972,0.22286877185,-0.00761560357222,-0.0382813307871
1589276016796372208,21562,1589276016796262763,,0.136409226665,-1.29104761735,1.11258546583,0.224577431124,-0.00762780008413,-0.0391491464022
1589276016799466614,21563,1589276016799393128,,0.15876886127,-1.29149460252,1.13604332472,0.226323843259,-0.00699197306883,-0.0416473523797
1589276016805141563,21564,1589276016805072829,,0.158725324283,-1.42276989235,1.13776758574,0.22817379281,-0.00763842049538,-0.042511200734
1589276016808102054,21565,1589276016808019156,,0.158731346292,-1.42277827965,1.13775625728,0.228173271659,-0.00763924734147,-0.0425138492912
1589276016814116529,21566,1589276016814027884,,0.158789851341,-1.29148515281,1.13605113374,0.23000994767,-0.00764553841552,-0.0424965709956
1589276016817142430,21567,1589276016817055708,,0.181503256155,-1.42287998947,1.1382120557,0.23096189903,-0.00764880866395,-0.0441101511898
1589276016820123304,21568,1589276016820005683,,0.158345975153,-1.42306917557,1.16069841232,0.231733262576,-0.00765300855995,-0.0442549653518
1589276016823245699,21569,1589276016823101110,,0.158353600929,-1.42308480494,1.16067820935,0.233606245075,-0.00831050355807,-0.0460064526925
1589276016832126407,21570,1589276016832013650,,0.181090280152,-1.55468880861,1.16269396299,0.234569230098,-0.00831071787953,-0.0476299148913
1589276016835161557,21571,1589276016835036259,,0.180705344932,-1.55497020357,1.18562430494,0.237234641047,-0.00832047389057,-0.0502592795073
1589276016841075305,21572,1589276016840996244,,0.180702523641,-1.55497268978,1.18562147423,0.237235214117,-0.00831887250839,-0.050256839519
1589276016844168572,21573,1589276016844069756,,0.180735908151,-1.55496225817,1.18563006682,0.239108356433,-0.00897657760686,-0.0520241971284
1589276016847171572,21574,1589276016847074260,,0.180366285705,-1.55526539421,1.20853689253,0.239876793841,-0.00832210329488,-0.0520147104788
1589276016853237543,21575,1589276016853123755,,0.203274470292,-1.55539069239,1.20896229993,0.239920922503,-0.00897563897313,-0.0536461727985
1589276016856039187,21576,1589276016855970063,,0.203309917718,-1.55537536154,1.20897606303,0.242688714195,-0.00898279111034,-0.0545196705553
1589276016859017428,21577,1589276016858925465,,0.226096695367,-1.68709973693,1.21090378453,0.244584015245,-0.00899217065533,-0.0570168926793
1589276016865169664,21578,1589276016865028899,,0.226089778525,-1.68711283033,1.21088683335,0.244583851188,-0.00899296761307,-0.0570174707341
1589276016868127158,21579,1589276016868021464,,0.226165593582,-1.68711077505,1.21087553878,0.246481678381,-0.00963581742821,-0.0596765069239
1589276016871163813,21580,1589276016871066769,,0.226135800445,-1.68710359027,1.21089111355,0.246481212192,-0.0096415428353,-0.0596775076675
1589276016877211742,21581,1589276016877107763,,0.20289675171,-1.68726981986,1.23347385308,0.249130433043,-0.0103033105296,-0.0615793130213
1589276016880352258,21582,1589276016880085641,,0.20293315317,-1.68727606768,1.23345931829,0.249130115858,-0.0102988846013,-0.0615813365957
1589276016886155930,21583,1589276016886058059,,0.225370539145,-1.81940971864,1.25818191952,0.252710643811,-0.00965624752042,-0.0640703436076
1589276016892085899,21584,1589276016891961800,,0.248345665642,-1.81951463234,1.25862889031,0.251814543601,-0.0096526433695,-0.0648243601138
1589276016896046590,21585,1589276016895955653,,0.248720549968,-1.81926967746,1.23568458924,0.253814539247,-0.0103157437286,-0.0657066475723
1589276016901103307,21586,1589276016901034032,,0.248730241018,-1.8192640158,1.23569097406,0.253813778876,-0.0103166560313,-0.0657094414682
1589276016904175191,21587,1589276016904047115,,0.294235858728,-1.95159373635,1.26080128964,0.256497801967,-0.00967159666078,-0.0689581104233
1589276016910158642,21588,1589276016910063609,,0.271202173868,-1.95148192284,1.26036438275,0.256451831733,-0.0096751142196,-0.0673203349296
1589276016913213381,21589,1589276016913081352,,0.247944443734,-1.81972938337,1.28162750253,0.257172206945,-0.0103348803154,-0.0656812924465
1589276016916028126,21590,1589276016915909461,,0.247926056086,-1.81971916795,1.28164556396,0.255397461513,-0.0103288465774,-0.0674705017027
1589276016921998985,21591,1589276016921925927,,0.22493022776,-1.81961740692,1.28119764427,0.255375433867,-0.0109863893132,-0.0667237254126
1589276016925098673,21592,1589276016924952982,,0.202052766994,-1.81951977859,1.28075191291,0.255355069308,-0.0109838402999,-0.0659768540962
1589276016928080487,21593,1589276016927990676,,0.224496008285,-1.95172685572,1.30550523505,0.257064058049,-0.010333913711,-0.0667076778094
1589276016934073262,21594,1589276016933985988,,0.224488107239,-1.95170267538,1.30554274248,0.257063485996,-0.0103375299816,-0.0667093219378
1589276016937130185,21595,1589276016937025544,,0.224482937543,-1.95171220366,1.30552938713,0.257015543114,-0.0103346560206,-0.0649276813316
1589276016940016212,21596,1589276016939926389,,0.224939759632,-1.95150684097,1.28242317658,0.25624523874,-0.0103223438732,-0.064936321517
1589276016946041534,21597,1589276016945929899,,0.224938725244,-1.95151883189,1.28240511084,0.256244753358,-0.0103230553876,-0.0649381237499
1589276016952058877,21598,1589276016951972798,,0.270919708625,-1.81984585251,1.28204416906,0.258136259339,-0.00966937622154,-0.0673072564156
1589276016958188147,21599,1589276016958043393,,0.24800900289,-1.95162699334,1.28282277834,0.256288830505,-0.0109722299494,-0.0665800895561
1589276016961011022,21600,1589276016960889016,,0.225015244511,-1.95153038548,1.28237410451,0.257200999712,-0.0109715186965,-0.0667096958742
1589276016964090188,21601,1589276016963964604,,0.248051391902,-1.9516300724,1.28280989813,0.258113770287,-0.0116185049127,-0.0665647959546
1589276016970364721,21602,1589276016970239752,,0.248042578985,-1.95161981295,1.28282721049,0.258114347299,-0.0103198852111,-0.0665649478211
1589276016976393745,21603,1589276016976247335,,0.247994153966,-1.95164563927,1.28279728156,0.258114509374,-0.010324253385,-0.0665636419806
1589276016982475625,21604,1589276016982250519,,0.247620353962,-1.95187726213,1.30585046384,0.257966431668,-0.0109780088716,-0.0665661064383
1589276016988322992,21605,1589276016988199472,,0.247554155549,-1.95186814431,1.30587664323,0.257967221743,-0.0109848033261,-0.0665619236096
1589276016994293045,21606,1589276016994121960,,0.247578213129,-1.9518454677,1.30590597619,0.257968028584,-0.010326888522,-0.0665608292977
1589276016997378205,21607,1589276016997231131,,0.247592711478,-1.9518641534,1.30587529877,0.257967624065,-0.010325111949,-0.0665626726629
1589276017000137305,21608,1589276017000011066,,0.247560318561,-1.95185575425,1.3058939939,0.257966979096,-0.0109852597643,-0.0665627886798
1589276017003131480,21609,1589276017003021588,,0.27047673071,-1.95194929437,1.30635012831,0.257988150474,-0.0109845480909,-0.0673070465724
1589276017006239078,21610,1589276017006107902,,0.247584622421,-1.95187185922,1.30586531463,0.257968257299,-0.0109782737048,-0.0665589874104
1589276017009342079,21611,1589276017009260430,,0.247919007771,-2.08363452567,1.28396543283,0.257198298059,-0.0109749720019,-0.0665650195338
1589276017012119667,21612,1589276017011995403,,0.270060363148,-2.08416254505,1.33043532724,0.258755803266,-0.0109833244136,-0.0672979424976
1589276017015170812,21613,1589276017015000417,,0.270067298419,-2.08418142454,1.33040434373,0.259673527749,-0.0109844540461,-0.0672896535724
1589276017018100266,21614,1589276017017980938,,0.270080062214,-2.08416316578,1.33043035605,0.259673452535,-0.0109840381935,-0.0672900117107
1589276017021053837,21615,1589276017020977681,,0.269725284425,-2.08438606429,1.35338292074,0.260440642979,-0.0109819467994,-0.067282857922
1589276017024175200,21616,1589276017024045946,,0.270114540312,-2.08415630236,1.33043410823,0.261523772719,-0.0103309209725,-0.0681631888456
1589276017030211998,21617,1589276017030103093,,0.293141155179,-2.08425849574,1.33087914192,0.26154395091,-0.0109881200466,-0.0689131126179
1589276017033138789,21618,1589276017033035498,,0.270077305146,-2.21623840896,1.33147743616,0.262455492245,-0.0103320506107,-0.0690465997097
1589276017039093589,21619,1589276017038991218,,0.269732409979,-2.08439405683,1.35336919098,0.26324728103,-0.010990492438,-0.0699372167028
1589276017042380103,21620,1589276017042249941,,0.269725929633,-2.08439112233,1.35337500208,0.263247886453,-0.0109900123106,-0.069935013269
1589276017045150095,21621,1589276017045015312,,0.270047834238,-2.21624250767,1.33147659143,0.261547758996,-0.0116320824173,-0.0690520338297
1589276017048201920,21622,1589276017048084310,,0.293083976499,-2.21633210765,1.33193580636,0.263443521309,-0.0109957211958,-0.0715747221424
1589276017054023426,21623,1589276017053937087,,0.293096571247,-2.21632653571,1.33194230655,0.263443741561,-0.0109940954477,-0.0715741611984
1589276017057144247,21624,1589276017057049211,,0.27033449406,-2.34818786706,1.30954261395,0.263548687262,-0.0116434502505,-0.0699321851858
1589276017063162743,21625,1589276017063072912,,0.293414617335,-2.34828210608,1.30998127747,0.263569068207,-0.0116436510014,-0.0706835995117
1589276017066106052,21626,1589276017066024979,,0.292984765873,-2.34845836018,1.33298364263,0.26339480562,-0.0109998483623,-0.0697814607253
1589276017069144259,21627,1589276017069072465,,0.292988034913,-2.34845353981,1.33299141662,0.263419100633,-0.0110010742163,-0.0706829855355
1589276017075146044,21628,1589276017074981403,,0.292946040995,-2.34844920418,1.33300828448,0.263418825988,-0.0110064525323,-0.0706831717901
1589276017078179172,21629,1589276017078069589,,0.292641489459,-2.21648330712,1.35500329582,0.26233594458,-0.0110001561942,-0.069792448119
1589276017081167878,21630,1589276017081072148,,0.26956683169,-2.21640421243,1.35453439663,0.26327117795,-0.0116517320077,-0.0708259444824
1589276017087299260,21631,1589276017087158114,,0.269565157137,-2.2164027943,1.35453705035,0.263270935611,-0.0116525235779,-0.0708267150593
1589276017090191652,21632,1589276017090083780,,0.269516880609,-2.34852457967,1.35557029864,0.26418865171,-0.0110075689795,-0.070819651426
1589276017093203313,21633,1589276017093100543,,0.292564402221,-2.34862646519,1.35600257362,0.265125593304,-0.0116618004385,-0.0715644148142
1589276017099509405,21634,1589276017099433470,,0.292179367115,-2.34881480568,1.37898349848,0.265023917962,-0.0116623161842,-0.0733579872155
1589276017102283771,21635,1589276017101965534,,0.292206975109,-2.3488285651,1.3789542119,0.265023916241,-0.0116585714352,-0.0733585886669
1589276017108209175,21636,1589276017108111963,,0.292132595438,-2.4810098955,1.37993058254,0.266849498898,-0.011018441917,-0.073341667061
1589276017111068052,21637,1589276017110985533,,0.292140257477,-2.48100462216,1.37993844148,0.267815513129,-0.0116686177943,-0.0751161568815
1589276017114140582,21638,1589276017114055120,,0.292173173719,-2.48102229934,1.37989968991,0.26781519545,-0.0116648049556,-0.0751178816896
1589276017117117289,21639,1589276017117039042,,0.269076060566,-2.48095991514,1.37941255233,0.268678151407,-0.0116644595344,-0.0734656296073
1589276017123116444,21640,1589276017123001731,,0.269085833509,-2.48094368291,1.37943984025,0.268728113536,-0.01166332667,-0.0752448305374
1589276017126089843,21641,1589276017126001593,,0.291785185378,-2.48117134006,1.40303933793,0.271343624077,-0.0123306402076,-0.0759719598186
1589276017132051536,21642,1589276017131971244,,0.291833296352,-2.34899826858,1.40206936781,0.27137022854,-0.0123300319031,-0.0768670353288
1589276017135133770,21643,1589276017135026790,,0.268295663099,-2.48130105976,1.42552392818,0.271208415061,-0.0129808716161,-0.0761178530878
1589276017137989369,21644,1589276017137901282,,0.267875483495,-2.48150260348,1.44848887665,0.273824927601,-0.0129910578316,-0.0769848769496
1589276017140999604,21645,1589276017140896311,,0.267867687912,-2.48149452905,1.44850415104,0.273825301989,-0.0129915663594,-0.0769834594723
1589276017147066181,21646,1589276017146992414,,0.26770698471,-2.61372573584,1.44941772645,0.274742182976,-0.013001223077,-0.0769761051717
1589276017150016455,21647,1589276017149944086,,0.291194182555,-2.61364660472,1.42685200428,0.276777833822,-0.0130107777901,-0.0794925394515
1589276017156035701,21648,1589276017155971268,,0.313802350927,-2.61391541206,1.45027297455,0.279439352649,-0.0130214635843,-0.0820125252732
1589276017159038589,21649,1589276017158948488,,0.313755869506,-2.61394300879,1.45023329113,0.279439705073,-0.0130241085221,-0.082010904459
1589276017162211766,21650,1589276017161997708,,0.313364776761,-2.61410947356,1.47324331266,0.281196499695,-0.0130333244997,-0.0846880308996
1589276017165060975,21651,1589276017164962957,,0.313777679848,-2.61395982776,1.45019825681,0.28220452949,-0.0130338734961,-0.0828850203106
1589276017170998840,21652,1589276017170931691,,0.313253700505,-2.74642540351,1.47401866488,0.284844891725,-0.0130458771266,-0.0846580251459
1589276017173977687,21653,1589276017173891262,,0.335932069308,-2.74665568278,1.49761816708,0.286576111344,-0.0137183382786,-0.0862905043176
1589276017180159667,21654,1589276017180060237,,0.335927361035,-2.74667242117,1.49758852432,0.287532303715,-0.0137226748979,-0.0880806870936
1589276017183037739,21655,1589276017182953334,,0.358866253525,-2.87908753942,1.49880554691,0.290344195402,-0.013732411001,-0.0905929844317
1589276017186107019,21656,1589276017186047044,,0.358863238086,-2.87908980787,1.49880191138,0.291335161882,-0.0143855723545,-0.093277274918
1589276017192030127,21657,1589276017191908589,,0.358862626329,-2.87907315956,1.49883403761,0.291335882128,-0.0143855029501,-0.0932750360307
1589276017198556908,21658,1589276017198479599,,0.381114075664,-2.87946409079,1.54532238895,0.296613156754,-0.0144041209979,-0.0966708882442
1589276017204041094,21659,1589276017203972385,,0.357949059531,-3.01172959843,1.54562515156,0.296618322121,-0.015060366039,-0.0968101696652
1589276017207030522,21660,1589276017206967775,,0.381037160488,-3.01180218228,1.54608463071,0.297596993542,-0.0144034755672,-0.0993516621759
1589276017209995797,21661,1589276017209929961,,0.381039266519,-3.01179125658,1.54610539497,0.299429494033,-0.0150704676818,-0.0993382344135
1589276017216017061,21662,1589276017215942717,,0.381050555527,-3.0117984827,1.54608853625,0.30038728793,-0.0157292851762,-0.101116690611
1589276017219034443,21663,1589276017218978999,,0.380644187406,-3.0119463464,1.56911388024,0.302095718352,-0.0150774331883,-0.102007641947
1589276017222288453,21664,1589276017222213244,,0.403773983708,-3.0120499593,1.56953450023,0.302116799784,-0.015079959002,-0.102761764234
1589276017228004128,21665,1589276017227916900,,0.403362122385,-3.01217099582,1.59271565802,0.302885343537,-0.0150870990813,-0.102757403234
1589276017231037755,21666,1589276017230963443,,0.4033984006,-3.01217440668,1.59270001924,0.305640017814,-0.0157528031435,-0.103630894492
1589276017234058526,21667,1589276017233966384,,0.402897246231,-3.14470515207,1.61641421532,0.305522738232,-0.0157537654676,-0.104531964958
1589276017240002728,21668,1589276017239934557,,0.402879339956,-3.14468435785,1.61645913245,0.30642848851,-0.0157617235461,-0.104526652917
1589276017243013931,21669,1589276017242958772,,0.402851463572,-3.14469870993,1.61643815906,0.308312650966,-0.0157696123803,-0.106310195336
1589276017249177810,21670,1589276017249115903,,0.402765551317,-3.27712051712,1.61707384773,0.309243861892,-0.0164190417537,-0.107199081578
1589276017252012500,21671,1589276017251947711,,0.402412181491,-3.27727553863,1.64006124041,0.310976456865,-0.0164196110196,-0.108977806167
1589276017255023161,21672,1589276017254945601,,0.402390938196,-3.27729432912,1.64002890384,0.311881719117,-0.0164257868231,-0.108973881024
1589276017258066418,21673,1589276017258008551,,0.402281456423,-3.40971940362,1.64068138852,0.312822366064,-0.0170892804875,-0.109874311756
1589276017263987418,21674,1589276017263932109,,0.40202822497,-3.27740411793,1.66311323782,0.315412802747,-0.0170965081408,-0.10985021824
1589276017267018726,21675,1589276017266954001,,0.402001864326,-3.27741775032,1.66309274506,0.31637867503,-0.0171024158309,-0.111635994328
1589276017273088264,21676,1589276017272945326,,0.424546758413,-3.41007364852,1.68729307939,0.318050611031,-0.0177696316815,-0.111477201511
1589276017276165942,21677,1589276017276092672,,0.424560026212,-3.41006156189,1.68731416828,0.319017786676,-0.0177719111013,-0.113270594885
1589276017279066893,21678,1589276017279006855,,0.424518002081,-3.41007763318,1.68729226152,0.319017386539,-0.0177753699777,-0.113271179096
1589276017282247111,21679,1589276017282091770,,0.424496983886,-3.4100800945,1.68729257509,0.319950804797,-0.0177779807477,-0.11415489576
1589276017288032892,21680,1589276017287969258,,0.424510751925,-3.41007536078,1.68729867822,0.319950861263,-0.0184270324626,-0.114154070365
1589276017291241254,21681,1589276017291171560,,0.424514383499,-3.41007105361,1.68730646941,0.322766862933,-0.0184357252179,-0.116827687038
1589276017294059723,21682,1589276017293949773,,0.424099267845,-3.41020587956,1.71035100798,0.324449570118,-0.0184427987324,-0.116813044571
1589276017300175927,21683,1589276017300074473,,0.424144811308,-3.41020652912,1.71033841924,0.32445067004,-0.0184368341599,-0.116810931052
1589276017303156845,21684,1589276017303082257,,0.446803875628,-3.54287074933,1.73442613093,0.32804332195,-0.0177987819691,-0.120236681228
1589276017309126058,21685,1589276017309056985,,0.44680620508,-3.54288716261,1.73439200341,0.328043113652,-0.0184483036036,-0.120236508417
1589276017312071821,21686,1589276017312003684,,0.446406846529,-3.54302251714,1.75752919021,0.32977837622,-0.0184537404404,-0.122017890414
1589276017315076156,21687,1589276017315013950,,0.446244210076,-3.67548650083,1.7581163747,0.330683703678,-0.018461494765,-0.12201282113
1589276017321058120,21688,1589276017320988529,,0.446291886314,-3.67547647997,1.75812522226,0.331623686987,-0.0184629923273,-0.122906573854
1589276017324085202,21689,1589276017324022363,,0.468595989014,-3.67581955438,1.80465089157,0.335050117764,-0.0184736814174,-0.125435146629
1589276017327257603,21690,1589276017327125936,,0.445506405125,-3.6757260224,1.80423232793,0.335969571158,-0.0191371349808,-0.125573487092
1589276017333051190,21691,1589276017332997613,,0.445523514234,-3.67572159684,1.80423711929,0.33596889643,-0.0191367542495,-0.125575350323
1589276017336001987,21692,1589276017335944758,,0.468608248075,-3.67581547683,1.80465601372,0.336920731173,-0.0198037950389,-0.127218837884
1589276017339133914,21693,1589276017339045952,,0.46816228335,-3.67589888335,1.82781109363,0.33860266854,-0.0198173901678,-0.127204573472
1589276017345123155,21694,1589276017345052562,,0.468031577518,-3.80838535838,1.82834380077,0.339534755567,-0.0198184588654,-0.1281036233
1589276017348199300,21695,1589276017348101281,,0.491280126655,-3.80846801864,1.82877304541,0.339556641346,-0.0198151939436,-0.128858625605
1589276017351218339,21696,1589276017351142077,,0.468435348537,-3.80826423317,1.8052844119,0.339709256429,-0.0204815661998,-0.129001606671
1589276017357143417,21697,1589276017357079453,,0.468050302293,-3.80835135903,1.8284098255,0.341407289116,-0.0198258465331,-0.129884300889
1589276017360199452,21698,1589276017360101125,,0.46802218812,-3.80834696498,1.82842617437,0.34140799169,-0.0198278290515,-0.129882151487
1589276017363002416,21699,1589276017362928220,,0.491257618428,-3.8084180697,1.82888310785,0.34237034625,-0.0198313118658,-0.131539839149
1589276017369192372,21700,1589276017369083807,,0.491304901896,-3.80842880292,1.82884805545,0.34237085093,-0.0204867602531,-0.13153857498
1589276017372001721,21701,1589276017371925715,,0.491139813551,-3.94093305291,1.82937528967,0.343312918874,-0.0198299453974,-0.132427679252
1589276017375276433,21702,1589276017375172209,,0.514334757835,-3.94098085482,1.82986501727,0.344263788708,-0.0198318793976,-0.134076127113
1589276017381207691,21703,1589276017381160797,,0.514362852652,-3.94098966105,1.82983815402,0.344264385646,-0.0198279473946,-0.13407517591
1589276017384080606,21704,1589276017383966728,,0.514412394045,-3.94098190013,1.82984094235,0.346136309477,-0.0204930164398,-0.135868426031
1589276017387004537,21705,1589276017386950942,,0.51445113577,-3.94098459812,1.82982423989,0.346135911597,-0.0204897735544,-0.13586992874
1589276017393175965,21706,1589276017393092651,,0.514073317097,-3.94110768493,1.85296563042,0.346928723041,-0.0204904714561,-0.136765439764
1589276017396314414,21707,1589276017396259578,,0.514094542753,-3.9411059578,1.85296341508,0.347844417589,-0.021144677828,-0.136758621158
1589276017399411604,21708,1589276017399342025,,0.490983685962,-3.94099043646,1.85259839545,0.34690644584,-0.0211425712838,-0.13601387487
1589276017405101083,21709,1589276017405034448,,0.513625561349,-4.07370348633,1.87658598837,0.350434169168,-0.0211484700907,-0.136734277684
1589276017408138433,21710,1589276017408080880,,0.513607600536,-4.07370510726,1.87658738547,0.350433894673,-0.0211502831193,-0.136734700754
1589276017411195781,21711,1589276017411144845,,0.514097302951,-4.07356430568,1.85355886804,0.349667457296,-0.0211432077623,-0.136743429955
1589276017417197225,21712,1589276017417100147,,0.5141340726,-4.07356096404,1.85355601327,0.349642826228,-0.020488098309,-0.135845436625
1589276017420194754,21713,1589276017420122898,,0.514099590412,-4.07354507357,1.85360049942,0.348752041797,-0.0204879682352,-0.136749617179
1589276017423045490,21714,1589276017422972352,,0.53687919874,-4.07372630165,1.87711053104,0.348583203556,-0.0198216313944,-0.13569731595
1589276017428978733,21715,1589276017428910273,,0.514098437136,-4.07353448667,1.85362408529,0.346880197278,-0.0198198159146,-0.134956641787
1589276017432024489,21716,1589276017431937366,,0.514183111152,-4.07353015798,1.85361011191,0.345899624765,-0.0198093510976,-0.132269145818
1589276017438063668,21717,1589276017437994832,,0.514196266493,-4.07352545634,1.85361679502,0.345031415551,-0.0198068101021,-0.134077575898
1589276017441112247,21718,1589276017441051670,,0.514329125894,-3.94099037098,1.85314414797,0.345007295387,-0.0198067599314,-0.133177210619
1589276017444216225,21719,1589276017444133024,,0.514653909792,-4.07341045858,1.83044502915,0.344187717096,-0.0204617091866,-0.131378373609
1589276017450074577,21720,1589276017449988720,,0.514386160183,-3.94098416794,1.85314150927,0.344981404767,-0.0198035003914,-0.132282064572
1589276017453050217,21721,1589276017452952543,,0.491832268386,-3.80829585595,1.82898314832,0.34234390629,-0.0197887565133,-0.130641693045
1589276017455964044,21722,1589276017455889844,,0.491890523363,-3.80830126563,1.82895621781,0.342343033706,-0.0197841161482,-0.130644682406
1589276017464997661,21723,1589276017464930147,,0.492119766626,-3.67582178611,1.82837307586,0.339602036303,-0.020427142682,-0.130673234304
1589276017468023338,21724,1589276017467959920,,0.492617233408,-3.54324809366,1.80472251776,0.33795596899,-0.0204202920655,-0.131592967706
1589276017474115861,21725,1589276017474025014,,0.492278144225,-3.54336327532,1.82779039214,0.338698789194,-0.0197536261582,-0.130674608984
1589276017477173976,21726,1589276017477078526,,0.492412272731,-3.41094456717,1.8271628568,0.336851668162,-0.0197421523293,-0.129791133723
1589276017480119540,21727,1589276017480021572,,0.469261498938,-3.41084716103,1.82673911638,0.335912025614,-0.0203989510526,-0.129047451311
1589276017486174248,21728,1589276017486085337,,0.49291052757,-3.41082477225,1.80405233304,0.336085138414,-0.0197295629203,-0.129800851437
1589276017489516620,21729,1589276017489454994,,0.493389544643,-3.27831877021,1.78030974129,0.333510340106,-0.0190592752735,-0.130724735202
1589276017492056399,21730,1589276017491969700,,0.493376856169,-3.27829667839,1.78035393758,0.333509341583,-0.0190636446382,-0.130726645544
1589276017498341973,21731,1589276017498250620,,0.493381329668,-3.27831856079,1.78031240358,0.333510790301,-0.01905950843,-0.130723552646
1589276017501030905,21732,1589276017500946508,,0.492959997516,-3.27846396228,1.80336146114,0.332455071561,-0.0183955007342,-0.130730044929
1589276017504101740,21733,1589276017504034100,,0.493652089189,-3.41057926784,1.75791965799,0.33186356992,-0.0183994653407,-0.131646328957
1589276017510110453,21734,1589276017510033354,,0.494046928776,-3.41049013059,1.73468531253,0.331094604501,-0.0190550884262,-0.131652429628
1589276017513221208,21735,1589276017513139549,,0.493700850437,-3.27825797643,1.75713707336,0.329991561308,-0.0190492688546,-0.129852981299
1589276017519161594,21736,1589276017519090387,,0.494074041719,-3.27810576463,1.73402017259,0.328305416649,-0.0197091935175,-0.129868064768
1589276017525209126,21737,1589276017525119850,,0.493987914935,-3.27809950037,1.73405655252,0.328254362266,-0.0197190409701,-0.128062081665
1589276017528069432,21738,1589276017528002794,,0.493899794386,-3.27808927792,1.73410097769,0.32822840034,-0.01906935734,-0.127165214858
1589276017534100400,21739,1589276017534019887,,0.493844962445,-3.27808885915,1.73411738539,0.328128175753,-0.0190746280245,-0.123563597209
1589276017537206396,21740,1589276017537148001,,0.470191795917,-3.27813479733,1.75685358123,0.327078137954,-0.018417392191,-0.123713697624
1589276017543068092,21741,1589276017542997396,,0.470957013442,-3.27785488503,1.71067459114,0.326384759053,-0.0184185364037,-0.121025637619
1589276017546213870,21742,1589276017546136765,,0.447788750069,-3.27776651313,1.71026249096,0.324465945842,-0.018419484892,-0.117585437767
1589276017549250396,21743,1589276017549184801,,0.447769912271,-3.27777129466,1.71025825911,0.324466160324,-0.0184207309958,-0.117584650713
1589276017552101298,21744,1589276017552032198,,0.447314204588,-3.27788805885,1.73335905098,0.325231668394,-0.0184313342646,-0.11757842356
1589276017558184824,21745,1589276017558094624,,0.423997160065,-3.4102216633,1.73355669419,0.325187414689,-0.018429061801,-0.115911304669
1589276017561101000,21746,1589276017561030372,,0.423640297538,-3.4103487871,1.75670663913,0.325931263117,-0.0184289139165,-0.115010710673
1589276017567231312,21747,1589276017567164196,,0.447171157319,-3.41029309996,1.73402406101,0.325157560989,-0.0184341025855,-0.114876289896
1589276017570055829,21748,1589276017570004062,,0.447178558632,-3.41031337469,1.73398227753,0.325159016041,-0.0184299349403,-0.114872840012
1589276017573110633,21749,1589276017573044720,,0.446864693111,-3.41047279852,1.75705791146,0.325929475403,-0.0184208759054,-0.114865213818
1589276017579211261,21750,1589276017579050305,,0.446758615478,-3.54291350421,1.75765955898,0.32503729528,-0.0184166276057,-0.11577069264
1589276017585260183,21751,1589276017585153974,,0.446503318697,-3.41062580894,1.78006341006,0.326696501754,-0.0184172123461,-0.114857164891
1589276017591303651,21752,1589276017591127681,,0.446490319244,-3.41064801592,1.78002412128,0.326697211947,-0.0184159711381,-0.114855343839
1589276017594260511,21753,1589276017594171958,,0.446800994896,-3.54295735602,1.75756039112,0.326837114006,-0.0184149276687,-0.114856356601
1589276017597301493,21754,1589276017597222221,,0.446888610054,-3.41052583193,1.75694888587,0.326860305159,-0.0184192798671,-0.115756743634
1589276017600256882,21755,1589276017600117966,,0.446745729607,-3.54297333181,1.75754223482,0.327777612304,-0.0184236082495,-0.11574697282
1589276017606231078,21756,1589276017606155400,,0.469781555828,-3.54305144403,1.75800537743,0.327799268851,-0.0177790112187,-0.116497072079
1589276017615253000,21757,1589276017615166614,,0.469657784576,-3.54304711712,1.75804716763,0.326906533493,-0.0177887210638,-0.117402242457
1589276017618330923,21758,1589276017618189600,,0.469247286168,-3.54318735571,1.78108036117,0.327673476991,-0.0177901594309,-0.117393512836
1589276017621233450,21759,1589276017621138479,,0.469117136656,-3.6756578252,1.78163825256,0.328589431056,-0.0177942316179,-0.117387493146
1589276017627101870,21760,1589276017627047249,,0.445873273535,-3.6755390374,1.78131196003,0.328568604669,-0.0178081051732,-0.116632712327
1589276017630200194,21761,1589276017630126361,,0.445840376675,-3.67554136706,1.78131538702,0.32672247084,-0.0178014273627,-0.115745849253
1589276017633217119,21762,1589276017633123735,,0.399130806816,-3.67553436979,1.80343655455,0.327446395955,-0.0184507929639,-0.114232157111
1589276017639130187,21763,1589276017639065154,,0.422144524994,-3.67559750328,1.80392742757,0.327465661155,-0.0184632131954,-0.114986974469
1589276017642308414,21764,1589276017642101843,,0.398570247318,-3.67562600297,1.8265980542,0.328236082179,-0.0184709592867,-0.115122808897
1589276017645180603,21765,1589276017645081339,,0.398646084939,-3.67565394806,1.82652526959,0.328236204621,-0.0184622725765,-0.115123853206
1589276017651168064,21766,1589276017651103072,,0.422198397129,-3.67560530634,1.80389892053,0.329313154691,-0.0184656636653,-0.115870631389
1589276017654063280,21767,1589276017653971456,,0.422214301613,-3.67559599495,1.80391417076,0.330246075817,-0.0184664469609,-0.11676638283
1589276017660033980,21768,1589276017659945404,,0.42227726576,-3.67561468543,1.80386134865,0.330271276567,-0.0184587507232,-0.117663183945
1589276017663060305,21769,1589276017663012066,,0.422344969563,-3.6756338789,1.80380638789,0.330270356252,-0.0184526541974,-0.117666723393
1589276017666034132,21770,1589276017665974139,,0.421958205823,-3.67576833327,1.82684419936,0.331037408281,-0.0184518133881,-0.117658085384
1589276017669131575,21771,1589276017669033547,,0.445221638426,-3.67583591046,1.8272944161,0.332907180275,-0.0191144454149,-0.119293113421
1589276017675204904,21772,1589276017675054468,,0.445205043158,-3.67584841901,1.82727329677,0.332907018826,-0.0191153679869,-0.119293416143
1589276017678143542,21773,1589276017678052958,,0.445240141978,-3.67585323244,1.82725506173,0.334781120878,-0.0191168580338,-0.121079828418
1589276017681114913,21774,1589276017680995620,,0.445268724145,-3.67581743206,1.82732011442,0.334780081869,-0.0191180446954,-0.12108251384
1589276017687139806,21775,1589276017687063203,,0.445365195572,-3.54333552118,1.82680590516,0.334803724765,-0.0191249983718,-0.121981843357
1589276017690203833,21776,1589276017690114112,,0.468329174233,-3.67589996371,1.82776616654,0.336682061377,-0.0191319375499,-0.123617882326
1589276017693044526,21777,1589276017692977067,,0.445183512864,-3.67580258295,1.82737074568,0.338435401055,-0.0198033112767,-0.121051947239
1589276017699428717,21778,1589276017699346794,,0.468264104636,-3.67587460171,1.82783384337,0.338455880729,-0.0198077807753,-0.121805018783
1589276017708153272,21779,1589276017708071770,,0.491331079249,-3.80843645031,1.82882509769,0.337634112514,-0.0184845148312,-0.125274865189
1589276017711109611,21780,1589276017711036510,,0.490947093298,-3.80853267123,1.85203245953,0.339344934949,-0.0191506094104,-0.126156759343
1589276017714045812,21781,1589276017714003311,,0.490981559083,-3.80852638477,1.85203625032,0.339344863804,-0.0191479911375,-0.126157348139
1589276017720096712,21782,1589276017720041226,,0.490942045764,-3.80852600646,1.85204750294,0.341167656979,-0.0191588465375,-0.126141915083
1589276017723117666,21783,1589276017723055734,,0.490934065125,-3.80851621214,1.8520697592,0.341167448272,-0.019160525274,-0.126142224576
1589276017726001820,21784,1589276017725951950,,0.46742228036,-3.6760933919,1.87413075112,0.341938057752,-0.0191636784303,-0.126274687562
1589276017732110975,21785,1589276017732061014,,0.467450495351,-3.67608071135,1.87414858656,0.341937467458,-0.0191626985106,-0.126276434708
1589276017735094640,21786,1589276017735042261,,0.467855892627,-3.67597723777,1.85104124404,0.342994470449,-0.0198264877236,-0.126266923089
1589276017738265652,21787,1589276017738198175,,0.49054700225,-3.8086410759,1.87512164579,0.344697069436,-0.0198336538491,-0.127011294315
1589276017744202548,21788,1589276017744141121,,0.49077183533,-3.67615779391,1.87457048016,0.347428572018,-0.0191729225542,-0.126985628685
1589276017747072150,21789,1589276017746985296,,0.490805139561,-3.67617197718,1.87453394591,0.347428809366,-0.019168422648,-0.126985658646
1589276017750007652,21790,1589276017749959021,,0.490837985948,-3.67615831382,1.87455214078,0.347429026308,-0.0191658820451,-0.126985448576
1589276017756033118,21791,1589276017755978721,,0.490959000527,-3.67616495431,1.87450742695,0.349254683266,-0.0191572115139,-0.126965418788
1589276017759372308,21792,1589276017759154828,,0.491004118379,-3.67617384285,1.87447817753,0.349255260385,-0.0191514269837,-0.12696470392
1589276017768123948,21793,1589276017768044980,,0.490687030243,-3.67628582135,1.89754932028,0.350021240165,-0.0204698380917,-0.126957826499
1589276017771097907,21794,1589276017771035046,,0.513871043831,-3.67639312459,1.89791760694,0.350958422192,-0.0198039182907,-0.127705661917
1589276017774169058,21795,1589276017774067243,,0.513892157375,-3.67638497129,1.89792768366,0.350959251409,-0.0198012202968,-0.127703801424
1589276017780066963,21796,1589276017780004452,,0.513468495707,-3.67652633478,1.92097336089,0.351726489219,-0.0198033243383,-0.127694063652
1589276017783060578,21797,1589276017782979343,,0.489875517593,-3.67657524121,1.94372043277,0.353392364752,-0.0198154196879,-0.126923639364
1589276017786058890,21798,1589276017785994477,,0.490266697224,-3.67644276347,1.92056355543,0.352574245577,-0.0198149051115,-0.125133699388
1589276017792182622,21799,1589276017792075201,,0.489728029403,-3.67656707261,1.94377304889,0.354274887398,-0.019833845676,-0.126014775294
1589276017798469548,21800,1589276017798379022,,0.466030069386,-3.67660614811,1.96643995468,0.355865436044,-0.0191861024257,-0.122536205307
1589276017804166953,21801,1589276017804101959,,0.44273682833,-3.80896708544,1.96659714337,0.356728977059,-0.0185301013193,-0.120874704596
1589276017807105256,21802,1589276017807040733,,0.44266108872,-3.80896508918,1.96661805935,0.356729633544,-0.018536300774,-0.120871816587
1589276017810062110,21803,1589276017809982087,,0.442700629306,-3.80896806434,1.96660339649,0.35759940463,-0.019196624169,-0.119054400761
1589276017816130332,21804,1589276017816067256,,0.465819205145,-3.80906593104,1.96700189113,0.356678614392,-0.0185316248439,-0.118919572877
1589276017819321192,21805,1589276017819212199,,0.465831195749,-3.80907979754,1.96697219899,0.356654611782,-0.0191915693202,-0.118020971403
1589276017828207298,21806,1589276017828123826,,0.442620675142,-3.80899274242,1.96657359575,0.35752714415,-0.0192043282304,-0.116351227224
1589276017831077684,21807,1589276017831009172,,0.442086239766,-3.94159752832,1.99016554203,0.359177220979,-0.0192076054045,-0.115438060282
1589276017837197166,21808,1589276017837122124,,0.44219400589,-3.94154912893,1.99023745536,0.361035339253,-0.0192073205859,-0.116319726045
1589276017840152006,21809,1589276017840092359,,0.419113419934,-3.80897578376,1.98930707468,0.362839933673,-0.0192165187586,-0.115545169947
1589276017843127552,21810,1589276017843058041,,0.441950498829,-3.80918551386,2.01279808499,0.36362789632,-0.018553374417,-0.116292284905
1589276017852161003,21811,1589276017852108109,,0.441970357681,-3.80915381857,2.01285370625,0.364558889952,-0.0198799335112,-0.117189189843
1589276017855449097,21812,1589276017855323957,,0.441939062879,-3.80915085426,2.01286618721,0.363652161164,-0.0192170382745,-0.117197095996
1589276017861480835,21813,1589276017861236475,,0.442006062861,-3.80915195652,2.01284938978,0.364582448153,-0.0198764318653,-0.118088072208
1589276017864117826,21814,1589276017864043910,,0.419214074114,-3.80894582434,1.9893432295,0.363819504828,-0.0198710267173,-0.118237135102
1589276017867212998,21815,1589276017867074932,,0.442420385168,-3.80898848792,1.98984760262,0.36290821414,-0.0205341990082,-0.118103785326
1589276017873135161,21816,1589276017873040666,,0.442510712982,-3.8089789596,1.9898457564,0.362908365016,-0.0205260658232,-0.118104735514
1589276017876147971,21817,1589276017876069624,,0.465826022239,-3.67664258857,1.98963610882,0.362034309699,-0.0198547104756,-0.119769144836
1589276017879059384,21818,1589276017879003874,,0.489379285498,-3.6765830781,1.96703989805,0.360404454836,-0.0191950306428,-0.121451018008
1589276017885260402,21819,1589276017885100537,,0.465758089844,-3.67663272075,1.98967024682,0.361150461196,-0.0198594300657,-0.120686586943
1589276017888275043,21820,1589276017888168277,,0.489458810131,-3.6766230863,1.96694532975,0.36133492343,-0.019188593634,-0.122343847205
1589276017891172929,21821,1589276017891080276,,0.443040233946,-3.67645370305,1.96611217809,0.36218659195,-0.0198645213859,-0.11992756989
1589276017897304282,21822,1589276017897208311,,0.443432009836,-3.67634153232,1.94301505299,0.362349206716,-0.0198679867383,-0.120829424776
1589276017900166671,21823,1589276017900068797,,0.443491635855,-3.67636169249,1.94296329884,0.362348068519,-0.0198627004628,-0.120833707084
1589276017903198333,21824,1589276017903111577,,0.466176569548,-3.67658978862,1.96643581678,0.363134738618,-0.0198669784442,-0.121579539504
1589276017909512324,21825,1589276017909377931,,0.465593154582,-3.80915181019,1.99010690591,0.363854138351,-0.0192122665948,-0.119764731677
1589276017912200163,21826,1589276017912068708,,0.465537584748,-3.80916123563,1.99010186517,0.363854680847,-0.0192161184034,-0.119762465555
1589276017915364653,21827,1589276017915157770,,0.465466328815,-3.80918578274,1.99007154769,0.363832181722,-0.0192199054841,-0.118860081317
1589276017921220592,21828,1589276017921153642,,0.441958107716,-3.80920611482,2.01275742683,0.364578188607,-0.0192229086252,-0.118101155483
1589276017924152633,21829,1589276017924023673,,0.441729339049,-3.94167691377,2.01331185692,0.364554662601,-0.0192294469171,-0.117201795952
1589276017930263518,21830,1589276017930159956,,0.419014829743,-3.80902469878,1.98923418278,0.363745934896,-0.0192284898856,-0.115539193094
1589276017933319032,21831,1589276017933219485,,0.441769187081,-3.80920715642,2.01279692921,0.364510382346,-0.0185751474082,-0.115386697408
1589276017936305764,21832,1589276017936212440,,0.41852921544,-3.80911977659,2.0123822897,0.363582373045,-0.0192362633202,-0.1146391842
1589276017939210793,21833,1589276017939127316,,0.418556051178,-3.80914590857,2.0123272437,0.363581868436,-0.0192330949737,-0.114641316164
1589276017945442192,21834,1589276017945311209,,0.418578567923,-3.80914503081,2.01232422169,0.365431598101,-0.0192351009873,-0.115517574842
1589276017948283559,21835,1589276017948179012,,0.418631396526,-3.80912536425,2.01235045898,0.365432807064,-0.0192292859432,-0.115514718462
1589276017954324230,21836,1589276017954211382,,0.441934969079,-3.80919088721,2.01279132582,0.366334315711,-0.0192302078597,-0.115372177333
1589276017957219532,21837,1589276017957151445,,0.488686252347,-3.80923912107,1.99056018414,0.366595059467,-0.0192305496762,-0.119587079779
1589276017960104826,21838,1589276017960016146,,0.465130624984,-3.80929407606,2.01316190954,0.368273823486,-0.0198881862836,-0.119708787422
1589276017963214142,21839,1589276017963123340,,0.465236481402,-3.80926715936,2.01318838045,0.368272250616,-0.0198821995437,-0.119714620545
1589276017969311427,21840,1589276017969236268,,0.488240647609,-3.67704977174,2.0361958538,0.370944551005,-0.0198844295691,-0.122252731703
1589276017972200051,21841,1589276017972129257,,0.488253214646,-3.6770732023,2.03615052787,0.370945153986,-0.0198807649674,-0.122251498098
1589276017978479774,21842,1589276017978358175,,0.488160194955,-3.80947925153,2.03676091097,0.370050878584,-0.0205381138344,-0.123160119161
1589276017981425799,21843,1589276017981302173,,0.488135847755,-3.80946399339,2.03679528412,0.370051025074,-0.0205411478266,-0.123159173024
1589276017984464960,21844,1589276017984289222,,0.488125627455,-3.80949979752,2.03673076688,0.370052606887,-0.0205374478571,-0.123155037184
1589276017990355683,21845,1589276017990255069,,0.488089462657,-3.80946570679,2.03680319558,0.370028027969,-0.0211971996767,-0.122256982326
1589276017993382899,21846,1589276017993230705,,0.441852870747,-3.67686444101,2.03538434202,0.369965803435,-0.0205464244298,-0.119844641321
1589276017996625800,21847,1589276017996532912,,0.441788151267,-3.67685730528,2.03541128096,0.36994241913,-0.0205529362523,-0.118934152047
1589276018005331214,21848,1589276018005182023,,0.464170406044,-3.8094882331,2.05955580972,0.371647464952,-0.0192520077729,-0.119667439109
1589276018008348223,21849,1589276018008237616,,0.440775984491,-3.94186449782,2.05970351634,0.371557887666,-0.0192618884985,-0.116204995729
1589276018014343374,21850,1589276018014226770,,0.440742367626,-3.94184728161,2.05974365801,0.37155703192,-0.0192673748733,-0.116206822362
1589276018017307281,21851,1589276018017215867,,0.440749890923,-3.94184130518,2.05975348557,0.372418168662,-0.0192707895437,-0.114400499029
1589276018020380143,21852,1589276018020237040,,0.44068403436,-3.94185647327,2.05973854867,0.373312440206,-0.01927995858,-0.113492212521
1589276018026376086,21853,1589276018026279459,,0.440685163482,-3.94183898682,2.05977177173,0.37331060557,-0.0192839020441,-0.113497577107
1589276018029464164,21854,1589276018029359923,,0.417401900426,-3.94175862364,2.05935341035,0.376024814325,-0.0192972965922,-0.112709163524
1589276018032294169,21855,1589276018032199725,,0.394213262366,-3.94168938457,2.05891892743,0.375073959489,-0.0192997095229,-0.111057518429
1589276018038407205,21856,1589276018038285465,,0.393898479412,-3.94179898223,2.08200372718,0.377667510236,-0.0192992591811,-0.111028415087
1589276018041278715,21857,1589276018041192868,,0.393935446327,-3.94178224757,2.08202841606,0.377668434821,-0.0192951209786,-0.111025989281
1589276018044478164,21858,1589276018044313907,,0.39395301129,-3.94177062624,2.08204709441,0.3776679779,-0.0192949072826,-0.111027580681
1589276018050356055,21859,1589276018050263761,,0.417173783658,-3.94185997499,2.08243527992,0.376724312911,-0.0192826057117,-0.109993921131
1589276018053293588,21860,1589276018053194428,,0.441092166235,-3.80938838464,2.05915111709,0.376023282391,-0.0192657432221,-0.112555903122
1589276018056295598,21861,1589276018056168765,,0.440712119355,-3.8095055731,2.08224077661,0.376791666735,-0.019263832311,-0.112543934726
1589276018062909936,21862,1589276018062779185,,0.44078175976,-3.80950979059,2.08221831975,0.374129882988,-0.0192433078228,-0.115273984675
1589276018065442464,21863,1589276018065258800,,0.440859568839,-3.80951985965,2.08218342489,0.374129911792,-0.0192352409481,-0.115275237548
1589276018068410648,21864,1589276018068290550,,0.44091527771,-3.80951439972,2.0821816183,0.374130642996,-0.0192289359254,-0.115273916295
1589276018074507442,21865,1589276018074320498,,0.441356353238,-3.80939177524,2.05908823495,0.374271473408,-0.0192258674281,-0.115272726356
1589276018077467611,21866,1589276018077374653,,0.464496750212,-3.80944653961,2.05955935293,0.374312700564,-0.0198904167674,-0.116928487449
1589276018080311375,21867,1589276018080224927,,0.464528521739,-3.80948524633,2.05948059175,0.374312498485,-0.0192234486571,-0.116931293166
1589276018086441605,21868,1589276018086264217,,0.441393987398,-3.8094097487,2.05904691581,0.374294300568,-0.0192215539721,-0.116173202041
1589276018089463767,21869,1589276018089374983,,0.464109075381,-3.80959508459,2.08259325657,0.375077203349,-0.0198939707352,-0.116927953936
1589276018098674501,21870,1589276018098563433,,0.464095935503,-3.80964898859,2.08249757768,0.375970937218,-0.0198969181264,-0.116022032822
1589276018101368536,21871,1589276018101276516,,0.463619961771,-3.80974884067,2.10564358309,0.376738364505,-0.0192448315221,-0.116012532729
1589276018104329253,21872,1589276018104235153,,0.440850945226,-3.80954010926,2.08214820208,0.376882091673,-0.0192507833164,-0.116156872489
1589276018110356026,21873,1589276018110226978,,0.440804922479,-3.80955413917,2.08213227641,0.376881563934,-0.0192553620293,-0.116157825857
1589276018113481017,21874,1589276018113360577,,0.440752132197,-3.80955264985,2.08214617676,0.377753732801,-0.0192633028699,-0.114348029953
1589276018119397105,21875,1589276018119274892,,0.440681083411,-3.80955639976,2.0821543543,0.377752962544,-0.0192713163961,-0.114349224268
1589276018125375011,21876,1589276018125261050,,0.440558597549,-3.80954444398,2.08220214842,0.376766377712,-0.0192809831663,-0.11165035613
1589276018131373126,21877,1589276018131261973,,0.440555146412,-3.80953503282,2.08222009693,0.376765084962,-0.0192841345478,-0.11165417421
1589276018134333153,21878,1589276018134248222,,0.416944918425,-3.80956314032,2.10489878599,0.377513703651,-0.0192837527588,-0.110886230708
1589276018137304606,21879,1589276018137214515,,0.440579879085,-3.80950775361,2.08226477201,0.376766610732,-0.0192804893398,-0.111649655077
1589276018143478063,21880,1589276018143311504,,0.417372690904,-3.80945434861,2.0817815016,0.376724022795,-0.0199399129071,-0.109994015111
1589276018146337546,21881,1589276018146226212,,0.417427783798,-3.80946038725,2.08175940514,0.376725345628,-0.0199319617449,-0.109990925539
1589276018149491805,21882,1589276018149372765,,0.440673084764,-3.8095386296,2.08218855951,0.377638880884,-0.0199348339548,-0.109831788812
1589276018155532118,21883,1589276018155318519,,0.440697411967,-3.80951559227,2.08222555905,0.377638699615,-0.019934049163,-0.109832554514
1589276018158438132,21884,1589276018158317721,,0.440366622368,-3.80965137715,2.10527372774,0.377556002087,-0.0192643350615,-0.112545130733
1589276018161445176,21885,1589276018161338312,,0.440476016241,-3.80966073055,2.10523391657,0.37939159684,-0.019259532359,-0.112527250058
1589276018167345870,21886,1589276018167253281,,0.440462619091,-3.80963402042,2.10528505383,0.379390724734,-0.0199258776737,-0.112527868994
1589276018170346846,21887,1589276018170247516,,0.440507098117,-3.80963003175,2.10528296529,0.379390389808,-0.0199224094046,-0.112529612281
1589276018173393409,21888,1589276018173263253,,0.440731635978,-3.67719837535,2.10470362704,0.379436138508,-0.0192535589283,-0.114340413465
1589276018179252462,21889,1589276018179173278,,0.440728937041,-3.6771976169,2.10470551732,0.379435863538,-0.0199164475647,-0.114339682208
1589276018185428603,21890,1589276018185250555,,0.440649563707,-3.67723648777,2.10465422322,0.376670604558,-0.0192494472622,-0.113467898232
1589276018191398840,21891,1589276018191254756,,0.441018505723,-3.67708316033,2.08162057567,0.374962564272,-0.0199107815516,-0.112575341812
1589276018194319650,21892,1589276018194203261,,0.418145899503,-3.67687794842,2.05811344969,0.375070491247,-0.0199177697197,-0.110918510904
1589276018197460641,21893,1589276018197361309,,0.418103263061,-3.67686409742,2.05814685656,0.375069674353,-0.0199241949588,-0.110920119241
1589276018203266481,21894,1589276018203150186,,0.417521684087,-3.80940937267,2.08183392526,0.375837477865,-0.0192655814286,-0.110910874964
1589276018206258533,21895,1589276018206135961,,0.417425856561,-3.80940599222,2.08185932721,0.375836826514,-0.019276073792,-0.110911259105
1589276018215433947,21896,1589276018215313631,,0.44007964886,-3.80962651325,2.10537872565,0.376599695863,-0.0192955149534,-0.110761048676
1589276018218318264,21897,1589276018218193239,,0.416859042199,-3.80955375049,2.10493278881,0.378360373528,-0.0193013850119,-0.108177665709
1589276018221323994,21898,1589276018221217089,,0.416855435338,-3.80958807363,2.10487138315,0.378361275377,-0.0192982893014,-0.108175063683
1589276018227320459,21899,1589276018227209182,,0.440057706856,-3.80961759584,2.10539944769,0.379296120198,-0.0199727163342,-0.108926489982
1589276018230320489,21900,1589276018230223432,,0.417051319031,-3.67712145691,2.10436020491,0.378406378358,-0.0192988966144,-0.109983776177
1589276018236412201,21901,1589276018236323677,,0.440721381467,-3.6771045606,2.08164570129,0.376763808498,-0.0199481399521,-0.11165639336
1589276018239199114,21902,1589276018239092523,,0.44068022708,-3.67710139717,2.08166000197,0.376761951611,-0.0199558025631,-0.111661289719
1589276018243086048,21903,1589276018242989644,,0.440641431402,-3.6771216616,2.08163241859,0.374961817562,-0.0192854602868,-0.1125730697
1589276018248350210,21904,1589276018248234698,,0.463998821387,-3.54480833914,2.08143950312,0.375025832954,-0.0199414409766,-0.115138947134
1589276018251323197,21905,1589276018251232717,,0.464040604924,-3.54478305173,2.08147325368,0.375026301894,-0.0199376828253,-0.115138070548
1589276018254419954,21906,1589276018254253850,,0.46445584515,-3.54463503961,2.0584153116,0.374284541584,-0.0192686191234,-0.116040487989
1589276018260312004,21907,1589276018260220546,,0.46452981037,-3.54465378217,2.05836634519,0.373423403627,-0.019918443426,-0.11785767156
1589276018263284423,21908,1589276018263207346,,0.464606515662,-3.54466705797,2.05832617068,0.373423810873,-0.019909069386,-0.117857965108
1589276018266377367,21909,1589276018266214689,,0.487714068758,-3.67715398873,2.05934887356,0.372526380634,-0.0205644101084,-0.118622827586
1589276018272202327,21910,1589276018272107757,,0.510975743948,-3.54484816822,2.05916311287,0.37076706612,-0.020557069845,-0.121196087301
1589276018275203035,21911,1589276018275108701,,0.510940043449,-3.54486362322,2.05914536564,0.370766302955,-0.0205611696572,-0.121197726514
1589276018278322996,21912,1589276018278227318,,0.488238435586,-3.54467019987,2.03558695843,0.370001848432,-0.020558329964,-0.121365065888
1589276018284217480,21913,1589276018284139369,,0.488247329032,-3.54463835387,2.03564027941,0.370942745795,-0.0205622415044,-0.122254392586
1589276018287208893,21914,1589276018287105609,,0.510917672583,-3.54483845932,2.05919423591,0.371705086399,-0.0205720096717,-0.122102847158
1589276018293149874,21915,1589276018293057892,,0.48774463354,-3.54478065521,2.05872753208,0.371684105667,-0.0205783614053,-0.121351298987
1589276018296795795,21916,1589276018296649935,,0.487526173056,-3.67718499891,2.05933799244,0.371637693329,-0.0205855636348,-0.119540783032
1589276018299709977,21917,1589276018299577014,,0.487462027665,-3.67718014261,2.05936184851,0.37163729675,-0.0205928860133,-0.119540754771
1589276018302810496,21918,1589276018302678000,,0.487407256937,-3.67717675049,2.05938086917,0.371614950799,-0.0199351862116,-0.118639650076
1589276018308430932,21919,1589276018308266544,,0.487371897519,-3.67715401629,2.05942983049,0.371614800687,-0.0199402675677,-0.118639266336
1589276018311425111,21920,1589276018311303724,,0.464128073046,-3.67706904021,2.05900251458,0.370630967086,-0.0192775429352,-0.116084964201
1589276018317302843,21921,1589276018317229647,,0.463535042306,-3.80963641131,2.0826455034,0.370456417673,-0.0192803113472,-0.115189447877
1589276018320225530,21922,1589276018320155132,,0.463690139333,-3.67720641269,2.0820757618,0.370432027758,-0.0199452461906,-0.11429265656
1589276018323336851,21923,1589276018323245251,,0.463729316583,-3.67721139942,2.08205822914,0.370432953861,-0.0192778449916,-0.114292288698
1589276018326441320,21924,1589276018326313373,,0.463714145878,-3.67721456393,2.08205601904,0.368583284151,-0.0199362054036,-0.113404107516
1589276018332354667,21925,1589276018332185796,,0.463724274185,-3.6772090492,2.08206350303,0.36858385612,-0.0199344962973,-0.113402548947
1589276018335378245,21926,1589276018335275509,,0.464367215552,-3.54466648913,2.0583811506,0.368803104805,-0.0205906221273,-0.116110097509
1589276018341430729,21927,1589276018341310273,,0.464449887557,-3.54466188206,2.05837043191,0.368803608427,-0.0205816273653,-0.116110092599
1589276018344349592,21928,1589276018344235786,,0.46455900482,-3.54466272927,2.05834434872,0.3697576727,-0.0205739328607,-0.117910629075
1589276018347345210,21929,1589276018347226586,,0.487842409022,-3.54475320072,2.05875163689,0.3679752977,-0.020561000781,-0.119588081208
1589276018350371941,21930,1589276018350237027,,0.487883098465,-3.54476395286,2.05872348148,0.36797658438,-0.0205539882625,-0.119585327493
1589276018356293844,21931,1589276018356187291,,0.487920273818,-3.54476293927,2.05871641642,0.368941307529,-0.0212049903649,-0.121382482079
1589276018359275711,21932,1589276018359173085,,0.511604498234,-3.41234469291,2.03543084176,0.367347715647,-0.0211933826028,-0.12485184098
1589276018365276644,21933,1589276018365191685,,0.511652936732,-3.41232144298,2.03545764377,0.36734723411,-0.0211905020612,-0.12485374671
1589276018368402316,21934,1589276018368243579,,0.511699894816,-3.41236558063,2.03537184299,0.36734838145,-0.0211808271496,-0.124852012643
1589276018371276650,21935,1589276018371201371,,0.511677362014,-3.41235731495,2.03539136526,0.367348935026,-0.0211827675488,-0.124850054656
1589276018377407455,21936,1589276018377246335,,0.51164437646,-3.41232934827,2.03544654277,0.365502062371,-0.0205273771622,-0.123965808303
1589276018380359117,21937,1589276018380269878,,0.511577635902,-3.41233670035,2.03545099263,0.365502185761,-0.0205337756896,-0.1239643848
1589276018383245594,21938,1589276018383166414,,0.488423618743,-3.41227087512,2.03499381937,0.364551394261,-0.0205341210973,-0.122319483149
1589276018392224139,21939,1589276018392126744,,0.511309370399,-3.54468416074,2.0361551111,0.365430512304,-0.0205522658357,-0.121256629363
1589276018395927637,21940,1589276018395828742,,0.488088729053,-3.54461950341,2.03571113614,0.365387916275,-0.0205603539557,-0.119600042834
1589276018401325621,21941,1589276018401253872,,0.464797332702,-3.54453763006,2.03528910236,0.365344557889,-0.0205680231498,-0.117942853703
1589276018404301034,21942,1589276018404200525,,0.464587935198,-3.6769328774,2.03592476011,0.364389995126,-0.0199101124687,-0.116145342493
1589276018407244724,21943,1589276018407160513,,0.464104289345,-3.6770775373,2.05899270106,0.366041450647,-0.0192606643333,-0.115228705715
1589276018413320793,21944,1589276018413237606,,0.464072956115,-3.67707387142,2.05900631016,0.366040861799,-0.0192649497335,-0.115229859882
1589276018416262292,21945,1589276018416178464,,0.440934100735,-3.67700344473,2.05855618026,0.366892609464,-0.0192684640385,-0.112658281446
1589276018419343446,21946,1589276018419161187,,0.440323270162,-3.80953211937,2.08227447389,0.366741103095,-0.0199357698314,-0.112659722719
1589276018425263384,21947,1589276018425174980,,0.440934756556,-3.67698753309,2.05858446099,0.366893146713,-0.0192683184241,-0.112656556685
1589276018428294363,21948,1589276018428209718,,0.417793373738,-3.67689248265,2.05815907562,0.366873735802,-0.0199224524507,-0.111898624807
1589276018431266541,21949,1589276018431157485,,0.417833312704,-3.67687463297,2.05818285603,0.366873984839,-0.0199191332391,-0.111898399212
1589276018437224779,21950,1589276018437153484,,0.441088291405,-3.67696897963,2.05858470874,0.367801956212,-0.0199171702236,-0.112644523431
1589276018440358085,21951,1589276018440204776,,0.441211830642,-3.67697965678,2.05853916289,0.366023531058,-0.0198977086797,-0.114472085506
1589276018443181821,21952,1589276018443099110,,0.464565144202,-3.54466651151,2.05833644969,0.365159426407,-0.020546241714,-0.116132851498
1589276018449324522,21953,1589276018449244154,,0.464706975782,-3.5446632771,2.05831000333,0.364265491529,-0.0205286814547,-0.117042895866
1589276018452298671,21954,1589276018452123063,,0.487957205724,-3.5447506986,2.05872873945,0.364333477302,-0.0205231984153,-0.119605396042
1589276018455204248,21955,1589276018455128190,,0.511509902928,-3.54468879532,2.03609667543,0.361785572831,-0.0211636747722,-0.121283989787
1589276018461158931,21956,1589276018461092839,,0.488476144346,-3.54457936101,2.03568810753,0.361765649126,-0.021156827115,-0.120531045031
1589276018464237583,21957,1589276018464157929,,0.511652231461,-3.54468100727,2.03607447282,0.360892548092,-0.0204941256107,-0.122204136286
1589276018467504530,21958,1589276018467327418,,0.511764182949,-3.41230710685,2.03545371037,0.360916476815,-0.0204931928381,-0.123102557809
1589276018473225338,21959,1589276018473147315,,0.512171655189,-3.41217427197,2.01226774974,0.360146919356,-0.0211411259731,-0.123108790733
1589276018476273892,21960,1589276018476197205,,0.511745295002,-3.4123219945,2.03543350085,0.359091701321,-0.0211407045178,-0.123120557244
1589276018485186459,21961,1589276018485082461,,0.48886246372,-3.54446039389,2.01249121351,0.359171715212,-0.0204958570441,-0.120556044565
1589276018488168263,21962,1589276018488089462,,0.488798200034,-3.54445337416,2.01251918617,0.359146854853,-0.0211565951513,-0.119658544559
1589276018494162949,21963,1589276018494102568,,0.488590057707,-3.6768719026,2.01312156343,0.358206083685,-0.0205089248879,-0.118768124219
1589276018497473445,21964,1589276018497392629,,0.465045887846,-3.54450693837,2.03528577542,0.358001284912,-0.0205135487745,-0.116204596237
1589276018500448179,21965,1589276018500343891,,0.419037933299,-3.54421824761,2.01124903905,0.358076304366,-0.0205202825456,-0.113790409812
1589276018506411043,21966,1589276018506328046,,0.464892502292,-3.54451675971,2.03530371273,0.357884766881,-0.0192035287103,-0.111700137499
1589276018512190779,21967,1589276018512119804,,0.464595144383,-3.67691242714,2.03596004828,0.357861026422,-0.0192192061428,-0.110789948959
1589276018518184261,21968,1589276018518085998,,0.441451210131,-3.67683292719,2.03552842065,0.356900893,-0.0185559046611,-0.109147775624
1589276018521129450,21969,1589276018521061713,,0.441474500219,-3.67683615674,2.03551753586,0.356878227402,-0.0185524735528,-0.10824839256
1589276018524413759,21970,1589276018524307156,,0.441333525726,-3.8092408662,2.03615062606,0.357749026313,-0.0185561244102,-0.106433875126
1589276018530185631,21971,1589276018530123108,,0.441481052065,-3.67683476852,2.03551862244,0.356831788531,-0.0185515403725,-0.10644218107
1589276018533406128,21972,1589276018533271642,,0.441387458427,-3.80926632903,2.03609129847,0.355948041378,-0.0185418372915,-0.107358780735
1589276018536403557,21973,1589276018536328246,,0.418412370796,-3.67674126772,2.03507704504,0.35503328976,-0.0191928699166,-0.107511673129
1589276018543094936,21974,1589276018543027265,,0.441641557747,-3.67682362974,2.03550392456,0.353251451089,-0.0198463628457,-0.109183051315
1589276018545491199,21975,1589276018545401114,,0.441702313536,-3.67685049072,2.0354422202,0.354159845385,-0.0191798581179,-0.10917380221
1589276018548371448,21976,1589276018548294813,,0.441949207883,-3.54444297139,2.03481851011,0.353275353757,-0.0198285862752,-0.110082631995
1589276018554415342,21977,1589276018554220696,,0.441990475908,-3.54444262992,2.03481014134,0.353274941369,-0.0198253598588,-0.110084536518
1589276018557400845,21978,1589276018557303567,,0.442037076983,-3.54445274578,2.03478239732,0.354229941518,-0.0198229258415,-0.111881098568
