%time,field.header.seq,field.header.stamp,field.header.frame_id,field.vector.x,field.vector.y,field.vector.z
1589276016738853221,21548,1589276016738731452,,0.50005924317,-0.191745352239,0.209959928591
1589276016744852633,21549,1589276016744723965,,0.500060255909,-0.191690884032,0.20995492919
1589276016747929110,21550,1589276016747781782,,0.500061699133,-0.191634018683,0.209956988071
1589276016750888261,21551,1589276016750778351,,0.500062820803,-0.191577942872,0.2099497045
1589276016753945960,21552,1589276016753797553,,0.500063093723,-0.191525017364,0.20994366403
1589276016759817117,21553,1589276016759700091,,0.500065199632,-0.191472352784,0.209942610337
1589276016762899381,21554,1589276016762779328,,0.500067277703,-0.191412974928,0.209937773374
1589276016768972363,21555,1589276016768840241,,0.500066622171,-0.191360461981,0.209931843667
1589276016771940471,21556,1589276016771811388,,0.500068976876,-0.19130263445,0.209930440367
1589276016774946896,21557,1589276016774812817,,0.500070177046,-0.191250174667,0.209925388298
1589276016777920550,21558,1589276016777780654,,0.500070336913,-0.191195033739,0.209920353534
1589276016784015103,21559,1589276016783823835,,0.500072366281,-0.191136822732,0.209922372775
1589276016786929571,21560,1589276016786837184,,0.500072125218,-0.191083861238,0.209913191863
1589276016792974511,21561,1589276016792847248,,0.500074004961,-0.191025951984,0.209915668118
1589276016796156579,21562,1589276016796027619,,0.500074808514,-0.190974911137,0.209910174707
1589276016799272122,21563,1589276016799152555,,0.500075525224,-0.190918412201,0.209907455629
1589276016804970392,21564,1589276016804819866,,0.500079452635,-0.190859914244,0.209907570627
1589276016807950076,21565,1589276016807798890,,0.500079717073,-0.190804951948,0.20990238563
1589276016813909428,21566,1589276016813805665,,0.500080993269,-0.190748300479,0.209900292128
1589276016816901172,21567,1589276016816795277,,0.50008372682,-0.190690478076,0.20990410382
1589276016819892204,21568,1589276016819804635,,0.500084874005,-0.19063243143,0.209900490367
1589276016822973363,21569,1589276016822849331,,0.500086950852,-0.190574692999,0.209897630073
1589276016831897105,21570,1589276016831756282,,0.500093112836,-0.19045404173,0.209899524559
1589276016834994748,21571,1589276016834792152,,0.500095329626,-0.19039653162,0.209898012122
1589276016840931000,21572,1589276016840800927,,0.500098527142,-0.190335678901,0.20989953216
1589276016843888964,21573,1589276016843766543,,0.500101336945,-0.190276929799,0.209894639661
1589276016846998833,21574,1589276016846857607,,0.500103993591,-0.190216236408,0.209894872879
1589276016853053938,21575,1589276016852837175,,0.500107016816,-0.190160141471,0.209894724382
1589276016855896553,21576,1589276016855777738,,0.500108391449,-0.190100704491,0.209889662639
1589276016858839002,21577,1589276016858740768,,0.500112581581,-0.1900516418,0.209892091701
1589276016864991147,21578,1589276016864808465,,0.500114703392,-0.189995915963,0.20989145266
1589276016867994198,21579,1589276016867824122,,0.50011735053,-0.189931043259,0.209882747651
1589276016870914563,21580,1589276016870800261,,0.500118002434,-0.189887163422,0.209882218058
1589276016876954405,21581,1589276016876826260,,0.500120371913,-0.189833945015,0.209882869366
1589276016879961269,21582,1589276016879812057,,0.500121677942,-0.189777051641,0.20987866642
1589276016885922152,21583,1589276016885808306,,0.500123493462,-0.189721376822,0.209876895293
1589276016891902703,21584,1589276016891797390,,0.50012805321,-0.189619726111,0.20987748483
1589276016895861871,21585,1589276016895764524,,0.500130076315,-0.189570938319,0.20987660151
1589276016901002200,21586,1589276016900827067,,0.500132940639,-0.189520780476,0.209873166504
1589276016903917272,21587,1589276016903805261,,0.500136728122,-0.189470093243,0.209873688046
1589276016909969635,21588,1589276016909795274,,0.500139428045,-0.189419430911,0.209873300149
1589276016912973052,21589,1589276016912827910,,0.500143247486,-0.189365289461,0.209870851366
1589276016915849933,21590,1589276016915756917,,0.500146332061,-0.189311877045,0.20987360703
1589276016921879326,21591,1589276016921764154,,0.500149749551,-0.189266557988,0.209872178117
1589276016924893625,21592,1589276016924782776,,0.500152260945,-0.189210717615,0.209871604157
1589276016927979606,21593,1589276016927828857,,0.500156489281,-0.189151554721,0.209869618911
1589276016933937209,21594,1589276016933816281,,0.500160815101,-0.189104509889,0.20986861326
1589276016936996610,21595,1589276016936849714,,0.500165230455,-0.189047207293,0.20986947419
1589276016939912332,21596,1589276016939769361,,0.500169289422,-0.188987063388,0.20986577702
1589276016945935811,21597,1589276016945766977,,0.500174143434,-0.188932700608,0.209863537546
1589276016951901768,21598,1589276016951763403,,0.500181169531,-0.188823578105,0.20985871651
1589276016958037187,21599,1589276016957863785,,0.500183673232,-0.188772924941,0.209854550126
1589276016960836002,21600,1589276016960736397,,0.500187809236,-0.188720203294,0.209856509521
1589276016963887077,21601,1589276016963739633,,0.500190766069,-0.188666447718,0.209852688308
1589276016969966729,21602,1589276016969877565,,0.500194492591,-0.188616042974,0.209851414949
1589276016975969389,21603,1589276016975874242,,0.500198914147,-0.188564754842,0.209850587523
1589276016982012031,21604,1589276016981886843,,0.500203528417,-0.188508668884,0.209848806452
1589276016987992333,21605,1589276016987881614,,0.500207498195,-0.188470689909,0.209853313532
1589276016994027718,21606,1589276016993898376,,0.500211653835,-0.188419675656,0.209853610202
1589276016997129391,21607,1589276016996991692,,0.5002151534,-0.188358352312,0.209849147863
1589276016999890127,21608,1589276016999781092,,0.500217830677,-0.188316018569,0.209849270255
1589276017002886697,21609,1589276017002765775,,0.500221529058,-0.188263353788,0.209850303045
1589276017005961820,21610,1589276017005843395,,0.500225373401,-0.188203525688,0.209848231528
1589276017009086114,21611,1589276017008991675,,0.500228544602,-0.1881500889,0.209848015131
1589276017011899749,21612,1589276017011801238,,0.500232028704,-0.188098646518,0.209845954745
1589276017014998110,21613,1589276017014802180,,0.500236101863,-0.188044742968,0.209843744558
1589276017017919061,21614,1589276017017795897,,0.500239289089,-0.187992140796,0.209841029741
1589276017020921407,21615,1589276017020781742,,0.500243622752,-0.187935295961,0.209839272631
1589276017023934553,21616,1589276017023811133,,0.500247265302,-0.187877995497,0.20983651221
1589276017029996626,21617,1589276017029848594,,0.500250597786,-0.187823626415,0.209834019343
1589276017032940925,21618,1589276017032818800,,0.500254410169,-0.187762860362,0.20982878198
1589276017038971992,21619,1589276017038774477,,0.50025862822,-0.187706249126,0.209828719117
1589276017041965264,21620,1589276017041861420,,0.500262281542,-0.187650490745,0.209829356619
1589276017044910125,21621,1589276017044783878,,0.500268395919,-0.187589712247,0.209825306784
1589276017047980949,21622,1589276017047864692,,0.500271128723,-0.187536228866,0.209823826123
1589276017053956059,21623,1589276017053771187,,0.500276585615,-0.18747615028,0.209822783125
1589276017056930718,21624,1589276017056813305,,0.500282183169,-0.187419184977,0.209823201572
1589276017062999400,21625,1589276017062856835,,0.500286890059,-0.18735936844,0.209819362749
1589276017065911230,21626,1589276017065818731,,0.50029180604,-0.187305111765,0.209820547558
1589276017068975064,21627,1589276017068841594,,0.500295241186,-0.187246488306,0.209815433033
1589276017074953063,21628,1589276017074782449,,0.500299649587,-0.187188874839,0.209812164444
1589276017077939996,21629,1589276017077804759,,0.500304207544,-0.187129242208,0.209810077486
1589276017080970235,21630,1589276017080811205,,0.500308088656,-0.18707114418,0.20980538468
1589276017087010048,21631,1589276017086922178,,0.50031175867,-0.187013741069,0.209802922958
1589276017089951685,21632,1589276017089835385,,0.500317145253,-0.186950149012,0.209800084738
1589276017093038148,21633,1589276017092882795,,0.500322717217,-0.186893311301,0.209795595262
1589276017099319893,21634,1589276017099164245,,0.500327677011,-0.186832445814,0.209790024646
1589276017101944637,21635,1589276017101822418,,0.50033079043,-0.186773832306,0.209787851829
1589276017108009243,21636,1589276017107865837,,0.500336926891,-0.186709674686,0.209786131678
1589276017110892127,21637,1589276017110780482,,0.500340675141,-0.186649622976,0.209781005103
1589276017113898004,21638,1589276017113799640,,0.50034485816,-0.186589705213,0.209776280688
1589276017116938962,21639,1589276017116852095,,0.500349100784,-0.186527613645,0.209776291289
1589276017122966414,21640,1589276017122818734,,0.500353191975,-0.186468363969,0.209774643691
1589276017125957872,21641,1589276017125830774,,0.500357424513,-0.186409281334,0.209772993251
1589276017131899826,21642,1589276017131789067,,0.500362810544,-0.186349980475,0.209774837043
1589276017134895963,21643,1589276017134789623,,0.500367600252,-0.186291240423,0.20977187442
1589276017137843867,21644,1589276017137764908,,0.500372377185,-0.186234202616,0.209769345907
1589276017140868314,21645,1589276017140758195,,0.500377809388,-0.186176614302,0.209767150279
1589276017146941654,21646,1589276017146835413,,0.500382645632,-0.186121570655,0.209763787136
1589276017149891476,21647,1589276017149805714,,0.500386204735,-0.186064342454,0.209759654746
1589276017155946538,21648,1589276017155820289,,0.500389134937,-0.186008243242,0.209756601267
1589276017158937075,21649,1589276017158806352,,0.500393975928,-0.185951924273,0.209754846703
1589276017161915091,21650,1589276017161825998,,0.500396392841,-0.185899257725,0.209745283181
1589276017164966039,21651,1589276017164829839,,0.500399748973,-0.18583893324,0.209741288404
1589276017170886480,21652,1589276017170797875,,0.500403599607,-0.185782512096,0.209737650953
1589276017173827497,21653,1589276017173759098,,0.500407157377,-0.185731389766,0.209732280298
1589276017180032665,21654,1589276017179875694,,0.500410836101,-0.185672360916,0.209725306006
1589276017182945232,21655,1589276017182815805,,0.500414800181,-0.185615418227,0.209721911295
1589276017186011422,21656,1589276017185854587,,0.500418584796,-0.185558990575,0.209717787635
1589276017191876264,21657,1589276017191775064,,0.500423204206,-0.185502972599,0.209716210454
1589276017198257892,21658,1589276017198159509,,0.500431070409,-0.185388394197,0.209712170321
1589276017203905561,21659,1589276017203809320,,0.500435934506,-0.185327476946,0.209712900271
1589276017206897187,21660,1589276017206799829,,0.500439924049,-0.185269138397,0.209709326358
1589276017209854515,21661,1589276017209790659,,0.500443127111,-0.185215209453,0.209705571127
1589276017215923087,21662,1589276017215809218,,0.500449924872,-0.185154168488,0.209706367019
1589276017218908383,21663,1589276017218839943,,0.500454487851,-0.185097313182,0.209703486535
1589276017221979527,21664,1589276017221916762,,0.500459331863,-0.185044315779,0.209701289708
1589276017227855149,21665,1589276017227780212,,0.500463924933,-0.184995659742,0.209698495416
1589276017230866981,21666,1589276017230801553,,0.500470119362,-0.184938533277,0.209695592111
1589276017233904640,21667,1589276017233790675,,0.500475572594,-0.184880887495,0.209688180522
1589276017239873039,21668,1589276017239798188,,0.500479573048,-0.184836014545,0.209684715346
1589276017242882974,21669,1589276017242821575,,0.500484219812,-0.18478356844,0.209682721585
1589276017248999678,21670,1589276017248936695,,0.500490177537,-0.184728012787,0.209679226425
1589276017251890793,21671,1589276017251815171,,0.500494122822,-0.184676133229,0.20967474353
1589276017254914657,21672,1589276017254814632,,0.500498819582,-0.18462672922,0.209668667449
1589276017257957024,21673,1589276017257874854,,0.500503629406,-0.184579526817,0.209664418638
1589276017263894002,21674,1589276017263797657,,0.50050753614,-0.184533214908,0.209664082107
1589276017266905915,21675,1589276017266822642,,0.500513690688,-0.184484681747,0.20966130156
1589276017272900833,21676,1589276017272801373,,0.500519339462,-0.184437110742,0.209661369254
1589276017275941993,21677,1589276017275859986,,0.500524079486,-0.184388581146,0.209661673992
1589276017278966570,21678,1589276017278862345,,0.500530801384,-0.184339334585,0.209659817708
1589276017281882651,21679,1589276017281793804,,0.500537589985,-0.184290177405,0.209663192348
1589276017287964801,21680,1589276017287822940,,0.500542585172,-0.184239305095,0.209662702182
1589276017291006102,21681,1589276017290906641,,0.500549712857,-0.184187558488,0.209664591453
1589276017293952465,21682,1589276017293821522,,0.500555487317,-0.184138846447,0.209663501087
1589276017299974781,21683,1589276017299879750,,0.500562487273,-0.184084950141,0.209664191878
1589276017302949528,21684,1589276017302889312,,0.500567097187,-0.184037215356,0.20966264664
1589276017308967736,21685,1589276017308885665,,0.500573543164,-0.183985987547,0.209662124337
1589276017311914711,21686,1589276017311798881,,0.500579716122,-0.18393380568,0.209660826172
1589276017314891458,21687,1589276017314823075,,0.500585457528,-0.183887209528,0.209657754088
1589276017320914573,21688,1589276017320846098,,0.500590303852,-0.183836640358,0.209652810053
1589276017323938335,21689,1589276017323858566,,0.500598234085,-0.183785718174,0.209654096092
1589276017326944519,21690,1589276017326881909,,0.500604749939,-0.183736931052,0.209651920238
1589276017332947048,21691,1589276017332854722,,0.500610799064,-0.183687199984,0.209650572051
1589276017335851802,21692,1589276017335780862,,0.500615813809,-0.183641007465,0.209649830585
1589276017338975988,21693,1589276017338866009,,0.500622217386,-0.183596222355,0.209648550653
1589276017344973464,21694,1589276017344867999,,0.500628558545,-0.183547325625,0.20964814936
1589276017348078043,21695,1589276017347895740,,0.500635434169,-0.183499533606,0.209650507185
1589276017350989327,21696,1589276017350906059,,0.500640576537,-0.183454946008,0.209646830751
1589276017356946713,21697,1589276017356874935,,0.500647259003,-0.183407924188,0.209646527426
1589276017359964842,21698,1589276017359859251,,0.500653360209,-0.183361951801,0.209647870207
1589276017362857161,21699,1589276017362791964,,0.500659714033,-0.18331505447,0.209648156331
1589276017368920334,21700,1589276017368847306,,0.500666130661,-0.183264932521,0.209649246516
1589276017371947756,21701,1589276017371803024,,0.50067262605,-0.183218673593,0.20965030096
1589276017375200918,21702,1589276017374920566,,0.500679395358,-0.183170590663,0.209649346796
1589276017381102263,21703,1589276017380915095,,0.500685934371,-0.183122831491,0.209649932048
1589276017383920819,21704,1589276017383818560,,0.500692730649,-0.183073969771,0.20964946553
1589276017386916437,21705,1589276017386830028,,0.500699102711,-0.183027388255,0.209648793786
1589276017393003274,21706,1589276017392888135,,0.50070554793,-0.182979522735,0.209646133125
1589276017396154421,21707,1589276017396064449,,0.50071295038,-0.182932796205,0.209646755299
1589276017399234738,21708,1589276017399182239,,0.500719625417,-0.182887714016,0.209646349871
1589276017404950097,21709,1589276017404890172,,0.500726374682,-0.182838755217,0.209649082937
1589276017408003808,21710,1589276017407899590,,0.500734324066,-0.182794874002,0.209650058342
1589276017411021004,21711,1589276017410883634,,0.500740444177,-0.182749521939,0.209649613628
1589276017417014436,21712,1589276017416916090,,0.500746808261,-0.182705974367,0.209648863797
1589276017420014642,21713,1589276017419900524,,0.500753247025,-0.182663935188,0.209650829268
1589276017422919306,21714,1589276017422842908,,0.500760653903,-0.182617616965,0.209650964566
1589276017428855534,21715,1589276017428791600,,0.500767822705,-0.182574247915,0.209650237552
1589276017431907930,21716,1589276017431815653,,0.500774952966,-0.182528312378,0.209649700844
1589276017437951101,21717,1589276017437863535,,0.500781044829,-0.182486398775,0.209648505439
1589276017440994467,21718,1589276017440884495,,0.500788459818,-0.18244289393,0.209648981565
1589276017444095293,21719,1589276017443923298,,0.500794490708,-0.182397447292,0.209647782446
1589276017449947830,21720,1589276017449837836,,0.500801834579,-0.182354471367,0.209646455137
1589276017452924894,21721,1589276017452811344,,0.50081000533,-0.182307014896,0.209646761411
1589276017455842253,21722,1589276017455771831,,0.500816839379,-0.18226241238,0.209644559473
1589276017464896356,21723,1589276017464808301,,0.500832365905,-0.182166798192,0.209640858474
1589276017467914301,21724,1589276017467843242,,0.500839902356,-0.182120452014,0.209642032753
1589276017473946845,21725,1589276017473872486,,0.500849355918,-0.182070407522,0.209644802129
1589276017477016706,21726,1589276017476897217,,0.50085654748,-0.182025017823,0.209645396647
1589276017479955194,21727,1589276017479878482,,0.500863983988,-0.181978538799,0.209641760863
1589276017486012302,21728,1589276017485879808,,0.500873460022,-0.181924653068,0.209641211676
1589276017489352156,21729,1589276017489264062,,0.500880319913,-0.181880967298,0.209638281973
1589276017491935631,21730,1589276017491848133,,0.500886307355,-0.181845245474,0.209637521514
1589276017498259212,21731,1589276017498131634,,0.500893720716,-0.181797115773,0.209638740143
1589276017500895660,21732,1589276017500825510,,0.500901793814,-0.181749836358,0.209639877962
1589276017503980894,21733,1589276017503896062,,0.500904878755,-0.18171525893,0.209636709501
1589276017509983684,21734,1589276017509897451,,0.500910789111,-0.181669639005,0.209636331113
1589276017513077935,21735,1589276017512924810,,0.50091705369,-0.181622324475,0.209635334997
1589276017519040577,21736,1589276017518920959,,0.500922572652,-0.181579458685,0.209634528313
1589276017525059325,21737,1589276017524898108,,0.500932955519,-0.18149420846,0.209631360659
1589276017527973839,21738,1589276017527853198,,0.50093948328,-0.181453132811,0.209629780642
1589276017533984204,21739,1589276017533870743,,0.500943432328,-0.181409928441,0.209628710538
1589276017537058282,21740,1589276017536914198,,0.50094811579,-0.181363435511,0.209625866347
1589276017542940943,21741,1589276017542850664,,0.500953066,-0.181312362594,0.209625328341
1589276017546004374,21742,1589276017545910275,,0.500958168236,-0.18126304832,0.209625058699
1589276017549005290,21743,1589276017548916545,,0.500964462821,-0.181206278277,0.209624305429
1589276017551988244,21744,1589276017551863688,,0.500968825295,-0.181160410073,0.209622158612
1589276017557987637,21745,1589276017557862753,,0.500975856668,-0.181102012324,0.209623333397
1589276017561042084,21746,1589276017560865532,,0.500981569461,-0.181036862429,0.209616626945
1589276017566989429,21747,1589276017566915120,,0.500987528055,-0.180985152543,0.20961379564
1589276017569936878,21748,1589276017569839306,,0.500993658463,-0.18092364262,0.209612592612
1589276017572989596,21749,1589276017572870223,,0.501000829313,-0.180851860601,0.209608013599
1589276017579004048,21750,1589276017578862165,,0.501005558266,-0.180791995694,0.209603327427
1589276017585136026,21751,1589276017584910440,,0.501017513098,-0.180668456508,0.209597001058
1589276017591010808,21752,1589276017590895731,,0.501022993753,-0.180614386547,0.209596530477
1589276017594057916,21753,1589276017593908645,,0.501029090511,-0.180550457252,0.209589525362
1589276017597132148,21754,1589276017597041023,,0.501034326695,-0.180492852315,0.209582045515
1589276017599982980,21755,1589276017599886175,,0.501040357025,-0.180432577916,0.209579528347
1589276017606065990,21756,1589276017605999116,,0.501045100355,-0.180375476412,0.209576128948
1589276017615000700,21757,1589276017614899461,,0.50105519164,-0.180275232853,0.209569378293
1589276017618042803,21758,1589276017617950457,,0.501059423696,-0.180216797328,0.209565770238
1589276017620972725,21759,1589276017620906765,,0.501062644993,-0.180156781565,0.209559012225
1589276017626946941,21760,1589276017626890296,,0.501067163241,-0.180113216466,0.209557576094
1589276017629971181,21761,1589276017629889035,,0.501072009344,-0.180056977088,0.209557008384
1589276017633024537,21762,1589276017632961043,,0.501074920622,-0.18000085653,0.209550793939
1589276017638931635,21763,1589276017638878154,,0.501077757238,-0.179963636999,0.209547018646
1589276017642004798,21764,1589276017641899957,,0.501082086107,-0.179919902361,0.209546302245
1589276017644935575,21765,1589276017644886371,,0.501087054361,-0.179860677889,0.209541050869
1589276017651065747,21766,1589276017650940607,,0.501090006027,-0.17981624834,0.209535059374
1589276017653953420,21767,1589276017653837398,,0.501094385064,-0.179769801898,0.209534922887
1589276017659908129,21768,1589276017659820089,,0.501098485067,-0.179713497279,0.209530111631
1589276017662942492,21769,1589276017662847639,,0.501102595899,-0.179655938253,0.209522937408
1589276017665906019,21770,1589276017665847632,,0.501105156108,-0.179605094126,0.209519839986
1589276017668968548,21771,1589276017668909257,,0.50110943073,-0.179553090285,0.209518074157
1589276017675114160,21772,1589276017674913569,,0.501113946847,-0.179506646945,0.209514696284
1589276017678041091,21773,1589276017677907247,,0.501118124142,-0.179455923292,0.209512142346
1589276017680964327,21774,1589276017680868422,,0.501123309214,-0.179406047648,0.209506393398
1589276017686986245,21775,1589276017686917915,,0.501128240231,-0.179354503577,0.209501131702
1589276017690103836,21776,1589276017689963520,,0.50113366374,-0.179300882191,0.209496706264
1589276017692972797,21777,1589276017692856499,,0.501137241804,-0.179249513087,0.209492846645
1589276017699287019,21778,1589276017699210498,,0.501141610394,-0.179197704581,0.209489000369
1589276017708035900,21779,1589276017707905693,,0.501148147156,-0.179088599689,0.209478998604
1589276017710978649,21780,1589276017710902752,,0.501152967078,-0.179032849298,0.209476467311
1589276017713997758,21781,1589276017713864895,,0.501158358996,-0.178971441067,0.209471445371
1589276017719978971,21782,1589276017719897537,,0.501160570764,-0.178920239276,0.209466550387
1589276017723019847,21783,1589276017722933079,,0.501164823943,-0.178862699901,0.209461721834
1589276017725899718,21784,1589276017725826643,,0.501170055233,-0.178802640374,0.209458526693
1589276017732029299,21785,1589276017731930374,,0.501173412279,-0.178747451558,0.209453200998
1589276017735072488,21786,1589276017734907814,,0.501178094266,-0.178694466413,0.209450002106
1589276017738109642,21787,1589276017737995957,,0.501181826858,-0.178639908885,0.209444387974
1589276017744101998,21788,1589276017743967070,,0.501186434919,-0.178574012603,0.209439410048
1589276017746997441,21789,1589276017746865640,,0.501190889265,-0.178519563678,0.209436406945
1589276017749971045,21790,1589276017749840252,,0.501196141644,-0.178460519807,0.209432668292
1589276017755930572,21791,1589276017755856974,,0.501200513677,-0.178394647307,0.209430469861
1589276017759117509,21792,1589276017758926424,,0.501204860754,-0.178335486931,0.209426349503
1589276017768019467,21793,1589276017767895382,,0.501214534695,-0.178221640945,0.209420828121
1589276017770984383,21794,1589276017770900437,,0.50121834032,-0.178165370743,0.209414557763
1589276017774027784,21795,1589276017773899446,,0.501222624677,-0.178109769888,0.209412004529
1589276017779976403,21796,1589276017779875622,,0.501227861906,-0.178057068679,0.209410629756
1589276017782929634,21797,1589276017782842416,,0.501232248508,-0.178005478294,0.209406704301
1589276017785931829,21798,1589276017785859380,,0.501235634458,-0.177954757772,0.209402387534
1589276017792062691,21799,1589276017791931469,,0.501238583265,-0.177918385996,0.20940052176
1589276017798410361,21800,1589276017798244525,,0.501245227191,-0.17782574728,0.209392851275
1589276017804030523,21801,1589276017803932284,,0.501249000725,-0.1777802597,0.209387999389
1589276017806986097,21802,1589276017806918947,,0.501252742943,-0.177738292899,0.209387553568
1589276017809955614,21803,1589276017809863344,,0.501256293959,-0.17768655205,0.209385783974
1589276017815995839,21804,1589276017815914929,,0.501260192285,-0.177633028395,0.209380548693
1589276017819056231,21805,1589276017818973120,,0.501263565102,-0.177581128337,0.209377062265
1589276017828107816,21806,1589276017827997416,,0.501270499525,-0.177500537536,0.209370525087
1589276017830985303,21807,1589276017830884506,,0.501275888805,-0.177448073629,0.209365990084
1589276017837096536,21808,1589276017836950904,,0.501280777511,-0.177390097823,0.209361402582
1589276017840023427,21809,1589276017839939573,,0.501284380736,-0.177346339094,0.209357354314
1589276017842999087,21810,1589276017842867260,,0.501289472551,-0.177290673524,0.2093556187
1589276017852012434,21811,1589276017851939537,,0.501297900536,-0.177187223202,0.209352336233
1589276017855173485,21812,1589276017854967491,,0.501300883094,-0.177145856543,0.209350514556
1589276017861118712,21813,1589276017860984409,,0.501305210285,-0.177091806642,0.20934755576
1589276017864021391,21814,1589276017863900336,,0.501310684781,-0.177042845213,0.20934616689
1589276017867027855,21815,1589276017866918860,,0.50131388895,-0.17700374824,0.209346098632
1589276017873008640,21816,1589276017872897012,,0.501317358666,-0.176950186246,0.20934364956
1589276017876036552,21817,1589276017875918089,,0.501319994151,-0.176898064376,0.209338861218
1589276017878989377,21818,1589276017878857043,,0.501321826335,-0.176864687491,0.209337755864
1589276017885103136,21819,1589276017884929431,,0.501325153936,-0.176820834944,0.209336831938
1589276017888085486,21820,1589276017887913397,,0.501327464206,-0.176771894408,0.209332577303
1589276017891056305,21821,1589276017890938505,,0.501329910493,-0.176736871871,0.209329647647
1589276017897201074,21822,1589276017897045486,,0.501331682168,-0.17669519679,0.209324839658
1589276017900043250,21823,1589276017899918309,,0.501334008947,-0.176647680849,0.209319471938
1589276017903059784,21824,1589276017902956701,,0.501336886901,-0.17660120108,0.209319366258
1589276017909296806,21825,1589276017909214590,,0.501338098323,-0.176557968601,0.209316198574
1589276017912091669,21826,1589276017911932238,,0.501341919968,-0.176511174835,0.209316564163
1589276017915109593,21827,1589276017914973777,,0.501345573751,-0.17646272644,0.20931721006
1589276017921113875,21828,1589276017920946108,,0.501348283251,-0.176416099311,0.209312117321
1589276017923997654,21829,1589276017923878508,,0.501352378065,-0.176365817148,0.209311628248
1589276017930046997,21830,1589276017929934869,,0.501356148955,-0.176312856826,0.209312121535
1589276017933105932,21831,1589276017932987430,,0.501360317321,-0.176260584879,0.209312549362
1589276017936065160,21832,1589276017935955364,,0.501363736875,-0.176201510453,0.209309765305
1589276017939020238,21833,1589276017938932285,,0.501367512685,-0.176141052461,0.20930392643
1589276017945166642,21834,1589276017945061205,,0.501371341656,-0.176077618618,0.209302921832
1589276017948102463,21835,1589276017947982532,,0.501376876844,-0.176012435162,0.209302709145
1589276017954096296,21836,1589276017953964302,,0.501381012091,-0.175947138349,0.209293087571
1589276017957111688,21837,1589276017956950425,,0.501385017237,-0.175883604385,0.20929020596
1589276017960027441,21838,1589276017959902772,,0.501390622674,-0.175816213502,0.20928985058
1589276017963039972,21839,1589276017962929032,,0.501394669161,-0.175750136065,0.209281769623
1589276017969164660,21840,1589276017969012943,,0.501398363584,-0.175687757072,0.209279083441
1589276017972044502,21841,1589276017971941606,,0.501402359522,-0.175624291878,0.209277144744
1589276017978165267,21842,1589276017978046581,,0.50140423004,-0.175566694279,0.209275214886
1589276017981141105,21843,1589276017981006148,,0.501408344421,-0.17550966523,0.209273455628
1589276017984169856,21844,1589276017983992420,,0.501411920084,-0.175454764172,0.209274984695
1589276017990146728,21845,1589276017990003073,,0.501414366571,-0.175405395355,0.20927152424
1589276017993127285,21846,1589276017992967571,,0.501416635534,-0.175354225885,0.209268114981
1589276017996367321,21847,1589276017996241440,,0.501419374941,-0.175304718358,0.209267884657
1589276018005119522,21848,1589276018004967534,,0.501422828427,-0.175210878079,0.209264673904
1589276018008139064,21849,1589276018007988654,,0.501425384901,-0.175164651107,0.209262752284
1589276018014088532,21850,1589276018013960584,,0.501426338144,-0.175117205417,0.209259461964
1589276018017106602,21851,1589276018016965608,,0.501427957588,-0.175067631107,0.209257102719
1589276018020085346,21852,1589276018019971570,,0.501430780914,-0.175017402837,0.209253950044
1589276018026150022,21853,1589276018025990923,,0.501432598741,-0.174964057564,0.209247138981
1589276018029212690,21854,1589276018029081249,,0.501435226293,-0.174913441245,0.209245728768
1589276018032065166,21855,1589276018031975565,,0.501439158724,-0.17486781653,0.209244768613
1589276018038188413,21856,1589276018037990256,,0.5014437487,-0.174809912083,0.209243086503
1589276018041103583,21857,1589276018040967403,,0.501448946721,-0.174749500528,0.209242233807
1589276018044358698,21858,1589276018043978091,,0.501452336595,-0.17469979668,0.209239547526
1589276018050122590,21859,1589276018050020786,,0.501456452272,-0.17463898228,0.209236881037
1589276018053096870,21860,1589276018052981174,,0.501460498091,-0.174574955684,0.209235004863
1589276018056046407,21861,1589276018055933154,,0.501465469762,-0.174518126341,0.209235490844
1589276018062647166,21862,1589276018062533123,,0.501468858704,-0.174463352551,0.209238115482
1589276018065113136,21863,1589276018064984356,,0.501472107693,-0.174407210275,0.209234600752
1589276018068152122,21864,1589276018068015818,,0.501476301409,-0.174350488766,0.209232441026
1589276018074210464,21865,1589276018074045446,,0.501478563022,-0.174300756508,0.20923197061
1589276018077227800,21866,1589276018077059353,,0.501482046128,-0.174251850529,0.209228708386
1589276018080175492,21867,1589276018080007539,,0.501485253817,-0.174199620376,0.209225438765
1589276018086162523,21868,1589276018085988244,,0.501488570619,-0.174149186789,0.209226808539
1589276018089245750,21869,1589276018089162792,,0.501490050573,-0.174103977944,0.2092201164
1589276018098542399,21870,1589276018098311939,,0.501493815388,-0.17400740388,0.209215574217
1589276018101159338,21871,1589276018100993570,,0.501496232292,-0.173963489716,0.209214971845
1589276018104110905,21872,1589276018104013756,,0.501497929101,-0.173916583975,0.209212630981
1589276018110177195,21873,1589276018109999439,,0.501499585077,-0.173871798587,0.209210887647
1589276018113202670,21874,1589276018113081025,,0.501501968669,-0.173824089072,0.209210291065
1589276018119207258,21875,1589276018119005225,,0.501503698418,-0.173779945981,0.209208734322
1589276018125137403,21876,1589276018125004751,,0.501508937398,-0.173690306362,0.209207274814
1589276018131136864,21877,1589276018131020579,,0.501511175782,-0.17364352789,0.209203897778
1589276018134168470,21878,1589276018133993092,,0.501514520124,-0.173589462092,0.209201113204
1589276018137067552,21879,1589276018136963285,,0.501518507328,-0.173542396342,0.209201505661
1589276018143132077,21880,1589276018143017224,,0.501521957508,-0.173486827364,0.209199063801
1589276018146173177,21881,1589276018145997656,,0.501525002889,-0.173430788981,0.209197374137
1589276018149299608,21882,1589276018149135409,,0.501527993603,-0.173378678372,0.209194650529
1589276018155149163,21883,1589276018155028748,,0.50153193127,-0.173336181504,0.209194119288
1589276018158096555,21884,1589276018158001471,,0.501534980889,-0.173284367038,0.209189625354
1589276018161214569,21885,1589276018161016694,,0.501538517402,-0.17322964653,0.20918674794
1589276018167087090,21886,1589276018167000561,,0.501541630049,-0.173188231607,0.209185360732
1589276018170151148,21887,1589276018169995429,,0.501544525649,-0.173138201683,0.209183199326
1589276018173134481,21888,1589276018173007934,,0.501547020226,-0.173086080897,0.209178532695
1589276018179236397,21889,1589276018178993161,,0.501550044839,-0.173039312894,0.20917807043
1589276018185187350,21890,1589276018185000259,,0.501553618,-0.172955075026,0.209176651675
1589276018191119184,21891,1589276018191006245,,0.501555620022,-0.172913598112,0.209177421368
1589276018194077683,21892,1589276018193963872,,0.501557593424,-0.172872108747,0.209173649622
1589276018197277756,21893,1589276018197124901,,0.50155963354,-0.172832423951,0.209173096972
1589276018203132390,21894,1589276018202983192,,0.501561810001,-0.17278800031,0.209172263392
1589276018206118053,21895,1589276018205963165,,0.501563587721,-0.17274561206,0.209169025415
1589276018215113970,21896,1589276018215012658,,0.501566926257,-0.172666271278,0.209167547902
1589276018218097131,21897,1589276018217998612,,0.501567491084,-0.17261937357,0.209164427446
1589276018221176111,21898,1589276018220991311,,0.501570079577,-0.17257070284,0.209164940915
1589276018227145916,21899,1589276018226984301,,0.501571409342,-0.172530529291,0.209160866776
1589276018230155516,21900,1589276018230000406,,0.501574576585,-0.172479314934,0.209162728634
1589276018236268074,21901,1589276018236107545,,0.501578296982,-0.172424594397,0.209162804588
1589276018239078457,21902,1589276018238950343,,0.501579267188,-0.172387436552,0.209158733595
1589276018242867923,21903,1589276018242770321,,0.501582800618,-0.172346862252,0.20916239784
1589276018248170061,21904,1589276018248013542,,0.501585192956,-0.172296934059,0.2091596389
1589276018251128021,21905,1589276018251023291,,0.50158823462,-0.172251865064,0.209158261727
1589276018254144447,21906,1589276018254024220,,0.501590907508,-0.172213009218,0.209160137497
1589276018260117853,21907,1589276018260006256,,0.501593963818,-0.172164346101,0.209158629292
1589276018263135726,21908,1589276018263002271,,0.501595330969,-0.172112483224,0.209155870108
1589276018266123509,21909,1589276018266008430,,0.501598339671,-0.172066186041,0.209156153205
1589276018272113856,21910,1589276018271977603,,0.501598942479,-0.172028192228,0.209154348634
1589276018275100135,21911,1589276018274981971,,0.501601303279,-0.1719906111,0.209153190869
1589276018278201765,21912,1589276018278050933,,0.501602028339,-0.171951223947,0.209147923329
1589276018284145997,21913,1589276018283992605,,0.501603421823,-0.171910635529,0.209146390391
1589276018287121258,21914,1589276018286983119,,0.501606120328,-0.17187117374,0.209145317715
1589276018293049859,21915,1589276018292927889,,0.501607847818,-0.171829840044,0.209141186945
1589276018296504561,21916,1589276018296376563,,0.501609592387,-0.171790859163,0.209140767534
1589276018299473245,21917,1589276018299315858,,0.501610541256,-0.171750276904,0.209139578224
1589276018302578509,21918,1589276018302434410,,0.501613679773,-0.171704946432,0.209139722868
1589276018308179019,21919,1589276018308047003,,0.501615389662,-0.171662356467,0.209138673123
1589276018311143299,21920,1589276018311008556,,0.501617621019,-0.171616902856,0.209135800896
1589276018317195768,21921,1589276018317029663,,0.501621410979,-0.171566487442,0.209133443751
1589276018320081370,21922,1589276018319963545,,0.501623224564,-0.171519151431,0.209131553523
1589276018323133406,21923,1589276018322998289,,0.501627206619,-0.171463464731,0.209130064785
1589276018326174236,21924,1589276018326019461,,0.501630627801,-0.171412534485,0.209128829666
1589276018332195246,21925,1589276018331994084,,0.501634966554,-0.17135746982,0.209126758471
1589276018335206349,21926,1589276018335054742,,0.501638114542,-0.171301334114,0.209122360444
1589276018341188889,21927,1589276018341070026,,0.501640753406,-0.1712441879,0.209118288981
1589276018344164258,21928,1589276018344013829,,0.50164615509,-0.17118428783,0.209113868353
1589276018347130456,21929,1589276018347022026,,0.501650374811,-0.171126352935,0.209109293818
1589276018350177901,21930,1589276018350040867,,0.501654067273,-0.171071174867,0.209107315695
1589276018356103677,21931,1589276018355993918,,0.501658560489,-0.171015803222,0.209105900806
1589276018359117175,21932,1589276018358989946,,0.501662503758,-0.170962040212,0.209103273962
1589276018365120273,21933,1589276018365009808,,0.501666033134,-0.170911360019,0.209099534681
1589276018368136486,21934,1589276018367983003,,0.501669159159,-0.170858571073,0.209098033622
1589276018371169156,21935,1589276018371012070,,0.501671217625,-0.170815993448,0.20909773838
1589276018377148183,21936,1589276018377026169,,0.501673053832,-0.170776657743,0.209099408958
1589276018380191252,21937,1589276018380046887,,0.501675391931,-0.170734313394,0.20909730453
1589276018383127779,21938,1589276018382988797,,0.501677580526,-0.170695788366,0.209097306046
1589276018392090792,21939,1589276018391961829,,0.501680437813,-0.170625777858,0.209095842084
1589276018395727514,21940,1589276018395630366,,0.501683785363,-0.170588966467,0.20909705505
1589276018401149895,21941,1589276018401052113,,0.501685179028,-0.17055340087,0.209095551499
1589276018404165233,21942,1589276018404029670,,0.501686848602,-0.170517083358,0.20909486795
1589276018407085426,21943,1589276018406992922,,0.501688403619,-0.170475672026,0.209092704003
1589276018413167016,21944,1589276018413035397,,0.501690520691,-0.170434031733,0.209091623513
1589276018416133186,21945,1589276018415991791,,0.501693729789,-0.170388876576,0.209090354851
1589276018419122988,21946,1589276018418997767,,0.501695621914,-0.170353380437,0.209088523344
1589276018425101601,21947,1589276018425019395,,0.501699821482,-0.170305073578,0.209088911494
1589276018428152875,21948,1589276018428022841,,0.501703778733,-0.170249341248,0.209086156256
1589276018431102180,21949,1589276018431006095,,0.501707727747,-0.170205256981,0.209084596954
1589276018437105105,21950,1589276018436977997,,0.501711591111,-0.170156617449,0.209083812551
1589276018440139503,21951,1589276018440028085,,0.501716139525,-0.170098942565,0.209079756715
1589276018443122467,21952,1589276018442974602,,0.501720916086,-0.170045005771,0.209078080275
1589276018449220213,21953,1589276018449120196,,0.501723552727,-0.169993492296,0.209074298535
1589276018452169720,21954,1589276018451994932,,0.501727970159,-0.169945717662,0.20907432124
1589276018455148427,21955,1589276018454989248,,0.501731683862,-0.169899379973,0.209073208133
1589276018461062385,21956,1589276018460975495,,0.501734064391,-0.169852501491,0.209069825366
1589276018464132373,21957,1589276018464010072,,0.501736340326,-0.169809653812,0.209067184903
1589276018467265048,21958,1589276018467094970,,0.501738474436,-0.169769263387,0.209065554871
1589276018473145013,21959,1589276018473010786,,0.501742245313,-0.169727697034,0.209066183668
1589276018476099247,21960,1589276018475997226,,0.501744387079,-0.16969286798,0.20906380214
1589276018485066632,21961,1589276018484963538,,0.501746852382,-0.169625000081,0.209061224908
1589276018488080684,21962,1589276018487973678,,0.501747588059,-0.169593769691,0.20905941407
1589276018494094309,21963,1589276018493979876,,0.501748789644,-0.169564366125,0.20905901545
1589276018497353478,21964,1589276018497168520,,0.501750727289,-0.16953260008,0.209058641415
1589276018500284841,21965,1589276018500080755,,0.501751688269,-0.169504045735,0.209059888941
1589276018506268901,21966,1589276018506057044,,0.501752748336,-0.169471451188,0.209057375397
1589276018512132780,21967,1589276018512000266,,0.50175751898,-0.169408499473,0.209057390768
1589276018518083793,21968,1589276018517974299,,0.501758765055,-0.169373223185,0.209055344166
1589276018521057674,21969,1589276018520953104,,0.501763171518,-0.169329002202,0.20905457655
1589276018524187868,21970,1589276018524069312,,0.501765723204,-0.169294799906,0.209053727717
1589276018530120949,21971,1589276018530011907,,0.501769157027,-0.169252981776,0.209052016591
1589276018533225386,21972,1589276018533062110,,0.501772532732,-0.1692058421,0.209049940477
1589276018536188743,21973,1589276018536083972,,0.501775420994,-0.169160931934,0.209047157881
1589276018542979023,21974,1589276018542905741,,0.501779517643,-0.169124362237,0.209046665561
1589276018545196172,21975,1589276018545098536,,0.501782248046,-0.169082739107,0.209043969075
1589276018548131784,21976,1589276018548060280,,0.50178596271,-0.169038166094,0.209040558371
1589276018554213121,21977,1589276018554040315,,0.501788463494,-0.169002769315,0.209037625863
1589276018557167994,21978,1589276018557064577,,0.501792154745,-0.168962136024,0.209036139377
1589276018560191373,21979,1589276018560074949,,0.501795563189,-0.168922635171,0.209033848623
1589276018566251120,21980,1589276018566146839,,0.501798010213,-0.168886700062,0.2090317906
1589276018569188811,21981,1589276018569070084,,0.501798856047,-0.168858247634,0.209028745837
1589276018572261513,21982,1589276018572086356,,0.5018001862,-0.168827485185,0.209028117101
1589276018578206954,21983,1589276018578079974,,0.50180251727,-0.168799840263,0.209027419608
1589276018581183601,21984,1589276018581087174,,0.501802933497,-0.168774425736,0.209024190372
1589276018584230896,21985,1589276018584097130,,0.501803788943,-0.168748843417,0.209023764842
1589276018590081545,21986,1589276018589975954,,0.501804690953,-0.168725798996,0.209024114466
1589276018593186581,21987,1589276018593031575,,0.501804101523,-0.168702779784,0.209020946513
1589276018596604589,21988,1589276018596438940,,0.501804154619,-0.168680610713,0.209019924145
1589276018605252013,21989,1589276018605021426,,0.501805784514,-0.168629632546,0.209017520443
1589276018608238346,21990,1589276018608060306,,0.501805423264,-0.168605732948,0.209015888646
1589276018614290607,21991,1589276018614111808,,0.501807141694,-0.168576883447,0.209015314531
1589276018620237196,21992,1589276018620117216,,0.501808711039,-0.168545295665,0.209013564856
1589276018623261361,21993,1589276018623089599,,0.501810180367,-0.168514466316,0.209012216231
1589276018626212708,21994,1589276018626081222,,0.501811657599,-0.168483588688,0.209010509281
1589276018629164652,21995,1589276018629067100,,0.501813537937,-0.168449893408,0.209010741543
1589276018635080634,21996,1589276018635002610,,0.501816409795,-0.168420268675,0.209011518724
1589276018638227697,21997,1589276018638090877,,0.501819117358,-0.168384197127,0.209011073131
1589276018641120340,21998,1589276018641045092,,0.501821844017,-0.168345481029,0.209009617227
1589276018647246833,21999,1589276018647076133,,0.501823222584,-0.168314272593,0.209008468569
1589276018650138659,22000,1589276018650038220,,0.50182510131,-0.168280107297,0.209007193614
1589276018653143795,22001,1589276018653065933,,0.501826728363,-0.168244700268,0.209004436296
1589276018659224228,22002,1589276018659114763,,0.50182942329,-0.168207751306,0.209004069702
1589276018663065786,22003,1589276018662952118,,0.501830081118,-0.168176823489,0.209000031084
1589276018665240991,22004,1589276018665041809,,0.501830869091,-0.168150686998,0.208995699233
1589276018671181364,22005,1589276018671027739,,0.501832147343,-0.168124116563,0.208993511595
1589276018674167038,22006,1589276018674048072,,0.501832224908,-0.168099965186,0.208988571468
1589276018677220032,22007,1589276018677106484,,0.501833518459,-0.168075885752,0.208988539276
1589276018683161833,22008,1589276018683068652,,0.501834018209,-0.16805360329,0.208988466768
1589276018686337845,22009,1589276018686096482,,0.501835328448,-0.168032489953,0.208988789246
1589276018689450446,22010,1589276018689354650,,0.501835648736,-0.168011433432,0.208988207522
1589276018695220744,22011,1589276018695129333,,0.501834841319,-0.167993397508,0.208986957296
1589276018698267499,22012,1589276018698157590,,0.501836436129,-0.167973642653,0.208988845511
1589276018701136482,22013,1589276018701035307,,0.501836795472,-0.167954569569,0.208989112609
1589276018707140920,22014,1589276018707012153,,0.501837723191,-0.167933732183,0.208990217183
1589276018710054381,22015,1589276018709967507,,0.501838444218,-0.167912522377,0.20899164677
1589276018713167724,22016,1589276018713060677,,0.501838782883,-0.167891580907,0.208989971304
1589276018719242342,22017,1589276018719097171,,0.501840852603,-0.167866534214,0.208990051173
1589276018723334034,22018,1589276018723246649,,0.501842598473,-0.167840274245,0.20898904809
1589276018728213309,22019,1589276018728069147,,0.50184358678,-0.167816793459,0.208987189254
1589276018731263581,22020,1589276018731084361,,0.501843990195,-0.167796531809,0.208983837273
1589276018734223140,22021,1589276018734061733,,0.50184586801,-0.167769423912,0.208983559082
1589276018740188200,22022,1589276018740072644,,0.501847678889,-0.167739736375,0.208982057955
1589276018743159314,22023,1589276018743042584,,0.501850023389,-0.167711190881,0.208980105747
1589276018746199831,22024,1589276018746050017,,0.501851887229,-0.167683715682,0.208978366339
1589276018752233859,22025,1589276018752105012,,0.501853671874,-0.167658705002,0.208976990543
1589276018755175751,22026,1589276018755099798,,0.501855761762,-0.167632503327,0.208976267855
1589276018758270101,22027,1589276018758092404,,0.501857984863,-0.16760814121,0.208976505654
1589276018761185411,22028,1589276018761075770,,0.501860281197,-0.167584111682,0.20897697844
1589276018767216166,22029,1589276018767015057,,0.501862570644,-0.167557879793,0.208976183363
1589276018770161412,22030,1589276018770032337,,0.501865978882,-0.167534472811,0.208977495378
1589276018776433846,22031,1589276018776340540,,0.501867199795,-0.16751408723,0.20897826172
1589276018779189489,22032,1589276018779074042,,0.501868300986,-0.167495752806,0.208978438356
1589276018788278150,22033,1589276018788118309,,0.501870251177,-0.167459066177,0.208978972501
1589276018791235996,22034,1589276018791071826,,0.501871302301,-0.167439508041,0.2089793209
1589276018794173629,22035,1589276018794060718,,0.501871967107,-0.167422402451,0.208979192918
1589276018800479592,22036,1589276018800369031,,0.501872453968,-0.167406510143,0.208976418918
1589276018803213326,22037,1589276018803066149,,0.50187403103,-0.1673896663,0.208976412681
1589276018806232940,22038,1589276018806079854,,0.501874340787,-0.167375036179,0.208976148751
1589276018812290795,22039,1589276018812148682,,0.5018750648,-0.167362493007,0.208976688146
1589276018815148068,22040,1589276018815045342,,0.501875323998,-0.167351086641,0.208976448313
1589276018818185783,22041,1589276018818078186,,0.501875139195,-0.167336214947,0.208976286988
1589276018824205741,22042,1589276018824088039,,0.501874961372,-0.167323167821,0.208976336684
1589276018827104839,22043,1589276018827017073,,0.501874873303,-0.167311188869,0.208976396595
1589276018830137719,22044,1589276018830034640,,0.501875134493,-0.167296473452,0.208977948739
1589276018836167142,22045,1589276018836047028,,0.501876007016,-0.1672810891,0.208978276845
1589276018839143596,22046,1589276018839058848,,0.501876401386,-0.167267358207,0.208978835015
1589276018845232542,22047,1589276018845068958,,0.501877345877,-0.167253870499,0.208980178331
1589276018848233186,22048,1589276018848140354,,0.501878137494,-0.167240668748,0.208979681355
1589276018851136009,22049,1589276018851049132,,0.501878984984,-0.167229080786,0.208980254277
1589276018854215339,22050,1589276018854084680,,0.501878829644,-0.167217307692,0.208979605878
1589276018860145678,22051,1589276018860044665,,0.501879506584,-0.167203945347,0.208978882016
1589276018863149816,22052,1589276018863001268,,0.501879634031,-0.167190628099,0.208977455463
1589276018869412636,22053,1589276018869337190,,0.501880639303,-0.167176364676,0.20897847191
1589276018872119221,22054,1589276018872008844,,0.50188055386,-0.167162430518,0.20897883359
1589276018875141873,22055,1589276018875052029,,0.501880851553,-0.167149289875,0.208978348887
1589276018881188937,22056,1589276018881051261,,0.501880386927,-0.167135894475,0.208980067357
1589276018884269977,22057,1589276018884090848,,0.501880989986,-0.167122141765,0.208980150509
1589276018887319798,22058,1589276018887103710,,0.501881819719,-0.167110469276,0.208981883372
1589276018893268739,22059,1589276018893070775,,0.501882033388,-0.167098534852,0.208981758696
1589276018896520052,22060,1589276018896422029,,0.501882760067,-0.167084968931,0.208983254645
1589276018899527562,22061,1589276018899406426,,0.50188351434,-0.167072510174,0.208984044509
1589276018908215186,22062,1589276018908069193,,0.501884880124,-0.167045662173,0.208983399858
1589276018911139867,22063,1589276018911055285,,0.501885125387,-0.167032343896,0.208983601995
1589276018917381726,22064,1589276018917189811,,0.501885990192,-0.167019164983,0.208983836005
1589276018920172286,22065,1589276018920073280,,0.501885568084,-0.167006529055,0.208981770324
1589276018923205439,22066,1589276018923094867,,0.501886523199,-0.166994038689,0.208983245713
1589276018929156768,22067,1589276018929052742,,0.501887577731,-0.166981174169,0.208983881859
1589276018932228794,22068,1589276018932085797,,0.501887107242,-0.166971170685,0.20898382029
1589276018935183323,22069,1589276018935062486,,0.501887796617,-0.166960974644,0.208985558092
1589276018941194168,22070,1589276018941057407,,0.501888110556,-0.16694998358,0.20898607882
1589276018944192395,22071,1589276018944106452,,0.501888197022,-0.166939727611,0.20898616537
1589276018947213142,22072,1589276018947110115,,0.501888375342,-0.16693190378,0.208988027392
1589276018953255247,22073,1589276018953111773,,0.501888831722,-0.166920967722,0.2089894299
1589276018956242345,22074,1589276018956073870,,0.501888502289,-0.166910655637,0.208990096445
1589276018959138105,22075,1589276018959057157,,0.501889657276,-0.166902701712,0.208992716567
1589276018965226431,22076,1589276018965047253,,0.501890014089,-0.166892864522,0.208992711892
1589276018968218981,22077,1589276018968069011,,0.501890176283,-0.166884430613,0.208993141704
1589276018971132859,22078,1589276018971037136,,0.501890812789,-0.166876951005,0.208993561741
1589276018977423380,22079,1589276018977217205,,0.501891187711,-0.166869787334,0.208994765025
1589276018980336542,22080,1589276018980180998,,0.501891650156,-0.166861997383,0.20899395433
1589276018983288422,22081,1589276018983129158,,0.5018926396,-0.166855696305,0.208994646163
1589276018989519357,22082,1589276018989386425,,0.50189325945,-0.166847070815,0.208994669979
1589276018992233558,22083,1589276018992118528,,0.501893642804,-0.166839417694,0.208994288575
1589276018995284326,22084,1589276018995162895,,0.501894994664,-0.166832486499,0.208995411848
1589276019001241924,22085,1589276019001115838,,0.501895933663,-0.16682385229,0.208997081416
1589276019004215501,22086,1589276019004069664,,0.501896695537,-0.166817058556,0.208997540084
1589276019010236187,22087,1589276019010150498,,0.50189796098,-0.166810327308,0.208999782561
1589276019013287127,22088,1589276019013109719,,0.501899068666,-0.166801458634,0.209001351044
1589276019016433159,22089,1589276019016322645,,0.501899713091,-0.166796103597,0.209003003815
1589276019025280105,22090,1589276019025122734,,0.501902231955,-0.166781087931,0.209008629064
1589276019028353052,22091,1589276019028187546,,0.501903805294,-0.166772691234,0.209010089026
1589276019034315216,22092,1589276019034108979,,0.501905005742,-0.166764441757,0.209013160417
1589276019037235921,22093,1589276019037131936,,0.501905747057,-0.1667562036,0.209014558506
1589276019043203664,22094,1589276019043081351,,0.501907557213,-0.166748253133,0.20901866821
1589276019046284385,22095,1589276019046104539,,0.501909260121,-0.166740472903,0.209020639044
1589276019050414875,22096,1589276019050286414,,0.501910635823,-0.166733458378,0.209022948363
1589276019055269067,22097,1589276019055130720,,0.501911678134,-0.166727176446,0.209023831038
1589276019058290378,22098,1589276019058157332,,0.501913603374,-0.166719399645,0.209025798468
1589276019061238876,22099,1589276019061139902,,0.501915392813,-0.166712486683,0.209028461652
1589276019064236995,22100,1589276019064094052,,0.501916680276,-0.166707127563,0.209029765031
1589276019070286662,22101,1589276019070190791,,0.501918416836,-0.166700894011,0.209031396249
1589276019073265838,22102,1589276019073125737,,0.501920338263,-0.166693623313,0.209034004502
1589276019076284641,22103,1589276019076122152,,0.501921480638,-0.166687687188,0.209034080199
1589276019082954311,22104,1589276019082860262,,0.501923192403,-0.166681277226,0.209035353927
1589276019085209149,22105,1589276019085113586,,0.501924730271,-0.166676835398,0.209036022302
1589276019091348164,22106,1589276019091179339,,0.501926754412,-0.166670797358,0.209038592353
1589276019094333923,22107,1589276019094194815,,0.501928077936,-0.166663992796,0.209039166873
1589276019097581072,22108,1589276019097403369,,0.501929725258,-0.166659777323,0.209040438352
1589276019100588045,22109,1589276019100463419,,0.501931605482,-0.166653726231,0.209041581258
1589276019106349721,22110,1589276019106168019,,0.501933312052,-0.166647869736,0.209043190224
1589276019109268218,22111,1589276019109139005,,0.501935633919,-0.166641067256,0.209044893489
1589276019115279419,22112,1589276019115148846,,0.501937414214,-0.166635993172,0.20904719139
1589276019118312569,22113,1589276019118149702,,0.50193905428,-0.16663010778,0.209047575235
1589276019121333344,22114,1589276019121157251,,0.501940828257,-0.16662330911,0.209049027354
1589276019124296338,22115,1589276019124181274,,0.501943183043,-0.166615879203,0.209051264863
1589276019130280162,22116,1589276019130121128,,0.501944888099,-0.166610733262,0.209052510158
1589276019133277629,22117,1589276019133145425,,0.501947422999,-0.166604151187,0.209055024053
1589276019139416703,22118,1589276019139211412,,0.501949430215,-0.166598364569,0.209056633441
1589276019145241425,22119,1589276019145097256,,0.501953152398,-0.166586732548,0.209059315199
1589276019148297305,22120,1589276019148144772,,0.501955630266,-0.166581843667,0.209061942876
1589276019154273730,22121,1589276019154149204,,0.501957588269,-0.166575520991,0.209063727443
1589276019157309199,22122,1589276019157171196,,0.501960145931,-0.166571910485,0.209065623922
1589276019163346058,22123,1589276019163205733,,0.501962542677,-0.166565494289,0.209066750132
1589276019166222508,22124,1589276019166094475,,0.501964520487,-0.166559122401,0.209068909996
1589276019169235217,22125,1589276019169111208,,0.501966921004,-0.166555027952,0.209070747398
1589276019175239999,22126,1589276019175132172,,0.501968843559,-0.166551485981,0.209073651047
1589276019178273643,22127,1589276019178119432,,0.501971115551,-0.166544613107,0.20907475878
1589276019181265627,22128,1589276019181147097,,0.501973782053,-0.166542286244,0.209077492427
1589276019187318259,22129,1589276019187181765,,0.501975679732,-0.166535896466,0.209078263697
1589276019190311133,22130,1589276019190140405,,0.501978372887,-0.166532871722,0.209081569603
1589276019193343900,22131,1589276019193167910,,0.501981157488,-0.166528110894,0.209084765238
1589276019199599588,22132,1589276019199509131,,0.501983935846,-0.166523963852,0.209087473007
1589276019205261494,22133,1589276019205162523,,0.501989938605,-0.166517305854,0.209093918773
1589276019211281857,22134,1589276019211171775,,0.501993862545,-0.166513614599,0.209099305751
1589276019214235629,22135,1589276019214136014,,0.501997235013,-0.166509138872,0.209102723753
1589276019217365712,22136,1589276019217186565,,0.502002061017,-0.166507403874,0.209110226024
1589276019223398991,22137,1589276019223186260,,0.502006770366,-0.166503932737,0.209115976972
1589276019226319961,22138,1589276019226181591,,0.502012734417,-0.166500319351,0.209123023065
1589276019232274514,22139,1589276019232143070,,0.502017255503,-0.16649795673,0.209128313504
1589276019235271828,22140,1589276019235183384,,0.502021753633,-0.166494218285,0.209134425439
1589276019238290598,22141,1589276019238135770,,0.502025793846,-0.166491619025,0.209139358451
1589276019241367949,22142,1589276019241172216,,0.502029492155,-0.166488611618,0.209143361804
1589276019247291913,22143,1589276019247189677,,0.502033345071,-0.166486758866,0.209149076419
1589276019250287512,22144,1589276019250178621,,0.502035623229,-0.166483506717,0.209151276041
1589276019256286369,22145,1589276019256187905,,0.502039388126,-0.166480661256,0.209156955306
1589276019259253305,22146,1589276019259146513,,0.502041960969,-0.166479890972,0.209160283189
1589276019265431771,22147,1589276019265173639,,0.502046702102,-0.166472639599,0.209164232927
1589276019271291366,22148,1589276019271146947,,0.502048974754,-0.166472535757,0.209167514445
1589276019274242139,22149,1589276019274103237,,0.502051420416,-0.166471059856,0.209170032961
1589276019280320700,22150,1589276019280161174,,0.50205392758,-0.166468742168,0.209172832551
1589276019283260489,22151,1589276019283167453,,0.502056132259,-0.166467237084,0.209176174645
1589276019286365947,22152,1589276019286200695,,0.502058336737,-0.166464616966,0.209178687323
1589276019292307170,22153,1589276019292212067,,0.502060919376,-0.166463924533,0.209181631406
1589276019295393864,22154,1589276019295278804,,0.502063170517,-0.166462423998,0.209184856452
1589276019298430975,22155,1589276019298321763,,0.502065368112,-0.166460645793,0.209187372987
1589276019304252787,22156,1589276019304140946,,0.502067614753,-0.166459864969,0.209190253223
1589276019307619040,22157,1589276019307167554,,0.502069834107,-0.166457249807,0.209192696151
1589276019310256124,22158,1589276019310153717,,0.502071198187,-0.166454300942,0.209194665857
1589276019316981910,22159,1589276019316874909,,0.50207325919,-0.166452296581,0.209196569494
1589276019319335435,22160,1589276019319187193,,0.502075049061,-0.166450725587,0.2091981978
1589276019328325985,22161,1589276019328241076,,0.502077839753,-0.166445969685,0.209201157036
1589276019331303036,22162,1589276019331168141,,0.502078989165,-0.166442654228,0.209201541157
1589276019334267372,22163,1589276019334112842,,0.502080354325,-0.166439642233,0.209203222958
1589276019340323079,22164,1589276019340221932,,0.502081916583,-0.16643692075,0.209205388941
1589276019343239880,22165,1589276019343139243,,0.502083103197,-0.166435127081,0.209207027194
1589276019346308588,22166,1589276019346194366,,0.502084387155,-0.166429824691,0.209209693041
1589276019352237349,22167,1589276019352151563,,0.502086000945,-0.166427610001,0.209211423593
1589276019355229393,22168,1589276019355117916,,0.502086606256,-0.166425110412,0.209212982803
1589276019358276705,22169,1589276019358189311,,0.502088081993,-0.166420682808,0.209215933748
1589276019364377173,22170,1589276019364163282,,0.502089380294,-0.166415974349,0.209218181736
1589276019367230822,22171,1589276019367156062,,0.502089950975,-0.166413776596,0.209220516261
1589276019370277395,22172,1589276019370157574,,0.502090950431,-0.166409194984,0.209222186646
1589276019376270239,22173,1589276019376176776,,0.502091720063,-0.166405989025,0.20922428799
1589276019379350543,22174,1589276019379231672,,0.502092534769,-0.166403082581,0.209226038076
1589276019383056257,22175,1589276019382956733,,0.502093997732,-0.166399596849,0.209229447114
1589276019388396950,22176,1589276019388225482,,0.502093906335,-0.166396254195,0.209230748116
1589276019394432574,22177,1589276019394211213,,0.502094799472,-0.166393265461,0.209233025117
1589276019397637511,22178,1589276019397462233,,0.502095571709,-0.166388476659,0.209234435744
1589276019400658657,22179,1589276019400546396,,0.502096240879,-0.166385110673,0.209237577407
1589276019403240480,22180,1589276019403138461,,0.502097139497,-0.166380729749,0.20923849106
1589276019406294642,22181,1589276019406208368,,0.502097840698,-0.166376200306,0.209240605959
1589276019412373860,22182,1589276019412190423,,0.502098547414,-0.166370959003,0.209242020998
1589276019415330162,22183,1589276019415202668,,0.502100015026,-0.166365513225,0.209245064782
1589276019421360754,22184,1589276019421237359,,0.502100607429,-0.166359951343,0.209245730291
1589276019424344929,22185,1589276019424180004,,0.502101271788,-0.166355921241,0.209247362554
1589276019427282921,22186,1589276019427158866,,0.502102424959,-0.166350926463,0.209249100324
1589276019433282418,22187,1589276019433184206,,0.50210365749,-0.166344934437,0.209249959022
1589276019436503652,22188,1589276019436403623,,0.502104450873,-0.166339404293,0.209252235303
1589276019439280622,22189,1589276019439185090,,0.502105285369,-0.166333376703,0.209252446708
1589276019445345364,22190,1589276019445187921,,0.502105754541,-0.166330230505,0.209254080056
1589276019448385099,22191,1589276019448200982,,0.502106793996,-0.166326091062,0.209256544728
1589276019451438377,22192,1589276019451226215,,0.502107691643,-0.166321305765,0.209257602539
1589276019457456974,22193,1589276019457264149,,0.502107993924,-0.166318229177,0.209258982467
