%time,field.header.seq,field.header.stamp,field.header.frame_id,field.vector.x,field.vector.y,field.vector.z
1588858433573109278,1892,1588858433572972938,,-0.0811436285813,-0.0183623119867,0.741149944966
1588858433579282767,1893,1588858433579202522,,-0.081200055474,-0.0244451795761,0.741970095893
1588858433585266934,1894,1588858433585163054,,-0.0812638983178,-0.0303513347031,0.742940192494
1588858433591305578,1895,1588858433591168401,,-0.0814512235834,-0.0368729498248,0.743739170512
1588858433597144373,1896,1588858433597054344,,-0.0815335148511,-0.0435094534211,0.744635339414
1588858433603144890,1897,1588858433603003638,,-0.0816579235135,-0.0503440093484,0.745505516396
1588858433609121608,1898,1588858433609046057,,-0.0816994297181,-0.0572439078655,0.746448187287
1588858433615277999,1899,1588858433615142437,,-0.0816663524031,-0.0647882111914,0.747587694502
1588858433621080912,1900,1588858433620994268,,-0.0817489970572,-0.0722202579759,0.748714593119
1588858433627114345,1901,1588858433626957850,,-0.0817849154873,-0.0731271925048,0.748224988436
1588858433633148583,1902,1588858433633011426,,-0.081756082847,-0.0810498016411,0.749742228418
1588858433639087496,1903,1588858433639007256,,-0.0817328426121,-0.0885854911245,0.751171456593
1588858433645082710,1904,1588858433645013072,,-0.0817946101813,-0.0970339695074,0.752606632436
1588858433651086721,1905,1588858433651009797,,-0.0818523018967,-0.105607533345,0.753938878442
1588858433657036818,1906,1588858433656952864,,-0.0817722527522,-0.114118512233,0.755615523353
1588858433663053436,1907,1588858433662967155,,-0.0818002975472,-0.122845403679,0.757368298243
1588858433669172856,1908,1588858433669007535,,-0.0818767360545,-0.132092681758,0.759021438526
1588858433675093138,1909,1588858433675033186,,-0.0819554565342,-0.141857710243,0.760740284362
1588858433681285427,1910,1588858433681215142,,-0.0818886728019,-0.151522029299,0.762741639138
1588858433687165699,1911,1588858433687097246,,-0.0818774809241,-0.161611042474,0.764781648761
1588858433693205287,1912,1588858433693130916,,-0.0818560509013,-0.161948132113,0.764442791314
1588858433699174347,1913,1588858433699094266,,-0.0818247430318,-0.172109575125,0.766652245979
1588858433705164612,1914,1588858433705071310,,-0.0819609503086,-0.182677687047,0.768635462721
1588858433711145387,1915,1588858433711055084,,-0.0818828359051,-0.193719557633,0.771192562866
1588858433714297767,1916,1588858433714222953,,-0.0818537812965,-0.204751852287,0.773393579529
1588858433717518566,1917,1588858433717404950,,-0.081808544982,-0.205164206711,0.772978765374
1588858433723153645,1918,1588858433723009193,,-0.0816941325576,-0.216518510232,0.77555941124
1588858433729054062,1919,1588858433728997722,,-0.0816285644806,-0.228343677104,0.77773079454
1588858433735312191,1920,1588858433735242743,,-0.0815684658616,-0.240328734398,0.780133746633
1588858433741075732,1921,1588858433741016464,,-0.0814918047755,-0.252717860051,0.782674583989
1588858433747297869,1922,1588858433747237638,,-0.081446328864,-0.265220939873,0.78525512107
1588858433751501230,1923,1588858433751347877,,-0.0813507058481,-0.265648473865,0.784803865817
1588858433756118294,1924,1588858433755968283,,-0.0813959204028,-0.278530102169,0.787372472827
1588858433762024966,1925,1588858433761965282,,-0.0814208353167,-0.291690855825,0.789920789682
1588858433768041335,1926,1588858433767979346,,-0.0812372668752,-0.305217715068,0.79297612463
1588858433773994923,1927,1588858433773942767,,-0.0811817658208,-0.318785701097,0.795874635734
1588858433780039954,1928,1588858433779980140,,-0.0810791146095,-0.319307771894,0.795644574872
1588858433786051335,1929,1588858433785998195,,-0.080905089443,-0.333204255471,0.798925773776
1588858433792142505,1930,1588858433792073198,,-0.0809863063923,-0.347590093056,0.801806952741
1588858433797976477,1931,1588858433797926568,,-0.0808068655628,-0.361954698776,0.805223762407
1588858433804021107,1932,1588858433803909485,,-0.0807638302783,-0.376748705528,0.808395286999
1588858433810189982,1933,1588858433810127163,,-0.0807955765105,-0.392129996264,0.811651872683
1588858433813575035,1934,1588858433813496072,,-0.0806749479791,-0.392367946207,0.811393192868
1588858433816523923,1935,1588858433816455236,,-0.0805989224041,-0.407891041263,0.814714144843
1588858433822007247,1936,1588858433821948424,,-0.0804753283466,-0.42355605141,0.818176971513
1588858433828039165,1937,1588858433827965510,,-0.0803666219168,-0.439509557316,0.821495063107
1588858433834054132,1938,1588858433833978685,,-0.0802665446101,-0.455893573501,0.825158584204
1588858433840304135,1939,1588858433840192560,,-0.0802003574799,-0.456353730452,0.824686387093
1588858433846192220,1940,1588858433846108722,,-0.0800334869387,-0.472904009381,0.828280996455
1588858433852199049,1941,1588858433852062295,,-0.0797993983043,-0.489906365225,0.832331165891
1588858433858273869,1942,1588858433858199464,,-0.0796679983998,-0.506807502775,0.836162529488
1588858433864081113,1943,1588858433863997893,,-0.0796729538561,-0.524129149407,0.839909830748
1588858433870370232,1944,1588858433870286036,,-0.0794216184629,-0.541942155337,0.844065376544
1588858433876064175,1945,1588858433875974551,,-0.0792400347172,-0.559741554384,0.848347457879
1588858433882312286,1946,1588858433882232392,,-0.0790394684769,-0.577660821778,0.852662221203
1588858433888308619,1947,1588858433888243327,,-0.0789381242897,-0.596115427228,0.856842888244
1588858433894325537,1948,1588858433894206650,,-0.0788131891968,-0.61467246812,0.861325165323
1588858433900516967,1949,1588858433900408047,,-0.0786483430243,-0.629831257651,0.864975988054
1588858433906586028,1950,1588858433906470838,,-0.0785242406311,-0.633800882646,0.865692471208
1588858433912659269,1951,1588858433912501264,,-0.0783402704997,-0.65281089653,0.870302155131
1588858433915640788,1952,1588858433915522944,,-0.0781766149633,-0.671875586956,0.874694451797
1588858433921474231,1953,1588858433921390802,,-0.0780739687071,-0.691070209134,0.879513524361
1588858433927584694,1954,1588858433927496710,,-0.0779487503457,-0.710652711975,0.884068564773
1588858433933532766,1955,1588858433933401391,,-0.0777936768781,-0.710916211349,0.884006796734
1588858433939481876,1956,1588858433939396608,,-0.0777080954965,-0.730215969105,0.888784901343
1588858433945491026,1957,1588858433945390042,,-0.0776586897944,-0.750274966247,0.893294338675
1588858433951589002,1958,1588858433951461498,,-0.0775122762275,-0.770309512893,0.898098369566
1588858433957401685,1959,1588858433957298384,,-0.0774929484659,-0.790521059885,0.903111545435
1588858433963577546,1960,1588858433963478742,,-0.0773151835234,-0.811272196868,0.907999709517
1588858433969462682,1961,1588858433969362885,,-0.07722175457,-0.831543258579,0.913099132766
1588858433975520802,1962,1588858433975438202,,-0.0771286073401,-0.852486573715,0.91807703336
1588858433981387582,1963,1588858433981288261,,-0.0769935416628,-0.873537883402,0.923284287239
1588858433987566311,1964,1588858433987440052,,-0.0769084031948,-0.894539570578,0.92840854499
1588858433993433612,1965,1588858433993360680,,-0.0768464939228,-0.894436899219,0.928066363475
1588858433999466344,1966,1588858433999335474,,-0.0767282840975,-0.915801275486,0.933435791182
1588858434005374116,1967,1588858434005299633,,-0.0767052766202,-0.936960352623,0.938648775144
1588858434011484389,1968,1588858434011349390,,-0.0765178957977,-0.958736449269,0.944006215289
1588858434014554185,1969,1588858434014476522,,-0.0764339253988,-0.980680432997,0.949366660461
1588858434017688509,1970,1588858434017615174,,-0.0762795103943,-0.979959835857,0.94919760767
1588858434023845731,1971,1588858434023749037,,-0.0761175416158,-1.00193259193,0.954590950163
1588858434029474937,1972,1588858434029356903,,-0.0759938428489,-1.02412813292,0.960012180193
1588858434035471177,1973,1588858434035390455,,-0.0758984657955,-1.046286292,0.965459833916
1588858434041461745,1974,1588858434041372869,,-0.0756927168752,-1.06849024585,0.970926919727
1588858434047335869,1975,1588858434047258328,,-0.075461140252,-1.08543576186,0.97505652688
1588858434053225945,1976,1588858434053125514,,-0.0751603048732,-1.09016921244,0.976221073748
1588858434059217362,1977,1588858434059143828,,-0.0748314220144,-1.11255019064,0.98198633194
1588858434065221345,1978,1588858434065138324,,-0.0744471621263,-1.13477698265,0.987318287599
1588858434071316400,1979,1588858434071183664,,-0.074080247281,-1.15721081844,0.993130010057
1588858434077241533,1980,1588858434077166416,,-0.0735871529131,-1.17983108591,0.999046490956
1588858434083296774,1981,1588858434083142180,,-0.0733192352004,-1.20260139702,1.00457778387
1588858434089280145,1982,1588858434089169579,,-0.0729767886169,-1.22561450704,1.01012959395
1588858434095296814,1983,1588858434095223568,,-0.0727889895677,-1.24924689534,1.01578239345
1588858434101229550,1984,1588858434101147803,,-0.0724002096996,-1.27242508768,1.02155828127
1588858434107444074,1985,1588858434107376716,,-0.072096425601,-1.29603896711,1.02739528588
1588858434113896946,1986,1588858434113820960,,-0.0718405881926,-1.31968238066,1.03299941311
1588858434116747503,1987,1588858434116665847,,-0.0715862871624,-1.31717919656,1.03216684905
1588858434122524856,1988,1588858434122450528,,-0.0716407948844,-1.33972548677,1.03717049716
1588858434128493508,1989,1588858434128338677,,-0.0714848993702,-1.36300391908,1.04248618916
1588858434134325288,1990,1588858434134272732,,-0.0711845995939,-1.38693562348,1.04822373905
1588858434140760044,1991,1588858434140667385,,-0.0710559473859,-1.41127597762,1.05403449103
1588858434146463911,1992,1588858434146412207,,-0.0707509143546,-1.40960281013,1.05349014954
1588858434152564440,1993,1588858434152500093,,-0.0706728261254,-1.43413778156,1.05928887069
1588858434158554736,1994,1588858434158460590,,-0.0703973859501,-1.45887270562,1.06538251093
1588858434164499044,1995,1588858434164433414,,-0.0702622592817,-1.48413256965,1.07146202767
1588858434170172835,1996,1588858434170075065,,-0.0699704947271,-1.50923068384,1.07769335193
1588858434176505432,1997,1588858434176386838,,-0.0697711073133,-1.53459302108,1.08391009019
1588858434182345898,1998,1588858434182277451,,-0.0696419977623,-1.56032885883,1.09028937786
1588858434188392464,1999,1588858434188309296,,-0.0694761670405,-1.58624210311,1.09655119669
1588858434194698565,2000,1588858434194531272,,-0.0694063140831,-1.61230338474,1.10271899603
1588858434200728796,2001,1588858434200638875,,-0.0692957571051,-1.63858525484,1.10912374962
1588858434206229138,2002,1588858434206137353,,-0.0690613566978,-1.63753210297,1.10878419641
1588858434212679259,2003,1588858434212493298,,-0.0690266439034,-1.66389661165,1.11500722973
1588858434215520186,2004,1588858434215442974,,-0.0688377886101,-1.69045682182,1.12137880727
1588858434221396798,2005,1588858434221324402,,-0.068725299444,-1.7171341472,1.12763930484
1588858434227575190,2006,1588858434227508075,,-0.0685355792781,-1.74418496515,1.13404155144
1588858434233553935,2007,1588858434233458682,,-0.0684701224576,-1.7428996485,1.13342287592
1588858434239495327,2008,1588858434239381423,,-0.0682539202862,-1.7696170492,1.1398899501
1588858434245536644,2009,1588858434245462378,,-0.0681599970696,-1.79659502626,1.14618972331
1588858434251290697,2010,1588858434251169389,,-0.0680437944662,-1.82380068212,1.15260315858
1588858434257250394,2011,1588858434257150152,,-0.0679382435305,-1.8510240346,1.15907302116
1588858434263274576,2012,1588858434263191882,,-0.0678388486124,-1.87839589596,1.16544616339
1588858434269655197,2013,1588858434269552024,,-0.0678587031715,-1.90596889334,1.17192185075
1588858434275601202,2014,1588858434275507116,,-0.0679553856065,-1.93353495572,1.17820299488
1588858434281612242,2015,1588858434281510437,,-0.0679170845063,-1.96129966829,1.18473642467
1588858434293315855,2016,1588858434293151483,,-0.0680262702478,-1.98794709414,1.19036454616
1588858434299266233,2017,1588858434299181289,,-0.0678955205388,-2.01638066383,1.19717234259
1588858434305660933,2018,1588858434305497094,,-0.0680529374481,-2.04530966025,1.20358791361
1588858434311662474,2019,1588858434311559447,,-0.0679956765737,-2.0736425488,1.2102307304
1588858434314845246,2020,1588858434314674151,,-0.0682592745262,-2.103055277,1.21640905192
1588858434318000976,2021,1588858434317862169,,-0.0683223422118,-2.10198599636,1.2155172544
1588858434323631650,2022,1588858434323512267,,-0.0684058769165,-2.13107216021,1.22222810381
1588858434329671270,2023,1588858434329578024,,-0.0683270060883,-2.1601803166,1.22911037141
1588858434335573205,2024,1588858434335448765,,-0.0684647390674,-2.18935037745,1.23560004473
1588858434341481133,2025,1588858434341409363,,-0.0685109114699,-2.21866669824,1.24242495951
1588858434347699620,2026,1588858434347614035,,-0.0686872797366,-2.24837510614,1.24899563097
1588858434353671793,2027,1588858434353564740,,-0.0687114001052,-2.26600404521,1.25282849257
1588858434359701712,2028,1588858434359546936,,-0.0688329999442,-2.27626728789,1.25486945842
1588858434365636031,2029,1588858434365512761,,-0.0690340336794,-2.3058214605,1.2613522968
1588858434371750614,2030,1588858434371616601,,-0.0691394069704,-2.33536848458,1.26805098462
1588858434377827577,2031,1588858434377728726,,-0.0691218865106,-2.36505797005,1.27484187222
1588858434383576529,2032,1588858434383482016,,-0.0692962297222,-2.3951657064,1.28161414248
1588858434389584840,2033,1588858434389487190,,-0.0692311556941,-2.42510401824,1.28853619079
1588858434395586461,2034,1588858434395468161,,-0.0691753455758,-2.45522263916,1.29554968898
1588858434401477672,2035,1588858434401381410,,-0.0692265000837,-2.48552580037,1.30249921533
1588858434407657131,2036,1588858434407584259,,-0.0691709680302,-2.51604214717,1.30961719206
1588858434414223183,2037,1588858434414149133,,-0.0690591408785,-2.54627835568,1.31673404977
1588858434416912981,2038,1588858434416843714,,-0.0690013803607,-2.54483002059,1.31591353105
1588858434422625710,2039,1588858434422459405,,-0.0689170938621,-2.57560312521,1.32321865538
1588858434428592225,2040,1588858434428488930,,-0.0687921580707,-2.60611970338,1.33058718698
1588858434434548647,2041,1588858434434464417,,-0.068685857896,-2.63679651536,1.33777745863
1588858434440837309,2042,1588858434440709989,,-0.0685656995405,-2.66746358452,1.3451671132
1588858434446720034,2043,1588858434446612504,,-0.068502759003,-2.665811909,1.34439582301
1588858434452659439,2044,1588858434452506637,,-0.0685372684738,-2.69631268222,1.35140698487
1588858434458659812,2045,1588858434458576307,,-0.0685719730092,-2.72691030833,1.35849977315
1588858434464615140,2046,1588858434464514952,,-0.0684930949236,-2.75777424756,1.36585147422
1588858434470564107,2047,1588858434470454088,,-0.0686072767833,-2.78830236129,1.37272521566
1588858434476568946,2048,1588858434476433620,,-0.0686313216743,-2.81936753683,1.37998904602
1588858434482496853,2049,1588858434482392036,,-0.0684474285712,-2.8498622632,1.38735365209
1588858434488585368,2050,1588858434488464527,,-0.0685302190023,-2.8811056331,1.39451323107
1588858434494734636,2051,1588858434494594415,,-0.068459841445,-2.91203036591,1.40184818657
1588858434500507219,2052,1588858434500427496,,-0.0684810087215,-2.94323506823,1.40904130647
1588858434506530558,2053,1588858434506433199,,-0.0684191621848,-2.94111548538,1.40830895247
1588858434512523019,2054,1588858434512434420,,-0.0683977839909,-2.97213457622,1.41555739083
1588858434518633067,2055,1588858434518480437,,-0.0683047080182,-3.0034346837,1.42285978994
1588858434524649947,2056,1588858434524533461,,-0.0683142148642,-3.03458486773,1.43027745751
1588858434530694223,2057,1588858434530547321,,-0.0682494089537,-3.06606743472,1.43790668749
1588858434536685093,2058,1588858434536582405,,-0.0682431080946,-3.09775384424,1.44523595047
1588858434542677877,2059,1588858434542594535,,-0.0680549078107,-3.12914473896,1.4529031363
1588858434548685960,2060,1588858434548518095,,-0.0678151220119,-3.16075644759,1.46063604581
1588858434554688875,2061,1588858434554596206,,-0.0676285855844,-3.192291523,1.46827418896
1588858434560784239,2062,1588858434560684742,,-0.0674281726072,-3.22407412711,1.47597032011
1588858434566752116,2063,1588858434566630218,,-0.0674242954782,-3.22239644113,1.47518338544
1588858434572798508,2064,1588858434572676330,,-0.0672955111,-3.25393406897,1.48275380553
1588858434578692367,2065,1588858434578581008,,-0.0671659397144,-3.28568223183,1.49046869833
1588858434584627640,2066,1588858434584491411,,-0.0671331194427,-3.31740314051,1.49789763366
1588858434590754350,2067,1588858434590619939,,-0.0671616011341,-3.34946610368,1.50554063958
1588858434596781595,2068,1588858434596663377,,-0.0669903852731,-3.38120956291,1.51332968685
1588858434602743955,2069,1588858434602615297,,-0.0670810212717,-3.4129428429,1.52067262227
1588858434608823707,2070,1588858434608698115,,-0.0667664734676,-3.44484425504,1.52860805811
1588858434614784075,2071,1588858434614682942,,-0.0666680698946,-3.4767979121,1.53619658227
1588858434617828631,2072,1588858434617738376,,-0.0664749824682,-3.47463041668,1.53558993769
1588858434623553368,2073,1588858434623460090,,-0.0661842856615,-3.50634596945,1.54328987702
1588858434629577944,2074,1588858434629497240,,-0.0660392895015,-3.53822025113,1.55084613335
1588858434635517014,2075,1588858434635426304,,-0.0658926994599,-3.56963852788,1.55859234786
1588858434641503173,2076,1588858434641400726,,-0.0657649448021,-3.6017611194,1.56621155669
1588858434653498536,2077,1588858434653364698,,-0.0655442817664,-3.63067703097,1.57290139275
1588858434659864746,2078,1588858434659698203,,-0.0654077974871,-3.66232833259,1.58061185037
1588858434665647113,2079,1588858434665532037,,-0.0652200460928,-3.69396682798,1.58823932935
1588858434671680392,2080,1588858434671521278,,-0.0649900245746,-3.72549974578,1.59624268308
1588858434677641879,2081,1588858434677525579,,-0.0648765856546,-3.75715854978,1.60377293667
1588858434683623512,2082,1588858434683527186,,-0.0647101470737,-3.78878975549,1.61150514118
1588858434689960716,2083,1588858434689805153,,-0.064546795835,-3.82028425076,1.6191392252
1588858434695573508,2084,1588858434695487623,,-0.0642765665459,-3.85193597127,1.62703047761
1588858434701580781,2085,1588858434701493256,,-0.0642247752469,-3.88360734059,1.63486138305
1588858434714122981,2086,1588858434714026538,,-0.0642090702184,-3.92865702144,1.64574746677
1588858434716802402,2087,1588858434716705578,,-0.0642090765315,-3.94458388934,1.64945594884
1588858434722628105,2088,1588858434722483709,,-0.0640940945687,-3.97572205741,1.65761428992
1588858434728542530,2089,1588858434728460499,,-0.064000107146,-4.00788603029,1.66589656683
1588858434734760780,2090,1588858434734591958,,-0.0638890329106,-4.04021912396,1.67418529286
1588858434740685717,2091,1588858434740583034,,-0.0637763303441,-4.05350343636,1.67795484648
1588858434746638096,2092,1588858434746534509,,-0.0637033801625,-4.06961623234,1.68222819121
1588858434753129172,2093,1588858434752914236,,-0.06354661705,-4.10165249629,1.69058484813
1588858434758271870,2094,1588858434758189431,,-0.0634734912467,-4.13330892968,1.69899609974
1588858434764641303,2095,1588858434764551789,,-0.0633961148647,-4.16486723666,1.7070928272
1588858434770718808,2096,1588858434770610939,,-0.063322408864,-4.19663370114,1.71530260274
1588858434776717103,2097,1588858434776578407,,-0.0633173248883,-4.22846305984,1.72324810371
1588858434782605415,2098,1588858434782524840,,-0.0634956536603,-4.26007705138,1.73146536687
1588858434788688643,2099,1588858434788571399,,-0.0633740878599,-4.29138012906,1.73855346337
1588858434794754565,2100,1588858434794608709,,-0.0631922436426,-4.31938016346,1.74436339463
1588858434800836237,2101,1588858434800726515,,-0.0635876768798,-4.35091163259,1.7516920578
1588858434806669890,2102,1588858434806505488,,-0.0642402766213,-4.3445633101,1.74842038466
1588858434812570198,2103,1588858434812490175,,-0.0642277488214,-4.37570854049,1.75588262368
1588858434818443675,2104,1588858434818372998,,-0.0636855259755,-4.40489305514,1.76324786193
1588858434824600494,2105,1588858434824477942,,-0.0634786833959,-4.43723534985,1.77160152209
1588858434830450050,2106,1588858434830281897,,-0.0626730671595,-4.46662072053,1.77958986243
1588858434836422388,2107,1588858434836325142,,-0.0622347503169,-4.49838404867,1.7877185241
1588858434842349588,2108,1588858434842227741,,-0.061619758458,-4.526397018,1.79496622191
1588858434848242130,2109,1588858434848134415,,-0.0616869842836,-4.55732277999,1.80224813991
1588858434854379085,2110,1588858434854301395,,-0.0615907197182,-4.58755319643,1.80961970785
1588858434860415394,2111,1588858434860262107,,-0.0613922110896,-4.5830095862,1.8077878348
1588858434866497190,2112,1588858434866400679,,-0.0613686403372,-4.60721532322,1.81215272795
1588858434872365168,2113,1588858434872278656,,-0.0612757682571,-4.63608331485,1.81872381074
1588858434878386932,2114,1588858434878314020,,-0.061187460796,-4.65831547325,1.82346632771
1588858434884561700,2115,1588858434884414374,,-0.0609250001936,-4.68691782491,1.83032794526
1588858434890711839,2116,1588858434890591115,,-0.0602266763537,-4.71025097678,1.83568683984
1588858434896706931,2117,1588858434896609386,,-0.0600918910737,-4.73945557406,1.84258706693
1588858434902446285,2118,1588858434902362976,,-0.0596138016331,-4.76303147347,1.84786505052
1588858434908712970,2119,1588858434908605810,,-0.0593423947337,-4.79186027326,1.85482818871
1588858434914928601,2120,1588858434914850354,,-0.0590424017218,-4.81614785939,1.85995916647
1588858434917941654,2121,1588858434917842885,,-0.0591000572525,-4.81171143702,1.85792095839
1588858434923623699,2122,1588858434923499583,,-0.0587922487815,-4.83650285889,1.86269592688
1588858434929617107,2123,1588858434929527387,,-0.058510366755,-4.86593613947,1.86947917913
1588858434935574695,2124,1588858434935501104,,-0.0584302801552,-4.89501744861,1.87600245078
1588858434941666525,2125,1588858434941535438,,-0.0582285377813,-4.91852457123,1.88067485674
1588858434953921943,2126,1588858434953830074,,-0.0574120833064,-4.96996034075,1.89251156168
1588858434959783762,2127,1588858434959680511,,-0.0572708341548,-4.96366201223,1.89066271892
1588858434965600793,2128,1588858434965510699,,-0.0566684983755,-4.98572198433,1.89594078516
1588858434971667210,2129,1588858434971578537,,-0.0561535353536,-5.00670883186,1.90091815277
1588858434977773667,2130,1588858434977699022,,-0.055911337454,-5.03431974422,1.90762285091
1588858434983754006,2131,1588858434983614927,,-0.0554891856045,-5.0624841037,1.91432366581
1588858434989678370,2132,1588858434989591224,,-0.0553220989064,-5.0842390301,1.91859488273
1588858434995566380,2133,1588858434995467531,,-0.0545575418559,-5.10590280346,1.923704607
1588858435001679168,2134,1588858435001597055,,-0.0544681689892,-5.13411645897,1.93020562523
1588858435014039883,2135,1588858435013909190,,-0.0540356222199,-5.15165332274,1.93373858867
1588858435016648599,2136,1588858435016582703,,-0.0539676341111,-5.17978001064,1.9400683704
1588858435022468970,2137,1588858435022355861,,-0.0532592976965,-5.20181090319,1.94508817234
1588858435028700747,2138,1588858435028559708,,-0.0530838502428,-5.22896996977,1.95163030162
1588858435034585065,2139,1588858435034502794,,-0.0525566647605,-5.25046898001,1.95626245536
1588858435040775169,2140,1588858435040696764,,-0.0525620613982,-5.27708418415,1.96209976623
1588858435046712837,2141,1588858435046600367,,-0.0520470900229,-5.26355104211,1.95865313829
1588858435052907602,2142,1588858435052767707,,-0.0519761735934,-5.28964930312,1.96523611364
1588858435058805133,2143,1588858435058674428,,-0.0519719098593,-5.31539909357,1.9716452214
1588858435064788189,2144,1588858435064667780,,-0.0519577034955,-5.34095638004,1.9780353924
1588858435070717583,2145,1588858435070621415,,-0.0515687841459,-5.35925282495,1.98254280707
1588858435076805271,2146,1588858435076672474,,-0.0514424723822,-5.37809133064,1.98652401861
1588858435082809499,2147,1588858435082668520,,-0.0509959159464,-5.40377803604,1.99324547004
1588858435088732175,2148,1588858435088642055,,-0.0510877950526,-5.43001677133,1.99939344851
1588858435094831343,2149,1588858435094745203,,-0.0507213350749,-5.44839969125,2.00455381166
1588858435100842217,2150,1588858435100712489,,-0.0507847017379,-5.43578569145,2.00117676417
1588858435106705530,2151,1588858435106633194,,-0.0505326155525,-5.46368107998,2.008150656
1588858435112584850,2152,1588858435112466444,,-0.0506687643133,-5.49138120764,2.01459089434
1588858435118939506,2153,1588858435118787977,,-0.0502646436234,-5.51170396794,2.01912596449
1588858435124871517,2154,1588858435124673619,,-0.0500620026608,-5.53282591886,2.02428620996
1588858435130725764,2155,1588858435130626316,,-0.0501470332111,-5.55747031541,2.03015248413
1588858435136758817,2156,1588858435136606168,,-0.0499601419487,-5.5829573498,2.03697064649
1588858435142824115,2157,1588858435142724706,,-0.0497692178429,-5.6035062617,2.04252541417
1588858435148657483,2158,1588858435148555286,,-0.0497228550704,-5.62386399086,2.04751029065
1588858435154928108,2159,1588858435154766266,,-0.0496085472452,-5.64948115008,2.05421937696
1588858435160829499,2160,1588858435160696013,,-0.0495531683193,-5.64281334217,2.05277246478
1588858435166639658,2161,1588858435166534535,,-0.0493279501454,-5.66770801696,2.05955555847
1588858435172680360,2162,1588858435172589584,,-0.0491340456074,-5.68982141939,2.0655277342
1588858435178733440,2163,1588858435178649863,,-0.0490103170859,-5.71388674033,2.07175608558
1588858435184728053,2164,1588858435184638949,,-0.0489555080439,-5.73430476766,2.07727336505
1588858435190701043,2165,1588858435190598763,,-0.0487142199167,-5.75812254336,2.08376686876
1588858435196826680,2166,1588858435196668627,,-0.0485097894718,-5.78262607423,2.09015734672
1588858435202605458,2167,1588858435202512490,,-0.0485136751987,-5.80227368091,2.09511385191
1588858435208601312,2168,1588858435208498522,,-0.0486831073904,-5.8216001601,2.09953787115
1588858435214964836,2169,1588858435214868680,,-0.0485669676937,-5.84641458762,2.10608287591
1588858435217955603,2170,1588858435217831239,,-0.0486214036388,-5.83375356822,2.10328434308
1588858435223790715,2171,1588858435223618031,,-0.0485401547735,-5.85698709967,2.10941429765
1588858435229767822,2172,1588858435229604769,,-0.0484262576363,-5.88035122136,2.11545183671
1588858435235731591,2173,1588858435235644258,,-0.0481069947145,-5.89561683927,2.12002570349
1588858435241696789,2174,1588858435241538196,,-0.0479380310242,-5.910826691,2.12464098054
1588858435248102160,2175,1588858435248013913,,-0.0479640271904,-5.93309901535,2.13100328655
1588858435253922961,2176,1588858435253780398,,-0.0478863818867,-5.92374972883,2.12920807614
1588858435259777515,2177,1588858435259681919,,-0.0475801979077,-5.93845245399,2.13367787722
1588858435265712592,2178,1588858435265618745,,-0.0477522921557,-5.95938736006,2.13910379829
1588858435271851643,2179,1588858435271723864,,-0.0473670314095,-5.97243106489,2.14340104537
1588858435277838563,2180,1588858435277710617,,-0.0473408010553,-5.99378540221,2.14904140153
1588858435283768497,2181,1588858435283660024,,-0.0474318726762,-6.00648866946,2.15266989229
1588858435289613450,2182,1588858435289521712,,-0.0473378949407,-6.0272640758,2.15817304512
1588858435295862407,2183,1588858435295744652,,-0.0471580236804,-6.04089395531,2.16232045956
1588858435301868624,2184,1588858435301761026,,-0.0471023851661,-6.06193415176,2.16809395127
1588858435314633967,2185,1588858435314490607,,-0.0469254369315,-6.09541536218,2.17793388094
1588858435319795389,2186,1588858435319678065,,-0.0468004330362,-6.07844516552,2.17480658659
1588858435326018231,2187,1588858435325866756,,-0.0465973388509,-6.09929901671,2.18066750581
1588858435331864162,2188,1588858435331762029,,-0.0465670802627,-6.12003390711,2.18614846101
1588858435337858110,2189,1588858435337719280,,-0.0463682768473,-6.13081453774,2.19008068809
1588858435343732732,2190,1588858435343641715,,-0.0460388055726,-6.14265075591,2.19382259719
1588858435349707125,2191,1588858435349626549,,-0.0461221811807,-6.16235189046,2.1993082162
1588858435355784738,2192,1588858435355633674,,-0.0462624876731,-6.1816386589,2.2048263227
1588858435361699946,2193,1588858435361616079,,-0.0459946873604,-6.20136882349,2.21069741837
1588858435368212054,2194,1588858435368066105,,-0.0460818761317,-6.21259822114,2.21484818678
1588858435373680146,2195,1588858435373589244,,-0.0461619174404,-6.20498521577,2.21303518518
1588858435379985386,2196,1588858435379859339,,-0.0459985735538,-6.21685607206,2.21764988296
1588858435386077392,2197,1588858435385932627,,-0.0457813811415,-6.23620150531,2.22338365751
1588858435391946164,2198,1588858435391855218,,-0.0457531441647,-6.24840008626,2.22705977876
1588858435397980097,2199,1588858435397860644,,-0.0456436536722,-6.26758288128,2.2328422721
1588858435404054543,2200,1588858435403853967,,-0.0452731896479,-6.27686279547,2.23650390063
1588858435409938615,2201,1588858435409815591,,-0.0452978765565,-6.29647047356,2.24152279964
1588858435416160757,2202,1588858435415972194,,-0.04519865697,-6.30773845215,2.24617907414
1588858435421764913,2203,1588858435421634455,,-0.0450455899962,-6.32421876625,2.25117556333
1588858435433869523,2204,1588858435433633728,,-0.0446847940684,-6.32474026879,2.25397549585
1588858435439861585,2205,1588858435439733029,,-0.0442955935485,-6.33403567899,2.25826890101
1588858435445884107,2206,1588858435445763016,,-0.0443748007472,-6.35182747462,2.26353404474
1588858435451781719,2207,1588858435451686944,,-0.0440939408124,-6.36189812474,2.26733271468
1588858435457792651,2208,1588858435457615720,,-0.0440656023487,-6.37985947616,2.27273013403
1588858435463584560,2209,1588858435463445273,,-0.0438021672246,-6.39636189865,2.27829830229
1588858435469492776,2210,1588858435469415866,,-0.0437743477048,-6.40617167559,2.2818862704
1588858435475785149,2211,1588858435475681809,,-0.0438446367788,-6.42517445748,2.28693471133
1588858435481642204,2212,1588858435481534741,,-0.0436211531574,-6.44207109911,2.29235650757
1588858435493560353,2213,1588858435493408606,,-0.0434694901887,-6.43450125168,2.29327604718
1588858435499654460,2214,1588858435499586078,,-0.0436308592329,-6.45132994251,2.29782581276
1588858435505651409,2215,1588858435505537643,,-0.0435192996885,-6.46813314622,2.30291918968
1588858435511786220,2216,1588858435511659339,,-0.0436070440978,-6.47757354523,2.30629423875
1588858435517809554,2217,1588858435517726521,,-0.0435878593541,-6.49302781381,2.3108993362
1588858435523513997,2218,1588858435523434295,,-0.0436992097362,-6.50072825322,2.31399697874
1588858435529436666,2219,1588858435529365041,,-0.0437522994707,-6.51568914517,2.3185653695
1588858435535551072,2220,1588858435535438462,,-0.0436744586959,-6.52209864571,2.32182877658
1588858435541464453,2221,1588858435541377051,,-0.0437663121695,-6.53679356856,2.32659982117
1588858435550495373,2222,1588858435550412145,,-0.0437012715076,-6.53294063895,2.32802031927
1588858435556531241,2223,1588858435556445483,,-0.0436965502821,-6.53786689653,2.33082099946
1588858435562459602,2224,1588858435562386567,,-0.0437179015509,-6.55174119192,2.33524756872
1588858435568495683,2225,1588858435568409746,,-0.0437295291911,-6.55633774368,2.33834142724
1588858435574647862,2226,1588858435574576835,,-0.0439210990901,-6.56955202898,2.34249238888
1588858435580893831,2227,1588858435580698907,,-0.0438749539067,-6.55058399325,2.33969252738
1588858435586881305,2228,1588858435586750747,,-0.0441344580635,-6.56402314912,2.34359828048
1588858435592667046,2229,1588858435592591728,,-0.0440482120964,-6.56764296763,2.34633993554
1588858435598683683,2230,1588858435598577554,,-0.044346860978,-6.58074254019,2.35019644852
1588858435604558940,2231,1588858435604466499,,-0.0443664434813,-6.58399832872,2.35305698242
1588858435610591737,2232,1588858435610513294,,-0.0446113784815,-6.59603437736,2.35679887173
1588858435619517846,2233,1588858435619442859,,-0.0446219974352,-6.58989964017,2.35812693925
1588858435625543339,2234,1588858435625466174,,-0.0443832430565,-6.59194830405,2.36094028659
1588858435631525654,2235,1588858435631456549,,-0.0445005293684,-6.60367134533,2.36412694442
1588858435637514508,2236,1588858435637438671,,-0.0446974078981,-6.60479533994,2.36621496136
1588858435643725726,2237,1588858435643570144,,-0.0450014888487,-6.61522389752,2.36963288149
1588858435649590599,2238,1588858435649533184,,-0.0452915909231,-6.61590043079,2.37182080529
1588858435655613404,2239,1588858435655521417,,-0.0456140345832,-6.62672490189,2.37439786453
1588858435661646700,2240,1588858435661584067,,-0.0455838954324,-6.63715719056,2.37789721631
1588858435673894647,2241,1588858435673815167,,-0.0457139166216,-6.62253161115,2.37727736351
1588858435679380143,2242,1588858435679286153,,-0.0460737154703,-6.63747965386,2.38186876814
1588858435685528326,2243,1588858435685441558,,-0.0461155107483,-6.63781328779,2.38460218913
1588858435691907688,2244,1588858435691781958,,-0.0462848000528,-6.6477606783,2.38797252566
1588858435697721919,2245,1588858435697647829,,-0.0460430424703,-6.64858194017,2.39075330712
1588858435703585432,2246,1588858435703485037,,-0.0459462592373,-6.65840942295,2.39463737928
1588858435709574791,2247,1588858435709438674,,-0.0461248958319,-6.65965089306,2.39690776811
1588858435715963860,2248,1588858435715873241,,-0.0461585099339,-6.66928134977,2.399937897
1588858435721409714,2249,1588858435721338891,,-0.0464442925323,-6.6705012266,2.40190100346
1588858435727800702,2250,1588858435727712998,,-0.0465402524862,-6.67945648765,2.40495809544
1588858435733853597,2251,1588858435733726949,,-0.0465803040354,-6.6622424132,2.40236504543
1588858435739811778,2252,1588858435739701600,,-0.04641586905,-6.67092598773,2.40572897619
1588858435745751739,2253,1588858435745661438,,-0.0464153505832,-6.67955853536,2.40874376931
1588858435751809468,2254,1588858435751689435,,-0.0464456247952,-6.67905973241,2.41051280364
1588858435757732540,2255,1588858435757617851,,-0.0464672012958,-6.67784232677,2.41251382327
1588858435763277646,2256,1588858435763210376,,-0.0464896761533,-6.68549858135,2.4157506846
1588858435769417922,2257,1588858435769357486,,-0.0465055771012,-6.68634405865,2.41791459284
1588858435775287632,2258,1588858435775220972,,-0.0467219991193,-6.69642627811,2.42114526241
1588858435781360199,2259,1588858435781284249,,-0.0467136679854,-6.69525528248,2.42297233682
1588858435787855031,2260,1588858435787802465,,-0.0468547191664,-6.70620301467,2.42590791461
1588858435793769406,2261,1588858435793661308,,-0.0470603421472,-6.68818908002,2.42350510955
1588858435799826685,2262,1588858435799719868,,-0.047222214997,-6.69755769607,2.42607173725
1588858435805775669,2263,1588858435805695527,,-0.0475709410866,-6.70119936894,2.42771692451
1588858435811864134,2264,1588858435811782398,,-0.047827523051,-6.71059652289,2.4307292635
1588858435818166159,2265,1588858435818072992,,-0.0478811024574,-6.71925080187,2.43374896601
1588858435823849215,2266,1588858435823757967,,-0.0478753603641,-6.72052105844,2.43595790334
1588858435829881282,2267,1588858435829723999,,-0.048148019401,-6.72061134887,2.43784224794
1588858435835846083,2268,1588858435835758051,,-0.0480959347799,-6.72736448389,2.44083531382
1588858435841849912,2269,1588858435841758405,,-0.0483896008394,-6.7254846635,2.44217726543
1588858435847997013,2270,1588858435847891811,,-0.0484919444432,-6.73144540943,2.44454450295
1588858435853787846,2271,1588858435853711042,,-0.0486745587079,-6.71272761279,2.44223046416
1588858435859791752,2272,1588858435859670030,,-0.048615030147,-6.71790515042,2.44457811345
1588858435865400716,2273,1588858435865325572,,-0.0488841389118,-6.72340262344,2.44696725057
1588858435871726712,2274,1588858435871653001,,-0.0486404152665,-6.71785715863,2.44784450921
1588858435877603512,2275,1588858435877518724,,-0.0490235003418,-6.71389727231,2.44880288214
1588858435883636953,2276,1588858435883553316,,-0.0492060908877,-6.71816451244,2.45049264329
1588858435889754001,2277,1588858435889653485,,-0.049188695326,-6.72245291145,2.45264841165
1588858435895724698,2278,1588858435895635516,,-0.0492837499512,-6.72062857333,2.45438926168
1588858435901686519,2279,1588858435901614842,,-0.0490894261012,-6.72373746009,2.45643854114
1588858435914488328,2280,1588858435914378426,,-0.0493716351529,-6.72549688013,2.45920422908
1588858435919657357,2281,1588858435919579751,,-0.0498249159333,-6.70999251194,2.45672963766
1588858435925649792,2282,1588858435925559455,,-0.0496519517725,-6.71462215938,2.45884767013
1588858435931656022,2283,1588858435931545072,,-0.0500758879668,-6.71203356194,2.45926835271
1588858435937534850,2284,1588858435937460116,,-0.0501292842557,-6.71606427859,2.46151245207
1588858435943751438,2285,1588858435943673586,,-0.0499445651547,-6.71069258861,2.46227113917
1588858435949700253,2286,1588858435949620489,,-0.0499503813045,-6.7148983839,2.46424299868
1588858435955710642,2287,1588858435955627273,,-0.0501622119536,-6.7109343149,2.4643386753
1588858435961792925,2288,1588858435961660310,,-0.0500244298174,-6.71200918227,2.46622635552
1588858435968054732,2289,1588858435967893928,,-0.0500672138885,-6.70758564686,2.46656975161
1588858435973827407,2290,1588858435973677191,,-0.0500420552585,-6.69819651855,2.46532967983
1588858435979759135,2291,1588858435979632309,,-0.0500082404197,-6.69190869049,2.46556968632
1588858435985601319,2292,1588858435985523064,,-0.0499979789644,-6.69418138193,2.46701815083
1588858435991874805,2293,1588858435991787664,,-0.0501302205383,-6.69645494686,2.46842582315
1588858435997588967,2294,1588858435997523577,,-0.0500935609165,-6.69843372907,2.46944905665
1588858436003576862,2295,1588858436003490681,,-0.0500756340456,-6.69187157665,2.46960876719
1588858436009479925,2296,1588858436009420411,,-0.0498808231715,-6.69371180734,2.470650593
1588858436015679068,2297,1588858436015609833,,-0.0496185133937,-6.68893797237,2.47104510067
1588858436021659938,2298,1588858436021540522,,-0.0494128228172,-6.6886039082,2.47193002384
1588858436033515559,2299,1588858436033445377,,-0.0488852450697,-6.67457871086,2.47145431655
1588858436039768361,2300,1588858436039671535,,-0.0488298092675,-6.66719197524,2.47102601609
1588858436045660584,2301,1588858436045588749,,-0.0486269556642,-6.6675735568,2.47225602325
1588858436051675452,2302,1588858436051596923,,-0.048384662446,-6.65992639848,2.47195975729
1588858436057604346,2303,1588858436057512977,,-0.0482207650724,-6.65947475889,2.4728092073
1588858436063548565,2304,1588858436063429053,,-0.0480791971439,-6.65928456815,2.4731854974
1588858436069559019,2305,1588858436069447747,,-0.0477161030566,-6.64869739628,2.47226568719
1588858436075632011,2306,1588858436075523021,,-0.047611803218,-6.64779748591,2.47289250495
1588858436081528706,2307,1588858436081441018,,-0.0473628960714,-6.64554830421,2.47365408161
1588858436090589738,2308,1588858436090510910,,-0.0465773310011,-6.62731609848,2.4720792049
1588858436096887242,2309,1588858436096766672,,-0.0460023401814,-6.61853074896,2.47153820822
1588858436102655219,2310,1588858436102563775,,-0.0457327867277,-6.61540634663,2.47182564896
1588858436108746206,2311,1588858436108597746,,-0.0450756376489,-6.60614985396,2.47067128267
1588858436115094949,2312,1588858436114999224,,-0.0445227791707,-6.59678274612,2.4693090443
1588858436120915061,2313,1588858436120765863,,-0.0440196950131,-6.58932938011,2.46821088026
1588858436126539715,2314,1588858436126446730,,-0.0436362327596,-6.58747689295,2.4685296145
1588858436132598892,2315,1588858436132485527,,-0.0430654171779,-6.58045282253,2.46736281609
1588858436138775306,2316,1588858436138685153,,-0.042780072851,-6.58045988489,2.46745916717
1588858436144519330,2317,1588858436144442032,,-0.0419964581675,-6.57065473551,2.46656557492
1588858436150625565,2318,1588858436150521588,,-0.041835548311,-6.57033118475,2.4671057921
1588858436156622497,2319,1588858436156506778,,-0.0410404780071,-6.55809990211,2.46668398538
1588858436162608708,2320,1588858436162473942,,-0.0407074363286,-6.55570628704,2.46703847501
1588858436168571878,2321,1588858436168473354,,-0.040374071137,-6.54636390946,2.46560802352
1588858436174610812,2322,1588858436174505626,,-0.0400977869215,-6.54453456702,2.46548110664
1588858436180739246,2323,1588858436180506996,,-0.0398475162465,-6.53018010709,2.4623594034
1588858436186577126,2324,1588858436186462734,,-0.0397288977331,-6.52647150369,2.46180788398
1588858436193164982,2325,1588858436192983190,,-0.0394601609007,-6.51334766562,2.46029862017
1588858436199004653,2326,1588858436198885128,,-0.0393191808387,-6.50776095377,2.45944771453
1588858436204737082,2327,1588858436204650871,,-0.039044817327,-6.4934966272,2.45780488744
1588858436210941629,2328,1588858436210833839,,-0.0390509422332,-6.48720832259,2.45714945574
1588858436219833369,2329,1588858436219736091,,-0.038089402034,-6.46225463185,2.45454441697
1588858436225850383,2330,1588858436225739841,,-0.0380990994287,-6.44698035628,2.45264812121
1588858436232101891,2331,1588858436231946041,,-0.0377513523545,-6.43967253743,2.45180681294
1588858436237908231,2332,1588858436237786631,,-0.0378391038204,-6.42362237945,2.44939689431
1588858436243904208,2333,1588858436243811498,,-0.0376273757029,-6.4165163212,2.44825266887
1588858436249905073,2334,1588858436249803297,,-0.0376348050768,-6.40055307081,2.44587176611
1588858436256048097,2335,1588858436255895305,,-0.0377642489257,-6.39295498261,2.44456168853
1588858436261893263,2336,1588858436261777837,,-0.0376183691692,-6.37667287345,2.44225007194
1588858436274082832,2337,1588858436273946292,,-0.037368951138,-6.3524719942,2.43939005305
1588858436279866867,2338,1588858436279765280,,-0.0371785432065,-6.34529977232,2.43851218252
1588858436285762093,2339,1588858436285663702,,-0.0370170833231,-6.32954156632,2.43704435147
1588858436291917767,2340,1588858436291808017,,-0.0368470892111,-6.32200227632,2.43655541046
1588858436297999844,2341,1588858436297864378,,-0.0366393805254,-6.30518187438,2.43462116152
1588858436303960042,2342,1588858436303860840,,-0.0366492648722,-6.29661167974,2.43346154075
1588858436309717850,2343,1588858436309624351,,-0.036388057342,-6.27934722112,2.43111686085
1588858436315830697,2344,1588858436315747275,,-0.0363921467372,-6.27034161446,2.42969256344
1588858436321702932,2345,1588858436321569440,,-0.0361812803142,-6.25161311587,2.42653827204
1588858436333680373,2346,1588858436333602821,,-0.0361154470843,-6.22437785446,2.42182395309
1588858436339664354,2347,1588858436339575237,,-0.0359260727733,-6.21517489465,2.42073391725
1588858436345647842,2348,1588858436345569995,,-0.0359632656877,-6.20495115683,2.41926182816
1588858436351743389,2349,1588858436351655687,,-0.0354854766263,-6.18609472514,2.41686274474
1588858436357917311,2350,1588858436357851038,,-0.0353245513348,-6.17617078106,2.41551119672
1588858436363998046,2351,1588858436363922462,,-0.0347487227005,-6.15681750302,2.41356374065
1588858436370021878,2352,1588858436369905094,,-0.034450278609,-6.14735906458,2.41210022262
1588858436375989816,2353,1588858436375846698,,-0.0342631171628,-6.13316696531,2.41004165743
1588858436381947555,2354,1588858436381854832,,-0.0338590054195,-6.11515821941,2.40803109521
1588858436394001315,2355,1588858436393790028,,-0.0336006801994,-6.09902571551,2.40518907949
1588858436399840036,2356,1588858436399746063,,-0.0332352321129,-6.08172160136,2.40196976257
1588858436405844321,2357,1588858436405749331,,-0.0327538358977,-6.06757041112,2.39964246793
1588858436411843714,2358,1588858436411748265,,-0.032603715056,-6.05865961092,2.39784305305
1588858436418174418,2359,1588858436418078975,,-0.0327056853813,-6.04926049037,2.3962176773
1588858436423758621,2360,1588858436423676524,,-0.032158441056,-6.03270912283,2.39351412459
1588858436429756341,2361,1588858436429671365,,-0.0318879521642,-6.0222665297,2.39184908275
1588858436435941792,2362,1588858436435820077,,-0.031024482443,-6.00329292789,2.38944567881
1588858436441880092,2363,1588858436441758169,,-0.0308376530168,-5.99160146036,2.38737378152
1588858436448204011,2364,1588858436448011240,,-0.0302655522016,-5.97164785141,2.38411905096
1588858436453874221,2365,1588858436453602612,,-0.0299761248503,-5.96333153842,2.38297389373
1588858436459825359,2366,1588858436459690885,,-0.0295745348083,-5.94168209523,2.37947172007
1588858436465781984,2367,1588858436465643151,,-0.029234141489,-5.92905196554,2.3770835854
1588858436471824529,2368,1588858436471734381,,-0.0285908499819,-5.90682099381,2.37274499634
1588858436477740095,2369,1588858436477659247,,-0.0282562978579,-5.8931513409,2.37004797796
1588858436483785229,2370,1588858436483633949,,-0.0272480970706,-5.871407477,2.36638902289
1588858436489683032,2371,1588858436489577925,,-0.0270031904263,-5.85744019784,2.3638647087
1588858436495706709,2372,1588858436495582486,,-0.0264886667673,-5.83904533095,2.3609188396
1588858436501623049,2373,1588858436501544070,,-0.025970475147,-5.82416703842,2.35855736461
1588858436510706123,2374,1588858436510621325,,-0.0249029983012,-5.79617733592,2.35421994048
1588858436517202205,2375,1588858436517064446,,-0.0237296841339,-5.77592394048,2.35083275532
1588858436522646609,2376,1588858436522557282,,-0.023539838958,-5.7633992489,2.34822490691
1588858436528799126,2377,1588858436528712157,,-0.0229883439885,-5.75092759285,2.34589923242
1588858436534804254,2378,1588858436534733785,,-0.0226590151941,-5.73743942826,2.34294414502
1588858436540840969,2379,1588858436540766884,,-0.0217274258783,-5.72312571016,2.34103287146
1588858436546867842,2380,1588858436546794996,,-0.0210131435954,-5.7093714958,2.33855278784
1588858436552674430,2381,1588858436552548552,,-0.0201092228507,-5.69077113994,2.3350975697
1588858436558765889,2382,1588858436558685466,,-0.0193755369042,-5.67517713358,2.33248225721
1588858436564692471,2383,1588858436564548805,,-0.0184319404037,-5.65612078702,2.32960750478
1588858436570704448,2384,1588858436570625310,,-0.0177825946533,-5.6413113792,2.32725607298
1588858436576743631,2385,1588858436576628247,,-0.016773585005,-5.62111314389,2.32418442578
1588858436582637104,2386,1588858436582573258,,-0.0162530532968,-5.6073433246,2.32158080736
1588858436588652654,2387,1588858436588571957,,-0.0151409855313,-5.58740219599,2.3184147595
1588858436595185728,2388,1588858436595059712,,-0.0147369798821,-5.57321940819,2.31553679781
1588858436601251918,2389,1588858436601013635,,-0.0140172847711,-5.55978973991,2.31356550991
1588858436606863609,2390,1588858436606780078,,-0.0135742418299,-5.54477475632,2.31052744477
1588858436612929213,2391,1588858436612835377,,-0.0125148299916,-5.52326284889,2.30705657956
1588858436619000815,2392,1588858436618866272,,-0.0121892101185,-5.50801973112,2.30410839903
1588858436624954992,2393,1588858436624869717,,-0.0110713596799,-5.48523913639,2.30074851245
1588858436630941753,2394,1588858436630817678,,-0.0108776680661,-5.46977819939,2.29781807433
1588858436636972553,2395,1588858436636882854,,-0.00979954023567,-5.44604745629,2.29453806032
1588858436642879538,2396,1588858436642806111,,-0.00927453566547,-5.42996457576,2.29155825752
1588858436648833699,2397,1588858436648738047,,-0.00845053264059,-5.40691005553,2.28737208726
1588858436654899137,2398,1588858436654773982,,-0.00812120370535,-5.39076376554,2.28449338427
1588858436661320430,2399,1588858436661198546,,-0.00771153735548,-5.36355012541,2.2789669653
1588858436667033140,2400,1588858436666885091,,-0.00743452057238,-5.36674071267,2.28054389722
1588858436672817443,2401,1588858436672737919,,-0.00700796548984,-5.34354755465,2.27605214432
1588858436678879026,2402,1588858436678751185,,-0.00685013720578,-5.32821448133,2.27264905066
1588858436684926959,2403,1588858436684841748,,-0.00639036050092,-5.30766555809,2.26877895394
1588858436690862805,2404,1588858436690779890,,-0.00635338324582,-5.2918368636,2.26524189694
1588858436696989559,2405,1588858436696891591,,-0.00624539607158,-5.27171812871,2.26129932867
1588858436703160598,2406,1588858436703021113,,-0.00588900569524,-5.25538722699,2.2581468646
1588858436708898769,2407,1588858436708789534,,-0.0053087805701,-5.23425309045,2.25464300124
1588858436715217412,2408,1588858436715116706,,-0.00507936949253,-5.2193114371,2.25166490791
1588858436727365743,2409,1588858436726962434,,-0.00418252995693,-5.19332462309,2.24711363263
1588858436733040250,2410,1588858436732904728,,-0.0036159741474,-5.17438412136,2.24373909061
1588858436738899632,2411,1588858436738804759,,-0.00352192365151,-5.16106551331,2.2408171458
1588858436745093396,2412,1588858436744965563,,-0.00296915545164,-5.14119165473,2.2370862418
1588858436751137800,2413,1588858436751042277,,-0.00292489429559,-5.12722490415,2.23369336278
1588858436755674088,2414,1588858436755579655,,-0.0022178800561,-5.10611243009,2.23011503541
1588858436759898957,2415,1588858436759824863,,-0.0023300740574,-5.10144486168,2.22917083469
1588858436765978958,2416,1588858436765801701,,-0.00204236050166,-5.08238351509,2.22550014235
1588858436771957927,2417,1588858436771836708,,-0.00174623210888,-5.06753014787,2.2226656942
1588858436777960171,2418,1588858436777854105,,-0.00144076760324,-5.0475758018,2.2187374854
1588858436783935990,2419,1588858436783860477,,-0.00129217253927,-5.03126745408,2.21559330716
1588858436789876008,2420,1588858436789808944,,-0.000802003082934,-5.01118060315,2.21160968621
1588858436795850896,2421,1588858436795776791,,-0.000634658549303,-4.996691686,2.20853477945
1588858436801788591,2422,1588858436801709094,,-0.000194191692637,-4.97488138885,2.20480908277
1588858436810908190,2423,1588858436810803485,,0.000442647840093,-4.94850032566,2.20059861777
1588858436817175568,2424,1588858436817097671,,0.000595970246686,-4.9328458735,2.19718886277
1588858436822835163,2425,1588858436822742504,,0.000835414553735,-4.91791012886,2.19383828123
1588858436828892218,2426,1588858436828789763,,0.00108357054849,-4.89835831425,2.18968704785
1588858436834837449,2427,1588858436834759400,,0.00146548942979,-4.87883066956,2.18564307748
1588858436841178266,2428,1588858436841091594,,0.00171249314767,-4.85573660113,2.18046923032
1588858436846923896,2429,1588858436846811546,,0.00201122826362,-4.85783892384,2.18211477669
1588858436853111058,2430,1588858436852972069,,0.00218523460476,-4.83986036571,2.17854327488
1588858436859227015,2431,1588858436859088678,,0.00257779446742,-4.81819275337,2.17443284293
1588858436864980581,2432,1588858436864849785,,0.00265088919544,-4.80357988842,2.17123396131
1588858436870990009,2433,1588858436870911367,,0.00278910813223,-4.7862819446,2.16796562305
1588858436877080158,2434,1588858436876967980,,0.00316099873889,-4.76284943653,2.16395282923
1588858436883045963,2435,1588858436882945630,,0.00319644216407,-4.741854085,2.16043051461
1588858436889136924,2436,1588858436889026912,,0.00316996925105,-4.72539614456,2.15712223981
1588858436895399062,2437,1588858436895262231,,0.00312921124617,-4.70914202688,2.15374254237
1588858436902107101,2438,1588858436902003674,,0.00335223326289,-4.68725440046,2.14951517434
1588858436907182189,2439,1588858436906903380,,0.00348436401281,-4.68185945317,2.14818171209
1588858436912960900,2440,1588858436912876494,,0.00399308754917,-4.66035896429,2.14383300282
1588858436918952157,2441,1588858436918841013,,0.0040789420207,-4.64345062511,2.14026075941
1588858436924793056,2442,1588858436924710903,,0.00446120199964,-4.62171966603,2.13611607032
1588858436930791777,2443,1588858436930691149,,0.00446139075725,-4.60454725566,2.13268337203
1588858436937125220,2444,1588858436936938543,,0.00474850844669,-4.58201287015,2.12873599911
1588858436942990657,2445,1588858436942892566,,0.00480458131309,-4.56528849235,2.12526582601
1588858436949080801,2446,1588858436948975219,,0.00511303909827,-4.54812292382,2.12183554156
1588858436955699409,2447,1588858436955507594,,0.0053645824762,-4.52516500399,2.11790965641
1588858436962091027,2448,1588858436961957624,,0.00566688595969,-4.50801434067,2.1150267197
1588858436967244577,2449,1588858436967135856,,0.00595230523199,-4.49741330179,2.11393325821
1588858436972933998,2450,1588858436972848502,,0.00595951726721,-4.48196664847,2.11077368436
1588858436979084487,2451,1588858436978982584,,0.00623630318761,-4.45883774865,2.10722250526
1588858436985030995,2452,1588858436984912328,,0.00638948680647,-4.44340435809,2.10392033527
1588858436991348451,2453,1588858436991182132,,0.00648066752837,-4.42618628424,2.10061692793
1588858436996873124,2454,1588858436996783983,,0.00679984427243,-4.40465770903,2.09694451895
1588858437002911096,2455,1588858437002819988,,0.00686116103283,-4.38899062411,2.09382139598
1588858437008999507,2456,1588858437008886722,,0.00678726126218,-4.3695707448,2.09056065623
1588858437015315562,2457,1588858437015206575,,0.00672718615871,-4.35377983381,2.08725941447
1588858437027174353,2458,1588858437027014350,,0.00672018990617,-4.32973688648,2.08428159534
1588858437032956463,2459,1588858437032854740,,0.0066298116481,-4.31040193495,2.0803360343
1588858437038972775,2460,1588858437038821612,,0.00688767301371,-4.29079730547,2.07626369545
1588858437044857877,2461,1588858437044764546,,0.00694903115421,-4.27546391338,2.07279461542
1588858437050840827,2462,1588858437050736593,,0.00700301039014,-4.25955539576,2.0693501334
1588858437057145918,2463,1588858437057038624,,0.00696995122775,-4.23972037749,2.06615504325
1588858437062921637,2464,1588858437062818698,,0.00687041268999,-4.22395085355,2.06270906677
1588858437069050802,2465,1588858437068903371,,0.00673745493176,-4.20270346383,2.05960718358
1588858437075302668,2466,1588858437075226483,,0.00673463042917,-4.18738692037,2.05639935628
1588858437086925227,2467,1588858437086777934,,0.0068769405221,-4.16241600115,2.05266990265
1588858437092769388,2468,1588858437092677561,,0.00692657433035,-4.14272512601,2.04952380546
1588858437098786568,2469,1588858437098697869,,0.00675219887862,-4.12747473674,2.04654921063
1588858437105003065,2470,1588858437104877797,,0.00654161001286,-4.10795484245,2.04365802051
1588858437111067411,2471,1588858437110960324,,0.00649997422417,-4.09275227774,2.04048604408
1588858437117271428,2472,1588858437117199400,,0.00624780025078,-4.07265242122,2.03696768001
1588858437122781808,2473,1588858437122633512,,0.00629469411586,-4.0581802871,2.03415436797
1588858437128707819,2474,1588858437128631977,,0.00603228580998,-4.03993701092,2.03079552536
1588858437135341309,2475,1588858437135236892,,0.00595070004248,-4.02525559496,2.02779780896
1588858437146966366,2476,1588858437146878095,,0.00556672549035,-4.00328037318,2.02450619366
1588858437152681902,2477,1588858437152543884,,0.0052312005516,-3.98533647808,2.02127499403
1588858437158760492,2478,1588858437158675606,,0.00511576812487,-3.9714928123,2.01855222736
1588858437164643039,2479,1588858437164539851,,0.00494494165022,-3.95498847772,2.0153495367
1588858437170866403,2480,1588858437170793619,,0.00493401945896,-3.94190411453,2.01214026063
1588858437176792440,2481,1588858437176645282,,0.00516756209012,-3.92567725976,2.00900148232
1588858437182657344,2482,1588858437182581010,,0.00515870859981,-3.9130717347,2.0058239079
1588858437188709252,2483,1588858437188568290,,0.0053100668195,-3.89829363261,2.00337188437
1588858437194805342,2484,1588858437194715408,,0.00533541377068,-3.88572569944,2.00107212141
1588858437206905267,2485,1588858437206808100,,0.00526051792444,-3.87026377896,1.99916332989
1588858437212765062,2486,1588858437212666784,,0.0053649336526,-3.8543396338,1.99670696839
1588858437218667211,2487,1588858437218598001,,0.00550399540651,-3.84229410686,1.99439872523
1588858437224668232,2488,1588858437224536575,,0.00559167666021,-3.82767867958,1.99163817744
1588858437230722380,2489,1588858437230643836,,0.00563769473427,-3.81554337562,1.98903421781
1588858437236715535,2490,1588858437236650754,,0.00559115301606,-3.80118801176,1.98634772914
1588858437242558867,2491,1588858437242459521,,0.00562133850095,-3.79008372748,1.98382620042
1588858437248600783,2492,1588858437248537756,,0.00562320410535,-3.77863680626,1.98132086369
1588858437254971726,2493,1588858437254912533,,0.00587181353788,-3.76545611302,1.9790221094
1588858437263566346,2494,1588858437263507281,,0.00610244924142,-3.75235325579,1.97677644793
1588858437269739036,2495,1588858437269681723,,0.00669369870725,-3.73991253185,1.97493529412
1588858437275653509,2496,1588858437275470863,,0.00676804151518,-3.73031759336,1.972917809
1588858437278541016,2497,1588858437278468353,,0.00722341733117,-3.72603465858,1.97304940685
1588858437281655257,2498,1588858437281580644,,0.00730376680671,-3.71664650755,1.97101922655
1588858437290631443,2499,1588858437290565961,,0.00779243488271,-3.70072659697,1.96903961235
1588858437296675983,2500,1588858437296556686,,0.00783543089862,-3.69115694349,1.96704797832
1588858437302590974,2501,1588858437302483266,,0.00795546436447,-3.68194998079,1.96566836134
1588858437308609686,2502,1588858437308530188,,0.00795625374737,-3.67029135795,1.96404611187
1588858437314845127,2503,1588858437314765757,,0.00805199810323,-3.66109820039,1.96257581629
1588858437323607280,2504,1588858437323542445,,0.00834211756331,-3.64728449899,1.96092986596
1588858437330230110,2505,1588858437330116525,,0.00851977264245,-3.63519377927,1.95970288675
1588858437336201407,2506,1588858437336126849,,0.0083659786793,-3.62667672622,1.95800238176
1588858437341709878,2507,1588858437341515097,,0.00859340822292,-3.61551442959,1.95660660921
1588858437348710050,2508,1588858437348635489,,0.0086750982897,-3.60721039068,1.95510009377
1588858437353964863,2509,1588858437353886993,,0.00878076499951,-3.59608871423,1.95347213301
1588858437359747169,2510,1588858437359661353,,0.00899117189732,-3.59381790251,1.95384555818
1588858437365557227,2511,1588858437365499612,,0.00902762471027,-3.58252728509,1.95248699606
1588858437371611747,2512,1588858437371546107,,0.00933802625387,-3.57472389723,1.95176818267
1588858437377596570,2513,1588858437377519678,,0.00957786263562,-3.56463230014,1.95085196694
1588858437384035752,2514,1588858437383936704,,0.0102083561434,-3.55159317588,1.95001743994
1588858437389938232,2515,1588858437389856039,,0.0103717611672,-3.54474845481,1.94895796471
1588858437395714605,2516,1588858437395634320,,0.010769747827,-3.53538195883,1.94803722421
1588858437402158083,2517,1588858437402072013,,0.0108083208964,-3.52881024621,1.94701053613
1588858437410922991,2518,1588858437410845021,,0.0115060049778,-3.51830808687,1.94649502691
1588858437417370845,2519,1588858437417226559,,0.011673673511,-3.51060055911,1.94602936751
1588858437422939961,2520,1588858437422866985,,0.0117550207936,-3.5054892542,1.94549278811
1588858437428953483,2521,1588858437428885490,,0.0118145713072,-3.49878600179,1.94534389784
1588858437435204572,2522,1588858437435102165,,0.0118403708862,-3.49429286775,1.94515270294
1588858437447037034,2523,1588858437446963546,,0.0120720754738,-3.48620148095,1.94572166756
1588858437453112671,2524,1588858437453044214,,0.0121340349103,-3.48038934934,1.94581218371
1588858437458666212,2525,1588858437458577179,,0.0122875988587,-3.47688057464,1.94567903712
1588858437464612503,2526,1588858437464531746,,0.0123307379144,-3.47220936367,1.94582478727
1588858437471243428,2527,1588858437471130485,,0.0123530118892,-3.47006026537,1.94562435427
1588858437477123715,2528,1588858437477039950,,0.0124791515231,-3.46631498475,1.9461100305
1588858437483062562,2529,1588858437482989640,,0.012548110084,-3.46451202457,1.94644008007
1588858437489063152,2530,1588858437488967817,,0.0125003784264,-3.46257985641,1.94644529395
1588858437494990230,2531,1588858437494902918,,0.0126430065544,-3.45866109742,1.94708619913
1588858437506648860,2532,1588858437506559779,,0.012588511905,-3.4530741508,1.94758444505
1588858437513273510,2533,1588858437513160997,,0.0124861730394,-3.45059176361,1.94799955824
1588858437519288980,2534,1588858437519138219,,0.0124294884622,-3.44557190029,1.94895815904
1588858437525276964,2535,1588858437525159854,,0.0125321441488,-3.440586797,1.95008690698
1588858437531276630,2536,1588858437531121507,,0.0124558399725,-3.43699112323,1.95076051345
1588858437537031455,2537,1588858437536975128,,0.0124446185889,-3.43125879883,1.95195879866
1588858437542679148,2538,1588858437542604826,,0.0124185282533,-3.42717761629,1.95277912642
1588858437548642189,2539,1588858437548580220,,0.012407307437,-3.42246984054,1.95400637538
1588858437555340661,2540,1588858437555248914,,0.012347247906,-3.41580500186,1.95537809463
1588858437562640640,2541,1588858437562533385,,0.0124712800928,-3.4103685183,1.9567237801
1588858437567303398,2542,1588858437566973726,,0.0123003937752,-3.40765312156,1.95686842329
