%time,field.header.seq,field.header.stamp,field.header.frame_id,field.wrench.force.x,field.wrench.force.y,field.wrench.force.z,field.wrench.torque.x,field.wrench.torque.y,field.wrench.torque.z
1588856535718975188,749,1588856535718758091,,0.601551990355,-0.132418547476,2.27244783539,0.444784028491,0.0017197417132,-0.141484974044
1588856535721861719,750,1588856535721707711,,0.601547730172,-0.132417528839,2.27244902248,0.444784264582,0.00171752409071,-0.141484258784
1588856535724847061,751,1588856535724734304,,0.601834392416,-0.132379923259,2.24909056852,0.44401414268,0.00171758551738,-0.141492088215
1588856535727817971,752,1588856535727739266,,0.601545586355,-0.132410122209,2.27245002155,0.444784389474,0.00171642878139,-0.141483879453
1588856535730846436,753,1588856535730730200,,0.601546727156,-0.132414223293,2.2724494806,0.444784295074,0.00171495759425,-0.141484194059
1588856535733874778,754,1588856535733775100,,0.601840826838,-0.132377204544,2.24908900674,0.444013716977,0.00171589066234,-0.141493444666
1588856535739810956,755,1588856535739719327,,0.6015532449,-0.132406135554,2.27244822652,0.444783869066,0.00171296179292,-0.141485557471
1588856535742750852,756,1588856535742665328,,0.624496631638,-0.132469023482,2.27299192962,0.444802575091,0.00171292026918,-0.142242671172
1588856535745871749,757,1588856535745773929,,0.601559560538,-0.132401423938,2.27244682918,0.444783469342,0.00171218832016,-0.141486823428
1588856535751881711,758,1588856535751666850,,0.601835360418,-0.132364961286,2.24909119009,0.443072111108,0.00105758952754,-0.140591333327
1588856535754766287,759,1588856535754653190,,0.602111220808,-0.00235645918579,2.24907283808,0.442163820557,0.00106052096893,-0.140602840151
1588856535757862702,760,1588856535757764808,,0.62504334436,-0.00241538743476,2.24962168558,0.442184555161,0.0017146540627,-0.141358158855
1588856535764282271,761,1588856535764190695,,0.625055082454,-0.00240336266501,2.24961843707,0.442161634506,0.0017140301069,-0.140458136681
1588856535767332989,762,1588856535767167790,,0.602127142716,-0.132339532376,2.22583055814,0.441376087659,0.00171430188008,-0.139708905539
1588856535772986476,763,1588856535772866180,,0.602140914617,-0.132328778167,2.22582747193,0.441375232031,0.00171426669875,-0.139711609091
1588856535775779329,764,1588856535775667762,,0.601566996375,-0.13240753588,2.27244450464,0.442914012615,0.00237463367438,-0.139695116908
1588856535778752342,765,1588856535778674756,,0.601851192432,-0.00237550243475,2.27242586381,0.442891217244,0.00237537698206,-0.13879498233
1588856535781894142,766,1588856535781814129,,0.624789756133,-0.00242596779149,2.27297128371,0.442908573992,0.00170785782229,-0.13955139131
1588856535787822771,767,1588856535787734977,,0.624776261953,-0.00242545317953,2.27297499347,0.442885744791,0.00105311703268,-0.138646737482
1588856535790899804,768,1588856535790802943,,0.624767221122,-0.00241978767888,2.27297748456,0.442886293846,0.00105405281763,-0.138644976487
1588856535796931998,769,1588856535796839101,,0.601820257951,-0.00238168902222,2.27243405009,0.443755200973,0.00170733382059,-0.136964219396
1588856535799873575,770,1588856535799751733,,0.601825581297,-0.00238545042419,2.27243263633,0.443754881165,0.00170724076788,-0.136965256711
1588856535802834059,771,1588856535802738102,,0.601546103591,-0.132423718766,2.27244909235,0.444695624786,0.00170670407184,-0.137865189067
1588856535808875272,772,1588856535808773632,,0.578801221566,-0.132328249869,2.24854489428,0.442944196656,0.00170733907383,-0.135310090526
1588856535814905679,773,1588856535814813905,,0.578788860423,-0.132337790841,2.24854751463,0.442944934841,0.00170748086583,-0.135307672229
1588856535817879922,774,1588856535817769045,,0.579063590366,-0.00234267278401,2.24853091308,0.442946440316,0.00237194022755,-0.135307682294
1588856535820833655,775,1588856535820753120,,0.578490476042,-0.132386824826,2.27190965077,0.443696815323,0.00303418523136,-0.134395672294
1588856535823850324,776,1588856535823760678,,0.578497435976,-0.132391315572,2.27190761688,0.443672837715,0.00236805345534,-0.133495178631
1588856535826989171,777,1588856535826892913,,0.578475926296,-0.132391605196,2.27191307692,0.443674111097,0.00236891050994,-0.13349093125
1588856535832877060,778,1588856535832777657,,0.555542839958,-0.132341406733,2.27137482966,0.44457351862,0.00236426204367,-0.132723962135
1588856535835826492,779,1588856535835729496,,0.578471285823,-0.132401462932,2.27191368401,0.444592485256,0.00236398728612,-0.133479270705
1588856535839006842,780,1588856535838903496,,0.578452183787,-0.132403140831,2.27191844987,0.44459359868,0.00236330450603,-0.133475574151
1588856535844922388,781,1588856535844807242,,0.5557749939,-0.00231630569711,2.27137129917,0.445463766674,0.00302589978161,-0.131792288976
1588856535847807912,782,1588856535847736971,,0.555792495682,-0.132306518989,2.2480226791,0.444670017091,0.0023625690845,-0.13089828236
1588856535850940057,783,1588856535850842752,,0.555784158995,-0.132306030426,2.24802476897,0.444670482915,0.0023607902564,-0.130896732006
1588856535856796858,784,1588856535856708342,,0.555471829983,-0.132335488866,2.27139254121,0.444557108711,0.00302721612089,-0.131797984465
1588856535859908555,785,1588856535859808919,,0.55545708613,-0.132327047201,2.2713966386,0.444557987317,0.0030290948781,-0.131794977707
1588856535862853736,786,1588856535862771868,,0.555748658262,-0.132270463114,2.2480356386,0.444674178709,0.00302542080474,-0.130889419505
1588856535868983803,787,1588856535868757146,,0.555729332615,-0.132246592464,2.24804182048,0.444675320559,0.00302573028899,-0.130885533052
1588856535871838671,788,1588856535871736764,,0.57810165403,-0.262340873357,2.27212095997,0.444535641727,0.00301705486151,-0.130737824904
1588856535874785454,789,1588856535874702673,,0.555154807989,-0.262217298919,2.27159307735,0.445381982771,0.00301031700256,-0.128154648937
1588856535880906847,790,1588856535880835757,,0.601063452641,-0.132305538313,2.2957687616,0.446210480071,0.00366625532646,-0.130561634118
1588856535883811622,791,1588856535883699578,,0.601056579145,-0.13227520685,2.29577230897,0.44621085869,0.00366300177342,-0.130560431456
1588856535886905637,792,1588856535886747034,,0.578003941635,-0.132193303072,2.29523399804,0.448029444778,0.00365678960615,-0.129775952038
1588856535892893494,793,1588856535892815092,,0.5547960868,-0.262179632526,2.29487894805,0.450723961053,0.00299294525585,-0.128078875367
1588856535895807117,794,1588856535895729903,,0.554788769366,-0.262139280348,2.29488532675,0.450724410905,0.0029924092833,-0.128077304798
1588856535901929919,795,1588856535901813168,,0.577711151108,-0.262184308218,2.29542785875,0.451663824136,0.00364788631762,-0.128818636008
1588856535904976505,796,1588856535904842658,,0.554236188113,-0.392308857974,2.3184709148,0.454217419086,0.00299001607316,-0.127123932327
1588856535907954770,797,1588856535907802610,,0.554240033092,-0.392303427897,2.31847091447,0.454217440547,0.00299579724891,-0.127123719538
1588856535913892097,798,1588856535913794259,,0.554253145836,-0.392298347785,2.31846863936,0.454217003511,0.00300290003703,-0.12712511349
1588856535917001192,799,1588856535916903209,,0.55396865543,-0.392380442442,2.34171912806,0.456786831636,0.00233540398095,-0.126195380257
1588856535922925762,800,1588856535922786190,,0.576923513519,-0.392455170623,2.34224656773,0.456804938899,0.00233782839722,-0.126952646351
1588856535925904640,801,1588856535925802600,,0.576121807282,-0.522902030858,2.38926934993,0.46108686757,0.00166091768955,-0.126899895653
1588856535929129323,802,1588856535928897627,,0.576611916569,-0.39258307792,2.36559481623,0.461229210826,0.00232368813997,-0.126898277358
1588856535932167687,803,1588856535932028673,,0.5761236675,-0.523000116271,2.38924743284,0.462892818101,0.00231372583284,-0.12596762738
1588856535937936325,804,1588856535937847440,,0.57581078657,-0.52314770248,2.41248678396,0.468210959988,0.00229578420211,-0.124999744482
1588856535940964844,805,1588856535940834183,,0.57583369217,-0.523204114332,2.41246908312,0.468209494685,0.00229311833445,-0.125005281865
1588856535946908075,806,1588856535946803625,,0.552387730335,-0.653649194683,2.43569022475,0.472570188794,0.00227889868874,-0.122389884147
1588856535950134477,807,1588856535949862424,,0.552392941822,-0.653672566328,2.43568277062,0.472569738098,0.00227698247025,-0.122391660019
1588856535952938233,808,1588856535952813373,,0.551924907567,-0.784301874387,2.45960373514,0.476085819826,0.00226943863983,-0.122349312413
1588856535955997192,809,1588856535955886792,,0.551964018835,-0.784324294332,2.45958780915,0.476084314104,0.00227658203773,-0.122355038628
1588856535961953731,810,1588856535961829149,,0.574776767785,-0.654021083352,2.48276336124,0.477757242462,0.00227815135189,-0.122177854607
1588856535965260571,811,1588856535965086192,,0.574284492348,-0.784686381102,2.50656470659,0.481292133548,0.00226342741889,-0.123045146716
1588856535970995986,812,1588856535970826984,,0.574275258038,-0.784695622802,2.50656392911,0.481251737715,0.00292487919957,-0.121228967128
1588856535973968798,813,1588856535973860714,,0.550470046821,-0.915524996887,2.55325806476,0.484560417955,0.00357937246521,-0.118610315985
1588856535977018363,814,1588856535976909274,,0.550473810458,-0.915529763999,2.55325554398,0.48456065612,0.00358500332545,-0.118609172943
1588856535979986740,815,1588856535979838011,,0.550638389882,-0.784907410153,2.55262216414,0.485456131957,0.00292321145587,-0.117698113764
1588856535986030752,816,1588856535985898160,,0.527048087357,-0.915629622625,2.57597181402,0.490780095198,0.00290575546459,-0.116867819169
1588856535989042584,817,1588856535988872164,,0.527077405976,-0.91561930794,2.57596948156,0.490779039551,0.0029089447073,-0.116872172876
1588856535995132849,818,1588856535994990403,,0.52673172358,-0.915768380154,2.59920108257,0.496090560614,0.00289529673714,-0.115897654265
1588856535997957905,819,1588856535997859585,,0.526735255117,-0.9157767883,2.59919740446,0.496090314475,0.00289445735323,-0.115898728805
1588856536001040432,820,1588856536000939474,,0.526597193355,-1.04657007203,2.5998564561,0.49700855894,0.00289353815372,-0.115888941432
1588856536003873017,821,1588856536003782493,,0.526597863087,-1.04659133809,2.59984775971,0.497008570093,0.00289497385961,-0.115888857742
1588856536009839930,822,1588856536009727333,,0.54935108222,-1.0468086245,2.62367338117,0.49866359049,0.00222425989464,-0.114809711469
1588856536012828710,823,1588856536012738795,,0.549005458376,-1.04695905652,2.64689825189,0.502200932704,0.00288900008031,-0.115672946779
1588856536019022236,824,1588856536018911896,,0.525553880057,-1.04700653821,2.66963975485,0.502949822262,0.00222150806526,-0.114902469837
1588856536021970518,825,1588856536021824339,,0.502543405708,-1.04692865495,2.66915207526,0.505679254863,0.00221457606457,-0.114107812607
1588856536024964156,826,1588856536024875448,,0.54868579213,-1.04708472139,2.6701281623,0.508440919751,0.00287720265913,-0.114678284484
1588856536031045011,827,1588856536030943055,,0.548696348885,-1.04708222309,2.67012697266,0.508440566103,0.00287835611165,-0.114679823473
1588856536033805120,828,1588856536033711863,,0.54784729056,-1.17827272913,2.71736630581,0.510868976877,0.002875749481,-0.113740869222
1588856536037026740,829,1588856536036860733,,0.54751174053,-1.1784211228,2.74058583617,0.513484848551,0.00287465770263,-0.114610152804
1588856536043098000,830,1588856536042989388,,0.523747127318,-1.44058433765,2.76479141425,0.517000477905,0.0021929207709,-0.114718930876
1588856536046057709,831,1588856536045951450,,0.500489154821,-1.30953911621,2.78679160888,0.519579861936,0.00218716036493,-0.113923234804
1588856536049055501,832,1588856536048899439,,0.500501489971,-1.3095668387,2.78677636631,0.519579540972,0.00219022152398,-0.113924639836
1588856536055080351,833,1588856536054977557,,0.523389553078,-1.44074643876,2.78799693695,0.520516791806,0.00285169352124,-0.114671448508
1588856536058129887,834,1588856536057989518,,0.500157453243,-1.3097012662,2.81010054495,0.523097002809,0.0021802008199,-0.113880121162
1588856536060990925,835,1588856536060897944,,0.500014077085,-1.4408071302,2.81083635709,0.523985119401,0.00217636462991,-0.112956739171
1588856536067389607,836,1588856536067254055,,0.500006032948,-1.44081930759,2.81083154599,0.523984671652,0.00216932656754,-0.112958951554
1588856536070022723,837,1588856536069914948,,0.522926857311,-1.57209150191,2.81206799807,0.52764824375,0.00282680015831,-0.112766969229
1588856536073020382,838,1588856536072877549,,0.522945259559,-1.57208985716,2.81206549546,0.527647741063,0.00282887774071,-0.112769269229
1588856536079095594,839,1588856536078978248,,0.500035415297,-1.440777237,2.81084788398,0.528539056847,0.00216001058396,-0.111995167471
1588856536082082104,840,1588856536081942160,,0.522897629174,-1.57205643515,2.81209303693,0.528536816998,0.00215474350799,-0.1118454827
1588856536085049797,841,1588856536084927112,,0.522893904936,-1.57203828863,2.81210387389,0.529435439043,0.00214760833631,-0.110920276716
1588856536091101288,842,1588856536090910201,,0.499875195077,-1.57193730496,2.81163956642,0.530308820323,0.00281728148203,-0.109248008515
1588856536093981095,843,1588856536093893043,,0.476294046415,-1.70332713346,2.8351524464,0.531978400725,0.00215085335304,-0.108462746436
1588856536096885946,844,1588856536096796089,,0.452949828066,-1.57208607041,2.85711906166,0.533618579824,0.00214706605862,-0.106776212879
1588856536102804156,845,1588856536102661660,,0.499007444648,-1.70355301383,2.85881820226,0.533633480736,0.00281471206698,-0.107393677441
1588856536109040965,846,1588856536108930065,,0.47593250345,-1.70349618746,2.85834346541,0.535435340512,0.00280710864737,-0.105694542946
1588856536118073306,847,1588856536117909648,,0.475954705331,-1.70349362926,2.85834129319,0.535434711674,0.00280877968609,-0.105697684118
1588856536121042441,848,1588856536120916438,,0.475409572893,-1.83504922776,2.88231970331,0.540749761844,0.00279842937142,-0.104714221915
1588856536124054016,849,1588856536123933968,,0.475383467034,-1.83508043081,2.88230414323,0.540750539354,0.0027980698246,-0.10471021634
1588856536127114544,850,1588856536126987348,,0.475422060304,-1.83506518578,2.88230748375,0.540710507567,0.00280189370789,-0.102906112888
1588856536130195331,851,1588856536130083893,,0.429009437075,-1.70363955461,2.9039263747,0.541446787141,0.00213274953158,-0.101378381231
1588856536132988130,852,1588856536132899062,,0.42898561429,-1.70362847967,2.90393639132,0.541446868662,0.00212508428664,-0.101378106804
1588856536139118606,853,1588856536138957942,,0.428962412042,-1.70363348101,2.90393688469,0.54238627163,0.002121792062,-0.10226557831
1588856536142013063,854,1588856536141904542,,0.451908576577,-1.83512793275,2.90514777902,0.542363968493,0.0027976822856,-0.101211382774
1588856536144937753,855,1588856536144848261,,0.451889877182,-1.83509888698,2.90516903518,0.542364233068,0.00279313861823,-0.101210090476
1588856536151050505,856,1588856536150918469,,0.451340212432,-1.96674057661,2.92913919562,0.543132232422,0.00278904964667,-0.101200452656
1588856536154001712,857,1588856536153881019,,0.451385458653,-1.96676571709,2.92911534292,0.543131378689,0.00279600241353,-0.101204842596
1588856536160075629,858,1588856536159947318,,0.451418324138,-1.96677688819,2.92910277714,0.543111091894,0.0027988294862,-0.10030497845
1588856536163108999,859,1588856536162999709,,0.451417342221,-1.96678364761,2.92909838978,0.543111455478,0.00280191618989,-0.100302923591
1588856536166114546,860,1588856536166006032,,0.451210893532,-2.09836485942,2.9298663674,0.544013790338,0.00345542607212,-0.0993800746974
1588856536172140843,861,1588856536172002094,,0.474036365409,-2.09859237525,2.95350836885,0.544778065034,0.00345376325823,-0.0992211582382
1588856536174977869,862,1588856536174868972,,0.496763246533,-2.09883874808,2.97713723897,0.545581357547,0.00345074541781,-0.100888168378
1588856536178060854,863,1588856536177957544,,0.473485966131,-2.23041089101,2.97743731568,0.546476213207,0.00411342564762,-0.100114353033
1588856536184007384,864,1588856536183908824,,0.473884434766,-2.23023234726,2.95427107679,0.54664495505,0.0034484584779,-0.101016781034
1588856536187145198,865,1588856536186990685,,0.427246176677,-2.23022803132,2.97655135984,0.549189334538,0.00344620929844,-0.098555742536
1588856536190043531,866,1588856536189938921,,0.449948029924,-2.23050057918,3.000252732,0.549978394227,0.00410966024008,-0.0993055815911
1588856536195917638,867,1588856536195818450,,0.449907299306,-2.23048567854,3.0002699177,0.550908368444,0.00410724684465,-0.100189395095
1588856536199157081,868,1588856536198901122,,0.449349878176,-2.36233690088,3.02420856866,0.551636262819,0.00343915238198,-0.0983590940767
1588856536202011169,869,1588856536201915138,,0.449363998545,-2.36234881957,3.02419716033,0.5516373354,0.00410689710829,-0.0983619006953
1588856536207932373,870,1588856536207843526,,0.449387797893,-2.36236156219,3.02418366996,0.55076604847,0.00410904421403,-0.100198708215
1588856536211015438,871,1588856536210875481,,0.449391324731,-2.36233791091,3.02420162109,0.548918645448,0.00411680822251,-0.0993179647725
1588856536214000909,872,1588856536213893434,,0.472587469963,-2.36240639255,3.02465851016,0.548033415337,0.00344923333549,-0.100998739093
1588856536220020092,873,1588856536219896371,,0.450167726675,-2.36201161233,2.97775960673,0.546459272263,0.00412019806452,-0.0993550474853
1588856536222978079,874,1588856536222867330,,0.473629645534,-2.49369089108,2.95579945126,0.543915700545,0.00346580481355,-0.101965649139
1588856536226035345,875,1588856536225921410,,0.473626361656,-2.49363874639,2.95584396907,0.542068616377,0.00347287818766,-0.101083058507
1588856536232041791,876,1588856536231914435,,0.473633872733,-2.49366580759,2.95581993567,0.539341728844,0.00414747341052,-0.102028174646
1588856536234964043,877,1588856536234833023,,0.496784487515,-2.49375363925,2.95625155112,0.539377196736,0.00415427530554,-0.103704454647
1588856536237896959,878,1588856536237801961,,0.496798251756,-2.49376086811,2.95624314012,0.539376538424,0.00415335647174,-0.10370791534
1588856536244046673,879,1588856536243940415,,0.519924961275,-2.4938302959,2.95669593921,0.538483811892,0.00416039392625,-0.104479397105
1588856536247015525,880,1588856536246921175,,0.51937625769,-2.6258429458,2.9805874893,0.53835289612,0.00416208909132,-0.105383381004
1588856536249931831,881,1588856536249831383,,0.519373504714,-2.62585037304,2.98058142573,0.538353497649,0.00416551707898,-0.105380172586
1588856536255952877,882,1588856536255865955,,0.519783370657,-2.62569611741,2.95741420438,0.538504043901,0.00416767037477,-0.105380058503
1588856536259045584,883,1588856536258933070,,0.496139583192,-2.7576584222,2.98086719611,0.539274985069,0.00416647745196,-0.105516496596
1588856536261973763,884,1588856536261853504,,0.496105050601,-2.75771443121,2.98082112765,0.53927593369,0.0041668288529,-0.105511634383
1588856536268405333,885,1588856536268298083,,0.49608430656,-2.75772497004,2.98081483,0.538318288607,0.00416864527635,-0.103712583314
1588856536270951759,886,1588856536270853249,,0.518562757349,-2.88987307958,3.00527475147,0.539129980641,0.00483030540426,-0.105351711243
1588856536273970997,887,1588856536273821965,,0.518149595504,-2.89003934307,3.02842060596,0.539898708437,0.00482794028546,-0.105338113954
1588856536279992002,888,1588856536279888357,,0.494961866489,-2.88993552089,3.02801270643,0.539883693273,0.00482290076613,-0.104571855353
1588856536282980322,889,1588856536282890501,,0.518477886452,-2.88987027512,3.00529209154,0.540050147482,0.00415825783594,-0.105325616383
1588856536289024354,890,1588856536288944250,,0.51792358635,-3.02199169418,3.02917050667,0.540857634617,0.00415625186434,-0.107123461841
1588856536292011004,891,1588856536291898151,,0.517957303759,-3.02193414377,3.02922215456,0.540857465831,0.00415978928447,-0.107124176723
1588856536295104465,892,1588856536294948515,,0.517893352967,-3.0219426214,3.02922463139,0.540838880069,0.00415349405151,-0.106214593131
1588856536297934179,893,1588856536297850265,,0.51814299776,-3.1538201023,3.00677936721,0.540091538912,0.00482378656835,-0.107131774305
1588856536303945581,894,1588856536303843818,,0.518144708569,-3.1538236373,3.00677536451,0.54009214158,0.00482735920021,-0.107128575055
1588856536306953083,895,1588856536306857455,,0.517793079471,-3.15395243163,3.02993522038,0.540897827925,0.0041631574268,-0.108938867379
1588856536312868644,896,1588856536312792894,,0.517769941373,-3.15395976213,3.02993154387,0.541809252396,0.00482857522581,-0.10892231961
1588856536319070656,897,1588856536318940397,,0.540596587031,-3.15416945614,3.05354226359,0.54084728856,0.00483915983767,-0.113316908308
1588856536321958552,898,1588856536321846250,,0.540611002749,-3.15416518554,3.05354412274,0.540847418326,0.00484232417961,-0.113316153772
1588856536325022960,899,1588856536324931596,,0.540640855736,-3.15413037523,3.05357479434,0.539947556483,0.0048454209572,-0.114236652431
1588856536328211850,900,1588856536328095767,,0.563563277385,-3.28625026269,3.05474366209,0.539057546704,0.00484595208951,-0.114997590598
1588856536334011277,901,1588856536333899892,,0.563536046044,-3.28626530588,3.05473250251,0.539058393441,0.00484567755935,-0.114993632973
1588856536336987529,902,1588856536336878190,,0.563856425172,-3.41820284611,3.03228432449,0.537389855056,0.00485390850411,-0.115938684313
1588856536339944613,903,1588856536339856891,,0.56383136737,-3.41822811376,3.03226050024,0.536460569045,0.00485208905971,-0.115037609637
1588856536342880179,904,1588856536342799707,,0.540258579029,-3.41833437559,3.05492199412,0.536293080999,0.00418992546823,-0.11427231168
1588856536348912778,905,1588856536348799173,,0.540219052043,-3.41835208791,3.05490916471,0.536292359217,0.00418068775713,-0.11427603736
1588856536351938994,906,1588856536351830324,,0.563183445638,-3.55063587894,3.05594555893,0.538118337579,0.0048398944581,-0.114107494227
1588856536357905285,907,1588856536357806045,,0.562773370253,-3.55079199162,3.07916982586,0.540698243113,0.00483451844222,-0.113165316227
1588856536360985294,908,1588856536360895227,,0.562364432139,-3.55092485322,3.10232230555,0.544192187285,0.00481867520315,-0.11220852232
1588856536364467611,909,1588856536364363846,,0.53895135286,-3.68312307348,3.10242711971,0.54690375903,0.00480439809781,-0.110503348503
1588856536367334382,910,1588856536367235193,,0.538080417599,-3.68332305619,3.1488120664,0.552078727556,0.00544795621835,-0.109524658707
1588856536372948273,911,1588856536372857815,,0.538012380015,-3.68334438669,3.14879874072,0.5520796387,0.00544192623401,-0.109520365608
1588856536375884580,912,1588856536375803432,,0.513971232636,-3.68350575349,3.19478920494,0.557219975243,0.00608249118428,-0.106873431508
1588856536382037818,913,1588856536381934426,,0.536662163555,-3.81591821181,3.21898990387,0.559821450914,0.00606965588401,-0.106705148324
1588856536384905901,914,1588856536384818489,,0.513547823793,-3.94794248761,3.19602830826,0.561755460344,0.00605806676802,-0.10500734283
1588856536388049895,915,1588856536387936460,,0.490363225375,-3.94787818532,3.1955849919,0.563509014521,0.00604954791051,-0.101499359628
1588856536391012653,916,1588856536390928455,,0.490014533392,-3.94801014162,3.21871913602,0.565214970551,0.00605028957193,-0.102384412374
1588856536396905311,917,1588856536396815120,,0.490043196042,-3.94802383572,3.21869797534,0.565213776118,0.00604935176343,-0.102391061458
1588856536400065180,918,1588856536399885465,,0.489063213006,-4.0805795519,3.26563078098,0.569482577887,0.00604794142815,-0.101421172537
1588856536406059559,919,1588856536405953825,,0.489154637649,-4.08058547861,3.26560968206,0.569481206811,0.00605523947753,-0.101428435435
1588856536409069410,920,1588856536408901624,,0.512000693593,-4.08079479453,3.28916573952,0.574814159306,0.00672101847624,-0.101206640758
1588856536415020723,921,1588856536414909030,,0.488214482657,-4.21317418822,3.31240096274,0.577444693093,0.00672381505462,-0.102210719244
1588856536417913557,922,1588856536417819198,,0.488273965805,-4.21324928386,3.31229667537,0.577444482291,0.00673394096588,-0.102211243554
1588856536420948520,923,1588856536420864677,,0.487953499351,-4.21335020038,3.33546392415,0.577330956856,0.00674131489185,-0.104039661286
1588856536423988454,924,1588856536423901780,,0.488020599709,-4.21334271436,3.33546356351,0.577330523956,0.0067489712917,-0.104041567108
1588856536430140594,925,1588856536430039731,,0.534453119407,-4.21345354425,3.33637141666,0.57646462833,0.00675389345865,-0.106473316217
1588856536433006634,926,1588856536432923568,,0.511611098011,-4.21321786543,3.31283404975,0.574809549426,0.00676115959843,-0.107555250328
1588856536436029569,927,1588856536435932761,,0.511659235869,-4.2132290573,3.31281238156,0.574809504221,0.00676842612928,-0.107555034882
1588856536442062934,928,1588856536441959120,,0.558151725438,-4.21339103739,3.31364805262,0.573942437501,0.00677674349952,-0.109994783894
1588856536445038261,929,1588856536444944391,,0.558097342571,-4.21344166773,3.31359283378,0.573942242938,0.0067695218453,-0.109996243782
1588856536448126932,930,1588856536447981850,,0.558110372226,-4.21343404167,3.31360033621,0.574879769626,0.00676470578617,-0.110893990721
1588856536454151060,931,1588856536453997898,,0.558095789168,-4.2134076081,3.31363640391,0.57579122024,0.00676958927763,-0.110868862555
1588856536457049306,932,1588856536456927004,,0.557841375516,-4.34579434682,3.31409679157,0.577650477416,0.00676478910428,-0.111740233328
1588856536460072694,933,1588856536459977921,,0.556997258166,-4.34597705419,3.36057942518,0.581929603051,0.00741818899764,-0.111678114254
1588856536466206756,934,1588856536465999300,,0.556904875469,-4.34600280106,3.36056143925,0.581931426853,0.00741358326359,-0.111668916276
1588856536469062455,935,1588856536468859324,,0.556256559014,-4.47843024176,3.38428155237,0.586370253143,0.00806431923904,-0.111593369536
1588856536472147676,936,1588856536472052675,,0.55547177722,-4.47866302745,3.43058618796,0.591562965974,0.00805405572666,-0.11152164351
1588856536478010269,937,1588856536477891688,,0.555383317226,-4.47865317342,3.43061337445,0.591563938704,0.00804530129018,-0.1115171155
1588856536480969441,938,1588856536480841323,,0.555015529837,-4.47879518275,3.4538296733,0.595954390802,0.00804369258219,-0.109638230601
1588856536484055355,939,1588856536483961887,,0.531320330453,-4.47880315042,3.47661906494,0.600347050857,0.00803064855414,-0.107893253572
1588856536489992885,940,1588856536489802259,,0.531305024816,-4.47880758924,3.47661568564,0.600348245159,0.00803417443461,-0.107886345435
1588856536492915545,941,1588856536492811940,,0.530459078089,-4.47897806842,3.52311646198,0.605554995412,0.00736352768332,-0.107802601583
1588856536495930133,942,1588856536495851905,,0.530082075858,-4.47912998126,3.54622652157,0.606323076653,0.00736645231344,-0.10779223307
1588856536501935295,943,1588856536501838177,,0.529455940559,-4.61160443609,3.56987241613,0.609832625588,0.00802502516265,-0.107729963958
1588856536504943248,944,1588856536504861056,,0.505808700198,-4.61161437241,3.59263704932,0.614250010714,0.00736092851536,-0.106903133874
1588856536507956436,945,1588856536507881615,,0.505849840621,-4.61170055798,3.59252062366,0.615160006091,0.00737060330805,-0.10688498232
1588856536513947824,946,1588856536513841790,,0.528777758071,-4.61180707863,3.61630723094,0.618694681166,0.00736153551343,-0.107602355204
1588856536516956321,947,1588856536516874464,,0.528207551197,-4.7443513522,3.63985866974,0.624058400689,0.00735702310266,-0.108430345364
1588856536520221218,948,1588856536520100504,,0.551319922914,-4.61215844843,3.66297227491,0.626689589408,0.00736385244499,-0.110062570159
1588856536526198397,949,1588856536526085580,,0.573663342352,-4.74480739724,3.71030841554,0.633749874772,0.0073540255194,-0.111632143952
1588856536529017185,950,1588856536528931745,,0.573737465314,-4.74483245269,3.71026491271,0.633748659679,0.0073596599632,-0.111638670666
1588856536532188619,951,1588856536532023786,,0.573830834746,-4.74483772857,3.71024372628,0.637414640071,0.00735869125586,-0.111591273969
1588856536538056678,952,1588856536537927764,,0.572994914769,-4.74500643515,3.75664967244,0.640780819358,0.00735073080407,-0.11153652281
1588856536541046351,953,1588856536540880759,,0.595743711127,-4.74514298756,3.78030975396,0.647051543299,0.0073302684075,-0.112202248663
1588856536544023740,954,1588856536543867322,,0.595777892366,-4.74512607895,3.7803255912,0.649799188304,0.0073265620636,-0.112163364794
1588856536550071360,955,1588856536549953274,,0.571943012918,-4.87755449822,3.80361017468,0.652362890679,0.00664669533302,-0.110459529536
1588856536553034957,956,1588856536552898516,,0.59406050448,-4.8778604639,3.87364063872,0.659239985799,0.00729977242377,-0.110231029368
1588856536559163916,957,1588856536559000633,,0.546331676523,-4.87803535019,3.94241591989,0.669695692757,0.0072781695462,-0.105813849234
1588856536562006132,958,1588856536561917691,,0.546233306072,-4.87800903297,3.94246211314,0.669697370463,0.00727213640927,-0.105803645333
1588856536565239448,959,1588856536565154645,,0.545409276668,-4.87820506549,3.98893658817,0.677644508792,0.00790910456748,-0.105687133255
1588856536570973163,960,1588856536570887629,,0.54539848748,-4.87824026457,3.98889501686,0.677645671117,0.00791503664478,-0.10567923627
1588856536573942168,961,1588856536573854029,,0.520508662579,-4.87871288539,4.08115256434,0.687075999034,0.0072358980186,-0.102950455304
1588856536576964714,962,1588856536576845963,,0.543798890464,-4.87882139489,4.08152002353,0.689809451619,0.00723088789225,-0.102764893727
1588856536583032368,963,1588856536582941264,,0.542462907615,-4.74686505964,4.17394053963,0.702940463179,0.00653643858325,-0.101659295448
1588856536585970142,964,1588856536585882909,,0.542399163435,-4.74686145598,4.1739529219,0.702941973986,0.00653607737222,-0.101648871397
1588856536589251043,965,1588856536589018306,,0.542097020049,-4.74695333643,4.19714287283,0.706450812959,0.00721676707352,-0.101591230199
1588856536595089313,966,1588856536595003695,,0.540864692096,-4.74727290188,4.26680868937,0.715201658573,0.00586557387683,-0.103270028998
1588856536597944812,967,1588856536597860339,,0.564130930903,-4.74736026751,4.26722178092,0.717966664195,0.00585854537756,-0.103985759975
1588856536600971778,968,1588856536600870382,,0.564171392244,-4.74738598229,4.26718782334,0.717966145578,0.00586228589581,-0.103989129893
1588856536606931747,969,1588856536606837541,,0.563192058218,-4.87993818507,4.3139916565,0.725963987324,0.00519649222008,-0.106584319884
1588856536609925745,970,1588856536609848435,,0.563127644332,-4.87997826221,4.31395473012,0.725964337292,0.00518952095761,-0.106582275829
1588856536613148507,971,1588856536612997705,,0.585730476884,-4.74788912722,4.36047075644,0.72934951514,0.00518213560533,-0.107288812731
1588856536619126011,972,1588856536618925995,,0.585501511248,-4.88024246039,4.36088059905,0.73304438149,0.00517162378043,-0.109058685635
1588856536622183885,973,1588856536621938849,,0.585086678073,-4.88032424534,4.38409845352,0.73932914665,0.00516119095286,-0.109863273571
1588856536624988872,974,1588856536624872943,,0.608317896878,-4.74815105974,4.40739396808,0.741943064964,0.00515727227638,-0.110604059887
1588856536630954221,975,1588856536630853006,,0.584066070514,-4.74830268122,4.45336033399,0.74806059456,0.00446292136325,-0.110641314221
1588856536634055031,976,1588856536633835705,,0.583624148795,-4.74840976768,4.4765585366,0.752505577649,0.00444632754595,-0.111491338584
1588856536637014055,977,1588856536636920854,,0.605832110622,-4.8809399049,4.52399063243,0.759585862544,0.00442159298044,-0.113958923278
1588856536642969562,978,1588856536642876487,,0.605720833465,-4.88095362399,4.52399073122,0.759586863907,0.00441016126066,-0.11395269156
1588856536646073226,979,1588856536645991045,,0.628164284009,-4.88115899114,4.57088103061,0.766688970088,0.0037209027287,-0.117347654806
1588856536652123166,980,1588856536651953148,,0.628110840719,-4.88119847305,4.57084621256,0.766689041586,0.00371354369378,-0.117347420789
1588856536654969135,981,1588856536654881652,,0.627003581122,-5.01377572212,4.61772646087,0.771868406219,0.00302515705022,-0.116352127677
1588856536658025669,982,1588856536657933925,,0.626901520018,-4.88158775335,4.64045335116,0.77450102407,0.00302395465776,-0.118138654918
1588856536661081900,983,1588856536660953961,,0.626112205388,-4.88177745808,4.68696587778,0.778787137585,0.00234802545246,-0.118079929242
1588856536667255307,984,1588856536667157003,,0.626060256051,-4.88177397969,4.68697644014,0.778786341628,0.00233407652919,-0.118085455334
1588856536670090601,985,1588856536669992200,,0.671072876667,-5.0144515515,4.75795718662,0.786651120843,0.003642086588,-0.121308701323
1588856536675957205,986,1588856536675807127,,0.671128637786,-5.01452420664,4.75787274845,0.78665024396,0.00364746479437,-0.121314225928
1588856536679237246,987,1588856536679016218,,0.670617495053,-5.01456153713,4.78125492068,0.791092479733,0.0036335471146,-0.121229227139
1588856536681930016,988,1588856536681864095,,0.647371716146,-5.01443859911,4.78088555244,0.792886265769,0.00295216506633,-0.119529885291
1588856536685004075,989,1588856536684916369,,0.669838473165,-5.01457246052,4.82785122773,0.795348682949,0.00361652451085,-0.120260633062
1588856536690975706,990,1588856536690891889,,0.669893701325,-5.01443967166,4.8279814858,0.79901518743,0.00360258416274,-0.120213811189
1588856536694042884,991,1588856536693959106,,0.669181261483,-5.01464926469,4.87446110499,0.803293240117,0.00360373582207,-0.120151980715
1588856536700116621,992,1588856536699960748,,0.66888365033,-5.01462458726,4.89777649895,0.805905739472,0.00292954147257,-0.121031837669
1588856536703118511,993,1588856536703028219,,0.668605528364,-5.01464269521,4.92104507917,0.811233698632,0.00293511791554,-0.120038832368
1588856536706049723,994,1588856536705941569,,0.645261411686,-4.88231172796,4.94354436605,0.812891829391,0.0029433414165,-0.118327684824
1588856536715220584,995,1588856536715107032,,0.645358023067,-4.88225341205,4.94358934784,0.812891770469,0.00295833300622,-0.118327715751
1588856536718067237,996,1588856536717993351,,0.667323276964,-4.88258465363,5.01367491835,0.817945097133,0.00295177061567,-0.118087973254
1588856536721093759,997,1588856536721006884,,0.667341727801,-4.88244705341,5.01380646134,0.817946187386,0.00295987581957,-0.118080218394
1588856536724163002,998,1588856536723980333,,0.667278499943,-4.88240174062,5.01385900175,0.818840808893,0.00362970254523,-0.117144656712
1588856536727045926,999,1588856536726960353,,0.666467391761,-4.88255221336,5.06041807636,0.82130268753,0.00363854726906,-0.117091518325
1588856536730029910,1000,1588856536729940403,,0.666465589703,-4.88255949269,5.06041129021,0.82221284077,0.00364070467779,-0.117072832076
1588856536739224154,1001,1588856536739044353,,0.666515532532,-4.88252008385,5.06044273593,0.822212160178,0.00364343147344,-0.117077527003
1588856536742035916,1002,1588856536741943938,,0.666712750068,-4.75016036307,5.06008773498,0.81945512103,0.00364266869415,-0.116213563197
1588856536744966529,1003,1588856536744858519,,0.666642683725,-4.75016375472,5.06009378246,0.817654138842,0.00430974054471,-0.118058529105
1588856536748009639,1004,1588856536747879968,,0.666667464167,-4.75012962687,5.06012255502,0.815823390916,0.00364489516511,-0.118088637709
1588856536751123010,1005,1588856536751009914,,0.689916639831,-4.75020742629,5.06053871608,0.814962163172,0.00296449307942,-0.120708278618
1588856536754197386,1006,1588856536754056258,,0.690770574305,-4.74997383175,5.01405004464,0.811609685143,0.00296974521415,-0.121679048594
1588856536760124607,1007,1588856536760023139,,0.690761555833,-4.74999473684,5.01403148292,0.81070640075,0.00295682578502,-0.122615926454
1588856536763112187,1008,1588856536762972878,,0.737396494045,-4.75011696012,5.01489347312,0.807149307947,0.002308812056,-0.127857600492
1588856536769073364,1009,1588856536768941097,,0.784121873372,-4.61807577956,5.01524479918,0.805462734707,0.00231832082902,-0.134881854105
1588856536772217527,1010,1588856536772032374,,0.784081727942,-4.61816310495,5.01517066447,0.805463635236,0.00231945447971,-0.134876456888
1588856536775177369,1011,1588856536775008600,,0.807195574105,-4.75068308595,5.01586085232,0.804576459102,0.00165364871287,-0.136567023263
1588856536778276508,1012,1588856536778154530,,0.80751560797,-4.75066236311,4.99259126515,0.803826613799,0.00164316526072,-0.137498123676
1588856536784281005,1013,1588856536784141099,,0.854065760842,-4.75080679731,4.99345374165,0.803030225804,0.000980476951305,-0.143591650075
1588856536787200136,1014,1588856536787079822,,0.854154680459,-4.75085889371,4.99338896674,0.803048951073,0.0009992745277,-0.144499428301
1588856536793261982,1015,1588856536793097153,,0.85411479518,-4.7509804339,4.99328014962,0.803048869041,0.000995294108747,-0.144499911662
1588856536796192921,1016,1588856536796089475,,0.900143826779,-4.75114630914,5.01742957533,0.804824954911,0.000993422839849,-0.148730080062
1588856536799343280,1017,1588856536799222350,,0.89960069556,-4.75118150889,5.04082389097,0.806539893135,0.000994765477839,-0.149584723881
1588856536802171716,1018,1588856536802004677,,0.899620196504,-4.75111489138,5.04088319965,0.806540947174,0.00100250697039,-0.149578988854
1588856536808178688,1019,1588856536808018316,,0.899230825144,-4.75115517664,5.06414509445,0.807307986553,0.000340118351042,-0.149566941407
1588856536811137122,1020,1588856536810994757,,0.922293722125,-4.61907183833,5.08737522995,0.811772782497,0.000998660950123,-0.151168352925
1588856536817112356,1021,1588856536817021825,,0.898874748323,-4.61905326916,5.08690703463,0.812667491582,0.00033454183029,-0.150374991754
1588856536820091530,1022,1588856536820000893,,0.875270743344,-4.61906145913,5.10969843619,0.818916870957,0.000324925557163,-0.149513855387
1588856536823211218,1023,1588856536823111655,,0.89790286358,-4.75159762942,5.13376054787,0.819647176119,0.000319500159305,-0.147533296718
1588856536829153191,1024,1588856536829031296,,0.898085570915,-4.61941625507,5.13328044572,0.820538455459,0.000319815324743,-0.14659664672
1588856536832143859,1025,1588856536831999777,,0.873813057799,-4.75181061019,5.17968058512,0.828411049057,0.000297833129464,-0.142977736112
1588856536834929176,1026,1588856536834828917,,0.850279164206,-4.75188138571,5.2024053026,0.830934302638,0.000288866643852,-0.139454458926
1588856536841275248,1027,1588856536841101648,,0.849925694288,-4.75191203437,5.22577225916,0.834415314117,0.000271687925959,-0.137584229332
1588856536844121007,1028,1588856536844028596,,0.802746421359,-4.88410380696,5.24856430993,0.83963949421,0.000260244061833,-0.131409276218
1588856536847142313,1029,1588856536847043426,,0.779076458088,-5.01635861389,5.2485230473,0.842305679312,0.00158814604222,-0.126930300149
1588856536853124512,1030,1588856536852977940,,0.779144620525,-5.01625724014,5.24860981688,0.84230307887,0.00157884827434,-0.126947671376
1588856536856146062,1031,1588856536856029616,,0.755498494248,-5.01620286256,5.27147112731,0.845631069358,0.0015627667511,-0.117915502746
1588856536859332761,1032,1588856536859099875,,0.755354908134,-5.01618092025,5.27151258343,0.845633890619,0.00155923331783,-0.117895315084
1588856536865184487,1033,1588856536865088812,,0.731998730424,-5.01614203352,5.27105600662,0.846521992617,0.00222866656924,-0.116201675199
1588856536868254391,1034,1588856536868171113,,0.731282062472,-5.14851009568,5.29481726007,0.847205711799,0.00287856232133,-0.111625994235
1588856536870917467,1035,1588856536870811438,,0.708015831785,-5.14853718657,5.29429991824,0.847156572022,0.00355291227399,-0.109028248002
1588856536877059584,1036,1588856536876934185,,0.661042560054,-5.14849046101,5.31665849654,0.846919251877,0.00287859483151,-0.104766349353
1588856536880159659,1037,1588856536880049194,,0.684239274616,-5.14855964975,5.31708994044,0.846899123836,0.00353547603775,-0.103717713443
1588856536883092152,1038,1588856536882994078,,0.660377876018,-5.28099290133,5.34018733525,0.848518516618,0.00419434505205,-0.100201192186
1588856536889094770,1039,1588856536888946292,,0.660403527804,-5.28100189791,5.34017526617,0.848517963499,0.00419386262027,-0.100205896162
1588856536892187264,1040,1588856536892069682,,0.683780350055,-5.14875644225,5.34021046982,0.850378768195,0.00350254073779,-0.101848288634
1588856536895168860,1041,1588856536895031448,,0.684055262992,-5.28097239302,5.3173934719,0.8496269461,0.00351197589072,-0.102779058746
1588856536904161603,1042,1588856536904075505,,0.707378163273,-5.28096429308,5.31790062221,0.852460211905,0.00282023392622,-0.107168882314
1588856536907078614,1043,1588856536906976032,,0.707430575648,-5.28098543695,5.31787265301,0.852459485486,0.00282341940582,-0.107174576489
1588856536910170421,1044,1588856536910050815,,0.730716104789,-5.28107733624,5.31827048267,0.853420028563,0.00348974068192,-0.109753810796
1588856536913135202,1045,1588856536913040347,,0.7783410398,-5.14859060096,5.27231844686,0.848305574389,0.00350261643265,-0.114104308372
1588856536922126150,1046,1588856536921982299,,0.802503279758,-5.14821160896,5.2265820208,0.842261401211,0.00418619675288,-0.117707439174
1588856536925116378,1047,1588856536924973187,,0.802941821288,-5.14798991536,5.20339424537,0.840577619133,0.00351451919813,-0.117740327002
1588856536928066730,1048,1588856536927964792,,0.827014837578,-5.14767164061,5.1576033494,0.836360106402,0.00351540067397,-0.121319269088
1588856536934235217,1049,1588856536934115535,,0.827745743638,-5.01521901815,5.13399851335,0.825616062551,0.00355051925719,-0.126056178082
1588856536937087371,1050,1588856536936959944,,0.897756183428,-5.1475870732,5.11247193199,0.823079480691,0.00355783870973,-0.129298292409
1588856536946282655,1051,1588856536946130314,,0.89945097928,-5.14723201789,5.01952015318,0.811821294351,0.00425822812579,-0.132224980291
1588856536949133983,1052,1588856536949039367,,0.899465658424,-5.14723101864,5.01951854747,0.811819345722,0.00424826580506,-0.132237264149
1588856536952267693,1053,1588856536952036210,,0.899305709711,-5.14702079349,5.01976277031,0.811859080097,0.00489663825664,-0.134057830106
1588856536955189624,1054,1588856536955078537,,0.899626221516,-5.27931003422,4.99692253678,0.808321861108,0.00491643199832,-0.133203973488
1588856536958167701,1055,1588856536958063652,,0.900298884627,-5.27926564018,4.9736218794,0.805740108341,0.00495061497506,-0.134179471245
1588856536961123231,1056,1588856536961027505,,0.901068113103,-5.27897519954,4.92724081976,0.802369479857,0.00494047353862,-0.134241146031
1588856536964614444,1057,1588856536964488871,,0.924763578261,-5.27906029148,4.90436663053,0.798869530775,0.00560577416095,-0.135062420291
1588856536970149987,1058,1588856536970043070,,0.925338701222,-5.27900842906,4.88109089413,0.788927513052,0.00565560199406,-0.134298143841
1588856536973223663,1059,1588856536973069652,,0.925341189219,-5.27903157686,4.88106538748,0.788927631972,0.00565733204753,-0.134297372383
1588856536976194973,1060,1588856536976103383,,0.90323563478,-5.27867102497,4.81094783748,0.779307815402,0.00635269042286,-0.134599517135
1588856536982270412,1061,1588856536982059022,,0.903227207659,-5.27862280289,4.81100232934,0.779308103397,0.00635163861085,-0.134597899319
1588856536988118791,1062,1588856536988019898,,0.88195383391,-5.27817063625,4.69441106431,0.761661417275,0.00705525076998,-0.131370546383
1588856536991089449,1063,1588856536991001460,,0.882004058212,-5.27816024839,4.69441330784,0.76166137113,0.00706256004704,-0.131370421177
1588856536994211360,1064,1588856536994028617,,0.905197481451,-5.27817016568,4.69491874166,0.75706300575,0.0070672293626,-0.13037390824
1588856536997188469,1065,1588856536997087585,,0.882258591175,-5.27804584783,4.67117131133,0.75262027505,0.00707396580907,-0.129666426726
1588856537000029751,1066,1588856536999872532,,0.882695442043,-5.2779291614,4.64799805585,0.749083845955,0.00707957963884,-0.128819028739
1588856537006266310,1067,1588856537006173685,,0.883109731044,-5.27784705636,4.62479040274,0.745559967755,0.007749530367,-0.127965305455
1588856537009212461,1068,1588856537009058242,,0.883318561503,-5.41017079788,4.60198973025,0.738348203312,0.00776661467176,-0.126249106266
1588856537015200936,1069,1588856537015103426,,0.86044893084,-5.41009630815,4.57817365418,0.736662595156,0.00778059007824,-0.126405370071
1588856537018220623,1070,1588856537018082648,,0.884005343083,-5.41013765703,4.5553530706,0.730406595363,0.00779416240757,-0.126344037762
1588856537021182020,1071,1588856537021093170,,0.861704713132,-5.27752480177,4.50808992225,0.723341334015,0.00847412818797,-0.124777407252
1588856537030334151,1072,1588856537030232320,,0.862904756837,-5.27726033369,4.43840409883,0.714630793201,0.00917392900249,-0.124896793786
1588856537033164625,1073,1588856537033073641,,0.863229325714,-5.27721369314,4.41517493145,0.711108053031,0.0091842943804,-0.124027514636
1588856537036149990,1074,1588856537036021195,,0.863152150014,-5.27711466247,4.41530838247,0.711111100906,0.00918616730543,-0.124009899741
1588856537042380846,1075,1588856537042252060,,0.863684668607,-5.40939088449,4.36920498027,0.701338139374,0.00920429263481,-0.124150182409
1588856537045312056,1076,1588856537045180429,,0.840735141462,-5.40920706557,4.34561648501,0.696908082471,0.00922383237348,-0.124343542081
1588856537048052935,1077,1588856537047952235,,0.840668495328,-5.40924148715,4.34558653184,0.696911279456,0.00923120825551,-0.124325075168
1588856537054236611,1078,1588856537054128213,,0.887418732829,-5.2769815356,4.34602315538,0.695097673324,0.00989947716466,-0.124967997413
1588856537057099177,1079,1588856537057016147,,0.864807983199,-5.40910661341,4.29957816177,0.688038255303,0.0105831442175,-0.12339456848
1588856537063277102,1080,1588856537063095674,,0.864878001709,-5.4092960382,4.2993257594,0.688037709719,0.0105957951333,-0.12339652492
1588856537066514618,1081,1588856537066418402,,0.84194832217,-5.40921023174,4.27561025332,0.684466830078,0.0106007004807,-0.120873832755
1588856537069180693,1082,1588856537069047303,,0.841797531267,-5.40929694427,4.27553023984,0.685350197234,0.010589672783,-0.119024392821
1588856537075217106,1083,1588856537075102997,,0.795249660696,-5.40915275302,4.27466680805,0.684342235666,0.0105922248578,-0.114780062856
1588856537078093287,1084,1588856537078012855,,0.795323490832,-5.40924198639,4.27454015373,0.684340762028,0.0105972879758,-0.114788381328
1588856537081227140,1085,1588856537081119630,,0.8185889743,-5.40933336823,4.27495882271,0.683429432883,0.0112580467443,-0.114664016493
1588856537087135479,1086,1588856537087007948,,0.818651342427,-5.40939652265,4.2748669656,0.68342832142,0.011262699898,-0.114670183999
1588856537090181112,1087,1588856537089962712,,0.818862218387,-5.40950199461,4.27469310839,0.682470708572,0.0119552991578,-0.112880597769
1588856537093110857,1088,1588856537093030205,,0.772272890057,-5.40938955249,4.27380200434,0.682420637096,0.0119535225777,-0.110434582387
1588856537102191065,1089,1588856537102056436,,0.772418747294,-5.5417827175,4.25095503182,0.680679944055,0.0132806803822,-0.10772708149
1588856537108209497,1090,1588856537108112105,,0.749024233884,-5.5416777271,4.25058165357,0.67971814183,0.0132764155291,-0.105157686339
1588856537111185140,1091,1588856537111077034,,0.749171474564,-5.40920028663,4.25024894468,0.680609901061,0.0132711148746,-0.104230622195
1588856537114126451,1092,1588856537114014005,,0.725773654105,-5.54151723465,4.25027545448,0.680593344248,0.0132694475242,-0.103475296301
1588856537117158614,1093,1588856537117071626,,0.725729164255,-5.5414909088,4.25031737469,0.679646029034,0.0132617232059,-0.101668957932
1588856537123121370,1094,1588856537123018569,,0.725564661737,-5.67398032631,4.25065060641,0.678706943789,0.0132642673174,-0.100782719663
1588856537126183309,1095,1588856537126089094,,0.725731321842,-5.54152270864,4.25027554588,0.678688247698,0.013258789399,-0.0998658489887
1588856537132395069,1096,1588856537132079992,,0.72561952345,-5.54141919187,4.25042959534,0.678689520774,0.013248304032,-0.0998585884414
1588856537135179823,1097,1588856537135084107,,0.726299969711,-5.40887216634,4.22675384911,0.679765251135,0.0132530402308,-0.100760084531
1588856537138189422,1098,1588856537138027078,,0.74967523975,-5.40899361124,4.22709119172,0.679797097579,0.0132615922784,-0.102443349242
1588856537141074130,1099,1588856537140975781,,0.749696554552,-5.40893790244,4.22715869566,0.679796602873,0.0132603716722,-0.10244678997
1588856537147071732,1100,1588856537146961310,,0.75016761104,-5.40884526448,4.20396215569,0.677217357396,0.0132722633711,-0.103396220114
1588856537150068729,1101,1588856537149948148,,0.75025382817,-5.40894756672,4.20381514342,0.677215643799,0.0132771440676,-0.103406816537
1588856537156146919,1102,1588856537156022170,,0.774085523935,-5.40893127462,4.18103434084,0.673760286055,0.0132890673671,-0.106059985456
1588856537162355728,1103,1588856537162108521,,0.751217860568,-5.40882986176,4.15733006013,0.672993956785,0.0132950925168,-0.106218918538
1588856537165472602,1104,1588856537165373515,,0.774111712558,-5.40895787481,4.18099507968,0.673778811546,0.0132929297489,-0.10696752725
1588856537171108309,1105,1588856537170999609,,0.774233735991,-5.27646953727,4.18068255135,0.671979534549,0.0139572695806,-0.108818544257
1588856537174023573,1106,1588856537173934638,,0.774210873764,-5.27652894827,4.18061180115,0.671981168484,0.013964644041,-0.108807507649
1588856537180142497,1107,1588856537180020427,,0.774612194081,-5.27645528363,4.15740122611,0.670320314545,0.0139582563898,-0.109752256495
1588856537183105216,1108,1588856537183010927,,0.774527308945,-5.27651671151,4.15733907772,0.669383658939,0.013957487435,-0.108850304243
1588856537186059813,1109,1588856537185957698,,0.774906855831,-5.27637867491,4.13411507193,0.667682161316,0.0132865125077,-0.107958357535
1588856537189240811,1110,1588856537189161985,,0.774367449346,-5.27648198418,4.15741293237,0.66845638675,0.0139411180929,-0.107942814865
1588856537195156651,1111,1588856537195088471,,0.774359144095,-5.2765212196,4.15736468227,0.668456501749,0.0139415736885,-0.107942043862
1588856537198189701,1112,1588856537198099127,,0.774834902295,-5.27640595263,4.13409374367,0.668590687915,0.0132699435752,-0.107951858521
1588856537204135456,1113,1588856537204027925,,0.77499345493,-5.14396861718,4.13371828611,0.667684385571,0.0139438101458,-0.107956238446
1588856537207265513,1114,1588856537207161243,,0.775044614071,-5.14396819034,4.13370922557,0.66768304112,0.0139437514289,-0.107964560822
1588856537210068183,1115,1588856537209971451,,0.77508421432,-5.14398203608,4.13368457092,0.667680285404,0.0132737099431,-0.107971533389
1588856537216254549,1116,1588856537216136567,,0.751617492585,-5.27632684552,4.13365292024,0.667645277191,0.0132783801995,-0.106302656512
1588856537222066437,1117,1588856537221998434,,0.774950157577,-5.2764882012,4.13396716244,0.666705140664,0.0139492483001,-0.105271841184
1588856537228161490,1118,1588856537228070806,,0.774623653177,-5.2765423913,4.15728853401,0.667475338279,0.0139497373404,-0.105269475135
1588856537231140660,1119,1588856537231022784,,0.774736327997,-5.27655633337,4.15724984204,0.667474270913,0.0139603447054,-0.105274836606
1588856537234187010,1120,1588856537234085117,,0.751934048026,-5.14397838842,4.13313697667,0.665797296222,0.0139591002417,-0.105435572943
1588856537240106981,1121,1588856537239996839,,0.751751224354,-5.27635345326,4.13359463831,0.663940499042,0.0139680564433,-0.104551252448
1588856537243090281,1122,1588856537243000418,,0.751824616364,-5.27636628471,4.13356491139,0.663939892447,0.0139755242784,-0.104554106546
1588856537246263615,1123,1588856537246144856,,0.775324405767,-5.14402764202,4.13358277316,0.663047958612,0.014636027871,-0.105331622284
1588856537252174085,1124,1588856537252038154,,0.775262342611,-5.1440856117,4.13352227262,0.663049238989,0.0146357395832,-0.10532360223
1588856537255170062,1125,1588856537255082056,,0.728671418803,-5.14395271952,4.13265922233,0.662059060098,0.0139691051591,-0.101990547413
1588856537258097503,1126,1588856537258017153,,0.752340152667,-5.14388742763,4.1099451467,0.66130667045,0.0146284532101,-0.102771631938
1588856537264564336,1127,1588856537264473220,,0.728695350325,-5.14390156817,4.13271867038,0.662958227963,0.0139591720289,-0.101081505353
1588856537267436669,1128,1588856537267334988,,0.729081338603,-5.14381047538,4.10953058521,0.663117157043,0.0139520050459,-0.101991762198
1588856537270198694,1129,1588856537270100033,,0.728210455439,-5.14403240822,4.15597522156,0.663731324108,0.014605236299,-0.101073187923
1588856537276139493,1130,1588856537276035043,,0.728111129472,-5.14401331689,4.15601625421,0.663731886951,0.0145933466098,-0.101071209179
1588856537282228723,1131,1588856537282124783,,0.775084891261,-5.14408303464,4.13355875761,0.663956856606,0.0145965776202,-0.105326370926
1588856537288170849,1132,1588856537288024767,,0.775157248116,-5.14396144717,4.133696497,0.663954999627,0.0145934019147,-0.105338516292
1588856537291283377,1133,1588856537291162841,,0.775173784737,-5.14402967434,4.13360849278,0.664890299614,0.0139292263851,-0.106239023099
1588856537294228979,1134,1588856537294125635,,0.775554960824,-5.14392932631,4.11043340042,0.66323953097,0.0139280553215,-0.108080967186
1588856537300300129,1135,1588856537300191149,,0.79899115265,-5.01160980681,4.11043183059,0.661443112738,0.0132619282148,-0.10979018381
1588856537303262691,1136,1588856537303150031,,0.798955934879,-5.01164609608,4.11039443038,0.661443521883,0.0132598882564,-0.109787965238
1588856537306205583,1137,1588856537306118701,,0.798923066737,-5.01162609936,4.11042520006,0.661462472368,0.013255796283,-0.110694180122
1588856537315214792,1138,1588856537315067408,,0.822657391024,-5.01154650291,4.08773870459,0.660709945277,0.0132580148198,-0.111469929505
1588856537318088940,1139,1588856537317994491,,0.84594614295,-5.01164718862,4.08812253644,0.660817166012,0.0125941673451,-0.116782219663
1588856537321270566,1140,1588856537321162390,,0.869424412548,-4.87932662208,4.08815153013,0.659924994045,0.0125982479676,-0.117552964699
1588856537324288708,1141,1588856537324184670,,0.845925746323,-5.01164980815,4.08812354573,0.65808204305,0.0132735872935,-0.116815525844
1588856537327212536,1142,1588856537327123371,,0.845954987619,-5.01169127929,4.08806665466,0.658081755945,0.013277652197,-0.11681668129
1588856537330257031,1143,1588856537330086412,,0.846001936222,-5.0117095217,4.08803457506,0.658080774947,0.0132800668928,-0.116821933093
1588856537336276340,1144,1588856537336184638,,0.869340703598,-5.01177411222,4.08847527219,0.658096965165,0.0132842206214,-0.117584452819
1588856537345239478,1145,1588856537345083505,,0.869881525316,-4.87934171579,4.06481816282,0.656449598719,0.0132945312968,-0.119420208198
1588856537348143891,1146,1588856537348040891,,0.892529600695,-5.01185816342,4.08890172798,0.657234813554,0.0139603552118,-0.120173931573
1588856537351132334,1147,1588856537351037481,,0.892904883892,-5.01177779772,4.06570232851,0.656484101001,0.0132903451115,-0.121091012227
1588856537357230009,1148,1588856537357085140,,0.89286938035,-5.01180077933,4.06568179613,0.656484127126,0.0132858490393,-0.121091363973
1588856537360295391,1149,1588856537360132413,,0.869660887591,-5.01178429126,4.06517583337,0.657349624078,0.0132866277137,-0.118502164077
1588856537363230452,1150,1588856537363125271,,0.86968160235,-5.01178145453,4.0651748991,0.657348600904,0.0132843896458,-0.118508090542
1588856537369185631,1151,1588856537369084640,,0.892615951379,-4.87955937566,4.08840155718,0.659062439345,0.0132776222308,-0.120144272958
1588856537372333523,1152,1588856537372129639,,0.892583520469,-4.87954380861,4.08842721702,0.659063763949,0.0132791220154,-0.120136840729
1588856537375168846,1153,1588856537375056139,,0.893029862904,-4.87945701648,4.06521739063,0.657386632535,0.0139537855828,-0.120167860816
1588856537381333944,1154,1588856537381221580,,0.869962916889,-4.74702644451,4.06435074144,0.656452596202,0.0139571216152,-0.119413571494
1588856537384345865,1155,1588856537384140757,,0.869951059508,-4.74700562422,4.06437759673,0.656453523329,0.0139596548763,-0.119408178552
1588856537387256231,1156,1588856537387170054,,0.869835232493,-4.87937883101,4.06478351651,0.654585264075,0.013965640426,-0.117619704852
1588856537393112131,1157,1588856537393024523,,0.870035023948,-4.74703138518,4.06432953589,0.653685646292,0.0139741999229,-0.118546393327
1588856537396099126,1158,1588856537396010018,,0.847587307166,-4.74675297873,4.01741248739,0.651182843003,0.014642366582,-0.11600024853
1588856537405199645,1159,1588856537405102681,,0.847816024593,-4.61434605926,4.01702878315,0.649332898722,0.0139885574692,-0.115124508971
1588856537408331226,1160,1588856537408181438,,0.847826479762,-4.61436808567,4.0170012747,0.649332955637,0.0139912198173,-0.115123864426
1588856537411204098,1161,1588856537411123042,,0.847831548549,-4.61438086873,4.01698552081,0.649351580557,0.0139909246638,-0.116032445008
1588856537417308156,1162,1588856537417180621,,0.870898533619,-4.74680659997,4.01787326523,0.648450690471,0.0146465552617,-0.11680658912
1588856537420215672,1163,1588856537420125065,,0.871044058403,-4.61450409453,4.01738745025,0.648449624283,0.0139862486782,-0.116803571375
1588856537423239019,1164,1588856537423119708,,0.87104380554,-4.61451320485,4.01737704064,0.648449474626,0.013985633303,-0.116804475894
1588856537429128472,1165,1588856537429035953,,0.870998936355,-4.61450016608,4.01740174562,0.648449879801,0.0139802120375,-0.116802875516
1588856537432208896,1166,1588856537432104938,,0.871413659404,-4.61438172285,3.99423174334,0.647681455661,0.0139831474066,-0.116814675061
1588856537435125950,1167,1588856537435036395,,0.871435476709,-4.6143907501,3.99421655458,0.64768044765,0.0139813529205,-0.11682047864
1588856537441133908,1168,1588856537441022754,,0.871443686389,-4.61439424285,3.99421072835,0.646789999581,0.0139843960237,-0.117741240575
1588856537444163461,1169,1588856537444071777,,0.871990999714,-4.48195592761,3.97058821038,0.645084213886,0.0139878598796,-0.116854921769
1588856537450167802,1170,1588856537450077077,,0.87203987485,-4.48194140543,3.97059386893,0.645082549822,0.0139861492194,-0.116864312412
1588856537453187336,1171,1588856537453047503,,0.872062003281,-4.48193926148,3.97059142898,0.644164488963,0.0146492702912,-0.116879869412
1588856537456189551,1172,1588856537456099379,,0.848775148951,-4.4818616157,3.97015199412,0.64321862112,0.0139947038075,-0.115221673678
1588856537465499087,1173,1588856537465361464,,0.849199616074,-4.48172760014,3.94689591192,0.64152804366,0.0146537176374,-0.115254324913
1588856537468554976,1174,1588856537468393296,,0.849776013804,-4.34933445125,3.92322167893,0.640740238053,0.0146535959809,-0.114362175052
1588856537474301862,1175,1588856537474072607,,0.826615621443,-4.34926332181,3.9227718903,0.637966228044,0.0146607647889,-0.112730681031
1588856537477191088,1176,1588856537477086757,,0.849814405114,-4.34935217077,3.92319371889,0.638002727801,0.0153287906777,-0.114409523998
1588856537480244886,1177,1588856537480116046,,0.826616982856,-4.34928213771,3.92275074172,0.636145983563,0.0146611985474,-0.113679019445
1588856537486403486,1178,1588856537486312548,,0.803340077134,-4.34921918262,3.92229488704,0.636072627151,0.0146624621296,-0.11018767832
1588856537489164514,1179,1588856537489079119,,0.803302419994,-4.34921522219,3.92230699105,0.636073330027,0.0146601762201,-0.110183924972
1588856537495128640,1180,1588856537495031716,,0.803287301003,-4.34920713653,3.92231905312,0.636073424132,0.0146579237956,-0.110183681381
1588856537498278871,1181,1588856537498111353,,0.827136288827,-4.21691594161,3.89907055376,0.635340223754,0.0146582203438,-0.111864283013
1588856537501235732,1182,1588856537501131159,,0.827110768513,-4.2169182858,3.89907343219,0.635342072728,0.0153241577541,-0.111863786199
1588856537504315311,1183,1588856537504217680,,0.827137396348,-4.21691534073,3.89907096868,0.633512769791,0.0153287038109,-0.111894441111
1588856537510203013,1184,1588856537510119148,,0.804216564324,-4.21674037439,3.87534226,0.630877439795,0.0153294655543,-0.110263827585
1588856537513208760,1185,1588856537513136778,,0.804212094952,-4.21678168124,3.87529824124,0.630877578597,0.0153307135342,-0.110262859919
