%time,field.header.seq,field.header.stamp,field.header.frame_id,field.wrench.force.x,field.wrench.force.y,field.wrench.force.z,field.wrench.torque.x,field.wrench.torque.y,field.wrench.torque.z
1589275665332468959,1769,1589275665332406815,,0.0303017630407,-0.890538410002,0.692732254069,0.168937665549,0.000896507612164,-0.0140908288217
1589275665338628240,1770,1589275665338523510,,0.0301290340349,-1.02146700688,0.695238446716,0.168937735389,0.000898082046473,-0.0140898912093
1589275665344509382,1771,1589275665344401818,,0.0301319504875,-1.02146988192,0.695234096189,0.168937728416,0.000898586665253,-0.0140899426342
1589275665350600818,1772,1589275665350500073,,0.0528112899349,-0.890628178803,0.693168390579,0.170826796465,0.000896725246725,-0.016548454301
1589275665356597205,1773,1589275665356493614,,0.052812941091,-0.890630758288,0.693164950473,0.170826785587,0.000897028003027,-0.0165485501779
1589275665362586891,1774,1589275665362479487,,0.0528061956919,-0.890629749061,0.693166761107,0.170826980918,0.000897293773687,-0.0165465192935
1589275665368689338,1775,1589275665368589387,,0.0301299752234,-1.02147031669,0.69523354301,0.170786243581,0.000254641626084,-0.0149436094217
1589275665374810474,1776,1589275665374726760,,0.0751654429036,-1.15299525972,0.698285646269,0.170802044054,0.000898453272082,-0.0155272751366
1589275665380864388,1777,1589275665380716782,,0.0751715735702,-1.15299536733,0.698284808651,0.170801958764,0.00089881146397,-0.015528192577
1589275665387189802,1778,1589275665387067812,,0.0297505728304,-1.02190294634,0.717915938333,0.170624123431,0.000256646467562,-0.0140664280554
1589275665390101322,1779,1589275665390016574,,0.0523428898028,-1.02198649995,0.718347985741,0.172493470334,0.000897030801838,-0.015654902705
1589275665395778890,1780,1589275665395684761,,0.053010157855,-1.15252624882,0.675074221173,0.170974724178,0.000901476082498,-0.0165439405681
1589275665401957711,1781,1589275665401850719,,0.0301532433608,-1.02147190441,0.695230201466,0.172647636043,0.000897774458782,-0.0157912932728
1589275665407799648,1782,1589275665407689627,,0.0295762822783,-1.15320486994,0.720111400329,0.174304334586,0.000894817850841,-0.014901309845
1589275665413804556,1783,1589275665413720706,,0.0522453836437,-1.15328484128,0.720538302504,0.175262419051,0.000894642217872,-0.016494622441
1589275665419735088,1784,1589275665419648891,,0.0522443737643,-1.15328445469,0.720538994505,0.175262542177,0.000895325281876,-0.0164932770636
1589275665425767295,1785,1589275665425665511,,0.0295847882086,-1.15320610671,0.720109070322,0.175201339654,0.000251414285716,-0.0140086614487
1589275665431869725,1786,1589275665431767414,,0.0517041269073,-1.28524082728,0.745179566282,0.176877764573,0.000890890988719,-0.0138489935299
1589275665437841989,1787,1589275665437742147,,0.0289712122923,-1.28516788131,0.744749485038,0.178688027207,0.000242865984419,-0.0130911772677
1589275665443826967,1788,1589275665443675877,,0.0289687907123,-1.2851683774,0.744748723166,0.178688067364,0.000242855392122,-0.0130906293274
1589275665449724468,1789,1589275665449634739,,0.0289713842802,-1.28516898529,0.744747573289,0.179566335523,-0.000394383983596,-0.0113357365076
1589275665458764383,1790,1589275665458624955,,0.0283246770095,-1.41729788215,0.769193174507,0.182146069807,0.00023240237239,-0.0104155947734
1589275665464844893,1791,1589275665464740229,,0.0283190702034,-1.41730083501,0.769187940052,0.182146074623,0.000231757795175,-0.0104155249234
1589275665470804853,1792,1589275665470709656,,0.0283147234293,-1.41730166928,0.769186562858,0.183045037554,-0.000406421580917,-0.00953033920446
1589275665476872425,1793,1589275665476632482,,0.00562678312785,-1.41724059969,0.768763850213,0.183921479393,0.000226373588642,-0.00791296256143
1589275665482699980,1794,1589275665482601529,,0.0056174593311,-1.41724328313,0.768758971369,0.185768254183,-0.000412880719335,-0.00875680999501
1589275665488814512,1795,1589275665488735827,,0.00520224173306,-1.4175513697,0.791613878061,0.187442751874,0.00021855922987,-0.00785745395081
1589275665494813745,1796,1589275665494704195,,0.0505034348884,-1.54963141573,0.793984206114,0.187475949413,0.000864757064491,-0.0093259466028
1589275665500810519,1797,1589275665500586849,,0.0509034464682,-1.54935977382,0.771107082171,0.188533407198,0.00086258635579,-0.00931017694285
1589275665506742250,1798,1589275665506629362,,0.0280623866137,-1.5492911094,0.770680198352,0.190345375627,0.000212387102198,-0.00854628832547
1589275665512695005,1799,1589275665512596604,,0.00491104381516,-1.54950193216,0.793137325441,0.191083399885,0.000210370177809,-0.00692560977594
1589275665518753314,1800,1589275665518629088,,0.00449607769404,-1.54977390937,0.815929353939,0.193699985246,0.000204889147818,-0.00775963892074
1589275665524670312,1801,1589275665524577094,,0.00448443709278,-1.54977173891,0.815933540553,0.19369999928,0.000203579890361,-0.00775932307017
1589275665530765819,1802,1589275665530628177,,0.00475936249008,-1.41785454955,0.814392762976,0.194581594417,-0.00043764240706,-0.0059865118457
1589275665536694508,1803,1589275665536620827,,-0.0179360566316,-1.41779984436,0.813978092246,0.197315924169,-0.000443386272128,-0.00520851487385
1589275665542666171,1804,1589275665542590333,,0.00434288653562,-1.41814875134,0.837200594337,0.199009428037,-0.000449302561324,-0.00591725451544
1589275665548860066,1805,1589275665548712954,,0.00405316188618,-1.55001796483,0.838786677201,0.203588373492,-0.000460341404265,-0.00584446177581
1589275665554717307,1806,1589275665554631942,,0.00402945835838,-1.5499868834,0.838844225113,0.203588408776,-0.000462906050683,-0.00584302992853
1589275665560783781,1807,1589275665560697073,,0.00361546688797,-1.55025764598,0.86176186362,0.205299856395,0.000171750264092,-0.00670295204549
1589275665566820733,1808,1589275665566729013,,0.00401447708282,-1.54996743675,0.838880228793,0.206339329939,0.000168429917458,-0.0057976362638
1589275665572682191,1809,1589275665572591789,,-0.0191613106398,-1.55018274669,0.861382086677,0.208944011135,0.000161654784914,-0.00590626773699
1589275665578931033,1810,1589275665578767492,,0.00329894698825,-1.68224747182,0.863227615304,0.209831605681,-0.000479037668154,-0.00486017019745
1589275665584754991,1811,1589275665584605890,,0.00328552425511,-1.68224206556,0.863238202058,0.209831620613,-0.000480346867793,-0.00485939623135
1589275665591051589,1812,1589275665590948545,,0.00286192779672,-1.68248822716,0.88607476981,0.211502652139,-0.000485700591967,-0.00395273649663
1589275665596668697,1813,1589275665596564036,,-0.020343318237,-1.68268151459,0.90850248064,0.214106985937,0.000798715451437,-0.00405085127951
1589275665602620658,1814,1589275665602513485,,-0.043159349706,-1.68261750554,0.908117226547,0.215029628604,0.000795236185787,-0.00417607416433
1589275665608743987,1815,1589275665608588269,,-0.0206866287334,-1.8147612739,0.909840682784,0.219542638638,0.000134267466135,-0.00131188703276
1589275665614673020,1816,1589275665614584691,,-0.0206926939935,-1.81475122874,0.909860580581,0.219542641597,0.00013374139614,-0.00131144552205
1589275665620783524,1817,1589275665620608197,,-0.0435839386387,-1.68285049787,0.930998540069,0.220295749846,-0.000509641937769,-0.00056030536119
1589275665626627734,1818,1589275665626544504,,-0.0443784077511,-1.81515797166,0.955274912267,0.222874294876,-0.000517069673963,0.00124637778225
1589275665632667047,1819,1589275665632564298,,-0.021129859899,-1.81497519687,0.932727352836,0.223963968995,0.00012169480669,-0.000353688996755
1589275665638603041,1820,1589275665638523145,,-0.0443993662527,-1.81517132995,0.955248555278,0.226520283591,0.000765954847339,0.00220451295699
1589275665644695588,1821,1589275665644603375,,-0.0451774595928,-1.94756828402,0.979295033164,0.230898557461,0.000104084004724,0.0049282598136
1589275665650682918,1822,1589275665650548580,,-0.0451869851241,-1.94758787852,0.979255624216,0.230898528121,0.000103551319992,0.00492964547054
1589275665656677432,1823,1589275665656578263,,-0.0219875065307,-1.81550363629,0.978441245723,0.231833393123,0.000753046223631,0.00420607483045
1589275665662612615,1824,1589275665662525370,,-0.0680802938531,-1.94756389464,0.978799159003,0.232699288426,9.55830821049e-05,0.00658395014309
1589275665668644326,1825,1589275665668560904,,-0.0456251927761,-1.94783429609,1.00208139023,0.235310931703,8.92881821724e-05,0.00588988168447
1589275665674691658,1826,1589275665674547794,,-0.0459886525971,-2.08005998308,1.0031802855,0.237122739058,0.00138899383317,0.00768995552712
1589275665680635929,1827,1589275665680545749,,-0.0464409961622,-1.94828447362,1.04794968735,0.237742168539,0.000735852964248,0.00769621760843
1589275665687106006,1828,1589275665686972638,,-0.0687475776144,-1.94803585826,1.02451713202,0.240571064001,0.00074381543295,0.0111446594093
1589275665692852403,1829,1589275665692656019,,-0.0691982799861,-1.94826368904,1.04749906146,0.242277976772,0.00073634807668,0.0102926167874
1589275665698732002,1830,1589275665698577290,,-0.069153450872,-2.08024452656,1.02561666867,0.24425535643,0.000732316235273,0.0103305022428
1589275665704726331,1831,1589275665704575337,,-0.069142987575,-2.08025785257,1.02559034473,0.245149950601,0.000732899178188,0.0112351718257
1589275665710864423,1832,1589275665710679781,,-0.0925675027504,-2.08042936694,1.04816575644,0.24682913172,0.000729383055805,0.012013706029
1589275665716657617,1833,1589275665716498851,,-0.0700126420767,-2.08067623536,1.07148619331,0.250320012234,0.000716959699202,0.0131120748279
1589275665722652026,1834,1589275665722553062,,-0.0700116157387,-2.08067409008,1.0714904262,0.250290656467,0.000716544097304,0.0148815549887
1589275665728698191,1835,1589275665728565881,,-0.0700003072699,-2.08067382967,1.07149167073,0.251210400996,0.000716080844911,0.0148998423968
1589275665734781546,1836,1589275665734578976,,-0.070012901096,-2.08068606611,1.07146708624,0.252105601053,0.000711292736035,0.0158106719509
1589275665740712681,1837,1589275665740536714,,-0.115921764801,-2.08060887653,1.07064400833,0.252079930241,5.6596772243e-05,0.0172981608213
1589275665746748072,1838,1589275665746586044,,-0.0930217835173,-2.08064075938,1.07106177594,0.253933060158,0.00070583142287,0.0165914663404
1589275665752747358,1839,1589275665752582012,,-0.116330896102,-2.08081930366,1.09355471164,0.254689871286,0.000705298094628,0.0173474942666
1589275665759033355,1840,1589275665758922780,,-0.0941962050501,-2.21329438473,1.11791618612,0.258197227809,0.00135587598889,0.0175580359424
1589275665764925013,1841,1589275665764794077,,-0.0940988718085,-2.2133039407,1.11790546385,0.258197360637,0.00136576040765,0.0175553163632
1589275665770698905,1842,1589275665770613506,,-0.0940886951214,-2.21331457372,1.11788526822,0.259102876741,0.00136438180067,0.0184590475817
1589275665776734773,1843,1589275665776634252,,-0.11658506534,-2.21307914633,1.0945587341,0.260150118235,0.000709244146491,0.0192239443404
1589275665782701733,1844,1589275665782569015,,-0.0936627216443,-2.21312093415,1.09495741276,0.261991417058,0.000704664833254,0.0185172418791
1589275665794791618,1845,1589275665794702199,,-0.0945005715973,-2.34561554696,1.11883043727,0.265496589538,0.00134831698221,0.0194755939792
1589275665800854018,1846,1589275665800750918,,-0.0715254025817,-2.21355622855,1.14131809544,0.267206198932,0.00199026964365,0.0178766119899
1589275665806687784,1847,1589275665806605138,,-0.117505034128,-2.21347722666,1.14049332966,0.26808422245,0.00068573020685,0.0202750592983
1589275665812919917,1848,1589275665812789196,,-0.0949707014426,-2.34579731222,1.14186585397,0.270845307535,0.000677539091065,0.0195853112472
1589275665818847312,1849,1589275665818731669,,-0.0949965072552,-2.34579124927,1.14187616278,0.270845262161,0.000674997361328,0.0195860264706
1589275665824795698,1850,1589275665824681851,,-0.118800580308,-2.3461056725,1.18738285686,0.273267830226,0.00132401082484,0.021275487685
1589275665830889282,1851,1589275665830778307,,-0.118801847097,-2.34610667143,1.18738075635,0.273267926475,0.00132323744737,0.0212742995176
1589275665836852159,1852,1589275665836768550,,-0.0958281375799,-2.34614805184,1.18778941286,0.274199520427,0.00132307460149,0.020547482673
1589275665842729517,1853,1589275665842604739,,-0.118786674232,-2.34610546455,1.187384659,0.274187663964,0.00132285200612,0.0212922185176
1589275665854871250,1854,1589275665854769146,,-0.118691418471,-2.34611530688,1.18737473746,0.277830836827,0.000668820027533,0.0222518171054
1589275665860832887,1855,1589275665860739332,,-0.118682904844,-2.34611424134,1.18737769384,0.277830778438,0.000670207358052,0.022252504385
1589275665866784107,1856,1589275665866691487,,-0.118264469249,-2.34593201828,1.16442571939,0.278863588662,0.000666672611455,0.024050089644
1589275665872853158,1857,1589275665872751397,,-0.141327095414,-2.34589621035,1.16401538241,0.279773080658,0.00132097121247,0.0248191340982
1589275665878921611,1858,1589275665878830667,,-0.119098906261,-2.47844026454,1.18826705407,0.281463144664,0.00131523841656,0.0241035143066
1589275665884831148,1859,1589275665884703813,,-0.141769968224,-2.34607890443,1.1869634695,0.280541784714,0.00131659739056,0.0248339282543
1589275665891199091,1860,1589275665891102764,,-0.0957778204005,-2.34616050579,1.18776887169,0.282378612565,0.000654090386667,0.0242766789195
1589275665896866912,1861,1589275665896741135,,-0.119554909773,-2.47861913375,1.21121030079,0.281307588564,0.0013137058144,0.0250043596812
1589275665902884154,1862,1589275665902746398,,-0.119986075696,-2.47879928654,1.23426049133,0.282989066186,0.00130976027576,0.0250397627385
1589275665909047322,1863,1589275665908959537,,-0.143074792851,-2.47876970892,1.23383151068,0.284763912652,0.000646238019785,0.0285024942275
1589275665914892500,1864,1589275665914777746,,-0.142652841008,-2.47860552497,1.21074746142,0.285845063367,0.000643466623168,0.0276252711597
1589275665920795848,1865,1589275665920686169,,-0.142659997089,-2.47860816174,1.21074122032,0.285845006289,0.000642869670482,0.0276258756527
1589275665926701554,1866,1589275665926613210,,-0.142660999189,-2.47859827365,1.21076134476,0.287646970769,0.000637997306974,0.0294513927132
1589275665932855915,1867,1589275665932751538,,-0.166064045671,-2.47873761192,1.23341725492,0.289290197817,0.000634575023514,0.032013635479
1589275665938713392,1868,1589275665938628860,,-0.143375948205,-2.61113616573,1.23466074628,0.291117319542,0.00064087492702,0.032201767282
1589275665944833278,1869,1589275665944724582,,-0.166362640511,-2.61109770058,1.23426017368,0.291107735288,0.00129980668871,0.0329493158595
1589275665950850758,1870,1589275665950744194,,-0.166792370308,-2.61125965711,1.25723692587,0.29278105258,0.000637348395257,0.0338740014022
1589275665956763373,1871,1589275665956659343,,-0.16636008857,-2.61109744676,1.23426105462,0.293856320536,0.00129457555256,0.0330074605374
1589275665962720600,1872,1589275665962641048,,-0.166380090355,-2.6110904191,1.23427322554,0.292014485679,0.00129413024327,0.033855211956
1589275665968989804,1873,1589275665968703411,,-0.166380880363,-2.61109201294,1.23426974729,0.292014777237,0.00129281242795,0.0338527474105
1589275665974869250,1874,1589275665974764162,,-0.165982078192,-2.47873563244,1.23343226605,0.292945841985,0.000632084610617,0.0329823396666
1589275665980950152,1875,1589275665980863301,,-0.165969041241,-2.47874141765,1.23342239419,0.292946149389,0.000632113002918,0.0329796086719
1589275665987225778,1876,1589275665987149283,,-0.165563599578,-2.34645334182,1.23249998652,0.291120333243,0.000634681523422,0.0320426202971
1589275665992845363,1877,1589275665992720323,,-0.143440911281,-2.47896862871,1.25675848688,0.291032345493,0.00129330944235,0.028626379907
1589275665998777456,1878,1589275665998677097,,-0.14344192673,-2.47897134754,1.25675300805,0.291032234337,0.00129369602023,0.0286274925002
1589275666004854784,1879,1589275666004712562,,-0.119541488621,-2.34653957863,1.23328306709,0.291169441665,0.000637362552689,0.0287706513925
1589275666010699117,1880,1589275666010604069,,-0.119528470516,-2.34653839948,1.23328657241,0.291169562043,0.000638363102301,0.0287694109187
1589275666016778311,1881,1589275666016683331,,-0.142582040418,-2.34649482796,1.23289179412,0.291156693467,-1.89301173697e-05,0.0295177097474
1589275666022694486,1882,1589275666022602997,,-0.119516496659,-2.34652747922,1.23330851025,0.291169616549,0.000639811194952,0.0287688270997
1589275666028827877,1883,1589275666028612596,,-0.165547479883,-2.34645592088,1.23249724173,0.291145100816,-1.79005973591e-05,0.0302669367854
1589275666034737815,1884,1589275666034628942,,-0.142587318577,-2.34649039694,1.23289961699,0.291157781889,0.000640433148581,0.0295225304273
1589275666040749806,1885,1589275666040635169,,-0.142993507707,-2.47878328358,1.23381366208,0.292983721156,0.000634552561667,0.0304478112038
1589275666046776727,1886,1589275666046688282,,-0.143415870954,-2.4789569717,1.25678433787,0.296463967075,0.000626366297423,0.0323108454004
1589275666052863017,1887,1589275666052696592,,-0.143414533458,-2.47896164962,1.25677526344,0.296464191678,0.000625358875452,0.0323088040362
1589275666058782559,1888,1589275666058687954,,-0.189494068269,-2.47888640857,1.25597653133,0.298256091952,-3.89083649804e-05,0.034735347978
1589275666064724362,1889,1589275666064587791,,-0.18949393421,-2.47888761948,1.25597416162,0.298256190543,-3.93621428692e-05,0.0347345009061
1589275666070713798,1890,1589275666070630487,,-0.190761121367,-2.61156582111,1.30286635602,0.302558546141,-4.76778126962e-05,0.0339325655023
1589275666077032278,1891,1589275666076955757,,-0.189884936587,-2.47907598583,1.27892652154,0.304509373946,-5.31053064213e-05,0.0357510750409
1589275666082772009,1892,1589275666082688519,,-0.189883155011,-2.47908226929,1.27891460609,0.30450940479,-5.31961335536e-05,0.0357508121922
1589275666091847465,1893,1589275666091708075,,-0.168001100053,-2.7439892449,1.30404567072,0.30619059517,0.00060375252226,0.0359316001129
1589275666097775570,1894,1589275666097675030,,-0.167993931459,-2.74398823778,1.30404871342,0.306190832361,0.000603618460617,0.0359295810854
1589275666103874582,1895,1589275666103774153,,-0.19069525,-2.61158790817,1.30283172534,0.308005722122,0.000598017744684,0.0376103012227
1589275666109862169,1896,1589275666109756290,,-0.190670903145,-2.61159633564,1.3028183954,0.30800610441,0.00059909693043,0.0376071532021
1589275666118934772,1897,1589275666118799045,,-0.191495488949,-2.61195213451,1.34875518136,0.312254120338,-6.88490924989e-05,0.0394788295484
1589275666124797046,1898,1589275666124654460,,-0.192310217384,-2.74446675392,1.37255111667,0.313983181748,0.000589895766502,0.0368377916305
1589275666130792879,1899,1589275666130695009,,-0.215294243829,-2.74444391742,1.37213313283,0.314868878396,0.000589554388005,0.0384938748543
1589275666136901754,1900,1589275666136685154,,-0.214850094513,-2.61210973232,1.37131842016,0.316683488308,-7.3245608165e-05,0.0394222691609
1589275666142732033,1901,1589275666142658544,,-0.191824475434,-2.61213773799,1.37172926805,0.317614149034,-7.33629180648e-05,0.0386914809791
1589275666149837306,1902,1589275666149608819,,-0.214834426742,-2.61210729502,1.3713255174,0.319431960401,-7.71764251672e-05,0.0394803312676
1589275666154872540,1903,1589275666154677017,,-0.215698114149,-2.74459403296,1.39525653958,0.321109823634,-8.11992577767e-05,0.0404108422461
1589275666160886697,1904,1589275666160797085,,-0.192258196064,-2.74446548846,1.37256093477,0.322191062843,-8.28103953718e-05,0.0387930138855
1589275666166942036,1905,1589275666166840926,,-0.192300422496,-2.74446090887,1.37256417633,0.323101176393,0.000573958133447,0.0388201878093
1589275666172959617,1906,1589275666172805475,,-0.19231568105,-2.74445700756,1.37256983918,0.323099244523,-8.57497632636e-05,0.0388232505447
1589275666178937794,1907,1589275666178783652,,-0.19274953714,-2.74460622597,1.39569012336,0.324805571624,0.000569571893407,0.0379652278615
1589275666184908680,1908,1589275666184784942,,-0.193192882383,-2.74475229672,1.41871902392,0.328320873044,-9.84741674435e-05,0.0380410701087
1589275666191202380,1909,1589275666191105785,,-0.194075686308,-2.8772673221,1.44250710243,0.330918320752,-0.000109659885093,0.0380967227426
1589275666196893733,1910,1589275666196778956,,-0.194512038624,-2.87742123291,1.46551725124,0.33259624681,-0.000114213841852,0.0381330292077
1589275666202897812,1911,1589275666202768461,,-0.194528742821,-2.87743013397,1.46549755742,0.332596365251,-0.000116943650529,0.0381319878741
1589275666211951091,1912,1589275666211803656,,-0.217126633442,-2.87724466662,1.44207501281,0.335456280744,-0.000773014215055,0.0407294323224
1589275666217977297,1913,1589275666217834929,,-0.194492239599,-3.0096791464,1.44321670201,0.33639061712,-0.000774930060243,0.0391043074783
1589275666223842759,1914,1589275666223743604,,-0.194459831875,-3.00969567499,1.44318659994,0.336390644744,-0.00077178060117,0.0391041321323
1589275666229883049,1915,1589275666229787797,,-0.194881300421,-3.00983222979,1.46622222329,0.336264617743,-0.000119816834562,0.0382081154892
1589275666238868371,1916,1589275666238757877,,-0.194853481301,-3.00982632781,1.46623803594,0.33715870865,-0.000767865705561,0.039124202747
1589275666245002829,1917,1589275666244812474,,-0.217903757732,-2.87755498518,1.48820940707,0.337934159705,-0.000116143231823,0.0389971426859
1589275666250942618,1918,1589275666250845655,,-0.217922635566,-2.8775399603,1.48823569419,0.338851704531,-0.000768381057603,0.0390207491666
1589275666257109934,1919,1589275666256912804,,-0.194890821073,-2.87757390825,1.488642102,0.338864626021,-0.000118471450738,0.0382705960543
1589275666262980772,1920,1589275666262876949,,-0.21791803851,-2.8775372134,1.48824167851,0.34066861906,-0.000120913551032,0.0399536744827
1589275666271977264,1921,1589275666271861039,,-0.172107150841,-3.010008915,1.48977317075,0.341625330809,-0.00012325000821,0.0375701509638
1589275666277910584,1922,1589275666277824494,,-0.172103537074,-3.01002185844,1.48974743641,0.341625608281,-0.000124427099838,0.0375676239422
1589275666283823180,1923,1589275666283733491,,-0.194451329308,-2.8774473475,1.46547403298,0.341750622281,-0.000779455137911,0.0383210699006
1589275666290199654,1924,1589275666290106494,,-0.194441179742,-2.8774457433,1.46547852949,0.341750548339,-0.000777832611705,0.0383217622836
1589275666296263556,1925,1589275666296143763,,-0.172114797281,-3.01002215832,1.48974552961,0.33980034729,-0.000122066433492,0.0366342634765
1589275666302134756,1926,1589275666301908675,,-0.19446082895,-2.87743710151,1.46549289023,0.341751607659,-0.00012704993128,0.0383256900076
1589275666307901097,1927,1589275666307822406,,-0.194493763818,-2.87742102302,1.46552008876,0.341751591555,-0.000130531784023,0.0383258219035
1589275666313894609,1928,1589275666313807647,,-0.171799450596,-2.87760107734,1.48906498433,0.344363956373,-0.000136955954373,0.0376279325032
1589275666319920292,1929,1589275666319819003,,-0.195320340981,-3.00993987102,1.48941805451,0.343429189376,-0.00013395142888,0.0392562142589
1589275666326082781,1930,1589275666325948211,,-0.195327894661,-3.00992740418,1.4894422577,0.344338406227,-0.000134921871873,0.0392781685936
1589275666331933270,1931,1589275666331819070,,-0.195264662837,-3.0099689113,1.48936666686,0.344338572498,-0.000129395602901,0.0392767295178
1589275666337933956,1932,1589275666337788163,,-0.218723242669,-3.01009026023,1.5119639402,0.345097086072,0.000531922225947,0.0400442758181
1589275666343914872,1933,1589275666343818510,,-0.218701544146,-3.01010745001,1.51193285633,0.345097102824,0.000533906330077,0.0400441050485
1589275666349836144,1934,1589275666349749254,,-0.195215126988,-3.00999734783,1.48931568988,0.347087431417,-0.000130913075758,0.0393323703897
1589275666356055305,1935,1589275666355940273,,-0.195633868945,-3.01012944965,1.51236865319,0.347842677204,-0.00013387435882,0.0402394024312
1589275666362247289,1936,1589275666361931941,,-0.195635903853,-3.0101379875,1.51235139661,0.347842861479,-0.000135154273158,0.0402378051908
1589275666367909557,1937,1589275666367806952,,-0.218699036759,-3.01010076976,1.51194651866,0.348753118694,-0.000789083090316,0.0401130438249
1589275666374004210,1938,1589275666373840528,,-0.218720171525,-3.01008975174,1.51196539679,0.348752816567,-0.000789950349431,0.0401156534355
1589275666379987662,1939,1589275666379870525,,-0.219157297454,-3.01024001696,1.53498321158,0.349519855672,-0.00144446373204,0.0401318628275
1589275666385964445,1940,1589275666385751415,,-0.219183519959,-3.01023451105,1.53499026501,0.349519437281,-0.00144554847582,0.0401354674982
1589275666391926068,1941,1589275666391826086,,-0.173738690134,-3.27517553367,1.5371530999,0.348634215724,-0.000792700271394,0.0386136958748
1589275666397873362,1942,1589275666397746997,,-0.173710506755,-3.27517822512,1.53715055049,0.348634140794,-0.00078937618254,0.0386144404901
1589275666404021983,1943,1589275666403903789,,-0.196831863734,-3.14280481833,1.55917860715,0.350301092293,-0.00078371222979,0.0393995386973
1589275666409906308,1944,1589275666409807288,,-0.219482348446,-3.0103767835,1.55804713084,0.35028803302,-0.00143231600893,0.0401514146762
1589275666416129795,1945,1589275666416015009,,-0.195912427992,-3.14254653239,1.51308257261,0.349698872976,-0.000122865301456,0.0384917956673
1589275666421970248,1946,1589275666421871324,,-0.218981610222,-3.01024815969,1.53499231662,0.349522592425,-0.000120291223704,0.0401338424948
1589275666427949541,1947,1589275666427850833,,-0.218913781991,-3.01025252721,1.5349934264,0.349522556449,-0.00011222637857,0.0401341791611
1589275666433925630,1948,1589275666433808903,,-0.218893998849,-3.01024953052,1.53500212439,0.34861178052,-0.000760246068458,0.0401133246878
1589275666439926049,1949,1589275666439804685,,-0.218894227683,-3.01026415469,1.53497341236,0.348612026949,-0.000761776281845,0.0401111539576
1589275666445950470,1950,1589275666445856219,,-0.196756573512,-3.14286136952,1.5590741164,0.34939114592,-0.000772946397848,0.0393841574275
1589275666451989574,1951,1589275666451878015,,-0.219469017084,-3.01040994183,1.5579849404,0.348460224501,-0.000775771811735,0.0401144755754
1589275666457931885,1952,1589275666457826021,,-0.219496137015,-3.01038941039,1.5580207911,0.347536503614,-0.000774615355641,0.0409944890913
1589275666463955653,1953,1589275666463817832,,-0.242569273737,-3.01035952762,1.55760545523,0.347523540392,-0.00142754634045,0.0417462741241
1589275666469984336,1954,1589275666469883987,,-0.219652441137,-3.0103716916,1.5580329988,0.346630179645,-0.000788302741788,0.0400841376155
1589275666479135195,1955,1589275666478979779,,-0.242391922475,-3.01014904067,1.53466093343,0.349520671285,-0.00145788023348,0.0399997449751
1589275666484995341,1956,1589275666484907784,,-0.242390259124,-3.01015075948,1.53465782478,0.34952080099,-0.00145832409831,0.0399985954048
1589275666491316156,1957,1589275666491214329,,-0.197460887941,-3.14292703685,1.58232460181,0.348359508402,-0.00144879071634,0.0375768891423
1589275666496889396,1958,1589275666496800159,,-0.197021829199,-3.1427846121,1.55919534326,0.350342073286,-0.000800115691242,0.0367124111628
1589275666503020041,1959,1589275666502906488,,-0.197006644634,-3.14278559109,1.55919528862,0.350342324191,-0.000799621694984,0.0367100274876
1589275666509112413,1960,1589275666508918225,,-0.196169592526,-3.01022449338,1.53548254048,0.349586074547,-0.00144467453879,0.0358016769531
1589275666514980026,1961,1589275666514841553,,-0.219590852542,-3.01033362419,1.55811523014,0.350343177823,-0.00144085511156,0.0365659393841
1589275666520831458,1962,1589275666520723066,,-0.219590592275,-3.01034001588,1.55810291778,0.350343051001,-0.00144032229795,0.0365671754527
1589275666526779718,1963,1589275666526684799,,-0.174166786334,-3.14297845507,1.5827268867,0.350255808101,-0.0020985481126,0.0332615090596
1589275666532969029,1964,1589275666532825448,,-0.19730556597,-3.14291066669,1.58237649173,0.349338211942,-0.00209142659193,0.0331045068346
1589275666538854237,1965,1589275666538761042,,-0.19723715863,-3.14293212776,1.58234239351,0.349338679611,-0.00208652644152,0.0330998805948
1589275666544821204,1966,1589275666544745826,,-0.174086169904,-3.14296528623,1.5827619061,0.348484001749,-0.00208372017259,0.0296365464508
1589275666550800850,1967,1589275666550700997,,-0.174121440558,-3.14297162215,1.58274544469,0.349393640222,-0.00208959998694,0.0296551828538
1589275666556864958,1968,1589275666556735327,,-0.174126749491,-3.14296692881,1.58275418049,0.350329420015,-0.00143184521533,0.028776872324
1589275666562833182,1969,1589275666562722992,,-0.174083663313,-3.1429817346,1.58272951906,0.350329725643,-0.00142908327798,0.0287732886711
1589275666571850718,1970,1589275666571752313,,-0.173753243946,-3.01055979007,1.58206194815,0.351267663187,-0.00209800813758,0.0269879664814
1589275666577949272,1971,1589275666577745898,,-0.173795875263,-3.0105633463,1.58205049817,0.35126722237,-0.0021001289142,0.0269935384967
1589275666583810393,1972,1589275666583705170,,-0.174156798156,-3.01072620624,1.60506439783,0.351126252861,-0.00209316235491,0.0269901157393
1589275666590165199,1973,1589275666590040259,,-0.174250872216,-3.01069869096,1.60510579909,0.352955391248,-0.00210606630952,0.0270297320304
1589275666595955027,1974,1589275666595845493,,-0.152325724093,-3.2757049279,1.62992608658,0.35375246366,-0.00144412426451,0.0254013525749
1589275666602018722,1975,1589275666601893287,,-0.151560487073,-3.14314923836,1.60619302656,0.351152960335,-0.00210191087147,0.0253487497037
1589275666607959052,1976,1589275666607779726,,-0.151542288129,-3.14315663973,1.60618025995,0.351152759744,-0.00209839739795,0.0253518193761
1589275666613927021,1977,1589275666613830523,,-0.174615399821,-3.1431214627,1.60575808735,0.350220388788,-0.00209528148394,0.0260879733188
1589275666619904726,1978,1589275666619823938,,-0.174614707385,-3.14311400911,1.60577275226,0.350220485498,-0.00209577656395,0.0260866352269
1589275666625936529,1979,1589275666625788727,,-0.151547138105,-3.2754654874,1.58377485565,0.349465636133,-0.00144045698562,0.0253199563315
1589275666631756484,1980,1589275666631631582,,-0.1515523828,-3.27545886401,1.58378805181,0.349465654668,-0.00144105856279,0.0253196662817
1589275666637707794,1981,1589275666637635048,,-0.174256220398,-3.1429847679,1.58270450646,0.34945126141,-0.00209781162077,0.0260784955763
1589275666640716077,1982,1589275666640634467,,-0.174728691581,-3.14311527466,1.60575787613,0.350219993709,-0.00210560408887,0.026092445594
1589275666643757885,1983,1589275666643631560,,-0.17436876594,-3.01071259342,1.60506691878,0.351125111177,-0.00211061201071,0.0270036061017
1589275666649965069,1984,1589275666649856205,,-0.174394704113,-3.01071735313,1.60505517262,0.352954251814,-0.00211577783539,0.0270438486718
1589275666656129643,1985,1589275666656015229,,-0.175161317505,-3.14325742471,1.62879624846,0.35278810683,-0.00211029926142,0.0279488536966
1589275666662108093,1986,1589275666661930144,,-0.175155449703,-3.14326064258,1.62879066961,0.353722716366,-0.00211159680268,0.0270622386929
1589275666667804632,1987,1589275666667667566,,-0.175174977405,-3.14325979472,1.62879020575,0.353722736295,-0.00211403356159,0.0270617879657
1589275666673807015,1988,1589275666673648828,,-0.175104854893,-3.14330168251,1.62871690809,0.354642773118,-0.00211072109147,0.0270763673492
1589275666679728378,1989,1589275666679585621,,-0.17511434149,-3.14328774824,1.62874277997,0.356441265749,-0.00277765015684,0.0289126187925
1589275666682689406,1990,1589275666682598758,,-0.175025441523,-3.14330419226,1.62872060032,0.358287061296,-0.00211173342668,0.0280508240741
1589275666685675575,1991,1589275666685592773,,-0.152662717189,-3.27592758304,1.65280649021,0.359066838925,-0.00276798923224,0.0273136035123
1589275666691830633,1992,1589275666691751919,,-0.129889064559,-3.27612485375,1.67633638421,0.358976197194,-0.00276303101482,0.0238641808948
1589275666697886706,1993,1589275666697761816,,-0.129854873931,-3.27613103401,1.67632695474,0.358976301617,-0.00275997505731,0.0238629637132
1589275666703704347,1994,1589275666703626586,,-0.129450872783,-3.2759845029,1.65319544041,0.36003374975,-0.00276377994123,0.0238845728888
1589275666706739324,1995,1589275666706642939,,-0.105999692085,-3.14362814437,1.65290932261,0.360091902832,-0.00275698428448,0.0204396993181
1589275666712922910,1996,1589275666712832987,,-0.106408281425,-3.27604228917,1.65357954536,0.361042094994,-0.00276563169343,0.0186699144008
1589275666719064272,1997,1589275666718950566,,-0.106419703012,-3.27603808107,1.65358714733,0.361042020498,-0.0027661606616,0.0186712766126
1589275666725019497,1998,1589275666724886084,,-0.106461393342,-3.27601579262,1.65362862029,0.359227834313,-0.00276463425157,0.0177341255435
1589275666730907084,1999,1589275666730799800,,-0.10641964414,-3.27600984906,1.65364308236,0.359227990843,-0.00276132873734,0.0177314696132
1589275666736881543,2000,1589275666736766487,,-0.129231990131,-3.27582217974,1.63018517442,0.358461623151,-0.00277625920736,0.0175726614558
1589275666742859951,2001,1589275666742792611,,-0.129209032813,-3.27584061107,1.63014995632,0.358475886192,-0.00342655937063,0.0166749044662
1589275666751903902,2002,1589275666751804429,,-0.106512765295,-3.27600352436,1.65364961669,0.359228134972,-0.00277398605068,0.0177265733372
1589275666758038258,2003,1589275666757907505,,-0.107234861402,-3.40858323126,1.67744135264,0.360000333293,-0.0027737594159,0.0177382734596
1589275666763815925,2004,1589275666763729339,,-0.107623197261,-3.40871273314,1.70050008008,0.362583372511,-0.00277920177482,0.0186878746285
1589275666769824759,2005,1589275666769751909,,-0.130372184199,-3.27621892884,1.69946643143,0.363458676068,-0.00343585552781,0.0212438608316
1589275666776219120,2006,1589275666776113305,,-0.130444654275,-3.27621769121,1.69946325632,0.365274413874,-0.00279714806474,0.0221735305585
1589275666781977851,2007,1589275666781821430,,-0.13034037168,-3.27621659618,1.69947336845,0.365274223974,-0.00278289338725,0.0221784519283
1589275666788270770,2008,1589275666788170996,,-0.153492736469,-3.27616298687,1.69908197052,0.365245118148,-0.00343348932192,0.0238358848203
1589275666794015287,2009,1589275666793900494,,-0.176667021201,-3.27609812802,1.69870693731,0.364298824692,-0.00278785452097,0.025468886748
1589275666800012274,2010,1589275666799851295,,-0.153540837917,-3.2761629532,1.69907768934,0.361561926706,-0.00277524655514,0.0246667850684
1589275666805853388,2011,1589275666805755327,,-0.153569593502,-3.27617000045,1.69906150192,0.361561941184,-0.00277885753893,0.0246661663064
1589275666811843514,2012,1589275666811757044,,-0.152771753149,-3.14361386008,1.67535513,0.358993809179,-0.00276860077396,0.022817102461
1589275666817888379,2013,1589275666817812237,,-0.175877789796,-3.14355341594,1.67497765609,0.358964703588,-0.00342464513232,0.0244730307931
1589275666823890283,2014,1589275666823759670,,-0.152391009305,-3.14344921292,1.65224660562,0.359141588066,-0.002774077272,0.0228190952296
1589275666830026788,2015,1589275666829870255,,-0.175841413524,-3.14355765875,1.67497351251,0.360780761048,-0.00277424422729,0.0254023262412
1589275666836034302,2016,1589275666835943848,,-0.175837099298,-3.14355296654,1.67498277164,0.36078086465,-0.00277448209485,0.0254008287882
1589275666842189539,2017,1589275666841906650,,-0.199452491435,-3.14365395518,1.69762243134,0.36242727438,-0.00278254915512,0.0279776303385
1589275666847899548,2018,1589275666847767186,,-0.199509661169,-3.14365936324,1.69760569882,0.363330500169,-0.00344205097309,0.028904050069
1589275666853902267,2019,1589275666853824370,,-0.199846396817,-3.27610185039,1.69821034434,0.364241709061,-0.00278924132456,0.0289206096045
1589275666859902106,2020,1589275666859814664,,-0.199852204086,-3.27608812418,1.69823614058,0.365131754501,-0.00279007145345,0.030734758232
1589275666865806780,2021,1589275666865724624,,-0.200302480892,-3.27622490359,1.72128709773,0.365885587869,-0.00279482112333,0.0316562144731
1589275666871966669,2022,1589275666871876328,,-0.177517698431,-3.40868096198,1.7223687227,0.367699372123,-0.00214049188736,0.0327312597679
1589275666877793342,2023,1589275666877694497,,-0.177520809373,-3.40870668551,1.72231749256,0.367699065094,-0.00213951223748,0.0327347727629
1589275666883885605,2024,1589275666883795325,,-0.17675506309,-3.27614572735,1.69860597565,0.367839489808,-0.00213833311315,0.0327447475319
1589275666890244156,2025,1589275666890148211,,-0.200426925334,-3.27624846221,1.72122777024,0.366823649857,-0.00280427534652,0.0298851233206
1589275666898879852,2026,1589275666898788310,,-0.200464169664,-3.27624481476,1.72123037563,0.365023670325,-0.00280211907067,0.0280501885181
1589275666904809736,2027,1589275666904702535,,-0.176937051489,-3.1438765531,1.72098801994,0.365050911859,-0.00280303398772,0.0264016881014
1589275666910903485,2028,1589275666910776921,,-0.176553909596,-3.14372228073,1.69795187876,0.362467726194,-0.00280199750689,0.0254537871642
1589275666913855873,2029,1589275666913770373,,-0.152708611206,-3.01124634274,1.67460562056,0.360819258739,-0.00411110870448,0.0228711333305
1589275666919833372,2030,1589275666919733963,,-0.129550057703,-3.01125643199,1.67508047717,0.360848290144,-0.0034456631784,0.0212268472189
1589275666925927735,2031,1589275666925833478,,-0.152729411393,-3.01120852459,1.67467172584,0.359893915221,-0.00410846031299,0.023763391471
1589275666931864025,2032,1589275666931763564,,-0.152617718349,-3.01120222964,1.67469322722,0.359894366556,-0.00409774565219,0.02375840558
1589275666937926143,2033,1589275666937824541,,-0.176179605863,-3.01128297176,1.69736979057,0.359715313277,-0.0041038785567,0.0254068240623
1589275666943861607,2034,1589275666943764941,,-0.176153789279,-3.01131342716,1.69731843843,0.359715538745,-0.00410291089496,0.025403787943
1589275666949851925,2035,1589275666949746444,,-0.176891010857,-3.1438091105,1.72111594993,0.360455884898,-0.00343702113632,0.0272090015238
1589275666958844580,2036,1589275666958740829,,-0.200887045802,-3.27627895037,1.74458149755,0.36298687484,-0.00279314266804,0.0316193749643
1589275666964895702,2037,1589275666964768397,,-0.20084580816,-3.27628740214,1.74457037328,0.362957404317,-0.00344670310308,0.0334003796458
1589275666970902797,2038,1589275666970782104,,-0.201294933563,-3.27640882978,1.76765460903,0.365537786226,-0.00280410333894,0.0352538102529
1589275666976866116,2039,1589275666976717662,,-0.224443181547,-3.27638047044,1.76721592777,0.369184313601,-0.00282000196832,0.0360799806911
1589275666982921764,2040,1589275666982715852,,-0.201779206078,-3.40883336623,1.76828292739,0.371010884181,-0.00282739915153,0.0362652285846
1589275666991852395,2041,1589275666991750222,,-0.224923172506,-3.27651318858,1.79027792628,0.369033154854,-0.00282534163669,0.0360776570001
1589275666997844145,2042,1589275666997754459,,-0.201426684831,-3.27639957185,1.76765676057,0.370134009619,-0.00282244438117,0.0335564430872
1589275667003890982,2043,1589275667003796275,,-0.177853309895,-3.2763240097,1.74497213403,0.36393237754,-0.00346495231464,0.0299752015983
1589275667010008713,2044,1589275667009798989,,-0.177851678244,-3.27632316034,1.74497389508,0.363932051779,-0.00346247967015,0.0299794421143
1589275667015964618,2045,1589275667015850307,,-0.154030309352,-3.14381779757,1.72156933473,0.359586349473,-0.00411497037428,0.0246576520917
1589275667021919492,2046,1589275667021828973,,-0.153859940651,-3.14384243524,1.72153957721,0.359586772629,-0.00409749114199,0.0246543917351
1589275667027915869,2047,1589275667027728621,,-0.1538618798,-3.14384455354,1.72153553549,0.359586709935,-0.00409721276607,0.0246553523794
1589275667033869578,2048,1589275667033769543,,-0.153307610494,-3.14375568662,1.69839608068,0.36063423464,-0.00342616793609,0.0255679643277
1589275667039908875,2049,1589275667039749697,,-0.176782705312,-3.14389317094,1.72097352417,0.361375574377,-0.00342671134993,0.0272293262037
1589275667046064554,2050,1589275667045927231,,-0.154136508067,-3.14408765692,1.74452278969,0.361225227995,-0.00342663419636,0.0273805298432
1589275667051856751,2051,1589275667051758961,,-0.15488320909,-3.27663965308,1.76822021336,0.361979124982,-0.00342615508106,0.0282910077697
1589275667057898389,2052,1589275667057779746,,-0.20116322908,-3.27652354992,1.7674569497,0.363768181246,-0.00409623143019,0.030724179721
1589275667063893865,2053,1589275667063760626,,-0.20160995254,-3.40894951693,1.76807830599,0.364646421887,-0.00279325872086,0.0334418536963
1589275667069887077,2054,1589275667069793459,,-0.202073583187,-3.54139866377,1.76867961766,0.366461152625,-0.00280767350598,0.0343754607188
1589275667075865547,2055,1589275667075772439,,-0.225267313763,-3.40905456218,1.79068965164,0.368124321212,-0.00215573769207,0.0360658619787
1589275667081986820,2056,1589275667081878900,,-0.225695870391,-3.54149201372,1.79130673616,0.369003542878,-0.00282385198322,0.0378800035982
1589275667088118403,2057,1589275667088029950,,-0.226204720545,-3.54160794489,1.81438615597,0.372564154099,-0.00283902207187,0.0352546234899
1589275667093993515,2058,1589275667093830862,,-0.202717825527,-3.5415132936,1.79174439579,0.372770649467,-0.0028396164021,0.0318225988237
1589275667100078887,2059,1589275667099991873,,-0.202701866504,-3.54149623556,1.79177991734,0.37277103115,-0.00283992928582,0.0318180995469
1589275667105984604,2060,1589275667105849020,,-0.179236172061,-3.40909979546,1.79156072983,0.370957139837,-0.00349696481472,0.0301236852544
1589275667111891454,2061,1589275667111795233,,-0.156120025714,-3.40915794668,1.7919515125,0.371934291529,-0.00349646207112,0.0266908703555
1589275667114965438,2062,1589275667114746638,,-0.155782197306,-3.27673082222,1.79132728386,0.3710723011,-0.00481910157486,0.0230798742069
1589275667120847365,2063,1589275667120740619,,-0.155329026091,-3.27657742532,1.76829641663,0.368473926381,-0.00480739807289,0.0230324196768
1589275667126919722,2064,1589275667126796138,,-0.155308525292,-3.27656902368,1.7683137851,0.369439686673,-0.00480674009202,0.0203619122446
1589275667132984719,2065,1589275667132865251,,-0.131616900611,-3.27647852462,1.7456750196,0.36871509059,-0.00479266995627,0.0177940704821
1589275667138950255,2066,1589275667138788764,,-0.131999546698,-3.27665187464,1.76867097937,0.370362479979,-0.0047930393575,0.0196280011116
1589275667144874943,2067,1589275667144771544,,-0.155611655787,-3.27674018762,1.79132497544,0.372037970741,-0.00479759336395,0.0204159594886
1589275667151554501,2068,1589275667151450922,,-0.155546498434,-3.27676117719,1.79129223933,0.372942285178,-0.00479106547028,0.0213332135115
1589275667156914157,2069,1589275667156792507,,-0.179010604718,-3.40913836587,1.79150988699,0.375652002604,-0.00545126370187,0.023037149943
1589275667163101345,2070,1589275667162971410,,-0.203049039622,-3.40937853772,1.83729984645,0.378966135977,-0.00414391531836,0.0265592563486
1589275667169520880,2071,1589275667169427450,,-0.226969083943,-3.54190947189,1.86055109035,0.384255468365,-0.00415926493714,0.0301194247274
1589275667174899810,2072,1589275667174775133,,-0.226991975104,-3.54190061037,1.86056516722,0.384255382935,-0.00416120158938,0.0301202471131
1589275667180880062,2073,1589275667180799418,,-0.205068608965,-3.80701191008,1.88517474509,0.38775748706,-0.00351312997471,0.0312275648761
1589275667187313652,2074,1589275667187165286,,-0.228245393383,-3.67460111718,1.9073074592,0.389423399118,-0.00351668815985,0.0320136261669
1589275667192932975,2075,1589275667192827903,,-0.228650332548,-3.67475009142,1.93044283729,0.39021026786,-0.00351579960846,0.0311321820285
1589275667198853822,2076,1589275667198780078,,-0.182674885576,-3.80728540735,1.93187416213,0.392107051162,-0.00286901624718,0.0278493500465
1589275667204948772,2077,1589275667204885570,,-0.181571214344,-3.54223965455,1.90754597385,0.390504166061,-0.00418051301149,0.0224268055513
1589275667210861098,2078,1589275667210758350,,-0.181637052187,-3.54219473516,1.90762311738,0.390504243548,-0.00418891033735,0.0224238892342
1589275667213851380,2079,1589275667213716527,,-0.157199728267,-3.40959848354,1.86119680555,0.387195801298,-0.00482865590369,0.0189049377017
1589275667219875558,2080,1589275667219771397,,-0.157172650106,-3.40957686063,1.86123870367,0.387211327621,-0.0048229212916,0.0180118860392
1589275667225865027,2081,1589275667225795768,,-0.156699663543,-3.40948195645,1.83810082594,0.386457379312,-0.00547018518458,0.0170874131464
1589275667232082806,2082,1589275667232004995,,-0.156289910178,-3.27707807091,1.83746205268,0.384657953127,-0.00611702151127,0.0152654259873
1589275667238206788,2083,1589275667238068672,,-0.156213481932,-3.27709428269,1.83743963827,0.384658297823,-0.00611185061383,0.0152588100581
1589275667244163592,2084,1589275667244043005,,-0.156452446214,-3.40949977428,1.8380888345,0.384644117434,-0.00544114358428,0.016149216323
1589275667250118801,2085,1589275667250008720,,-0.156500413374,-3.40949889016,1.83808639103,0.384644075653,-0.00544711482773,0.0161481984546
1589275667256352163,2086,1589275667256215937,,-0.180856899776,-3.54218000519,1.88436715375,0.387001306269,-0.00481137130769,0.021447034108
1589275667262283955,2087,1589275667262046545,,-0.204541941936,-3.54225832637,1.90704030176,0.388662615464,-0.00415828131256,0.0231339548897
1589275667267935166,2088,1589275667267840315,,-0.204617597542,-3.54222290079,1.90709798627,0.388662520633,-0.00416614587345,0.023134133125
1589275667273857597,2089,1589275667273760128,,-0.205480025216,-3.67477334719,1.93089821364,0.390269156581,-0.00351595087258,0.0276639048001
1589275667279863301,2090,1589275667279772661,,-0.229167537938,-3.67479604267,1.95366215171,0.391914679521,-0.00353621668644,0.0302530415273
1589275667285979571,2091,1589275667285842100,,-0.230020321986,-3.8073359527,1.9773922897,0.395387377858,-0.00354945437231,0.0330272564848
1589275667291934002,2092,1589275667291868293,,-0.253309019818,-3.8072563657,1.97702946533,0.397190494568,-0.00291518067144,0.0347187633117
1589275667298046177,2093,1589275667297962134,,-0.20586728587,-3.67459223897,1.93120160608,0.393876839188,-0.00356026107061,0.0313441914635
1589275667303949676,2094,1589275667303868483,,-0.20580463873,-3.67460354676,1.93118676731,0.393877064766,-0.00355484071318,0.0313419719386
1589275667310184955,2095,1589275667310054905,,-0.205390182868,-3.67445247399,1.90806068151,0.391306969251,-0.0028953205135,0.029496617909
1589275667316364539,2096,1589275667316282377,,-0.203695907213,-3.40934093616,1.86065981974,0.384358166589,-0.00484436361734,0.0239582680337
1589275667322011270,2097,1589275667321934669,,-0.202831652366,-3.27684002228,1.83688124014,0.381790373653,-0.00482748231665,0.0221201833726
1589275667327986763,2098,1589275667327883053,,-0.202730821713,-3.27687067782,1.83683768361,0.381790421213,-0.00481491050984,0.0221221025096
1589275667334010316,2099,1589275667333928449,,-0.179468661678,-3.27688746145,1.83730426061,0.380005222144,-0.00480213015233,0.0195258958267
1589275667339976880,2100,1589275667339880187,,-0.202520257806,-3.27693055896,1.8367540821,0.379087936272,-0.00478316255111,0.0193702208497
1589275667346085470,2101,1589275667345925281,,-0.202496208829,-3.27695163562,1.83671913051,0.378146885708,-0.00477567365537,0.0211516082789
1589275667352202722,2102,1589275667352111842,,-0.15652184376,-3.40943450189,1.8382039963,0.378141946774,-0.00477243453319,0.0214445018164
1589275667357897194,2103,1589275667357814363,,-0.225655835122,-3.27692275831,1.83628160226,0.379901544552,-0.00478564820596,0.0255427141067
1589275667364097230,2104,1589275667363982341,,-0.226149185715,-3.2770676817,1.85933183521,0.379734893349,-0.00479197621188,0.0264482667618
1589275667370052282,2105,1589275667369944425,,-0.250785350992,-3.54213002773,1.90630286967,0.383010679188,-0.00413514301026,0.03265330248
1589275667379097959,2106,1589275667378965413,,-0.228316119564,-3.67461645483,1.90726944435,0.384836274019,-0.00416283992674,0.0328557317657
1589275667385028964,2107,1589275667384936997,,-0.252764449379,-3.80730016151,1.95364302968,0.387260570033,-0.00351691743177,0.0345549734034
1589275667391204388,2108,1589275667391116545,,-0.252826230133,-3.80730332206,1.95362887605,0.387260616135,-0.00352396355054,0.0345537388583
1589275667397252929,2109,1589275667397018042,,-0.23053646458,-3.9399179813,1.97772621547,0.388977858102,-0.00287942085005,0.0329346322808
1589275667403087381,2110,1589275667402977295,,-0.206669366123,-3.80735185993,1.95452230739,0.391019176705,-0.00420932111871,0.0286023003582
1589275667412191364,2111,1589275667412053918,,-0.205868469737,-3.67473168433,1.93093612706,0.390310440568,-0.00487036412768,0.024983969655
1589275667418063616,2112,1589275667417912764,,-0.205886630442,-3.67469504596,1.93100391508,0.390310441846,-0.00487206564677,0.0249836179418
1589275667423991257,2113,1589275667423895189,,-0.181656277202,-3.5421849805,1.90763939972,0.387798310937,-0.00549229937067,0.0196826594185
1589275667430065524,2114,1589275667429940576,,-0.180739437267,-3.54188863632,1.86157136933,0.386308000639,-0.0054778394531,0.0169568948879
1589275667436479300,2115,1589275667436369903,,-0.134479398996,-3.40970416903,1.88481621094,0.383555202207,-0.00612636395729,0.00910909808919
1589275667442446921,2116,1589275667442100247,,-0.111553717357,-3.54223517386,1.885754437,0.384487782536,-0.0067754384077,0.00837094105188
1589275667448086941,2117,1589275667447977226,,-0.111483692124,-3.54226612952,1.8857004294,0.38448782667,-0.00676411198432,0.0083780708352
1589275667454079340,2118,1589275667453990515,,-0.134287481373,-3.40980689719,1.88464404445,0.384457897316,-0.00676695577457,0.0100287780196
1589275667460061038,2119,1589275667459910524,,-0.134157885652,-3.40982971203,1.88461199581,0.386289060978,-0.00609697374683,0.0100577765505
1589275667466081510,2120,1589275667465982316,,-0.157437603824,-3.40976355472,1.88422893294,0.388024825822,-0.00611377023268,0.0153400995895
1589275667472041133,2121,1589275667471919326,,-0.157570445335,-3.40984219875,1.88407550387,0.388024528565,-0.00612851998557,0.0153417329854
1589275667478007036,2122,1589275667477917696,,-0.158427450579,-3.54237324946,1.90779859694,0.388761389726,-0.00613947229926,0.0171526494183
1589275667484083486,2123,1589275667483985878,,-0.182469325195,-3.67489469006,1.93114674295,0.391287636579,-0.00549793971931,0.0215696322023
1589275667490371060,2124,1589275667490277112,,-0.206543240476,-3.8074072372,1.95442776336,0.392932034404,-0.00551030613045,0.024152767973
1589275667496483714,2125,1589275667496387356,,-0.208005893618,-3.94009919131,2.00117187441,0.395337046354,-0.00356465799362,0.0268991576723
1589275667502174487,2126,1589275667501977146,,-0.208090712522,-3.94011171178,2.00113840454,0.396240031566,-0.00423920299012,0.0278145608626
1589275667508098908,2127,1589275667507941172,,-0.20816250435,-3.94010350862,2.00114708935,0.396239718619,-0.00424449991322,0.0278182109879
1589275667514075729,2128,1589275667513945496,,-0.208167454191,-3.94012164814,2.00111085873,0.396270282764,-0.00424443354705,0.0260232448869
1589275667520049842,2129,1589275667519948571,,-0.208079824398,-3.94009451548,2.00117339475,0.39627051792,-0.00423640305047,0.0260209724883
1589275667526062755,2130,1589275667525974487,,-0.207205257116,-3.80748366028,1.97757377821,0.395531224065,-0.00488669552323,0.024204914163
1589275667531998367,2131,1589275667531896802,,-0.183024587018,-3.67496416078,1.95432200182,0.393901532876,-0.00551751555711,0.0207123443961
1589275667537890880,2132,1589275667537801174,,-0.206134207953,-3.67493894965,1.95387871143,0.393951607388,-0.0055074206494,0.0178648874127
1589275667544108898,2133,1589275667543991348,,-0.15923675226,-3.54262576181,1.95407630544,0.393116728543,-0.00548140001476,0.0136343109566
1589275667550043919,2134,1589275667549923048,,-0.135479091043,-3.54251589268,1.93146832968,0.391487832731,-0.0067901009717,0.0101508690258
1589275667559056993,2135,1589275667558975952,,-0.112936160888,-3.67518284573,1.95546928638,0.391349610889,-0.00743564623723,0.00939088541225
1589275667565053602,2136,1589275667564966949,,-0.11264949989,-3.54273734607,1.95489221146,0.392254374646,-0.00677998444365,0.010302706277
1589275667571119675,2137,1589275667570981841,,-0.136509981568,-3.67527472477,1.97811328127,0.392994611657,-0.00611830326382,0.0119699210747
1589275667577108464,2138,1589275667577008216,,-0.137057742621,-3.80770386952,1.97871929992,0.393898063586,-0.00614474753467,0.0128829786236
1589275667583050090,2139,1589275667582912258,,-0.137149467548,-3.80772952451,1.97866357484,0.39389786038,-0.00615325846963,0.0128851292294
1589275667589838254,2140,1589275667589728521,,-0.18412321548,-3.94006156135,1.97845893545,0.394703315271,-0.00486590001789,0.0189241069188
1589275667595209671,2141,1589275667595015689,,-0.184222726533,-3.94005886804,1.97845503573,0.39470315216,-0.00487540304805,0.0189250630686
1589275667601046583,2142,1589275667600958196,,-0.184866625642,-3.94015400674,2.00156620498,0.397254186371,-0.00490550771968,0.0216758667414
1589275667607109981,2143,1589275667606979054,,-0.185394858877,-3.94028003095,2.02472985125,0.39801171429,-0.0042523198683,0.0225935138477
1589275667613053203,2144,1589275667612990925,,-0.209130146876,-4.07271801859,2.02483842795,0.399811018403,-0.00493240656171,0.0242854094431
1589275667619063430,2145,1589275667618941772,,-0.23221518778,-4.07266294445,2.0244428528,0.400717861977,-0.00492893876894,0.0250575720277
1589275667625080714,2146,1589275667625003091,,-0.232174736497,-4.07265365033,2.02446618964,0.400717674134,-0.004922714331,0.0250617992465
1589275667631066723,2147,1589275667630976886,,-0.208939725337,-4.07268477216,2.02492495524,0.401635205537,-0.00491684882842,0.0252217722827
1589275667637110046,2148,1589275667637012734,,-0.185213673779,-3.94025928746,2.02478680092,0.400773631015,-0.00555204860804,0.0217584425713
1589275667643131440,2149,1589275667643054102,,-0.185104461978,-3.94025983139,2.02479572941,0.400773848185,-0.00554158541647,0.0217571097911
1589275667649603042,2150,1589275667649505365,,-0.184073626295,-3.94005801249,1.97847061723,0.397450870965,-0.00551345769875,0.018991605094
1589275667655216902,2151,1589275667655055946,,-0.183977843024,-3.94006197733,1.97847163058,0.39745102727,-0.00550406733262,0.0189910577684
1589275667661317736,2152,1589275667661234107,,-0.183982045878,-3.8076962706,2.00103156619,0.39548514038,-0.00615413862247,0.0180459013413
1589275667667043755,2153,1589275667666936664,,-0.183937004576,-3.8077111061,2.00100747676,0.395485206987,-0.00614948776922,0.0180460270816
1589275667673097446,2154,1589275667672961625,,-0.207128599907,-3.80770288362,2.00052552102,0.395473052082,-0.00548124955079,0.0188064625551
1589275667679085248,2155,1589275667678999428,,-0.183970503061,-3.80774260302,2.00094446058,0.396389975324,-0.00548890786133,0.0189781227823
1589275667685149444,2156,1589275667685038680,,-0.183646763789,-3.80760396955,1.97788061213,0.395605157854,-0.005495604982,0.0198655058886
1589275667691516355,2157,1589275667691412029,,-0.207075048257,-3.80753444417,1.97748963866,0.394641737251,-0.00486194849772,0.0224088403152
1589275667697111287,2158,1589275667696970471,,-0.184327983537,-3.80768605085,2.00101917628,0.395407813241,-0.00486775704477,0.0225673530977
1589275667703018697,2159,1589275667702898089,,-0.231175470206,-3.94004731063,2.00076424286,0.395366057961,-0.00488089407726,0.0249748074642
1589275667712205190,2160,1589275667712095627,,-0.208980505508,-4.07268717372,2.02491591674,0.396091034783,-0.0042386870626,0.0278292836948
1589275667718166164,2161,1589275667718026098,,-0.232048457438,-4.07263584013,2.02451649632,0.396063145842,-0.00423222061501,0.0294796658462
1589275667724096621,2162,1589275667723996705,,-0.255571639403,-4.20507391823,2.02466845783,0.397848313428,-0.00490215536642,0.0320717770363
1589275667730036915,2163,1589275667729916921,,-0.255390729834,-4.20507744585,2.02468395913,0.399663334253,-0.0048923345692,0.0330007926304
1589275667739120061,2164,1589275667738995178,,-0.278194314474,-4.20500137283,2.02439400036,0.400570141259,-0.00550816703053,0.0337698429756
1589275667745055391,2165,1589275667744950765,,-0.254768716213,-4.20506695827,2.02478410268,0.400567914758,-0.00549186853548,0.0339199180304
1589275667751003984,2166,1589275667750903576,,-0.277767068146,-4.20506789781,2.02431448186,0.402370609715,-0.00547594943822,0.0356059314118
1589275667757021477,2167,1589275667756927229,,-0.27779067383,-4.0726952588,2.04684874977,0.402290473631,-0.00481361414876,0.0320062349009
1589275667762995444,2168,1589275667762888827,,-0.277747473642,-4.07272302123,2.04679937149,0.402290452237,-0.00480923476028,0.0320071621267
1589275667769648756,2169,1589275667769537013,,-0.254138340397,-4.0726713164,2.02407005714,0.401549700909,-0.00481319828829,0.0303274028553
1589275667775056467,2170,1589275667774921357,,-0.254312606284,-4.07269051181,2.02400954469,0.401548972949,-0.00482706857033,0.0303348359791
1589275667781112029,2171,1589275667781005782,,-0.231660144417,-4.20524541428,2.02491150138,0.401575311449,-0.0054926277966,0.0286865517599
1589275667787449196,2172,1589275667787340221,,-0.255092209037,-4.20514630586,2.02457857245,0.402502096301,-0.00551817983575,0.0276680257647
1589275667793082065,2173,1589275667792955706,,-0.232039760631,-4.20519130378,2.02498040814,0.402514784972,-0.00552665115466,0.0269155571869
1589275667799118642,2174,1589275667798969242,,-0.209627376406,-4.20529311486,2.04856756997,0.402402737128,-0.0048972491075,0.02525971275
1589275667805129024,2175,1589275667805025484,,-0.232456032219,-4.20515493374,2.02500819297,0.401619562363,-0.00555969290605,0.0259983130766
1589275667811233813,2176,1589275667811130806,,-0.232545862248,-4.07275273554,2.04759345474,0.403298164,-0.00556855806756,0.0260282057249
1589275667817140261,2177,1589275667817037362,,-0.2325658182,-4.07276507249,2.0475666493,0.402388019774,-0.0055653279821,0.0260163993245
1589275667823375607,2178,1589275667823252858,,-0.209443959732,-4.07279727596,2.04801090649,0.403326434009,-0.00557051232077,0.0243795802533
1589275667832120519,2179,1589275667831969592,,-0.209265975854,-4.07279297813,2.04803764737,0.402448312397,-0.00555239656571,0.0225609914562
1589275667838091352,2180,1589275667837993310,,-0.208786601847,-4.07264229733,2.025026175,0.40257384698,-0.00554736557646,0.0234619014712
1589275667844111903,2181,1589275667843974237,,-0.208909156859,-4.07279925828,2.04806158657,0.402449000711,-0.00551909801343,0.0225568831569
1589275667850133652,2182,1589275667850030775,,-0.232031294315,-4.07272238958,2.0477121855,0.402436041832,-0.0055178677554,0.0233087108468
1589275667856602637,2183,1589275667856458831,,-0.208361182955,-4.07270620924,2.02494145279,0.401649432678,-0.00550705134607,0.0243357455911
1589275667862448368,2184,1589275667862072968,,-0.20803883406,-4.07275492209,2.02487661961,0.401650329006,-0.00547994229398,0.024327070122
1589275667868140388,2185,1589275667868018372,,-0.231517982733,-4.20525737628,2.0249029182,0.402546881902,-0.00547990049041,0.0251028323919
1589275667874142470,2186,1589275667874059791,,-0.23201365062,-4.07296552897,2.07060001032,0.404053698311,-0.00548574663382,0.0269321551468
1589275667880190944,2187,1589275667880028066,,-0.231983151019,-4.07297802303,2.07057885109,0.404053885249,-0.00548411119226,0.0269296835347
1589275667886166763,2188,1589275667886069841,,-0.232175884114,-4.07297115949,2.07057074977,0.40405363764,-0.00550339050424,0.0269294656196
1589275667892190965,2189,1589275667892033566,,-0.232220529832,-4.07300608223,2.0704970458,0.404053653669,-0.00550896188579,0.0269280859176
1589275667898101319,2190,1589275667898009958,,-0.209569548834,-4.33794485368,2.04884046344,0.402403021183,-0.00552290208069,0.025239886312
1589275667904209829,2191,1589275667904098192,,-0.20965082106,-4.33794258004,2.04883696265,0.402403062936,-0.00553168985625,0.0252372960589
1589275667910125257,2192,1589275667910049068,,-0.232598195848,-4.2053346022,2.04798984177,0.402374383551,-0.00554619651687,0.0268987987697
1589275667916759978,2193,1589275667916610775,,-0.209948294749,-4.20548256594,2.07151122642,0.402251723247,-0.00555232894443,0.0252341565561
1589275667922460851,2194,1589275667922094511,,-0.210102290493,-4.20547538511,2.07151019133,0.402251550761,-0.00556734046172,0.0252335986235
1589275667928115823,2195,1589275667928021671,,-0.232824418013,-4.2053305065,2.04797254635,0.402391108161,-0.00491492498661,0.0259891738908
