%time,field.header.seq,field.header.stamp,field.header.frame_id,field.vector.x,field.vector.y,field.vector.z
1589275665332382255,1769,1589275665332297546,,0.500023410198,-0.200989505204,0.214197218382
1589275665338489437,1770,1589275665338370330,,0.500025675782,-0.200994906703,0.214189988656
1589275665344453647,1771,1589275665344308282,,0.500027802448,-0.20099959131,0.214179665747
1589275665350475009,1772,1589275665350353778,,0.500029299576,-0.201002622281,0.21417768377
1589275665356482170,1773,1589275665356346127,,0.500030212072,-0.201003884075,0.214172259336
1589275665362492915,1774,1589275665362369261,,0.500032852971,-0.201009972768,0.21416458449
1589275665368501432,1775,1589275665368375356,,0.500033726236,-0.201012420896,0.214159239881
1589275665374635490,1776,1589275665374460401,,0.500036401104,-0.201016184372,0.214151892982
1589275665380596580,1777,1589275665380449096,,0.500037239387,-0.201018543912,0.214146893151
1589275665387106927,1778,1589275665386810939,,0.50003917817,-0.20102360327,0.214137893001
1589275665389844930,1779,1589275665389739420,,0.500040165116,-0.20102592482,0.214133490037
1589275665395492407,1780,1589275665395395120,,0.500041762766,-0.201031639754,0.214122643611
1589275665401744807,1781,1589275665401508080,,0.500042875586,-0.201034351347,0.214117348029
1589275665407568787,1782,1589275665407451410,,0.5000441158,-0.201039024968,0.214107542027
1589275665413657607,1783,1589275665413476321,,0.500044431057,-0.201041081021,0.214104309261
1589275665419608170,1784,1589275665419441656,,0.500046198017,-0.201045014151,0.214098154918
1589275665425604899,1785,1589275665425408879,,0.500047029809,-0.201046170597,0.214092876161
1589275665431632265,1786,1589275665431484595,,0.5000477634,-0.201049552094,0.214090257886
1589275665437655649,1787,1589275665437421722,,0.50004825016,-0.201053387545,0.214080421322
1589275665443565444,1788,1589275665443433881,,0.500049582666,-0.201054633218,0.214076348019
1589275665449538960,1789,1589275665449409400,,0.500050020151,-0.201056794457,0.214071507467
1589275665458547851,1790,1589275665458419554,,0.500052179774,-0.201064502326,0.214054940136
1589275665464703769,1791,1589275665464485398,,0.500051990738,-0.201067084334,0.214050185264
1589275665470574114,1792,1589275665470458095,,0.500053344927,-0.20106968669,0.214043705366
1589275665476568454,1793,1589275665476427702,,0.500053583453,-0.20107054882,0.214038858964
1589275665482597078,1794,1589275665482418326,,0.500053984444,-0.201071882785,0.214031147904
1589275665488696058,1795,1589275665488552245,,0.500054138933,-0.201073189213,0.214027423661
1589275665494652571,1796,1589275665494469665,,0.500054380669,-0.201073950293,0.21402294677
1589275665500550139,1797,1589275665500414790,,0.500054825753,-0.201075337059,0.214014842795
1589275665506598118,1798,1589275665506457346,,0.500055366502,-0.201075586803,0.214011157668
1589275665512633995,1799,1589275665512414153,,0.50005612191,-0.201075520591,0.214003393719
1589275665518620458,1800,1589275665518450493,,0.500056850834,-0.201076397826,0.213999305702
1589275665524573694,1801,1589275665524405485,,0.500057488731,-0.201077864589,0.213991161532
1589275665530600853,1802,1589275665530451638,,0.500057828722,-0.201079338832,0.213986446887
1589275665536546274,1803,1589275665536449102,,0.500058184239,-0.201077632719,0.213981327615
1589275665542503714,1804,1589275665542419198,,0.500059259471,-0.201079007844,0.213972225818
1589275665548523623,1805,1589275665548436291,,0.500060123475,-0.201077790544,0.213968575634
1589275665554545423,1806,1589275665554431562,,0.500061462435,-0.201077770044,0.213960522606
1589275665560657190,1807,1589275665560466456,,0.5000611664,-0.201076682054,0.213955393923
1589275665566601880,1808,1589275665566485978,,0.500061913393,-0.201074776168,0.213948189983
1589275665572519536,1809,1589275665572390722,,0.500062678174,-0.201074151759,0.213945594311
1589275665578624519,1810,1589275665578464533,,0.500063313008,-0.201069710539,0.213937677579
1589275665584561736,1811,1589275665584436024,,0.500063530797,-0.201069063554,0.213933656887
1589275665590957123,1812,1589275665590765851,,0.500063114941,-0.201068541101,0.2139293652
1589275665596611375,1813,1589275665596389649,,0.500064206521,-0.201066145966,0.213925074399
1589275665602486471,1814,1589275665602367827,,0.500064793434,-0.201062886541,0.213915549144
1589275665608519579,1815,1589275665608371411,,0.500065309775,-0.201059579564,0.213910084049
1589275665614560736,1816,1589275665614407827,,0.500066238752,-0.20105467053,0.213900326993
1589275665620579689,1817,1589275665620420588,,0.500066610756,-0.201052950374,0.213894737496
1589275665626503563,1818,1589275665626389462,,0.500067283267,-0.201046293278,0.213884267949
1589275665632520320,1819,1589275665632426957,,0.500068481848,-0.201041523997,0.21387925358
1589275665638507518,1820,1589275665638393460,,0.500070177984,-0.201028082942,0.213869055594
1589275665644576086,1821,1589275665644446880,,0.500070964373,-0.201019403326,0.213861888517
1589275665650497025,1822,1589275665650387994,,0.500070802513,-0.201003582555,0.2138486411
1589275665656539120,1823,1589275665656435375,,0.500069045858,-0.200996361479,0.213840319149
1589275665662576871,1824,1589275665662370050,,0.500065125791,-0.200983794026,0.213823411863
1589275665668532566,1825,1589275665668432527,,0.500063304797,-0.200977299644,0.213814084882
1589275665674603058,1826,1589275665674415909,,0.500063181432,-0.200970071383,0.213807859725
1589275665680532385,1827,1589275665680390616,,0.500062167578,-0.200949913621,0.21379014644
1589275665686952490,1828,1589275665686818746,,0.500065094638,-0.200904149268,0.213768454078
1589275665692623826,1829,1589275665692457779,,0.500064554686,-0.200897449025,0.213760312083
1589275665698602749,1830,1589275665698447783,,0.500064624171,-0.200891136338,0.213754406732
1589275665704570305,1831,1589275665704447844,,0.500064536192,-0.200874461928,0.213743500758
1589275665710549744,1832,1589275665710439677,,0.50006482645,-0.200865942332,0.213737843289
1589275665716489308,1833,1589275665716380099,,0.500065471726,-0.200852590741,0.213724302107
1589275665722591419,1834,1589275665722435144,,0.500065501015,-0.20084650947,0.213718268551
1589275665728492039,1835,1589275665728393504,,0.500065018567,-0.200833294893,0.213705919307
1589275665734581469,1836,1589275665734442218,,0.500063372832,-0.200823742277,0.213691268414
1589275665740551655,1837,1589275665740417308,,0.500063016121,-0.200817257946,0.213682500472
1589275665746583454,1838,1589275665746455811,,0.500062939672,-0.200812654693,0.213674358742
1589275665752720569,1839,1589275665752446248,,0.500062688565,-0.200796397335,0.213657631599
1589275665758698758,1840,1589275665758575011,,0.500063515802,-0.200784437609,0.213649357061
1589275665764663237,1841,1589275665764534244,,0.500064049041,-0.200758973095,0.213633181995
1589275665770568591,1842,1589275665770447114,,0.500064775032,-0.200749956937,0.213627034892
1589275665776560092,1843,1589275665776431407,,0.500065444677,-0.200734573735,0.213614326485
1589275665782543248,1844,1589275665782401457,,0.50006539433,-0.200727497142,0.213608600036
1589275665794671231,1845,1589275665794496699,,0.50006764476,-0.200705278191,0.213590755534
1589275665800612302,1846,1589275665800467849,,0.500067389272,-0.200692430943,0.213577336772
1589275665806493346,1847,1589275665806401523,,0.50006705964,-0.200685034092,0.213572260385
1589275665812705975,1848,1589275665812553151,,0.500066483534,-0.20067462558,0.213558382513
1589275665818590561,1849,1589275665818482161,,0.500066393093,-0.200668519415,0.213552549947
1589275665824645464,1850,1589275665824512632,,0.500065728545,-0.20065672282,0.213538113856
1589275665830666864,1851,1589275665830525841,,0.500065832479,-0.200649679365,0.213531328894
1589275665836721300,1852,1589275665836524726,,0.500065536344,-0.200641149481,0.213523370317
1589275665842498679,1853,1589275665842404902,,0.500066126,-0.200633327024,0.213516344674
1589275665854670536,1854,1589275665854513260,,0.500068934324,-0.200591483568,0.213489592877
1589275665860637565,1855,1589275665860539119,,0.500069726655,-0.200582967962,0.213482990837
1589275665866637835,1856,1589275665866494031,,0.500070946099,-0.200567725606,0.213470275204
1589275665872608607,1857,1589275665872478983,,0.500072026271,-0.200560409873,0.213465004194
1589275665878743579,1858,1589275665878566234,,0.500073047861,-0.200545607996,0.213451570653
1589275665884697033,1859,1589275665884511352,,0.500074323061,-0.20053859199,0.213446252375
1589275665891040798,1860,1589275665890850803,,0.5000753408,-0.200525930688,0.21343213604
1589275665896600456,1861,1589275665896469718,,0.500075407075,-0.200517169945,0.213425815572
1589275665902611475,1862,1589275665902494704,,0.500076837486,-0.200508244409,0.213418871676
1589275665908838717,1863,1589275665908557601,,0.500077750262,-0.200500927137,0.213412801947
1589275665914631184,1864,1589275665914531320,,0.500079767777,-0.200483719525,0.213399166935
1589275665920623746,1865,1589275665920491127,,0.500080874943,-0.200475334743,0.21339289283
1589275665926594609,1866,1589275665926423811,,0.500081866591,-0.200459760537,0.213379235267
1589275665932752705,1867,1589275665932530877,,0.500083146161,-0.200451911325,0.213374493682
1589275665938668595,1868,1589275665938443800,,0.500084331651,-0.200426989968,0.213358967488
1589275665944589457,1869,1589275665944499986,,0.50008544745,-0.200418475315,0.213354643795
1589275665950636354,1870,1589275665950487431,,0.500085699063,-0.200406193804,0.213342286181
1589275665956638473,1871,1589275665956495973,,0.500086154071,-0.200399786293,0.213336970006
1589275665962605025,1872,1589275665962470857,,0.500084890072,-0.200388771264,0.213323305936
1589275665968530706,1873,1589275665968420179,,0.500085037553,-0.200381599247,0.213315698878
1589275665974620983,1874,1589275665974528074,,0.500083259396,-0.20037010505,0.213301758445
1589275665980643369,1875,1589275665980533657,,0.500082263814,-0.200362354753,0.21329250776
1589275665987023383,1876,1589275665986901747,,0.500081339538,-0.200355977916,0.213286362436
1589275665992612149,1877,1589275665992474663,,0.500080993575,-0.200341446807,0.213273488086
1589275665998641985,1878,1589275665998477638,,0.500081246079,-0.2003339519,0.213266885748
1589275666004749550,1879,1589275666004478303,,0.500082377556,-0.200316292762,0.213254756979
1589275666010558211,1880,1589275666010434762,,0.500082963898,-0.200307549202,0.213247830533
1589275666016687678,1881,1589275666016496408,,0.500083492304,-0.200291006018,0.213235127964
1589275666022540360,1882,1589275666022441278,,0.500083451149,-0.200282192418,0.21322948153
1589275666028637406,1883,1589275666028445314,,0.500083844301,-0.200263764029,0.213218078208
1589275666034580282,1884,1589275666034448193,,0.500084694625,-0.200254140588,0.213213644983
1589275666040578457,1885,1589275666040455612,,0.500084793764,-0.200234918659,0.213199902643
1589275666046621585,1886,1589275666046516177,,0.500084377625,-0.200223311632,0.213193341193
1589275666052623414,1887,1589275666052467341,,0.500083479608,-0.200200382279,0.213177720989
1589275666058600446,1888,1589275666058496779,,0.500083292317,-0.20019112375,0.213170994448
1589275666064551031,1889,1589275666064433214,,0.500082314337,-0.200168702921,0.213156181839
1589275666070591365,1890,1589275666070471303,,0.50008190326,-0.200156110415,0.213148156856
1589275666076811562,1891,1589275666076659658,,0.500079523159,-0.200133726474,0.213131475938
1589275666082571852,1892,1589275666082481873,,0.50007914591,-0.200121717119,0.213123674774
1589275666091624345,1893,1589275666091515048,,0.500078404454,-0.200085282079,0.213102689765
1589275666097630813,1894,1589275666097519872,,0.50007857883,-0.200059852962,0.21308865933
1589275666103673809,1895,1589275666103508214,,0.500077891247,-0.200048102619,0.21308185684
1589275666109678279,1896,1589275666109496093,,0.500075540681,-0.200024755674,0.213066642007
1589275666118705735,1897,1589275666118560799,,0.500073739876,-0.199989292693,0.213047177277
1589275666124669942,1898,1589275666124496180,,0.500073304635,-0.199975392729,0.213040812395
1589275666130716320,1899,1589275666130503413,,0.500070383458,-0.199949491317,0.213026168173
1589275666136658773,1900,1589275666136525123,,0.500068597332,-0.199937521432,0.213019167317
1589275666142579213,1901,1589275666142502608,,0.500066775372,-0.199910777734,0.213006468464
1589275666149479210,1902,1589275666149364802,,0.500065955294,-0.199898109688,0.213002471892
1589275666154654389,1903,1589275666154495804,,0.50006244461,-0.199873990957,0.212994035622
1589275666160674400,1904,1589275666160565924,,0.500060166158,-0.199860789057,0.212990440118
1589275666166693102,1905,1589275666166542647,,0.500057418241,-0.199838700549,0.212988493517
1589275666172764934,1906,1589275666172585061,,0.500056590714,-0.199827724976,0.212986557304
1589275666178657241,1907,1589275666178539708,,0.500054863628,-0.1998180497,0.212981398566
1589275666184679489,1908,1589275666184508460,,0.500053514776,-0.199793953419,0.212975220027
1589275666191015019,1909,1589275666190872262,,0.500049504517,-0.199772256926,0.212966663694
1589275666196671263,1910,1589275666196552771,,0.500047457827,-0.199759262208,0.212963921607
1589275666202660163,1911,1589275666202531942,,0.500041741988,-0.199733800939,0.212952915358
1589275666211793739,1912,1589275666211573602,,0.500036057128,-0.199686981632,0.212936051819
1589275666217691839,1913,1589275666217564676,,0.500034119782,-0.199673339861,0.212929977131
1589275666223655619,1914,1589275666223530298,,0.500030235197,-0.199640809703,0.212919958726
1589275666229698354,1915,1589275666229522004,,0.500027318291,-0.19962750891,0.212916057609
1589275666238628677,1916,1589275666238497828,,0.50002193196,-0.199578775352,0.212904298228
1589275666244701471,1917,1589275666244574864,,0.500020225995,-0.199562296151,0.212900440389
1589275666250722316,1918,1589275666250581519,,0.500018855315,-0.199531948335,0.212896240572
1589275666256705023,1919,1589275666256596216,,0.500016041399,-0.199518977838,0.212891466066
1589275666262732816,1920,1589275666262576994,,0.500013192661,-0.199487054316,0.212883390276
1589275666271742650,1921,1589275666271581378,,0.500006150632,-0.199444288591,0.212867596376
1589275666277724223,1922,1589275666277607540,,0.500003401357,-0.199431523906,0.21286176228
1589275666283614885,1923,1589275666283509754,,0.499999332856,-0.199407182434,0.212853396829
1589275666290036412,1924,1589275666289881762,,0.499997337681,-0.199394277438,0.212850161108
1589275666295945658,1925,1589275666295840528,,0.499993495103,-0.199366934811,0.212843574597
1589275666301810023,1926,1589275666301583035,,0.499991963942,-0.199351104437,0.212841319304
1589275666307779326,1927,1589275666307591007,,0.499987873152,-0.199324195524,0.212834084886
1589275666313720922,1928,1589275666313566471,,0.499986869908,-0.199311289435,0.212833037939
1589275666319746066,1929,1589275666319581805,,0.499983307307,-0.19927798017,0.212824142387
1589275666325814504,1930,1589275666325602291,,0.499982324552,-0.199262834056,0.212823007552
1589275666331811909,1931,1589275666331598739,,0.499977131989,-0.199223297009,0.21281262639
1589275666337715898,1932,1589275666337573515,,0.499975472915,-0.199203896946,0.212809058634
1589275666343809641,1933,1589275666343595167,,0.499970883326,-0.199169992241,0.212800820837
1589275666349756598,1934,1589275666349542462,,0.499967645355,-0.199153003612,0.212794679871
1589275666355904596,1935,1589275666355722699,,0.499962774815,-0.199118510184,0.212783423969
1589275666361738242,1936,1589275666361580459,,0.499960969312,-0.199099617902,0.21277788722
1589275666367750945,1937,1589275666367567686,,0.499956436232,-0.19905941437,0.212768474896
1589275666373825925,1938,1589275666373620237,,0.499955340816,-0.199039270085,0.212766058926
1589275666379774771,1939,1589275666379589578,,0.49994915505,-0.198993685266,0.212755274182
1589275666385633340,1940,1589275666385526244,,0.499946354638,-0.198972039613,0.212752042719
1589275666391739250,1941,1589275666391545539,,0.499944536988,-0.198949590249,0.212748435354
1589275666397657174,1942,1589275666397545217,,0.49993934689,-0.198903025993,0.212738539222
1589275666403771436,1943,1589275666403623287,,0.49993436178,-0.198847353796,0.212722610846
1589275666409668565,1944,1589275666409566138,,0.499931914651,-0.198819385204,0.212717980726
1589275666415875045,1945,1589275666415780711,,0.499925546059,-0.198767303043,0.212703582274
1589275666421736524,1946,1589275666421577374,,0.499924002507,-0.198738745417,0.212696285517
1589275666427719352,1947,1589275666427613350,,0.499920509748,-0.198683314191,0.212685401281
1589275666433768312,1948,1589275666433557383,,0.499918267942,-0.198655257775,0.212676076571
1589275666439665046,1949,1589275666439559875,,0.499914703846,-0.198631142483,0.212668937487
1589275666445713639,1950,1589275666445619919,,0.499908968205,-0.198586428982,0.21266338142
1589275666451745585,1951,1589275666451595263,,0.499899713068,-0.198542615677,0.212648778236
1589275666457706149,1952,1589275666457629613,,0.499896910533,-0.19852175333,0.212646211107
1589275666463750808,1953,1589275666463550007,,0.49989360006,-0.198499713895,0.212641862615
1589275666469697176,1954,1589275666469606121,,0.499887060226,-0.198458173817,0.212630782352
1589275666478741655,1955,1589275666478645454,,0.499876654837,-0.198381049971,0.212609879359
1589275666484698084,1956,1589275666484581854,,0.499873289946,-0.198351165944,0.2126020101
1589275666491027408,1957,1589275666490894898,,0.499866246003,-0.198287029597,0.212586238066
1589275666496763435,1958,1589275666496620799,,0.499862840029,-0.198254292427,0.212577869033
1589275666502752484,1959,1589275666502627821,,0.4998591705,-0.198184644614,0.212560727492
1589275666508680540,1960,1589275666508553714,,0.499857732544,-0.198146045597,0.212553940989
1589275666514673415,1961,1589275666514561490,,0.499852851908,-0.198070672891,0.212536330967
1589275666520701180,1962,1589275666520552675,,0.499850551,-0.198035053235,0.212529649083
1589275666526660570,1963,1589275666526521633,,0.499848884673,-0.197996640598,0.212522444406
1589275666532798767,1964,1589275666532616585,,0.499843391723,-0.197925839939,0.212508220679
1589275666538698455,1965,1589275666538530578,,0.499840863317,-0.197886700146,0.21249762616
1589275666544803684,1966,1589275666544579420,,0.499833600497,-0.197821722489,0.212483284205
1589275666550640734,1967,1589275666550510935,,0.499832093979,-0.197791045083,0.212477152419
1589275666556654875,1968,1589275666556550376,,0.499829984574,-0.197760281603,0.212468827997
1589275666562697953,1969,1589275666562551720,,0.499825825762,-0.197726414144,0.212457836577
1589275666571751335,1970,1589275666571575019,,0.499815279933,-0.197642553849,0.212435486405
1589275666577706054,1971,1589275666577580526,,0.499810360237,-0.197588489389,0.212426922678
1589275666583664184,1972,1589275666583549900,,0.499807355788,-0.197557011576,0.212419839533
1589275666589994590,1973,1589275666589875449,,0.49980349977,-0.197507373716,0.212411915447
1589275666595691959,1974,1589275666595571074,,0.499800141646,-0.197474307784,0.212407007692
1589275666601744571,1975,1589275666601586366,,0.499795412222,-0.197416084551,0.212392769838
1589275666607793378,1976,1589275666607561145,,0.499792060207,-0.197386362521,0.212389062134
1589275666613726840,1977,1589275666613594491,,0.499787229276,-0.197320799058,0.212378768314
1589275666619779480,1978,1589275666619610378,,0.499783179886,-0.197286812789,0.2123709506
1589275666625627303,1979,1589275666625545945,,0.499775808577,-0.197223530408,0.21235717138
1589275666631627082,1980,1589275666631529931,,0.499771886196,-0.197189773926,0.212350397179
1589275666637642495,1981,1589275666637528821,,0.499766346994,-0.197115946325,0.212342518393
1589275666640701223,1982,1589275666640534874,,0.499762737837,-0.197082931365,0.212334654487
1589275666643652576,1983,1589275666643529504,,0.49975852772,-0.197046582895,0.212326430961
1589275666649727952,1984,1589275666649601359,,0.499754936374,-0.197011801574,0.212323371847
1589275666656024144,1985,1589275666655875456,,0.499749003935,-0.196937230563,0.212312037482
1589275666661831478,1986,1589275666661654909,,0.499745704371,-0.196898809209,0.212304143393
1589275666667643841,1987,1589275666667554116,,0.499741478965,-0.196829676009,0.212291859844
1589275666673686269,1988,1589275666673548699,,0.499738210469,-0.196788013923,0.212280706081
1589275666679600278,1989,1589275666679487374,,0.499736282623,-0.196755954697,0.21227533163
1589275666682680682,1990,1589275666682485524,,0.4997296624,-0.196678867369,0.212258833362
1589275666685610825,1991,1589275666685495739,,0.499725965757,-0.196642453096,0.212251247562
1589275666691774860,1992,1589275666691613460,,0.49972260967,-0.196579180381,0.212243035384
1589275666697744081,1993,1589275666697634161,,0.499719886567,-0.19654537227,0.212235842149
1589275666703624379,1994,1589275666703521848,,0.499718901531,-0.196517912486,0.212232140489
1589275666706676356,1995,1589275666706544308,,0.499716182515,-0.196482409912,0.21222596316
1589275666712747536,1996,1589275666712613076,,0.499709446773,-0.196422211768,0.21221682645
1589275666718749308,1997,1589275666718608798,,0.499707568484,-0.196390720247,0.212213008666
1589275666724795668,1998,1589275666724648383,,0.499702139616,-0.196340611531,0.212204984856
1589275666730726519,1999,1589275666730592970,,0.499699298375,-0.196306726292,0.212196409547
1589275666736733957,2000,1589275666736604219,,0.499693799699,-0.196253765111,0.212186551974
1589275666742749679,2001,1589275666742571498,,0.49969128983,-0.196216079592,0.212177484555
1589275666751737795,2002,1589275666751584705,,0.499680021437,-0.196112409655,0.212156777018
1589275666757826579,2003,1589275666757656285,,0.499676516477,-0.196040536853,0.212142191418
1589275666763710768,2004,1589275666763561081,,0.499672732509,-0.196002082844,0.212131345113
1589275666769778208,2005,1589275666769589707,,0.499669959532,-0.195915799341,0.212114606609
1589275666776030540,2006,1589275666775930905,,0.499666749306,-0.195879053843,0.212106145428
1589275666781828919,2007,1589275666781576485,,0.499664255056,-0.195785308162,0.212095188656
1589275666788094312,2008,1589275666787913406,,0.499658717596,-0.195743993728,0.212084271203
1589275666793814078,2009,1589275666793630057,,0.499655944729,-0.195657605636,0.212073087197
1589275666799760194,2010,1589275666799596009,,0.499653370636,-0.195611640953,0.212067906358
1589275666805763095,2011,1589275666805595408,,0.499646706607,-0.195529595956,0.212051214242
1589275666811737687,2012,1589275666811580861,,0.499643840949,-0.195486499199,0.212044977652
1589275666817747891,2013,1589275666817640364,,0.499641097752,-0.195445546282,0.212036791454
1589275666823698571,2014,1589275666823574777,,0.499631754517,-0.195365144442,0.212020848458
1589275666829718750,2015,1589275666829604052,,0.499625374413,-0.195274823705,0.212002518988
1589275666835835271,2016,1589275666835745583,,0.49962212549,-0.195232461544,0.211992479764
1589275666841759657,2017,1589275666841627893,,0.499616230477,-0.19514498687,0.21197496666
1589275666847768952,2018,1589275666847615168,,0.499614408455,-0.195100932911,0.211968959844
1589275666853840472,2019,1589275666853651402,,0.499608582374,-0.195009961483,0.211950877706
1589275666859815052,2020,1589275666859604156,,0.499606143351,-0.194964680569,0.211945536263
1589275666865729983,2021,1589275666865553507,,0.499602596202,-0.194922737693,0.21193921999
1589275666871763097,2022,1589275666871610891,,0.499598523791,-0.194831943928,0.211924517355
1589275666877666151,2023,1589275666877543676,,0.499591755029,-0.194742784714,0.211908774749
1589275666883749221,2024,1589275666883616210,,0.499589502392,-0.194696818612,0.211906288334
1589275666890068329,2025,1589275666889955481,,0.499585887875,-0.194655725768,0.21189669567
1589275666898749095,2026,1589275666898619322,,0.499577589888,-0.194519273603,0.211873334752
1589275666904687945,2027,1589275666904550367,,0.499573497865,-0.194473115618,0.211866029897
1589275666910716024,2028,1589275666910584255,,0.49956883917,-0.194380621346,0.211847286662
1589275666913757403,2029,1589275666913608019,,0.499564321486,-0.19433331097,0.211840332465
1589275666919746043,2030,1589275666919577017,,0.499559862251,-0.194237050673,0.211827238804
1589275666925724361,2031,1589275666925605758,,0.499557760292,-0.194198096801,0.211820146481
1589275666931737568,2032,1589275666931588262,,0.499552318353,-0.194094879179,0.211798959114
1589275666937780973,2033,1589275666937653318,,0.499550028187,-0.194055297014,0.211795169472
1589275666943735797,2034,1589275666943587051,,0.499545084353,-0.193954760465,0.211774248384
1589275666949826731,2035,1589275666949577093,,0.499541258909,-0.19390721127,0.211765889349
1589275666958744570,2036,1589275666958572867,,0.499534267767,-0.193772830688,0.211743014044
1589275666964782944,2037,1589275666964608255,,0.499527443792,-0.19368264884,0.211719263267
1589275666970806830,2038,1589275666970618880,,0.499526221126,-0.193633951098,0.211710520453
1589275666976713784,2039,1589275666976581866,,0.499519420996,-0.193545441348,0.21169288038
1589275666982696253,2040,1589275666982578497,,0.499515654221,-0.193497683812,0.211686122197
1589275666991771200,2041,1589275666991595039,,0.499508508685,-0.193399965119,0.211665144842
1589275666997693937,2042,1589275666997603665,,0.499504440568,-0.193303436779,0.211655562683
1589275667003750554,2043,1589275667003632594,,0.499500795224,-0.193256342455,0.211642067476
1589275667009786830,2044,1589275667009657055,,0.499496057936,-0.193156081146,0.211626400671
1589275667015797463,2045,1589275667015695102,,0.499493805814,-0.193118560183,0.211620448001
1589275667021786439,2046,1589275667021633173,,0.499488920061,-0.193005296327,0.211597696654
1589275667027733789,2047,1589275667027585362,,0.499487831155,-0.192963615926,0.211590514334
1589275667033745888,2048,1589275667033606747,,0.499483000099,-0.1928513663,0.211566927507
1589275667039706293,2049,1589275667039606702,,0.499481694918,-0.192799012577,0.211556694849
1589275667045920128,2050,1589275667045676134,,0.499478054236,-0.192704036633,0.211539124524
1589275667051771176,2051,1589275667051611935,,0.499477567681,-0.192653577333,0.211530956198
1589275667057795256,2052,1589275667057634499,,0.499475187906,-0.192561533358,0.211510736648
1589275667063790518,2053,1589275667063618222,,0.499474262238,-0.192513937129,0.211503610987
1589275667069758661,2054,1589275667069633932,,0.499472037949,-0.192469330948,0.211495558552
1589275667075714824,2055,1589275667075630478,,0.4994707583,-0.19242151538,0.211485976376
1589275667081771442,2056,1589275667081662070,,0.499468498417,-0.192372455308,0.211479712714
1589275667088027010,2057,1589275667087876922,,0.499463673509,-0.192278486265,0.211463607969
1589275667093810764,2058,1589275667093658374,,0.499463257799,-0.192226790884,0.211458427474
1589275667099780298,2059,1589275667099623888,,0.499460574888,-0.192175687936,0.211444804501
1589275667105828211,2060,1589275667105681867,,0.499456580213,-0.192072166318,0.211428416923
1589275667111788511,2061,1589275667111605325,,0.499455943714,-0.192014337111,0.211415108132
1589275667114768789,2062,1589275667114588934,,0.499454006167,-0.191959713372,0.211405395364
1589275667120739471,2063,1589275667120580283,,0.499452521589,-0.191901489984,0.211396667527
1589275667126836504,2064,1589275667126654118,,0.499450481661,-0.191845155846,0.211385213714
1589275667132814240,2065,1589275667132667615,,0.499448937982,-0.191723483237,0.21136567696
1589275667138839178,2066,1589275667138628836,,0.499448589722,-0.191661569,0.211356366983
1589275667144723300,2067,1589275667144567357,,0.499447935253,-0.191601617875,0.211346168085
1589275667151420422,2068,1589275667151270803,,0.499446864924,-0.191483476734,0.211328957229
1589275667156788915,2069,1589275667156644849,,0.499446140833,-0.191426974742,0.211321641596
1589275667162858414,2070,1589275667162735953,,0.499444206262,-0.19131652662,0.211303795834
1589275667169395574,2071,1589275667169294883,,0.499442306925,-0.191261491903,0.211296482927
1589275667174818306,2072,1589275667174643131,,0.499437777811,-0.191158410147,0.211277547695
1589275667180795517,2073,1589275667180645695,,0.49943458235,-0.191109570086,0.211265930507
1589275667187164529,2074,1589275667186997202,,0.499432278357,-0.191060012353,0.211256802976
1589275667192762123,2075,1589275667192675912,,0.499430683847,-0.19100663801,0.211248592915
1589275667198756598,2076,1589275667198619436,,0.499425809516,-0.190905210329,0.211223099753
1589275667204808129,2077,1589275667204708019,,0.499424276551,-0.190853662206,0.211216241527
1589275667210742927,2078,1589275667210611756,,0.499422485006,-0.190761224834,0.211195708964
1589275667213708410,2079,1589275667213588289,,0.499423059492,-0.190699657838,0.211184472866
1589275667219767885,2080,1589275667219639005,,0.499423509902,-0.190599746558,0.211168901625
1589275667225777498,2081,1589275667225664400,,0.499422963465,-0.190540434418,0.211155260962
1589275667231885940,2082,1589275667231711650,,0.499423280184,-0.190432974002,0.211141847064
1589275667237856738,2083,1589275667237734211,,0.499421612655,-0.190381917887,0.211126107895
1589275667243845137,2084,1589275667243737440,,0.499421585766,-0.190277066391,0.211102612408
1589275667249817976,2085,1589275667249687528,,0.499422247419,-0.190227990225,0.21109333428
1589275667256050333,2086,1589275667255941774,,0.499421102198,-0.19012456659,0.211072541677
1589275667261884709,2087,1589275667261754596,,0.49941933612,-0.190076839433,0.211062951604
1589275667267863076,2088,1589275667267675472,,0.499415135283,-0.189978061752,0.211045717787
1589275667273836041,2089,1589275667273628907,,0.499415360957,-0.189927205865,0.211038634415
1589275667279776534,2090,1589275667279613391,,0.499409273737,-0.189831740007,0.211020373709
1589275667285793333,2091,1589275667285656873,,0.499408408889,-0.189782488517,0.21101468998
1589275667291776001,2092,1589275667291642353,,0.499403505051,-0.189678437181,0.210997868559
1589275667297831593,2093,1589275667297690734,,0.499402100146,-0.189625358754,0.210990746306
1589275667303819462,2094,1589275667303664174,,0.499400556371,-0.189505701462,0.210969185701
1589275667309845407,2095,1589275667309749920,,0.499399565382,-0.1894466882,0.21095881987
1589275667316125171,2096,1589275667316039421,,0.499399925739,-0.189314683372,0.210937374297
1589275667321797746,2097,1589275667321698793,,0.49939880096,-0.189246832655,0.210930844982
1589275667327857536,2098,1589275667327701546,,0.499397982013,-0.189179291713,0.210920534472
1589275667333812833,2099,1589275667333702109,,0.499399180757,-0.189111813296,0.210908745405
1589275667339780814,2100,1589275667339634690,,0.499397505041,-0.188978923979,0.210888391036
1589275667345780078,2101,1589275667345689151,,0.499397874935,-0.188913150503,0.210882511349
1589275667351841582,2102,1589275667351713436,,0.499395555531,-0.1888567412,0.210870908658
1589275667357796399,2103,1589275667357653782,,0.499393295129,-0.188760359005,0.21086038114
1589275667363878862,2104,1589275667363714130,,0.499390501521,-0.188713490174,0.210852207028
1589275667369867234,2105,1589275667369705783,,0.499386756939,-0.18865550001,0.210839419378
1589275667378834094,2106,1589275667378726919,,0.499373660318,-0.188485597675,0.210813268331
1589275667384812741,2107,1589275667384692844,,0.499370069301,-0.188442973826,0.210804383808
1589275667391102019,2108,1589275667390967680,,0.499365811982,-0.188401874966,0.210794337799
1589275667396914570,2109,1589275667396727033,,0.499363338413,-0.188357738435,0.210783920054
1589275667402907670,2110,1589275667402728435,,0.4993599732,-0.188255826907,0.210758609702
1589275667411864016,2111,1589275667411709617,,0.499353776863,-0.188080229587,0.210724427681
1589275667417817189,2112,1589275667417661272,,0.499354577706,-0.188028176726,0.210715936783
1589275667423792249,2113,1589275667423654577,,0.499355467261,-0.187888249171,0.210694198014
1589275667429795552,2114,1589275667429704622,,0.499356280084,-0.187829666732,0.210688414525
1589275667436294957,2115,1589275667436173405,,0.499356915305,-0.187762344831,0.210678351662
1589275667441935355,2116,1589275667441751646,,0.49935636137,-0.187687733729,0.210664458885
1589275667447900748,2117,1589275667447738322,,0.499354107018,-0.187569799915,0.21065017137
1589275667453873231,2118,1589275667453735238,,0.499352815062,-0.18752582405,0.210644200355
1589275667459855494,2119,1589275667459692389,,0.4993506985,-0.187416501739,0.210622420357
1589275667465920967,2120,1589275667465741480,,0.499349062392,-0.187384219467,0.210616175127
1589275667471821132,2121,1589275667471683883,,0.499341962573,-0.18729319574,0.210599035879
1589275667477799359,2122,1589275667477696518,,0.499339144964,-0.187251462881,0.210593910416
1589275667483865278,2123,1589275667483737319,,0.499331643222,-0.187175209653,0.210584429534
1589275667490232887,2124,1589275667490055576,,0.499328112517,-0.187137307753,0.210577962932
1589275667496241023,2125,1589275667496153392,,0.499323496708,-0.187052077306,0.210559431851
1589275667501817843,2126,1589275667501709134,,0.499322619731,-0.187003094236,0.210551108958
1589275667507834479,2127,1589275667507695808,,0.499319268199,-0.186897286934,0.210535759347
1589275667513843115,2128,1589275667513746451,,0.499317404749,-0.186837212192,0.210524879532
1589275667519967225,2129,1589275667519755291,,0.499314783076,-0.18671072746,0.210503257232
1589275667525900963,2130,1589275667525753900,,0.499316694128,-0.186639473322,0.210494234617
1589275667531821680,2131,1589275667531686297,,0.499316570383,-0.186502956796,0.210469483896
1589275667537836079,2132,1589275667537660472,,0.499316035216,-0.186432820854,0.210453953423
1589275667543947102,2133,1589275667543741681,,0.499317943889,-0.18629306961,0.210428972875
1589275667549797476,2134,1589275667549689926,,0.499316761831,-0.186228575751,0.210416949794
1589275667558858784,2135,1589275667558729271,,0.499315105161,-0.1860973589,0.210392679777
1589275667564877736,2136,1589275667564717383,,0.499309604948,-0.185994169034,0.21037181723
1589275667570884434,2137,1589275667570746041,,0.49930789957,-0.185941697028,0.210363665906
1589275667576969320,2138,1589275667576797873,,0.499300499563,-0.185857239278,0.21034576199
1589275667582872655,2139,1589275667582774804,,0.499297782306,-0.185811466281,0.210337337267
1589275667589689652,2140,1589275667589592409,,0.499291900412,-0.185730949387,0.210327205504
1589275667594848968,2141,1589275667594710509,,0.499287342935,-0.185686709433,0.210317693486
1589275667600920207,2142,1589275667600722229,,0.499283679166,-0.185598039129,0.210300815225
1589275667606911856,2143,1589275667606754617,,0.499282205186,-0.185548923335,0.210295676401
1589275667612878302,2144,1589275667612769746,,0.499279911673,-0.18544426699,0.21027992808
1589275667618866152,2145,1589275667618717599,,0.499278964539,-0.185384191938,0.21026995057
1589275667624956900,2146,1589275667624753180,,0.499278143304,-0.185264850555,0.210254496535
1589275667630896404,2147,1589275667630747053,,0.49927941169,-0.185201509317,0.210242625334
1589275667636938802,2148,1589275667636774417,,0.499281301714,-0.185071725207,0.210225391353
1589275667642857159,2149,1589275667642762684,,0.499280329284,-0.18500753647,0.210214187894
1589275667649408464,2150,1589275667649323897,,0.499282096195,-0.184880525469,0.210196507587
1589275667654867678,2151,1589275667654739784,,0.499281554188,-0.184818093732,0.210184627201
1589275667660878568,2152,1589275667660749380,,0.499280972314,-0.184760897536,0.210176204592
1589275667666863022,2153,1589275667666730656,,0.499279878797,-0.184705295815,0.210168240336
1589275667672858698,2154,1589275667672732287,,0.499276680291,-0.184604897117,0.210155070648
1589275667678943321,2155,1589275667678784052,,0.499274994166,-0.184560684794,0.210149194511
1589275667684891188,2156,1589275667684765424,,0.499268798957,-0.184478660292,0.210139783778
1589275667691214881,2157,1589275667691116497,,0.4992612217,-0.184405165362,0.21012633748
1589275667697016675,2158,1589275667696774863,,0.499257472884,-0.184365543557,0.210121604689
1589275667702803617,2159,1589275667702707062,,0.499254703211,-0.184324652835,0.210115172515
1589275667711963843,2160,1589275667711784578,,0.499247901897,-0.184194004926,0.210088374965
1589275667717898204,2161,1589275667717792270,,0.499246215051,-0.184085455964,0.210072718937
1589275667723820955,2162,1589275667723711704,,0.499246535658,-0.184032850266,0.210063752947
1589275667729858973,2163,1589275667729723099,,0.499244901854,-0.183914095703,0.210044333156
1589275667738894413,2164,1589275667738735011,,0.499247670895,-0.183719249913,0.210015463561
1589275667744911712,2165,1589275667744730772,,0.499247914281,-0.183655177638,0.210006130422
1589275667750872121,2166,1589275667750731141,,0.499247705165,-0.183532002442,0.20998690882
1589275667756984084,2167,1589275667756749997,,0.499246500298,-0.183477249693,0.209980301075
1589275667762848078,2168,1589275667762719749,,0.499242805595,-0.183377295882,0.209967096035
1589275667769494086,2169,1589275667769375508,,0.499238796658,-0.183337628876,0.209959720546
1589275667774884497,2170,1589275667774737340,,0.499233768939,-0.183258279285,0.209951497693
1589275667780967053,2171,1589275667780809664,,0.499230495573,-0.183226875898,0.209948813279
1589275667787275990,2172,1589275667787121155,,0.499221305715,-0.183164385513,0.209939495656
1589275667792919139,2173,1589275667792772511,,0.499218531942,-0.183126516689,0.209935170481
1589275667798904479,2174,1589275667798779587,,0.499211353018,-0.183055826878,0.209927834868
1589275667805028636,2175,1589275667804790553,,0.499209034148,-0.18301286522,0.209920476596
1589275667810940521,2176,1589275667810803735,,0.499206626145,-0.182970083283,0.20991151744
1589275667816904334,2177,1589275667816735021,,0.499206582862,-0.18291770488,0.209908428852
1589275667823168692,2178,1589275667823028267,,0.499202978802,-0.182816958973,0.209889793427
1589275667831939564,2179,1589275667831766366,,0.499202114448,-0.182645318257,0.209863351401
1589275667837935999,2180,1589275667837789190,,0.499203082337,-0.182597412129,0.209858069055
1589275667843912365,2181,1589275667843763393,,0.49920366052,-0.182470690211,0.209838551235
1589275667849914908,2182,1589275667849814081,,0.499204539875,-0.182424015773,0.209831402119
1589275667856278241,2183,1589275667856175367,,0.499204501845,-0.182364584684,0.209823557503
1589275667861905853,2184,1589275667861793459,,0.499200736893,-0.182256535479,0.209801755241
1589275667867952092,2185,1589275667867797030,,0.499200087135,-0.182213529591,0.209798427851
1589275667873958766,2186,1589275667873823668,,0.499196454217,-0.182149386512,0.209785192906
1589275667880015662,2187,1589275667879819067,,0.499193396666,-0.18211502278,0.209776647363
1589275667885917837,2188,1589275667885820568,,0.499188771093,-0.182067519321,0.209768726221
1589275667891968461,2189,1589275667891780176,,0.499183903869,-0.182040806234,0.209762106078
1589275667897888736,2190,1589275667897758149,,0.49917774711,-0.181992895919,0.209756573527
1589275667904101245,2191,1589275667903819376,,0.499173908909,-0.181966618844,0.209749549551
1589275667910011765,2192,1589275667909809361,,0.499171346502,-0.181910334012,0.209739881289
1589275667916492649,2193,1589275667916319913,,0.499170040442,-0.181876826253,0.209734818599
1589275667921966342,2194,1589275667921806359,,0.499170415113,-0.181801361942,0.20972168843
1589275667927929191,2195,1589275667927717325,,0.499170173333,-0.181759717297,0.209715306256
1589275667934090096,2196,1589275667933811750,,0.499170477925,-0.18166625802,0.209701488971
1589275667939898566,2197,1589275667939756001,,0.499170779779,-0.181621554442,0.209696559102
1589275667945985668,2198,1589275667945794442,,0.499173759158,-0.181517135512,0.209680375518
1589275667951931337,2199,1589275667951817283,,0.499173752225,-0.181466272733,0.20967208604
1589275667958047362,2200,1589275667957837471,,0.499175847125,-0.181415615708,0.20966568033
1589275667963961950,2201,1589275667963804451,,0.499178192835,-0.181306175255,0.209646596168
1589275667969920310,2202,1589275667969832952,,0.499178708602,-0.181253967192,0.209637094244
1589275667979007802,2203,1589275667978788378,,0.499179549964,-0.18111023204,0.209615527503
1589275667984956819,2204,1589275667984798516,,0.499175747875,-0.18103603705,0.209601654643
1589275667991294486,2205,1589275667991138699,,0.499174141522,-0.181003993205,0.20959826323
1589275667997009666,2206,1589275667996843951,,0.49917245708,-0.180973518178,0.209595882218
1589275668003316899,2207,1589275668003117692,,0.499168048499,-0.180921988923,0.209590547808
1589275668011991363,2208,1589275668011794178,,0.499162626094,-0.180872953062,0.209583831963
1589275668017984979,2209,1589275668017790008,,0.499159528203,-0.180815897655,0.209575894111
1589275668024022285,2210,1589275668023835236,,0.499156618032,-0.180752375199,0.209567543267
1589275668029988880,2211,1589275668029815511,,0.4991559985,-0.180716886695,0.209561704835
1589275668036334480,2212,1589275668036205922,,0.499155556031,-0.180682626579,0.209556468176
1589275668042051138,2213,1589275668041833952,,0.499156403406,-0.180600439093,0.209547753178
1589275668047965190,2214,1589275668047786971,,0.499156978947,-0.180520206959,0.209535211093
1589275668053880526,2215,1589275668053748427,,0.499157370864,-0.180480128253,0.209529562913
1589275668059999030,2216,1589275668059807086,,0.49915928478,-0.180434669241,0.209525490227
1589275668065965656,2217,1589275668065803551,,0.499160195327,-0.180347418074,0.209508949299
1589275668072050546,2218,1589275668071854860,,0.499161968287,-0.180306501893,0.209506244259
1589275668077997249,2219,1589275668077816256,,0.499162870655,-0.18022461844,0.209493972582
1589275668083940853,2220,1589275668083818224,,0.499162007975,-0.180186822403,0.209487539677
1589275668090289878,2221,1589275668090172320,,0.49916204241,-0.180112588004,0.209476827681
1589275668098956986,2222,1589275668098835113,,0.499160491592,-0.180025973866,0.209465530358
1589275668105009678,2223,1589275668104896197,,0.499157986496,-0.180001609545,0.209460891641
1589275668110996874,2224,1589275668110869260,,0.49915417369,-0.179958512568,0.209455476975
1589275668116939686,2225,1589275668116842766,,0.49915306564,-0.179936149625,0.209453730996
1589275668123065597,2226,1589275668122925053,,0.499149075277,-0.179891943415,0.209448963922
1589275668131980749,2227,1589275668131807090,,0.499145724269,-0.179816489802,0.209438493925
1589275668137937322,2228,1589275668137827507,,0.499145682291,-0.179785640899,0.209435962882
1589275668143889859,2229,1589275668143765107,,0.499144173257,-0.179758072781,0.209430427674
1589275668149982179,2230,1589275668149798500,,0.499142999152,-0.179732138752,0.209425443752
1589275668156391114,2231,1589275668156295114,,0.499141268903,-0.179672225045,0.209416761275
1589275668161836724,2232,1589275668161723211,,0.499140760108,-0.179641113606,0.209412680018
1589275668164915874,2233,1589275668164720335,,0.499138884927,-0.179577294652,0.209401876074
1589275668168012091,2234,1589275668167786935,,0.499139345974,-0.179546977753,0.209397684637
1589275668173972949,2235,1589275668173849665,,0.499137148449,-0.179514835899,0.209391982829
1589275668180023398,2236,1589275668179873377,,0.499136879525,-0.179454592505,0.209385581347
1589275668185879444,2237,1589275668185774274,,0.499135287914,-0.179426060311,0.209380961011
1589275668192076288,2238,1589275668191879677,,0.499132120592,-0.179379390081,0.209371999048
1589275668197974363,2239,1589275668197846213,,0.499131567248,-0.179352253798,0.209369093809
1589275668204048995,2240,1589275668203760687,,0.499129380347,-0.179312146392,0.209364042348
1589275668209991611,2241,1589275668209874423,,0.499126632713,-0.179287910735,0.209358400162
1589275668218913926,2242,1589275668218777327,,0.499121191907,-0.179225584274,0.209348342379
1589275668224889979,2243,1589275668224791676,,0.499116376202,-0.179190750152,0.20934171968
1589275668230927388,2244,1589275668230781848,,0.499114612709,-0.17917611265,0.209339469017
1589275668237054816,2245,1589275668236838846,,0.499111058006,-0.179139699938,0.209335071349
1589275668242986875,2246,1589275668242884707,,0.499109759447,-0.17912287024,0.209334845456
1589275668251965818,2247,1589275668251812783,,0.499104047734,-0.179069254948,0.209330020885
1589275668257971081,2248,1589275668257832892,,0.499102496328,-0.179051022192,0.209328725533
1589275668263889412,2249,1589275668263795298,,0.499101652655,-0.179029639037,0.209328280953
1589275668266953020,2250,1589275668266842051,,0.499097616383,-0.178993006544,0.209321072537
1589275668272951264,2251,1589275668272829598,,0.499095937597,-0.178974412106,0.209318705012
1589275668279040553,2252,1589275668278875597,,0.499093894166,-0.178942260205,0.209314256558
1589275668284965169,2253,1589275668284834299,,0.499092371992,-0.178922941853,0.209310242903
1589275668291398626,2254,1589275668291224271,,0.49909020748,-0.178892817129,0.209304441035
1589275668296944592,2255,1589275668296835081,,0.499088680895,-0.178874980957,0.209301849575
1589275668302987114,2256,1589275668302877683,,0.49908791169,-0.178839464475,0.20929867237
1589275668309924829,2257,1589275668309822818,,0.499087932883,-0.178824340709,0.209296747453
1589275668315015395,2258,1589275668314795496,,0.499087222705,-0.178793289026,0.209293656907
1589275668321005227,2259,1589275668320818356,,0.499086969154,-0.178778274874,0.209293141869
1589275668327130426,2260,1589275668326833555,,0.499084986276,-0.178746672711,0.209292472857
1589275668333027618,2261,1589275668332848223,,0.499083649841,-0.178729457631,0.209291660303
1589275668338976437,2262,1589275668338843731,,0.499082513182,-0.178695088832,0.209288927645
1589275668344989417,2263,1589275668344900813,,0.499082267779,-0.178678789753,0.209287170923
1589275668350988161,2264,1589275668350859293,,0.499080476292,-0.178647798521,0.209279257817
1589275668356892623,2265,1589275668356786972,,0.499079964123,-0.178632993328,0.209277061297
1589275668362908523,2266,1589275668362792413,,0.499079343149,-0.178618526857,0.209273577687
1589275668372007382,2267,1589275668371815519,,0.499074544066,-0.178553395653,0.209270741549
1589275668377958063,2268,1589275668377862449,,0.499073075802,-0.178539233251,0.209269531274
1589275668384132135,2269,1589275668383912192,,0.499072029524,-0.178524740246,0.209267413111
1589275668390267411,2270,1589275668390151292,,0.499071748258,-0.17849471539,0.209264699633
1589275668396433723,2271,1589275668396325642,,0.499071699836,-0.17848364924,0.209264230764
1589275668401976793,2272,1589275668401886723,,0.499071182413,-0.178470777735,0.209263549525
1589275668408046211,2273,1589275668407841278,,0.499070730727,-0.178444737244,0.209261808196
1589275668414080689,2274,1589275668413857234,,0.499069206471,-0.178433653799,0.209260013011
1589275668419891792,2275,1589275668419781809,,0.499067218255,-0.178409050381,0.209257875369
1589275668425935119,2276,1589275668425837098,,0.499065907312,-0.17840157174,0.209256812132
1589275668431969756,2277,1589275668431847140,,0.499065595043,-0.178390627492,0.209255482128
1589275668437989696,2278,1589275668437843605,,0.499063730476,-0.178379815872,0.209251681287
1589275668444025869,2279,1589275668443875885,,0.499063594724,-0.178359866882,0.209250273295
1589275668449917336,2280,1589275668449803761,,0.499062169433,-0.178338577164,0.20924856551
1589275668458987009,2281,1589275668458849051,,0.499061480066,-0.178322590761,0.209249598531
1589275668465065683,2282,1589275668464921244,,0.499060178892,-0.178307469619,0.209250025184
1589275668471063648,2283,1589275668470919540,,0.499059827742,-0.178292356523,0.2092516303
1589275668477028760,2284,1589275668476890439,,0.49905988013,-0.17828348777,0.209252646224
1589275668483232471,2285,1589275668483058814,,0.499059221594,-0.178274461418,0.209251376854
1589275668492039059,2286,1589275668491864246,,0.49905826686,-0.178252919428,0.209249489529
1589275668497971349,2287,1589275668497874730,,0.499057408659,-0.178239435908,0.209246335021
1589275668504073826,2288,1589275668503897091,,0.499057650103,-0.178232683832,0.209245450906
1589275668509931577,2289,1589275668509826460,,0.499057644472,-0.178220167012,0.209244669939
1589275668516051388,2290,1589275668515938307,,0.499057591144,-0.178214871538,0.209243445761
1589275668521985561,2291,1589275668521845349,,0.499057030257,-0.178209204682,0.209242548229
1589275668528003015,2292,1589275668527893298,,0.499057422843,-0.178202883669,0.209243780148
1589275668534029706,2293,1589275668533877663,,0.499056477493,-0.178189818199,0.209244523359
1589275668539986730,2294,1589275668539861776,,0.499057299507,-0.17818130447,0.209247351411
1589275668546039481,2295,1589275668545893466,,0.499057511086,-0.178176425591,0.209248223649
1589275668552019784,2296,1589275668551844716,,0.499056765777,-0.178170486617,0.209247827957
1589275668558043076,2297,1589275668557908537,,0.499056367726,-0.178167512565,0.209246329391
1589275668564026955,2298,1589275668563911108,,0.499056097816,-0.178157124614,0.209246638767
1589275668569954000,2299,1589275668569851513,,0.499055958623,-0.178150537552,0.209246375831
1589275668576241697,2300,1589275668576094698,,0.499055331034,-0.178139955078,0.209248458273
1589275668582002657,2301,1589275668581918734,,0.499054802913,-0.178136026336,0.20925000353
1589275668588319099,2302,1589275668588126129,,0.4990544809,-0.178125532954,0.209252541668
1589275668594051311,2303,1589275668593889866,,0.499054436199,-0.178120345516,0.209253827608
1589275668596964407,2304,1589275668596850307,,0.499054000991,-0.178115455072,0.209256464783
1589275668603236385,2305,1589275668603119048,,0.499053578567,-0.178110865622,0.209256930228
1589275668611997719,2306,1589275668611860719,,0.499052008299,-0.178094436798,0.209258575349
1589275668618013924,2307,1589275668617884448,,0.499052023402,-0.178088647622,0.209259859013
1589275668624036156,2308,1589275668623861930,,0.499051617772,-0.178079228943,0.209260473696
1589275668629967630,2309,1589275668629881829,,0.499051954073,-0.178073932999,0.209261605406
1589275668636445984,2310,1589275668636341602,,0.499052050144,-0.178063080481,0.209262711155
1589275668643304656,2311,1589275668643169162,,0.499051453251,-0.178058422676,0.209263345186
1589275668648149808,2312,1589275668647983316,,0.499051611183,-0.17805457724,0.209263986741
1589275668654167072,2313,1589275668654027220,,0.499052055189,-0.178049449295,0.209265342426
1589275668660075155,2314,1589275668659936960,,0.499053069007,-0.178037695642,0.209268404648
1589275668666039477,2315,1589275668665908854,,0.499054104185,-0.178034093596,0.20927037541
1589275668672075536,2316,1589275668671918600,,0.499054729862,-0.178025722166,0.209272915956
1589275668678066577,2317,1589275668677884876,,0.499055356399,-0.178021074996,0.209273785737
1589275668684079936,2318,1589275668683954112,,0.499056445135,-0.178016730218,0.209275761976
1589275668690418299,2319,1589275668690263887,,0.499056016809,-0.178013567768,0.209275152094
1589275668696477550,2320,1589275668696361197,,0.499058255981,-0.178003679132,0.209279669241
1589275668703116936,2321,1589275668703000493,,0.499059327452,-0.177999822183,0.209280801625
1589275668708048710,2322,1589275668707867623,,0.499060115274,-0.177997076187,0.209281421044
1589275668714030926,2323,1589275668713889589,,0.499062685828,-0.1779877907,0.209284604602
1589275668720171541,2324,1589275668719920790,,0.499063496353,-0.177984861641,0.209284618179
1589275668726021767,2325,1589275668725907841,,0.499065711896,-0.177977274268,0.209287574011
1589275668732065906,2326,1589275668731885885,,0.499066617664,-0.177973971469,0.209289372446
1589275668737961572,2327,1589275668737874030,,0.499067320922,-0.177971497405,0.209290559962
1589275668744043708,2328,1589275668743919303,,0.499069700148,-0.177963150265,0.209292902913
1589275668750051983,2329,1589275668749883297,,0.499071531158,-0.177955355302,0.209295604105
1589275668755960958,2330,1589275668755869402,,0.499072592281,-0.177951733407,0.209297281691
1589275668759055404,2331,1589275668758920222,,0.499075085508,-0.17794443781,0.209299477317
1589275668764986776,2332,1589275668764845239,,0.499077027318,-0.177940078365,0.209301724642
1589275668768122389,2333,1589275668767962430,,0.499079745659,-0.177932725367,0.209305400385
1589275668774021973,2334,1589275668773885884,,0.499080443191,-0.177930063531,0.209305852585
1589275668780050310,2335,1589275668779915361,,0.4990813529,-0.1779277298,0.209305737931
1589275668786104022,2336,1589275668785895731,,0.499084429399,-0.177918552315,0.209309347175
1589275668789137327,2337,1589275668789055622,,0.499086504081,-0.177915429815,0.209311120455
1589275668795024366,2338,1589275668794903986,,0.499088524945,-0.177907985164,0.209312774373
1589275668801064940,2339,1589275668800924566,,0.499090407777,-0.177903347556,0.209315644709
1589275668807092501,2340,1589275668806886090,,0.499092124484,-0.177899737463,0.209317524419
1589275668809973053,2341,1589275668809852161,,0.499095882294,-0.177889441414,0.209321530651
1589275668812968794,2342,1589275668812835903,,0.499097440418,-0.177884209188,0.209325311673
1589275668819053650,2343,1589275668818863373,,0.499102139137,-0.17786786787,0.209332970513
1589275668825122021,2344,1589275668824911436,,0.499107715566,-0.17784953647,0.209342495304
1589275668831088262,2345,1589275668830902730,,0.499111608682,-0.177837334,0.209347513049
1589275668837160947,2346,1589275668836966172,,0.499112549166,-0.177832560838,0.209349381852
1589275668843157245,2347,1589275668843034528,,0.499115891015,-0.177820885652,0.209354643796
1589275668849306351,2348,1589275668849194460,,0.499117350572,-0.177814333846,0.209356326417
1589275668855009321,2349,1589275668854867014,,0.499119985864,-0.177805983217,0.20936186236
1589275668861007226,2350,1589275668860863903,,0.49912217666,-0.177799868348,0.20936562772
1589275668867062196,2351,1589275668866949166,,0.499123167286,-0.17779480467,0.209368106805
1589275668870033793,2352,1589275668869911441,,0.499124369688,-0.177790132588,0.209372401967
1589275668873005540,2353,1589275668872882017,,0.499127099672,-0.177780469928,0.209379904127
1589275668875966054,2354,1589275668875876509,,0.499128528725,-0.177775214992,0.209382154314
1589275668879017371,2355,1589275668878897385,,0.499130763614,-0.177768750109,0.209387212916
1589275668883260378,2356,1589275668883175937,,0.499132018136,-0.177763512896,0.209388990492
1589275668888290593,2357,1589275668888134912,,0.499133703956,-0.177757676411,0.209393452378
1589275668894128870,2358,1589275668893952254,,0.499134519543,-0.177753769505,0.209395317383
1589275668900128812,2359,1589275668899983309,,0.499135635357,-0.177750057236,0.20939771085
1589275668906080181,2360,1589275668905933567,,0.499136264964,-0.177747187647,0.209399169686
1589275668909448613,2361,1589275668909312061,,0.499137573839,-0.177739582012,0.20940387856
1589275668915167783,2362,1589275668914911052,,0.499138436731,-0.177737128153,0.209404985267
1589275668921120167,2363,1589275668920933821,,0.499139455404,-0.177731614019,0.209409474242
1589275668927178178,2364,1589275668927036533,,0.499140339707,-0.177727395848,0.209413746309
1589275668933020282,2365,1589275668932877992,,0.499140826248,-0.177723853589,0.209415828446
1589275668939042123,2366,1589275668938952895,,0.499142237783,-0.17772060293,0.209419713218
1589275668945089687,2367,1589275668944958748,,0.499142494741,-0.177715697091,0.209422757472
1589275668951017974,2368,1589275668950893469,,0.499144125525,-0.17771201026,0.209425528324
1589275668957167597,2369,1589275668956925592,,0.499144821739,-0.177705555732,0.209429928681
1589275668962945340,2370,1589275668962860333,,0.499145641146,-0.177701206508,0.209433001402
1589275668966005299,2371,1589275668965883918,,0.499148532119,-0.177692949542,0.209440489633
1589275668970160484,2372,1589275668970052069,,0.49914952745,-0.177688815663,0.209444325165
1589275668975078149,2373,1589275668974935962,,0.499152450064,-0.177677118322,0.209451657135
1589275668981104038,2374,1589275668980991967,,0.499154917741,-0.17766481231,0.209456348389
1589275668987457455,2375,1589275668987314980,,0.499156892092,-0.177656437169,0.209458697795
1589275668993122682,2376,1589275668992953968,,0.499158729427,-0.177648420748,0.209462077963
1589275668999187281,2377,1589275668998994991,,0.499160852318,-0.177640340616,0.209464643573
1589275669005209176,2378,1589275669004981647,,0.49916388674,-0.177631610069,0.209468472548
1589275669011076954,2379,1589275669010923857,,0.499165648411,-0.177621154946,0.209470833215
1589275669014025782,2380,1589275669013912531,,0.499170151653,-0.177601976859,0.20947613788
1589275669020019167,2381,1589275669019906509,,0.4991719761,-0.177592895351,0.209479613129
1589275669023041440,2382,1589275669022915739,,0.499176153502,-0.177574481044,0.209487298812
1589275669032060015,2383,1589275669031928454,,0.499182027431,-0.177546267572,0.209500810784
1589275669038008406,2384,1589275669037910243,,0.49918336113,-0.177538363988,0.209502856955
1589275669041035306,2385,1589275669040915735,,0.499187008387,-0.177519434736,0.209508423373
1589275669044018141,2386,1589275669043904462,,0.499189003153,-0.177512640933,0.209510750068
1589275669047016567,2387,1589275669046916274,,0.499193044454,-0.177495544262,0.209514812051
1589275669053152877,2388,1589275669052967452,,0.49919439557,-0.177488320927,0.209516129397
1589275669059050805,2389,1589275669058923632,,0.499197656623,-0.177473153802,0.209520706164
1589275669065035448,2390,1589275669064894341,,0.499200623749,-0.177450206994,0.209527490484
1589275669068022848,2391,1589275669067912865,,0.499200911119,-0.17744309732,0.20952882278
1589275669074060742,2392,1589275669073905710,,0.49920366526,-0.177425044177,0.209533150579
1589275669077039848,2393,1589275669076932592,,0.499205040748,-0.177415082908,0.209534951664
1589275669083074807,2394,1589275669082920311,,0.499207420387,-0.177395209522,0.209538641781
1589275669092105827,2395,1589275669091937588,,0.499210008247,-0.177368157747,0.209542236913
1589275669095076291,2396,1589275669094979937,,0.499211379999,-0.177358849674,0.209543321931
1589275669101150254,2397,1589275669100962624,,0.499212918982,-0.177348432484,0.209545088566
1589275669107184805,2398,1589275669106944405,,0.49921535541,-0.177330817645,0.209547912825
1589275669113157182,2399,1589275669112944335,,0.499217647183,-0.177310191519,0.209549178079
1589275669119091135,2400,1589275669118987335,,0.499218999481,-0.177302027078,0.209550907466
1589275669125190148,2401,1589275669125021943,,0.499221188894,-0.177293149923,0.209552744269
1589275669131085137,2402,1589275669130947047,,0.499222399029,-0.177285963945,0.209553808023
1589275669137052826,2403,1589275669136914797,,0.499223566768,-0.177277879834,0.209555406352
1589275669140280986,2404,1589275669140105508,,0.499225368556,-0.177270406148,0.209558170137
1589275669146095206,2405,1589275669145979319,,0.499229005855,-0.17725661692,0.209561806295
1589275669152071214,2406,1589275669151931410,,0.499230961365,-0.17724968124,0.209563820839
1589275669158103194,2407,1589275669157911212,,0.499233043816,-0.177241258868,0.209567102165
1589275669161078701,2408,1589275669160923293,,0.499237672208,-0.177227206465,0.209574004199
1589275669164081617,2409,1589275669163946253,,0.499239076174,-0.177219481231,0.209574450951
1589275669167013247,2410,1589275669166894831,,0.499243250168,-0.177208169591,0.209579599295
1589275669170175026,2411,1589275669170036387,,0.499245101251,-0.17720109304,0.209581752929
1589275669176100012,2412,1589275669176029340,,0.499246633854,-0.177196283706,0.2095836861
1589275669179124126,2413,1589275669179026948,,0.49924870941,-0.177191367735,0.209587544984
1589275669185142761,2414,1589275669184999065,,0.499250253597,-0.177186285469,0.209589284039
1589275669191507557,2415,1589275669191303435,,0.499252639998,-0.17717974168,0.209593104106
1589275669197050767,2416,1589275669196911704,,0.499253741731,-0.177176599926,0.209595370757
1589275669200046064,2417,1589275669199913409,,0.499254904823,-0.177171227232,0.20959809258
1589275669203002950,2418,1589275669202926880,,0.499256635179,-0.177167615397,0.209601248128
1589275669206061130,2419,1589275669205959640,,0.499257725014,-0.177163372809,0.209603711786
1589275669209491680,2420,1589275669209390389,,0.499258943426,-0.17716028237,0.209606892176
1589275669215067393,2421,1589275669214947885,,0.499261424768,-0.17715291916,0.209613190964
