%time,field.header.seq,field.header.stamp,field.header.frame_id,field.vector.x,field.vector.y,field.vector.z
1588856598710159868,7911,1588856598710032256,,0.501055402542,-0.198758180335,0.216672391418
1588856598715948074,7912,1588856598715819150,,0.501057419349,-0.198762243915,0.216665534654
1588856598718948522,7913,1588856598718804160,,0.50106035749,-0.198766920254,0.216661119317
1588856598724951047,7914,1588856598724804833,,0.501063431727,-0.198770326945,0.21665606567
1588856598727915998,7915,1588856598727792270,,0.501066235959,-0.19877609728,0.216650916779
1588856598730906507,7916,1588856598730813446,,0.50106927259,-0.198779771538,0.21664837841
1588856598734016878,7917,1588856598733907451,,0.501072091852,-0.198784397412,0.216644789724
1588856598739901923,7918,1588856598739762003,,0.501075267159,-0.198789565576,0.216641946309
1588856598742944319,7919,1588856598742760463,,0.501077902882,-0.198797057026,0.216636577172
1588856598748869156,7920,1588856598748788499,,0.501079996889,-0.198804887583,0.216631395487
1588856598751909422,7921,1588856598751818346,,0.501082092114,-0.198812663439,0.216626319451
1588856598754880559,7922,1588856598754806142,,0.501084185967,-0.19881931431,0.216621958945
1588856598757938827,7923,1588856598757827898,,0.50108620799,-0.198826507004,0.216616284656
1588856598763998400,7924,1588856598763857096,,0.501089127089,-0.198833009707,0.216611310367
1588856598766996982,7925,1588856598766838951,,0.501090851123,-0.198838362016,0.216604285016
1588856598772985727,7926,1588856598772837181,,0.501092791286,-0.198843354998,0.216598029875
1588856598775918993,7927,1588856598775793324,,0.50109591769,-0.198847181649,0.216593694392
1588856598778890984,7928,1588856598778805160,,0.501097884367,-0.198853109869,0.216587719807
1588856598781899342,7929,1588856598781778781,,0.501100602921,-0.198857221459,0.21658125582
1588856598787985841,7930,1588856598787890599,,0.501104061632,-0.198861541514,0.21657775013
1588856598790952005,7931,1588856598790807916,,0.501105753185,-0.198865281036,0.216571592005
1588856598796985276,7932,1588856598796863528,,0.501108943083,-0.198869553073,0.216567202463
1588856598799872841,7933,1588856598799790184,,0.501111574268,-0.198872815105,0.216561457088
1588856598802876568,7934,1588856598802790224,,0.501113818134,-0.198876969203,0.21655517291
1588856598809293308,7935,1588856598809160936,,0.501116664341,-0.198879159249,0.216551637294
1588856598812262819,7936,1588856598812160064,,0.50111883584,-0.198882297338,0.21654691881
1588856598814870018,7937,1588856598814776514,,0.501121334576,-0.198884827878,0.216544198766
1588856598820917338,7938,1588856598820831997,,0.501123316649,-0.198888199232,0.216538217595
1588856598823928201,7939,1588856598823848016,,0.501124964133,-0.198890580957,0.216531204001
1588856598827025640,7940,1588856598826924584,,0.501127315137,-0.198894432798,0.216525683575
1588856598832939544,7941,1588856598832839498,,0.501128756541,-0.198898906533,0.216518820967
1588856598835929940,7942,1588856598835801000,,0.501130552332,-0.19890185528,0.216513243039
1588856598838904141,7943,1588856598838790103,,0.501132094577,-0.19890457995,0.2165047546
1588856598844941283,7944,1588856598844837920,,0.501133969467,-0.198908346739,0.216496809048
1588856598847901071,7945,1588856598847776969,,0.501135532198,-0.198911679102,0.216488764619
1588856598850903082,7946,1588856598850819741,,0.501136858341,-0.198913539784,0.216483320953
1588856598857088812,7947,1588856598856910809,,0.501138656807,-0.198915829276,0.216477307549
1588856598860052140,7948,1588856598859899461,,0.501139505371,-0.198917836238,0.216469815731
1588856598862947796,7949,1588856598862828406,,0.501141286619,-0.198921775914,0.216461897438
1588856598869063516,7950,1588856598868873807,,0.501142573442,-0.198923738295,0.216453655466
1588856598871908121,7951,1588856598871787003,,0.501143690146,-0.198926904508,0.21644761562
1588856598874875805,7952,1588856598874786146,,0.501144636296,-0.198928225639,0.216438570646
1588856598880898750,7953,1588856598880773511,,0.501145934782,-0.19892936292,0.216429698876
1588856598883894856,7954,1588856598883813420,,0.501147405873,-0.198931802521,0.216422283152
1588856598887008085,7955,1588856598886828730,,0.501148066886,-0.198934233542,0.216412939223
1588856598892946177,7956,1588856598892843021,,0.501149679318,-0.198935866627,0.216404516265
1588856598896031865,7957,1588856598895844046,,0.501150797173,-0.198936858241,0.216395150767
1588856598898965373,7958,1588856598898832112,,0.501151411294,-0.1989366015,0.216384338946
1588856598904969878,7959,1588856598904845901,,0.50115436511,-0.198936323553,0.216375641589
1588856598908060463,7960,1588856598907892922,,0.501155930731,-0.198935254663,0.216365716439
1588856598911151234,7961,1588856598911025541,,0.501158223565,-0.198930855032,0.216357762636
1588856598917001746,7962,1588856598916860921,,0.501160746956,-0.198927040545,0.216345305242
1588856598919932827,7963,1588856598919818578,,0.501164647091,-0.198922680199,0.216334907265
1588856598923004190,7964,1588856598922888230,,0.501167765114,-0.1989163076,0.216324656824
1588856598929005944,7965,1588856598928862382,,0.501171754707,-0.198908999609,0.216313794038
1588856598931982690,7966,1588856598931865767,,0.50117615288,-0.198900647458,0.216302852657
1588856598937918582,7967,1588856598937807034,,0.501180070548,-0.198893001482,0.216292236349
1588856598940899292,7968,1588856598940795144,,0.501184296084,-0.19888448047,0.216278466362
1588856598943967323,7969,1588856598943849264,,0.501189096714,-0.198873952946,0.216268537127
1588856598950031256,7970,1588856598949903043,,0.501193196014,-0.198863469944,0.216258893581
1588856598953013258,7971,1588856598952830410,,0.501198391067,-0.198852909542,0.216249035431
1588856598955977629,7972,1588856598955862721,,0.501202024594,-0.198843431224,0.216236294213
1588856598961979080,7973,1588856598961851112,,0.501206835947,-0.198830964495,0.216222795705
1588856598964981874,7974,1588856598964851154,,0.501211073125,-0.198816155532,0.216208974761
1588856598967987915,7975,1588856598967846927,,0.501216076996,-0.198797562774,0.216195409027
1588856598973976819,7976,1588856598973869874,,0.501220260049,-0.198766053884,0.216177021601
1588856598977003873,7977,1588856598976877418,,0.501224072064,-0.19874933217,0.216162231799
1588856598979893191,7978,1588856598979772615,,0.50122798685,-0.198733734708,0.216149088017
1588856598986048738,7979,1588856598985901900,,0.501231992997,-0.198717491126,0.216134636088
1588856598988974222,7980,1588856598988880392,,0.50123562111,-0.198697060756,0.216119362984
1588856598991953775,7981,1588856598991840034,,0.501240214219,-0.198679508599,0.216102674648
1588856598997928915,7982,1588856598997859037,,0.501243225333,-0.198659654761,0.216082619095
1588856599000930902,7983,1588856599000816294,,0.501246600222,-0.198640830458,0.216063883839
1588856599003977879,7984,1588856599003822632,,0.501249342731,-0.19862044281,0.216042180888
1588856599010270713,7985,1588856599010136894,,0.501249603268,-0.198598177584,0.216019714231
1588856599013361342,7986,1588856599013230362,,0.501249916441,-0.198573943987,0.215995261869
1588856599015962784,7987,1588856599015850193,,0.501250992147,-0.198552770482,0.215975056036
1588856599021929654,7988,1588856599021801822,,0.501251128178,-0.198531925592,0.215951848821
1588856599024948731,7989,1588856599024834265,,0.501252209581,-0.198507906161,0.215926989209
1588856599027951348,7990,1588856599027854654,,0.501255233805,-0.198482670075,0.215902324081
1588856599034032924,7991,1588856599033842957,,0.501257506281,-0.198455609427,0.215876022563
1588856599040117583,7992,1588856599039877000,,0.501259974127,-0.198429969694,0.215849814701
1588856599043029334,7993,1588856599042837858,,0.501262457158,-0.198402347306,0.215824970386
1588856599046077052,7994,1588856599045911980,,0.501264707732,-0.198371139239,0.215801775547
1588856599049054717,7995,1588856599048891084,,0.501266630734,-0.198341403502,0.215778010091
1588856599052070024,7996,1588856599051881122,,0.501268225595,-0.198312109976,0.215755783067
1588856599058074057,7997,1588856599057898957,,0.501270307664,-0.198278077988,0.215732290186
1588856599061085567,7998,1588856599060912711,,0.501273341156,-0.198240802889,0.215705473764
1588856599067070752,7999,1588856599066920030,,0.501277708814,-0.198207914879,0.215681737031
1588856599070077053,8000,1588856599069919808,,0.501282127614,-0.198171273893,0.21565723799
1588856599073136584,8001,1588856599072950218,,0.501286009444,-0.198139765061,0.215632848317
1588856599079129685,8002,1588856599078953463,,0.501288815052,-0.198109353717,0.215609317996
1588856599081982103,8003,1588856599081829195,,0.501292824064,-0.1980705791,0.21558255676
1588856599088025391,8004,1588856599087871199,,0.50129592561,-0.198033228263,0.215554218245
1588856599090964414,8005,1588856599090833364,,0.501298273433,-0.198000626034,0.215524829121
1588856599094015843,8006,1588856599093876612,,0.501301290484,-0.197966350308,0.215496223852
1588856599097033121,8007,1588856599096868776,,0.501304882083,-0.197932169847,0.215466977858
1588856599103049119,8008,1588856599102877688,,0.501307541648,-0.197896831258,0.215436158259
1588856599106074220,8009,1588856599105900347,,0.501311941644,-0.197860285088,0.215408754984
1588856599112410363,8010,1588856599112232683,,0.501315927356,-0.197826304132,0.215380521778
1588856599118166904,8011,1588856599117943527,,0.501323958322,-0.197752582373,0.215322216579
1588856599121008886,8012,1588856599120876142,,0.501326637433,-0.197716295506,0.21529211144
1588856599127034731,8013,1588856599126895614,,0.501331005954,-0.1976781087,0.215264794279
1588856599130027391,8014,1588856599129897295,,0.501335715036,-0.197637643019,0.215237455777
1588856599136154498,8015,1588856599135936051,,0.501340226544,-0.197597347621,0.215207692571
1588856599139126964,8016,1588856599138930252,,0.501344309621,-0.197557788113,0.215175122509
1588856599141978735,8017,1588856599141873240,,0.501350129718,-0.197515507446,0.215148866413
1588856599144997145,8018,1588856599144890352,,0.501353427255,-0.197480526602,0.215122837148
1588856599150975842,8019,1588856599150876248,,0.501359943271,-0.197433728807,0.215093500066
1588856599154053690,8020,1588856599153902198,,0.501365084544,-0.197386433004,0.215062487077
1588856599159971042,8021,1588856599159856141,,0.50136925977,-0.197351825356,0.215034815438
1588856599163060908,8022,1588856599162882961,,0.501375319953,-0.197303700534,0.215006784767
1588856599166020106,8023,1588856599165875390,,0.501379696893,-0.197253864548,0.214971572187
1588856599172010045,8024,1588856599171918002,,0.501384170993,-0.197209425436,0.214938254108
1588856599178053591,8025,1588856599177880403,,0.501395384043,-0.197122002262,0.214880235014
1588856599184036365,8026,1588856599183887556,,0.501399781873,-0.19707811511,0.214850382985
1588856599186977236,8027,1588856599186824722,,0.501405274501,-0.197031820675,0.214819096177
1588856599189935657,8028,1588856599189846383,,0.501410797951,-0.196987672273,0.214787659907
1588856599196039407,8029,1588856599195866946,,0.501416079708,-0.196939151127,0.214753373084
1588856599199029943,8030,1588856599198909335,,0.501421025302,-0.196891738941,0.214716083025
1588856599201938191,8031,1588856599201842108,,0.501427217808,-0.196844600836,0.214686341994
1588856599208145560,8032,1588856599207940280,,0.501431860735,-0.196808399468,0.214660498754
1588856599211242795,8033,1588856599211061997,,0.501437694099,-0.196761483962,0.214623200953
1588856599214050432,8034,1588856599213909518,,0.501442507831,-0.196706388913,0.214584490916
1588856599220020684,8035,1588856599219876399,,0.501446712946,-0.196666886799,0.214555452515
1588856599223061421,8036,1588856599222888142,,0.501451758184,-0.196614156172,0.21452000257
1588856599226003514,8037,1588856599225874234,,0.501457674102,-0.196558300651,0.214482784054
1588856599232153879,8038,1588856599231947579,,0.501462994316,-0.196504574662,0.214445572738
1588856599238095231,8039,1588856599237902841,,0.501473083217,-0.19639873596,0.214370829153
1588856599244125410,8040,1588856599243954395,,0.50147910238,-0.196348759614,0.214336558393
1588856599247027977,8041,1588856599246859728,,0.501484587004,-0.196294242374,0.214295925848
1588856599250049967,8042,1588856599249892188,,0.501490725482,-0.196236123712,0.214257268771
1588856599256069659,8043,1588856599255920873,,0.501497245318,-0.196176851883,0.214216752021
1588856599258974740,8044,1588856599258871116,,0.501502604287,-0.196120717893,0.214176326786
1588856599262005883,8045,1588856599261887553,,0.501508961382,-0.196062595435,0.214137426047
1588856599268124817,8046,1588856599267987379,,0.501515032046,-0.196016226707,0.214101433272
1588856599270999552,8047,1588856599270876771,,0.501519952482,-0.195957304889,0.214059716523
1588856599274100562,8048,1588856599273938422,,0.501525212692,-0.19589148166,0.214013487459
1588856599280065326,8049,1588856599279910912,,0.501531478155,-0.195841105094,0.21397832486
1588856599283011820,8050,1588856599282872464,,0.501536433953,-0.195784676601,0.213936658847
1588856599286111695,8051,1588856599285901396,,0.50154123182,-0.195718197723,0.213890589484
1588856599292090125,8052,1588856599291927654,,0.50154681305,-0.195659242586,0.213852971683
1588856599294955934,8053,1588856599294864259,,0.501552543551,-0.195599673492,0.213810675484
1588856599298030132,8054,1588856599297888891,,0.501557176967,-0.195541471549,0.213767415666
1588856599304014195,8055,1588856599303860289,,0.50156074528,-0.195481684198,0.213723505615
1588856599307117219,8056,1588856599306898884,,0.501567698822,-0.195421383731,0.213682611659
1588856599310280671,8057,1588856599310107418,,0.501573242756,-0.195355927945,0.213636026983
1588856599316037498,8058,1588856599315911648,,0.501578801903,-0.195288507236,0.213592384849
1588856599319038099,8059,1588856599318893103,,0.501584966359,-0.195223012787,0.213545605684
1588856599325012769,8060,1588856599324860064,,0.501593148411,-0.195149371875,0.213499921232
1588856599328016474,8061,1588856599327857802,,0.501601113059,-0.19507625469,0.213454576559
1588856599330994572,8062,1588856599330902449,,0.501607723671,-0.195006928572,0.213405726011
1588856599337121635,8063,1588856599336954948,,0.501616047766,-0.194928001593,0.213357005611
1588856599340082590,8064,1588856599339954079,,0.501621815947,-0.194855802934,0.213305314127
1588856599343039287,8065,1588856599342933163,,0.5016312903,-0.194778339584,0.213257414646
1588856599349126104,8066,1588856599348971349,,0.501637032749,-0.194700879925,0.213204469616
1588856599352119416,8067,1588856599351970659,,0.501646210086,-0.194625868042,0.213157713035
1588856599361098823,8068,1588856599360925981,,0.501659766009,-0.194474210373,0.21305110216
1588856599364086084,8069,1588856599363900153,,0.501668458499,-0.194397070365,0.212998859008
1588856599367068708,8070,1588856599366940969,,0.50167544536,-0.194317429464,0.212945774978
1588856599373067935,8071,1588856599372923604,,0.501680687794,-0.19423648686,0.212891899192
1588856599376054692,8072,1588856599375952885,,0.501688585731,-0.194155481542,0.212836492307
1588856599379026574,8073,1588856599378889615,,0.501696698048,-0.194071877447,0.212777489471
1588856599385132383,8074,1588856599384929848,,0.501704234946,-0.194018555336,0.212731592818
1588856599388052937,8075,1588856599387925191,,0.501707684862,-0.193960224452,0.212681073436
1588856599391080241,8076,1588856599390962953,,0.501712771155,-0.193872560741,0.212626247249
1588856599397115994,8077,1588856599396991211,,0.501719437393,-0.193798269915,0.212580214709
1588856599400007968,8078,1588856599399938764,,0.501725078561,-0.193738403311,0.212541425942
1588856599403086406,8079,1588856599402942241,,0.501729126578,-0.193652342906,0.212488358272
1588856599409452740,8080,1588856599409291795,,0.501739881287,-0.193570561383,0.212444763192
1588856599412332054,8081,1588856599412221634,,0.501746684626,-0.193498399571,0.212405146255
1588856599421156099,8082,1588856599420974643,,0.501761074173,-0.193361801494,0.21232244149
1588856599424088508,8083,1588856599423952604,,0.501768595669,-0.193293360047,0.212282924022
1588856599427030371,8084,1588856599426937199,,0.501775022113,-0.193222838062,0.212238442132
1588856599433012603,8085,1588856599432926284,,0.501780435468,-0.193145158011,0.212188126776
1588856599436058066,8086,1588856599435970751,,0.501786790222,-0.193069356552,0.212138649955
1588856599439030295,8087,1588856599438943111,,0.501792507376,-0.19298858607,0.212083015274
1588856599445197578,8088,1588856599444981867,,0.501798209085,-0.192929637589,0.212035172342
1588856599448007059,8089,1588856599447903698,,0.501803399593,-0.19286808914,0.211983539099
1588856599454038640,8090,1588856599453882695,,0.501809412752,-0.192770666866,0.21191683928
1588856599456946007,8091,1588856599456866275,,0.501814994484,-0.192693890315,0.211860488903
1588856599459970781,8092,1588856599459887071,,0.501821650066,-0.192629221511,0.211814268255
1588856599466073669,8093,1588856599465969283,,0.501826281202,-0.19253037256,0.21175439495
1588856599469102042,8094,1588856599468960354,,0.501831464587,-0.192438012072,0.211695128499
1588856599478114960,8095,1588856599477970591,,0.501842985674,-0.192279936441,0.211600106368
1588856599481134581,8096,1588856599480955802,,0.501849113398,-0.192201239366,0.211552368988
1588856599484160183,8097,1588856599483998542,,0.501856230214,-0.192123472903,0.211505346184
1588856599490060999,8098,1588856599489959419,,0.5018648646,-0.192036283851,0.211456471235
1588856599493044064,8099,1588856599492954433,,0.501872845622,-0.191954647604,0.211405301445
1588856599499135387,8100,1588856599498972185,,0.501880712557,-0.19186839593,0.211350614293
1588856599502005742,8101,1588856599501907655,,0.501887528056,-0.191786103689,0.211294724142
1588856599505094020,8102,1588856599504922248,,0.501894698591,-0.1917212337,0.211245376023
1588856599508110984,8103,1588856599507945455,,0.501900823144,-0.19163350834,0.21118663179
1588856599514159276,8104,1588856599513965567,,0.501907811297,-0.191532458541,0.211116841099
1588856599517057578,8105,1588856599516902705,,0.50191294265,-0.191464418343,0.2110604835
1588856599523126455,8106,1588856599522988986,,0.501917983527,-0.191375588126,0.210997563288
1588856599525969491,8107,1588856599525837500,,0.501924736256,-0.19127926524,0.210928642991
1588856599529150803,8108,1588856599528956913,,0.501928935779,-0.191192244917,0.210866929072
1588856599532094051,8109,1588856599531939474,,0.501936419649,-0.19110881409,0.210807975002
1588856599538069586,8110,1588856599537920173,,0.501942380317,-0.191018124545,0.210749442128
1588856599541068892,8111,1588856599540962136,,0.501948858875,-0.190928188065,0.210692634456
1588856599547101625,8112,1588856599546987225,,0.501958017104,-0.190839573346,0.210635197212
1588856599550111544,8113,1588856599550000065,,0.501968114403,-0.190745845671,0.210579980851
1588856599553055445,8114,1588856599552899537,,0.501979787365,-0.190648979329,0.2105271281
1588856599555987648,8115,1588856599555857766,,0.501990170337,-0.190554682795,0.210472812326
1588856599561972138,8116,1588856599561873777,,0.502001178081,-0.190458774526,0.21041958047
1588856599564997674,8117,1588856599564873346,,0.502011370628,-0.19036326117,0.210360449793
1588856599571054631,8118,1588856599570896807,,0.502020585374,-0.190269146474,0.210302428253
1588856599573983601,8119,1588856599573896066,,0.502031606886,-0.19017468751,0.210246514307
1588856599577041637,8120,1588856599576907926,,0.502038422726,-0.190081828837,0.210178100555
1588856599583060791,8121,1588856599582929011,,0.502045750742,-0.189984353755,0.210116593502
1588856599586194629,8122,1588856599586007061,,0.50205223013,-0.18988935261,0.210051542584
1588856599589060491,8123,1588856599588958907,,0.502059930476,-0.189796458655,0.209982082622
1588856599595312855,8124,1588856599595206646,,0.502067102325,-0.189701331237,0.209919007529
1588856599598053482,8125,1588856599597969906,,0.502073806174,-0.189607171771,0.209853986789
1588856599601022177,8126,1588856599600921129,,0.50208182883,-0.189510008102,0.209787382992
1588856599607098577,8127,1588856599606962370,,0.50208851859,-0.189416765001,0.209724940168
1588856599610246673,8128,1588856599610140677,,0.502097803989,-0.189322188562,0.209662337323
1588856599613378668,8129,1588856599613220327,,0.502107386639,-0.189219554553,0.209598963397
1588856599619038262,8130,1588856599618935650,,0.50211697669,-0.189120790871,0.209541582723
1588856599622176048,8131,1588856599622089633,,0.502122978731,-0.189026125627,0.209481188403
1588856599625024721,8132,1588856599624886236,,0.502132239156,-0.188926877545,0.209425190828
1588856599631140120,8133,1588856599630915630,,0.50214055566,-0.188829725192,0.209367317191
1588856599634068656,8134,1588856599633925994,,0.502151036824,-0.188731594408,0.209313750827
1588856599637096909,8135,1588856599636920738,,0.502159504353,-0.188631678211,0.209253593896
1588856599643019215,8136,1588856599642932432,,0.502167358048,-0.188533264279,0.209194881689
1588856599646059358,8137,1588856599645885967,,0.502175368924,-0.188436550842,0.20913754519
1588856599649026520,8138,1588856599648905576,,0.50218327088,-0.188339399466,0.209077525848
1588856599658157789,8139,1588856599658015253,,0.502192819164,-0.18814594402,0.208957178619
1588856599661064946,8140,1588856599660963587,,0.502196318068,-0.188054234563,0.20889433771
1588856599667051443,8141,1588856599666891745,,0.50220159727,-0.187958433043,0.208834370018
1588856599670148391,8142,1588856599669924166,,0.502203596471,-0.187861933736,0.208770724586
1588856599673073395,8143,1588856599672966788,,0.502207417432,-0.187767010643,0.208709252547
1588856599679166970,8144,1588856599678978702,,0.50221154592,-0.187672689908,0.208648792861
1588856599682083331,8145,1588856599681941491,,0.502212752617,-0.187581761997,0.208588346972
1588856599685071048,8146,1588856599684937581,,0.502215005255,-0.187510037288,0.208538564482
1588856599691245559,8147,1588856599691003309,,0.502217785753,-0.187417661632,0.208480516999
1588856599694231006,8148,1588856599694021224,,0.502221739123,-0.187312755078,0.208423573969
1588856599697218310,8149,1588856599697011154,,0.502224745879,-0.187240364254,0.20837555528
1588856599703111263,8150,1588856599702969936,,0.502227891101,-0.187152349742,0.208325527534
1588856599706112844,8151,1588856599705981061,,0.502230083711,-0.187050800401,0.208268602379
1588856599712426495,8152,1588856599712284650,,0.50223387791,-0.186965114726,0.208221071489
1588856599718089589,8153,1588856599717987482,,0.502239142518,-0.186795328231,0.208127763897
1588856599724131112,8154,1588856599723975670,,0.50224073708,-0.186710535302,0.208078839128
1588856599727114250,8155,1588856599726920094,,0.502243379472,-0.186625266137,0.208031444712
1588856599733098687,8156,1588856599732971681,,0.502243689918,-0.186540371373,0.207978836597
1588856599736085435,8157,1588856599735996185,,0.502244756798,-0.186455566823,0.20792609062
1588856599739188567,8158,1588856599739001633,,0.502245405688,-0.186361777191,0.207872475541
1588856599742075818,8159,1588856599741937626,,0.502243592127,-0.186280302537,0.207817346117
1588856599748185357,8160,1588856599747978722,,0.502244892477,-0.186214619739,0.207773972395
1588856599751116184,8161,1588856599750999777,,0.502243722825,-0.186126386019,0.207719032212
1588856599754093688,8162,1588856599753982622,,0.502241370173,-0.186029960805,0.207660391825
1588856599760088339,8163,1588856599759963728,,0.502241292647,-0.185963221952,0.207617858355
1588856599763141449,8164,1588856599762973576,,0.502238200275,-0.18587741121,0.207565354274
1588856599766144120,8165,1588856599766003525,,0.502236378324,-0.18578608382,0.207515316815
1588856599772141874,8166,1588856599772006296,,0.502233921172,-0.18570506351,0.20746635459
1588856599778164425,8167,1588856599778006696,,0.502228981264,-0.185547167216,0.207372906041
1588856599784135658,8168,1588856599784025328,,0.502228162668,-0.185468051424,0.207328417169
1588856599787152111,8169,1588856599786985240,,0.502223497198,-0.185389192756,0.207279170517
1588856599790222164,8170,1588856599789990780,,0.502223006946,-0.185306637098,0.207233623772
1588856599796125375,8171,1588856599795957784,,0.50221894173,-0.185222963033,0.207180705947
1588856599799094639,8172,1588856599798935965,,0.502215599685,-0.185145194501,0.207130793737
1588856599802050885,8173,1588856599801947838,,0.502214408551,-0.185074467294,0.20708863582
1588856599808159477,8174,1588856599808061790,,0.502208938812,-0.184986587989,0.20703429316
1588856599811262303,8175,1588856599811147254,,0.5022032075,-0.184894962709,0.206977344547
1588856599817261929,8176,1588856599817059378,,0.502200587415,-0.184829527505,0.206934635781
1588856599820197356,8177,1588856599820024194,,0.502195202506,-0.184743038877,0.206883027508
1588856599823139057,8178,1588856599823027755,,0.5021884673,-0.184652892049,0.206827776945
1588856599826156889,8179,1588856599825972831,,0.502184649385,-0.184571688034,0.206780033294
1588856599832146115,8180,1588856599832022711,,0.502180897277,-0.184492807149,0.206734510874
1588856599841199420,8181,1588856599840991547,,0.502172106236,-0.184340210496,0.206643139
1588856599844186322,8182,1588856599844029257,,0.502168605978,-0.184261908209,0.206597469708
1588856599847117997,8183,1588856599847012463,,0.50216546707,-0.184186295111,0.206553560524
1588856599853184118,8184,1588856599853044921,,0.502162015094,-0.184111500224,0.206509410047
1588856599859262365,8185,1588856599859050891,,0.502155779011,-0.184035266315,0.206460016081
1588856599862082328,8186,1588856599861988931,,0.502151440957,-0.183960124431,0.206415702847
1588856599865085408,8187,1588856599864973614,,0.502149415233,-0.183903762272,0.206380082973
1588856599868066706,8188,1588856599867983559,,0.502142547889,-0.183844440127,0.206336801751
1588856599871095721,8189,1588856599870987181,,0.502136592214,-0.1837625306,0.206286991113
1588856599877133980,8190,1588856599876986318,,0.502129475674,-0.183697534505,0.20624191499
1588856599880116185,8191,1588856599880017437,,0.502124731723,-0.183637785643,0.206200490743
1588856599886114754,8192,1588856599885999709,,0.502116109102,-0.183556590945,0.206154297423
1588856599889059493,8193,1588856599888978650,,0.502108221793,-0.183482449847,0.206109259306
1588856599892177092,8194,1588856599891980290,,0.502100658695,-0.183414874455,0.2060647492
1588856599901243082,8195,1588856599901026452,,0.502090439322,-0.18328731307,0.205983626944
1588856599904216671,8196,1588856599904110261,,0.502087141868,-0.18322711205,0.20594849014
1588856599910456662,8197,1588856599910286468,,0.502082034249,-0.183158702639,0.205907148227
1588856599913500636,8198,1588856599913367924,,0.502076317826,-0.183086794552,0.205865093575
1588856599916069127,8199,1588856599915973051,,0.502071255062,-0.183019395031,0.205824560501
1588856599919126237,8200,1588856599918998169,,0.502065648415,-0.182951607756,0.205784334779
1588856599925139447,8201,1588856599924977764,,0.502062464865,-0.182895711512,0.205751538674
1588856599930329336,8202,1588856599927943531,,0.502058597545,-0.182839840128,0.205715907442
1588856599934054545,8203,1588856599933950158,,0.502050775894,-0.182761902603,0.205667947601
1588856599937162816,8204,1588856599937025045,,0.502041839389,-0.182698823314,0.205625362733
1588856599940196768,8205,1588856599940067249,,0.502033996186,-0.182647302337,0.205591584403
1588856599946172857,8206,1588856599946030931,,0.502022355241,-0.182569422546,0.205544428417
1588856599949215749,8207,1588856599949073918,,0.502009724363,-0.182494679009,0.205495360849
1588856599952235026,8208,1588856599952073314,,0.502000404152,-0.182433193155,0.20545596833
1588856599958226624,8209,1588856599958049146,,0.501992158046,-0.182367449027,0.205417753836
1588856599961249919,8210,1588856599961092258,,0.501982708516,-0.182306909349,0.20537731282
1588856599964081438,8211,1588856599963985389,,0.501973072571,-0.18225158972,0.205337703361
1588856599970144797,8212,1588856599970029750,,0.501966333222,-0.182184226342,0.205299374405
1588856599973192553,8213,1588856599973015387,,0.501958305791,-0.182117713733,0.205260319937
1588856599976189648,8214,1588856599976065688,,0.501950208176,-0.182054459851,0.20522356556
1588856599982140478,8215,1588856599982010378,,0.501941755879,-0.181984349755,0.205184007618
1588856599985190734,8216,1588856599985044771,,0.501934195423,-0.181918656093,0.20514983194
1588856599988119719,8217,1588856599988034477,,0.501925262516,-0.181851451359,0.205111578026
1588856599994144227,8218,1588856599994004643,,0.501919075509,-0.181780548563,0.205075361229
1588856599997179038,8219,1588856599997064706,,0.50190918804,-0.181715597366,0.205035330415
1588856600000193176,8220,1588856600000068647,,0.501900782381,-0.181648560278,0.204996063727
1588856600006284636,8221,1588856600006159863,,0.501893601955,-0.181576231023,0.204955894722
1588856600009645503,8222,1588856600009497383,,0.501884065592,-0.181512129785,0.20491589106
1588856600012575791,8223,1588856600012400491,,0.501875504327,-0.181442651155,0.204876243408
1588856600018206118,8224,1588856600018049970,,0.501866005111,-0.181377498091,0.204835736846
1588856600021180658,8225,1588856600021029101,,0.501857638448,-0.18130743035,0.204795337881
1588856600024127216,8226,1588856600023991626,,0.501849579198,-0.181240329839,0.204757150131
1588856600030185573,8227,1588856600030039172,,0.501842050214,-0.181172128581,0.204717684063
1588856600033089483,8228,1588856600032989502,,0.501833761614,-0.181109118634,0.204680061246
1588856600036182177,8229,1588856600036037322,,0.501828180459,-0.181039179571,0.204642963653
1588856600042177537,8230,1588856600042080162,,0.501821195572,-0.180971953142,0.204606794813
1588856600045196675,8231,1588856600045048349,,0.501814515266,-0.180908840021,0.204573311161
1588856600048230244,8232,1588856600048103148,,0.501807731424,-0.180844895515,0.204538756334
1588856600054107294,8233,1588856600053990858,,0.501800408619,-0.180780933115,0.204505279132
1588856600057170267,8234,1588856600057000399,,0.50179480121,-0.180721868344,0.204474132785
1588856600060148331,8235,1588856600060018362,,0.501788687378,-0.180660980323,0.204441443452
1588856600066286103,8236,1588856600066063456,,0.501780087717,-0.180605128757,0.204406603055
1588856600069266881,8237,1588856600069095103,,0.501774289102,-0.18054710444,0.204372776429
1588856600078233579,8238,1588856600078049707,,0.501761127789,-0.18043317359,0.204305707845
1588856600081204418,8239,1588856600081071158,,0.501754235652,-0.180379150808,0.204270855621
1588856600087257622,8240,1588856600087078547,,0.501749704684,-0.180324516038,0.204238470695
1588856600090177565,8241,1588856600090046302,,0.501743656279,-0.180267595845,0.2042040473
1588856600093349804,8242,1588856600093078315,,0.501737297893,-0.180215605036,0.204168616458
1588856600099145983,8243,1588856600099028942,,0.501732774745,-0.180160548331,0.204136994167
1588856600102266679,8244,1588856600102116427,,0.501728286718,-0.180106447168,0.204104305546
1588856600105271672,8245,1588856600105055897,,0.501723797068,-0.180063432117,0.204077527985
1588856600111473220,8246,1588856600111249570,,0.501721002595,-0.180010918596,0.204048186674
1588856600114144498,8247,1588856600114030532,,0.50171869778,-0.179954206635,0.204017359982
1588856600117180772,8248,1588856600117051051,,0.501716063658,-0.179912696749,0.203992794783
1588856600123148998,8249,1588856600123040242,,0.501713758042,-0.179864055755,0.203967022448
1588856600126234709,8250,1588856600126084043,,0.501708872562,-0.179814154406,0.203935640404
1588856600129215066,8251,1588856600129082696,,0.50170678144,-0.179768476155,0.203911622231
1588856600138179139,8252,1588856600138061012,,0.501700707281,-0.179682763372,0.203861860664
1588856600141272967,8253,1588856600141101035,,0.50169722644,-0.179641140273,0.203835229321
1588856600147197835,8254,1588856600147028556,,0.501694994363,-0.179603754825,0.20381145533
1588856600150149858,8255,1588856600150002746,,0.501691954952,-0.179562083818,0.203787017797
1588856600153204959,8256,1588856600153035334,,0.501687792975,-0.179522056386,0.20376053838
1588856600159189890,8257,1588856600159048220,,0.5016853369,-0.179481432935,0.203735680606
1588856600162351030,8258,1588856600162093399,,0.501680894787,-0.179443728144,0.203709368759
1588856600165204495,8259,1588856600165098833,,0.501678540755,-0.179410633855,0.203688830427
1588856600171118120,8260,1588856600171003990,,0.501676655337,-0.179370199592,0.203666101
1588856600174157732,8261,1588856600174058814,,0.501672872274,-0.179330834895,0.203640767946
1588856600177185789,8262,1588856600177043834,,0.501671475541,-0.179300672853,0.203622932862
1588856600183080298,8263,1588856600182974258,,0.501667292995,-0.179263373425,0.20359912804
1588856600186197292,8264,1588856600186005207,,0.501664135626,-0.179224421327,0.203576534585
1588856600189128514,8265,1588856600189028994,,0.501663187483,-0.179185065368,0.203555539088
1588856600198145170,8266,1588856600198003725,,0.501658686033,-0.179114383711,0.203514953645
1588856600204232249,8267,1588856600204080129,,0.501657167315,-0.179083067095,0.203496048123
1588856600207238748,8268,1588856600207097015,,0.501653110266,-0.179051342968,0.203473748947
1588856600210380901,8269,1588856600210246761,,0.501652281013,-0.179016882255,0.203455960535
1588856600216133178,8270,1588856600216009491,,0.501650759759,-0.178981098821,0.203436361597
1588856600219119699,8271,1588856600219018434,,0.501647272765,-0.178950945091,0.20341442084
1588856600222068756,8272,1588856600221972811,,0.501645522697,-0.178921950579,0.203396686562
1588856600228217380,8273,1588856600228050070,,0.501642995483,-0.178897067361,0.20337869981
1588856600231290042,8274,1588856600231118473,,0.501641917703,-0.178864259039,0.203360343622
1588856600234155639,8275,1588856600234037842,,0.501640279504,-0.178831242096,0.2033402299
1588856600240242433,8276,1588856600240087652,,0.501638496517,-0.178806019622,0.203323293193
1588856600243218976,8277,1588856600243070367,,0.501637073669,-0.178776634655,0.203305568565
1588856600249151971,8278,1588856600249035329,,0.501637133526,-0.178745343766,0.203288652922
1588856600252166138,8279,1588856600252037629,,0.501635348288,-0.178717427039,0.203270750432
1588856600258121352,8280,1588856600258003683,,0.501634261567,-0.178659609714,0.203235342977
1588856600264188780,8281,1588856600264035226,,0.50163429187,-0.178633591941,0.203216268095
1588856600267122070,8282,1588856600267032973,,0.501634466892,-0.178607761498,0.203196938453
1588856600273184859,8283,1588856600273038690,,0.501634280996,-0.178584061955,0.2031732589
1588856600276182835,8284,1588856600276075870,,0.501633549271,-0.178559133909,0.203155467014
1588856600279249617,8285,1588856600279123180,,0.501633508992,-0.178532311933,0.203139555855
1588856600282150246,8286,1588856600282044143,,0.501632214856,-0.178507532899,0.203122678566
1588856600288121007,8287,1588856600287991090,,0.501631569734,-0.178482668973,0.20310892008
1588856600291154357,8288,1588856600291032412,,0.501631156906,-0.178459593358,0.203096474812
1588856600297198196,8289,1588856600297017655,,0.50162937827,-0.178437219897,0.203080745484
1588856600300284595,8290,1588856600300126027,,0.501629193255,-0.178413418511,0.203067821326
1588856600303212533,8291,1588856600303056776,,0.501629704095,-0.178389851029,0.203055937657
1588856600306226398,8292,1588856600306142562,,0.501629311258,-0.178366931962,0.203042916497
1588856600312472177,8293,1588856600312359062,,0.501629708247,-0.178345068921,0.203031978477
1588856600321219125,8294,1588856600321077475,,0.501630073655,-0.178298113138,0.20301075924
1588856600324144366,8295,1588856600324041325,,0.501630081134,-0.178277147328,0.203000138817
1588856600327124436,8296,1588856600327045105,,0.501630588669,-0.178254531258,0.2029902558
1588856600330255800,8297,1588856600330069082,,0.501630124581,-0.178233965283,0.202979731733
1588856600336242464,8298,1588856600336107377,,0.501630308694,-0.178212884861,0.20297075454
1588856600339237124,8299,1588856600339071501,,0.501630321241,-0.178193517668,0.202960693748
1588856600345237496,8300,1588856600345069564,,0.501629269953,-0.178177752143,0.202950461984
1588856600348203937,8301,1588856600348065459,,0.50162920833,-0.178160889253,0.202942833218
1588856600351197535,8302,1588856600351058722,,0.501629425369,-0.178138910695,0.202933858235
1588856600357175341,8303,1588856600357092061,,0.501628696748,-0.178121828072,0.20292531218
1588856600360200109,8304,1588856600360071086,,0.50162846549,-0.178107758041,0.20291819801
1588856600363114225,8305,1588856600363033248,,0.501628126816,-0.178087731121,0.202910706473
1588856600369169990,8306,1588856600369081289,,0.501627438023,-0.178071665814,0.202903255557
1588856600372178555,8307,1588856600372066941,,0.501627449772,-0.178054536597,0.202897135248
1588856600375325908,8308,1588856600375182391,,0.501626981318,-0.178039514365,0.202890287402
1588856600381262072,8309,1588856600381123020,,0.501626935514,-0.178025993287,0.202884575187
1588856600384191945,8310,1588856600384102134,,0.501625833687,-0.178013044104,0.202877362202
1588856600387151537,8311,1588856600387058933,,0.501625910703,-0.17799867201,0.202872139749
1588856600393206995,8312,1588856600393119697,,0.501626049732,-0.177982690636,0.202866250482
1588856600396228785,8313,1588856600396133837,,0.501625855559,-0.177967570795,0.202861512751
1588856600399231596,8314,1588856600399048597,,0.50162526549,-0.177952809362,0.202856574611
1588856600405249574,8315,1588856600405095816,,0.501624078463,-0.177938439747,0.20285332378
1588856600408162068,8316,1588856600408084990,,0.501622599042,-0.177920200614,0.202856352956
1588856600411299997,8317,1588856600411210911,,0.50161887687,-0.177901751251,0.202872260393
1588856600417241822,8318,1588856600417130241,,0.501617587121,-0.177887156509,0.202863874529
1588856600420177373,8319,1588856600420083402,,0.501615084043,-0.17787062088,0.202863511326
1588856600423186856,8320,1588856600423088236,,0.501615263116,-0.177853935568,0.202866041377
1588856600429189325,8321,1588856600429055362,,0.50161503534,-0.177838779326,0.202865700694
1588856600432232813,8322,1588856600432087812,,0.501615480345,-0.17782365497,0.202864450195
1588856600435293105,8323,1588856600435196357,,0.501614600582,-0.177808052427,0.202866497512
1588856600441225310,8324,1588856600441096462,,0.501613701403,-0.17779150367,0.202869303633
1588856600444226409,8325,1588856600444127167,,0.501611548822,-0.17777489918,0.202871771684
1588856600447200315,8326,1588856600447087910,,0.501609011155,-0.177759826807,0.202872574247
1588856600453255489,8327,1588856600453097261,,0.50160808356,-0.177745058166,0.202873830295
1588856600456185538,8328,1588856600456062415,,0.501607236118,-0.177732389497,0.202876177513
1588856600462245403,8329,1588856600462175963,,0.501606514231,-0.177720393225,0.202876980233
1588856600465146415,8330,1588856600465057335,,0.501605627293,-0.177710684469,0.202880165566
1588856600468192135,8331,1588856600468091271,,0.501604431384,-0.17770046407,0.202882764265
1588856600471221649,8332,1588856600471106419,,0.50160267089,-0.177691881578,0.202885447918
1588856600477262513,8333,1588856600477068862,,0.501601903282,-0.177681064565,0.202889838634
1588856600480213452,8334,1588856600480038716,,0.501600402951,-0.177673534202,0.202893352524
1588856600486255203,8335,1588856600486108567,,0.501599347031,-0.177665144116,0.202898278277
1588856600489150836,8336,1588856600489061568,,0.501598547314,-0.177657201891,0.20290329021
1588856600492262098,8337,1588856600492119045,,0.501597897824,-0.177652172661,0.202906439419
1588856600498184578,8338,1588856600498086467,,0.501597380376,-0.177645697122,0.202911084975
1588856600501249259,8339,1588856600501053626,,0.501596476494,-0.177640306924,0.202914329492
1588856600504215237,8340,1588856600504064355,,0.501595248613,-0.177635325013,0.202918406913
1588856600510419763,8341,1588856600510265525,,0.501595053513,-0.177631863116,0.202923130295
1588856600513517345,8342,1588856600513386589,,0.501594514302,-0.177627027699,0.202927659423
1588856600516142521,8343,1588856600516049000,,0.501594315436,-0.177622801903,0.202932342605
1588856600522266289,8344,1588856600522155451,,0.501593890064,-0.177619906223,0.202936736947
1588856600525237377,8345,1588856600525082721,,0.50159403256,-0.177614837188,0.202941085427
1588856600528958979,8346,1588856600528854634,,0.501593386568,-0.177613526365,0.202946274088
1588856600534332527,8347,1588856600534218037,,0.501593129233,-0.177611126822,0.202949958388
1588856600537287511,8348,1588856600537120744,,0.501593457813,-0.177609170816,0.202955197933
1588856600540259470,8349,1588856600540088026,,0.501593783835,-0.177604666773,0.202960342119
1588856600546295814,8350,1588856600546145423,,0.501594019653,-0.177602492965,0.202964468144
1588856600549263528,8351,1588856600549129764,,0.501594861573,-0.177600699944,0.20296998144
1588856600552295123,8352,1588856600552164515,,0.501594850561,-0.177600136019,0.202972922224
1588856600558331099,8353,1588856600558189057,,0.501594866633,-0.177596945064,0.20297611685
1588856600561270013,8354,1588856600561108287,,0.501595537665,-0.177595104905,0.202980066099
1588856600564303214,8355,1588856600564145445,,0.501596377456,-0.177593403674,0.202984087471
1588856600570299504,8356,1588856600570159309,,0.501596661656,-0.177589899336,0.202986070509
1588856600573265875,8357,1588856600573106861,,0.501597868978,-0.177588470693,0.202991481656
1588856600576313652,8358,1588856600576142304,,0.501598825438,-0.177585565622,0.202993863605
1588856600582350274,8359,1588856600582236034,,0.501600153656,-0.177584665726,0.202997484185
1588856600585331056,8360,1588856600585155251,,0.501600908247,-0.177581602217,0.203001005684
1588856600591300852,8361,1588856600591161523,,0.501602145233,-0.177580157863,0.203003564776
1588856600594208837,8362,1588856600594086419,,0.501604358543,-0.177576969086,0.203007123549
1588856600597305932,8363,1588856600597169651,,0.501605882983,-0.177574310442,0.203010482984
1588856600603293683,8364,1588856600603087442,,0.50160744515,-0.177571780691,0.203012983793
1588856600606266695,8365,1588856600606105798,,0.50161028047,-0.177568557381,0.20301820989
1588856600609701706,8366,1588856600609534787,,0.501611921264,-0.177567447751,0.203020240939
1588856600615452753,8367,1588856600615333757,,0.501614497379,-0.177565025313,0.203024374023
1588856600618217440,8368,1588856600618093201,,0.50161722215,-0.177561945431,0.203028788094
1588856600621310688,8369,1588856600621147624,,0.501620160511,-0.177560262004,0.203032585196
1588856600624177907,8370,1588856600624050501,,0.501622737711,-0.177558049794,0.203036103665
1588856600630257590,8371,1588856600630111604,,0.501626991378,-0.177555506754,0.203041592209
1588856600636202551,8372,1588856600636094364,,0.501631610839,-0.177553438928,0.203049132775
1588856600639202053,8373,1588856600639102392,,0.501637721315,-0.177550476941,0.203057246596
1588856600642233084,8374,1588856600642086693,,0.50164290969,-0.177548729905,0.203065032937
1588856600645239649,8375,1588856600645088546,,0.501649757162,-0.177546762452,0.20307412029
1588856600651337395,8376,1588856600651189436,,0.50165559518,-0.177546549858,0.203082733299
1588856600654236430,8377,1588856600654087948,,0.501662328034,-0.177544357828,0.203092229789
1588856600660278143,8378,1588856600660165337,,0.501669213009,-0.177542998576,0.203102015432
1588856600663292142,8379,1588856600663114351,,0.501675736916,-0.177542086726,0.203112173723
1588856600666216517,8380,1588856600666114203,,0.501682343392,-0.177539908829,0.20312140037
1588856600669274650,8381,1588856600669147157,,0.501688307625,-0.17753906319,0.203129934989
1588856600675599040,8382,1588856600675460484,,0.501694999572,-0.177536614658,0.203139182607
1588856600678272712,8383,1588856600678141200,,0.501701171815,-0.177537786551,0.203148030535
1588856600684312484,8384,1588856600684166068,,0.501707593482,-0.177536104018,0.203156495355
1588856600687279713,8385,1588856600687168750,,0.50171197536,-0.177535863412,0.203162714293
1588856600690252011,8386,1588856600690154632,,0.501717366498,-0.177535395796,0.203170678237
1588856600693290867,8387,1588856600693158198,,0.501722549471,-0.17753557078,0.203176822638
1588856600699234619,8388,1588856600699087174,,0.501726984954,-0.17753630131,0.203184826214
1588856600702223046,8389,1588856600702108801,,0.501731796779,-0.177535889999,0.203191020228
1588856600708271717,8390,1588856600708093340,,0.501736422828,-0.177536363142,0.203197659704
1588856600711336389,8391,1588856600711251797,,0.501741393939,-0.177537638751,0.203204019068
1588856600714245191,8392,1588856600714146825,,0.501745877408,-0.177537622653,0.203210259725
1588856600717325071,8393,1588856600717143238,,0.501750224081,-0.177537909644,0.203216083348
1588856600723253673,8394,1588856600723150529,,0.501753317699,-0.177538375372,0.203220817416
1588856600726190681,8395,1588856600726083749,,0.501757230138,-0.177538625684,0.203226306213
1588856600732334365,8396,1588856600732204841,,0.501761034153,-0.177537487032,0.203230843714
1588856600735312869,8397,1588856600735217448,,0.501764774788,-0.177535698682,0.203234727001
1588856600738276071,8398,1588856600738153042,,0.501768928013,-0.177534135585,0.203240410217
1588856600744148607,8399,1588856600744050652,,0.501772295275,-0.17753398203,0.203244657891
1588856600747216494,8400,1588856600747087242,,0.501775692428,-0.177531567285,0.203247836675
1588856600750274832,8401,1588856600750144017,,0.501778675789,-0.177528784189,0.20325139009
1588856600756318538,8402,1588856600756177147,,0.501781535658,-0.177525316749,0.203254097467
1588856600759239620,8403,1588856600759136579,,0.501785407758,-0.17752299483,0.203257268422
1588856600762158108,8404,1588856600762074572,,0.501788427666,-0.177519565189,0.203260434267
1588856600768299373,8405,1588856600768114426,,0.501791847799,-0.177515390948,0.203263750385
1588856600771221094,8406,1588856600771110291,,0.501794199435,-0.177512660874,0.203265472301
1588856600774212483,8407,1588856600774036315,,0.50179762035,-0.177509546712,0.203268291345
1588856600780358851,8408,1588856600780132758,,0.501800245969,-0.177506195714,0.203269834712
1588856600783221662,8409,1588856600783094995,,0.501803893854,-0.177500169909,0.203272866898
1588856600786224027,8410,1588856600786097807,,0.501806889607,-0.177495045743,0.203275202572
1588856600792200930,8411,1588856600792086768,,0.501809283651,-0.177491030643,0.203276093922
1588856600795392644,8412,1588856600795303918,,0.501812515845,-0.17748602754,0.203277414028
1588856600798241383,8413,1588856600798116930,,0.501815603755,-0.177481943479,0.203278920706
1588856600804175647,8414,1588856600804085836,,0.501818300759,-0.177475290599,0.203280650827
1588856600807224607,8415,1588856600807109091,,0.501820963595,-0.177469301715,0.203281341051
1588856600810431219,8416,1588856600810331074,,0.501823342609,-0.177464375582,0.203282163909
1588856600819196220,8417,1588856600819105082,,0.501826295415,-0.177458750087,0.203282911966
1588856600822220994,8418,1588856600822145364,,0.501828333317,-0.177452872804,0.203282510271
1588856600825198885,8419,1588856600825107724,,0.501831668966,-0.177446269162,0.203284343889
1588856600828225967,8420,1588856600828128009,,0.501833719381,-0.177441184187,0.203283384516
1588856600831254344,8421,1588856600831147477,,0.501835989798,-0.177437102587,0.203283411924
1588856600834242735,8422,1588856600834130089,,0.50183794217,-0.177432439776,0.203281884095
1588856600840239086,8423,1588856600840129296,,0.501839827549,-0.177428623108,0.203280286322
1588856600843306966,8424,1588856600843112953,,0.501841712721,-0.177423949403,0.203277274625
1588856600849177678,8425,1588856600849084146,,0.501843838806,-0.177419997967,0.203273486758
1588856600852234993,8426,1588856600852096885,,0.50184567143,-0.17741673114,0.203266818923
1588856600861297298,8427,1588856600861147916,,0.501850086221,-0.177414165909,0.203235708006
1588856600864242670,8428,1588856600864132507,,0.501852029192,-0.177410190877,0.203232479464
1588856600867344574,8429,1588856600867182039,,0.501853805288,-0.177405078125,0.20322695644
1588856600873312196,8430,1588856600873140311,,0.501856143917,-0.177401111071,0.203225200584
1588856600876260270,8431,1588856600876155283,,0.501856821736,-0.177396858367,0.203222369812
1588856600879283493,8432,1588856600879158707,,0.501858045789,-0.177392407133,0.203219905812
1588856600885226556,8433,1588856600885104714,,0.501858945008,-0.177388488698,0.20321585546
1588856600888184110,8434,1588856600888107615,,0.501860176055,-0.177384149525,0.203212475804
1588856600891223195,8435,1588856600891129800,,0.501860957382,-0.177379360983,0.203207520436
1588856600897168623,8436,1588856600897088051,,0.501862717678,-0.177374233501,0.203207016527
1588856600900291706,8437,1588856600900180585,,0.501863206405,-0.1773692822,0.20320339864
1588856600903221037,8438,1588856600903112119,,0.501864483424,-0.177362757889,0.203198598873
1588856600909702823,8439,1588856600909598516,,0.501864998195,-0.177355695939,0.203191965758
1588856600912503665,8440,1588856600912426367,,0.501866300276,-0.177350204238,0.203184705686
1588856600915483755,8441,1588856600915376678,,0.501866916097,-0.177346327918,0.203174849853
1588856600921238675,8442,1588856600921141730,,0.501867773417,-0.17734183383,0.203165586188
1588856600924171141,8443,1588856600924098855,,0.501868682298,-0.177337706392,0.20315700908
1588856600927189001,8444,1588856600927105805,,0.501869041739,-0.177337775875,0.203148484457
1588856600933237118,8445,1588856600933123280,,0.501869732799,-0.177334900706,0.203139361552
1588856600936235112,8446,1588856600936120632,,0.5018695855,-0.177334173305,0.203129440871
1588856600939459948,8447,1588856600939232504,,0.5018708448,-0.177333813535,0.203122098076
1588856600945260447,8448,1588856600945137713,,0.501870886229,-0.177333791718,0.203112774103
1588856600951183236,8449,1588856600951095956,,0.501872854242,-0.177332184891,0.203094523746
1588856600957314533,8450,1588856600957175537,,0.501873568813,-0.177332695429,0.203084359346
1588856600960273474,8451,1588856600960155677,,0.501873654616,-0.177333488453,0.203071976281
1588856600963215735,8452,1588856600963121386,,0.501873924068,-0.177334563801,0.203059464766
1588856600969369593,8453,1588856600969242017,,0.50187442694,-0.177337192092,0.203047427253
1588856600972327096,8454,1588856600972201436,,0.501875068706,-0.177340929052,0.203033145894
1588856600978298250,8455,1588856600978179434,,0.501875756176,-0.177341619335,0.20301729699
1588856600981343328,8456,1588856600981182168,,0.501876089532,-0.177346217502,0.203002397744
1588856600984590073,8457,1588856600984436086,,0.501876600195,-0.177346891145,0.202992506894
1588856600987314237,8458,1588856600987180484,,0.501876838734,-0.177349846968,0.202980965597
1588856600993415631,8459,1588856600993204737,,0.501877416823,-0.177353783497,0.202962138438
1588856600996243098,8460,1588856600996128028,,0.501878080001,-0.177359742159,0.202937712634
1588856601002235695,8461,1588856601002142708,,0.501878520414,-0.177362299801,0.202925967083
1588856601005454191,8462,1588856601005257296,,0.501878738047,-0.177366449441,0.202908044046
1588856601008229726,8463,1588856601008150415,,0.501879090393,-0.17737036246,0.202893404745
1588856601014407112,8464,1588856601014201297,,0.501878783622,-0.177373989261,0.202876901745
1588856601017284648,8465,1588856601017178846,,0.501878123649,-0.177376635672,0.202862652958
1588856601023277071,8466,1588856601023162387,,0.501877339067,-0.177382308309,0.202843454005
1588856601026346936,8467,1588856601026168774,,0.501877084105,-0.177385906406,0.202822027188
1588856601029315151,8468,1588856601029150692,,0.501876570563,-0.177391437185,0.20280282673
1588856601032330940,8469,1588856601032168815,,0.501876314925,-0.177398139463,0.202783868119
1588856601038378389,8470,1588856601038270155,,0.501876000833,-0.177404010375,0.202763884144
1588856601041332530,8471,1588856601041217076,,0.501876494176,-0.177410255714,0.202744204923
1588856601047320103,8472,1588856601047226119,,0.501875710832,-0.177418069497,0.202726120319
1588856601050323852,8473,1588856601050191814,,0.50187482391,-0.17742564582,0.202704014237
1588856601053391918,8474,1588856601053253123,,0.501874651126,-0.177434891873,0.202684463513
1588856601056293980,8475,1588856601056191144,,0.50187386174,-0.177445194305,0.20266481639
1588856601062392258,8476,1588856601062305278,,0.501873797119,-0.17745729542,0.202644595943
1588856601065410043,8477,1588856601065235399,,0.501874051421,-0.177473211146,0.202621107563
1588856601071387558,8478,1588856601071244133,,0.501872586542,-0.177489053738,0.202599765273
1588856601074330523,8479,1588856601074204766,,0.50187235745,-0.177503012517,0.202579305058
1588856601077351354,8480,1588856601077194760,,0.501872420904,-0.177520602392,0.202549951715
1588856601080324607,8481,1588856601080180479,,0.501872479,-0.177538401293,0.20253195752
1588856601086476231,8482,1588856601086268421,,0.501872404579,-0.177559700817,0.202508427812
1588856601089395189,8483,1588856601089235174,,0.501872254181,-0.177584878541,0.20248792338
1588856601095301984,8484,1588856601095186213,,0.501872003485,-0.177614134897,0.202466094929
1588856601098370694,8485,1588856601098242577,,0.50187341351,-0.177638658277,0.202447720436
1588856601101415723,8486,1588856601101240491,,0.501874215665,-0.177662178571,0.202427521699
1588856601107380713,8487,1588856601107215467,,0.501874504538,-0.177687099314,0.202411395963
1588856601110534227,8488,1588856601110401747,,0.501875294676,-0.177717966654,0.202392112139
1588856601113666000,8489,1588856601113518057,,0.501876323762,-0.177748070702,0.20237359503
1588856601119345786,8490,1588856601119189669,,0.501876964886,-0.177778505454,0.202356883571
1588856601122495702,8491,1588856601122170701,,0.501877489517,-0.177806707893,0.20233441289
1588856601125269925,8492,1588856601125137815,,0.501877362159,-0.17783495203,0.202316280726
1588856601128255779,8493,1588856601128137927,,0.501877947525,-0.177862382588,0.202292869908
1588856601134388775,8494,1588856601134246645,,0.501877360079,-0.177889927118,0.202269612975
1588856601137395198,8495,1588856601137226648,,0.501876864554,-0.177918718743,0.202248713197
1588856601143424233,8496,1588856601143222373,,0.50187669974,-0.177947523263,0.202225822431
1588856601146477717,8497,1588856601146220892,,0.501876462151,-0.177976251127,0.202202897684
1588856601149312889,8498,1588856601149204966,,0.501876137343,-0.178002635511,0.202183267483
1588856601158281976,8499,1588856601158172544,,0.501875465002,-0.178060722177,0.202137036964
1588856601161390444,8500,1588856601161218812,,0.501874633793,-0.178089744771,0.20211503218
1588856601167446576,8501,1588856601167217678,,0.501873739725,-0.178120220924,0.202089049341
1588856601170293799,8502,1588856601170179197,,0.50187385757,-0.178150699563,0.202067967722
1588856601173297531,8503,1588856601173169975,,0.501873380602,-0.178178303445,0.202045154581
1588856601179417226,8504,1588856601179250903,,0.50187328893,-0.178208926452,0.202020195
1588856601182278500,8505,1588856601182186500,,0.501873448579,-0.178237384403,0.201995807968
1588856601185390240,8506,1588856601185232192,,0.501872885436,-0.178263176249,0.201971623583
1588856601191401443,8507,1588856601191239580,,0.501872466727,-0.178292085074,0.201945346493
1588856601194355931,8508,1588856601194238690,,0.501872117687,-0.17832215608,0.20191642397
1588856601197428210,8509,1588856601197238328,,0.50187199129,-0.178345961911,0.201894336752
1588856601203361020,8510,1588856601203205714,,0.501871409339,-0.178374661373,0.201868442834
1588856601206333284,8511,1588856601206170723,,0.50187057497,-0.178404314951,0.201841425841
1588856601209787993,8512,1588856601209639173,,0.501869390204,-0.17843169823,0.201818384677
1588856601218415583,8513,1588856601218206680,,0.50186906644,-0.178485810724,0.201767668963
1588856601221484078,8514,1588856601221285905,,0.501869226359,-0.178513264185,0.201743342021
1588856601227407629,8515,1588856601227254022,,0.501869292743,-0.178540616668,0.201716123337
1588856601230253375,8516,1588856601230147457,,0.501869643105,-0.178567242471,0.201690770241
1588856601236346879,8517,1588856601236204830,,0.501869923335,-0.178592344739,0.201662302342
1588856601239257959,8518,1588856601239157992,,0.501869879828,-0.178617953411,0.201636145725
1588856601242330627,8519,1588856601242206415,,0.501870648788,-0.178646283392,0.201604718708
1588856601251377094,8520,1588856601251229191,,0.501870595043,-0.178694260617,0.20155034361
1588856601254337082,8521,1588856601254246870,,0.50187029526,-0.178724490943,0.201516909263
1588856601260356399,8522,1588856601260214003,,0.501869610627,-0.178748473719,0.201489696754
1588856601263397341,8523,1588856601263234544,,0.501869584027,-0.178774028136,0.201460743163
1588856601266387645,8524,1588856601266247628,,0.501869643723,-0.178803869782,0.201428454501
1588856601272433661,8525,1588856601272312943,,0.501869218696,-0.178830198659,0.201398530837
1588856601275473531,8526,1588856601275366071,,0.501869157096,-0.178858580531,0.201367622064
1588856601278393590,8527,1588856601278291158,,0.5018677492,-0.178880017847,0.20134289934
1588856601284298593,8528,1588856601284220348,,0.50186739188,-0.178907981558,0.201312173405
1588856601287280284,8529,1588856601287166211,,0.50186706374,-0.178936884952,0.201281482601
1588856601290413810,8530,1588856601290246674,,0.501867280756,-0.178961442215,0.201254017939
1588856601296304999,8531,1588856601296220073,,0.501867717178,-0.178984143999,0.201224265844
1588856601299389256,8532,1588856601299245549,,0.50186749331,-0.179013258563,0.20118963879
1588856601302266053,8533,1588856601302178019,,0.501868072621,-0.179039952981,0.20116032711
1588856601308929442,8534,1588856601308853916,,0.501867933774,-0.179067336539,0.20112960584
1588856601311601631,8535,1588856601311419736,,0.501867648613,-0.17909337299,0.201099045646
1588856601314350256,8536,1588856601314245417,,0.501868221903,-0.179119995189,0.201066832002
1588856601320447242,8537,1588856601320287667,,0.501867512717,-0.179147245205,0.201033027782
1588856601323325020,8538,1588856601323233023,,0.501867145234,-0.179172530369,0.200998940215
1588856601326300716,8539,1588856601326195067,,0.501867776988,-0.179202343349,0.200964260174
1588856601332386338,8540,1588856601332220313,,0.501867206635,-0.179229832034,0.200931887923
1588856601335562127,8541,1588856601335477500,,0.501866543246,-0.179259773109,0.20089330981
1588856601338351661,8542,1588856601338241154,,0.501865304983,-0.179293596994,0.200859024974
1588856601344331588,8543,1588856601344206686,,0.501864858695,-0.1793265554,0.20082152633
1588856601347325752,8544,1588856601347228052,,0.501865066287,-0.179357559467,0.200783216999
1588856601350316649,8545,1588856601350199731,,0.501865186796,-0.179388294593,0.200744828973
1588856601356439999,8546,1588856601356263167,,0.501865441446,-0.179422544478,0.200704598416
1588856601359459987,8547,1588856601359209146,,0.501865312014,-0.17945589631,0.200664533307
1588856601365316791,8548,1588856601365202123,,0.501864418736,-0.179492708998,0.200625522782
1588856601371331484,8549,1588856601371187301,,0.50186313712,-0.179561270005,0.200551434294
1588856601377313248,8550,1588856601377213274,,0.501862211711,-0.179592987948,0.200514578133
1588856601380328885,8551,1588856601380205396,,0.50186146345,-0.179625732421,0.200478586137
1588856601386287258,8552,1588856601386180311,,0.501861766646,-0.179659673715,0.200442418526
1588856601389286661,8553,1588856601389190033,,0.501862271034,-0.179692883266,0.200402518294
1588856601392348502,8554,1588856601392228130,,0.501863067125,-0.179722950034,0.200367122556
1588856601401438398,8555,1588856601401289522,,0.501862659822,-0.179785066042,0.200295460495
1588856601404293467,8556,1588856601404171646,,0.501862459311,-0.179815808201,0.200259512746
1588856601410561678,8557,1588856601410439247,,0.501862866078,-0.179846263787,0.20021874525
1588856601413654898,8558,1588856601413525364,,0.501862120889,-0.179872636779,0.200186963105
1588856601416370116,8559,1588856601416257449,,0.50186248306,-0.179901999985,0.200147302164
1588856601419369181,8560,1588856601419236893,,0.501862671345,-0.179931663326,0.200108794932
1588856601425326155,8561,1588856601425158937,,0.501862612633,-0.179953920828,0.20007956593
1588856601429238385,8562,1588856601429138755,,0.501862510884,-0.179975908829,0.200052946163
1588856601434432167,8563,1588856601434231848,,0.501863614797,-0.180002258974,0.200020949545
