%time,field.header.seq,field.header.stamp,field.header.frame_id,field.vector.x,field.vector.y,field.vector.z
1589284721589785568,6263,1589284721589658985,,-0.00478866413045,-0.026851670549,1.17330456017
1589284721596006986,6264,1589284721595832059,,-0.00480144597174,-0.0270658322548,1.17280846674
1589284721598831586,6265,1589284721598724946,,-0.00476971649989,-0.0272426902556,1.17237034782
1589284721604644158,6266,1589284721604553511,,-0.00472937370646,-0.0275221956972,1.17178698741
1589284721607708670,6267,1589284721607605947,,-0.00467647255269,-0.0277175916561,1.17137075268
1589284721610674571,6268,1589284721610574417,,-0.00465844537057,-0.0279752260778,1.17101055711
1589284721613665517,6269,1589284721613568668,,-0.00469877870241,-0.0282665548653,1.17058508177
1589284721619701578,6270,1589284721619605152,,-0.00465020553963,-0.0282696645625,1.17026246268
1589284721622672112,6271,1589284721622588382,,-0.00463163755354,-0.0284278088775,1.16988844967
1589284721628848304,6272,1589284721628763212,,-0.00459295006476,-0.0287074578661,1.16952035469
1589284721631734599,6273,1589284721631634004,,-0.0045467510338,-0.0287995096617,1.16908879515
1589284721634674929,6274,1589284721634587102,,-0.00449404404949,-0.0288814254779,1.16875103326
1589284721640672951,6275,1589284721640589725,,-0.00439986650607,-0.029143469491,1.16838644569
1589284721643722368,6276,1589284721643625867,,-0.00437379274019,-0.0292598810108,1.16780790073
1589284721646631010,6277,1589284721646549625,,-0.00425113886563,-0.0296978863315,1.16719402737
1589284721652689422,6278,1589284721652607108,,-0.00418314299625,-0.0299300775978,1.16625503557
1589284721655645666,6279,1589284721655529979,,-0.00413209510625,-0.0301644574216,1.16555953283
1589284721658632613,6280,1589284721658526227,,-0.00407186431966,-0.0303829934223,1.16499089307
1589284721664598828,6281,1589284721664500387,,-0.00397739199286,-0.0306014061946,1.16458108814
1589284721667772736,6282,1589284721667688831,,-0.00385070319345,-0.0305533187708,1.16417943355
1589284721670709170,6283,1589284721670584692,,-0.00369264237224,-0.0306072899875,1.1637825346
1589284721676659744,6284,1589284721676559914,,-0.00357597469173,-0.0306021368547,1.16324029229
1589284721679636145,6285,1589284721679543067,,-0.00334664797214,-0.0305616913299,1.16279311623
1589284721682648893,6286,1589284721682565794,,-0.00311472218167,-0.030394410231,1.16233400939
1589284721688637504,6287,1589284721688561266,,-0.00286741638468,-0.0304740534466,1.16196679507
1589284721691652647,6288,1589284721691562093,,-0.00260862519421,-0.0303641941668,1.16131431438
1589284721694658275,6289,1589284721694592255,,-0.00222365016653,-0.0301520388625,1.16077609803
1589284721700669764,6290,1589284721700576945,,-0.00192722452845,-0.0303121763566,1.1601918685
1589284721703726892,6291,1589284721703608914,,-0.00157970825056,-0.0301663078656,1.15945211767
1589284721706703862,6292,1589284721706624410,,-0.00130302332214,-0.0304242447932,1.15848551464
1589284721712813913,6293,1589284721712671976,,-0.000851397153262,-0.0303713673881,1.15743820487
1589284721715781637,6294,1589284721715696715,,-0.000309163266743,-0.0305432409218,1.15658853118
1589284721718757171,6295,1589284721718679763,,0.000334705884897,-0.0305456174802,1.15580549557
1589284721724704327,6296,1589284721724601333,,0.000997977544315,-0.0307234642866,1.15523192504
1589284721728075971,6297,1589284721727972777,,0.00179434858201,-0.0307434519641,1.15459209516
1589284721731025422,6298,1589284721730936651,,0.00269627769259,-0.0307702685969,1.1543364982
1589284721736709053,6299,1589284721736622806,,0.00359604465699,-0.0305057893775,1.15426602094
1589284721739695160,6300,1589284721739608793,,0.00441852714795,-0.0304316172326,1.15392188471
1589284721742914320,6301,1589284721742759066,,0.00515089489956,-0.0303830348663,1.15368860096
1589284721748646965,6302,1589284721748558496,,0.00595459492627,-0.0301141018731,1.1534076997
1589284721751761119,6303,1589284721751640742,,0.00671169388029,-0.0299174308859,1.15311474401
1589284721754906006,6304,1589284721754662750,,0.00751318363285,-0.0296584750701,1.15304918025
1589284721760827088,6305,1589284721760741587,,0.00822888167757,-0.029540610244,1.152585815
1589284721763548853,6306,1589284721763409651,,0.0090978222153,-0.0292910696274,1.15208053942
1589284721766602335,6307,1589284721766484143,,0.00977946442371,-0.0292031184146,1.1514164775
1589284721772756061,6308,1589284721772661236,,0.0104556781322,-0.0291209070688,1.15084551581
1589284721775847779,6309,1589284721775716774,,0.0110494553948,-0.0288749172323,1.15013837815
1589284721778673992,6310,1589284721778571768,,0.0116515639664,-0.0286918499387,1.14958110256
1589284721784748870,6311,1589284721784662416,,0.0122305245605,-0.0286797787405,1.14895895954
1589284721787806464,6312,1589284721787702886,,0.012787956284,-0.0286155974298,1.1484194483
1589284721793948516,6313,1589284721793822616,,0.0133958495639,-0.0284916615512,1.14803323351
1589284721796859403,6314,1589284721796739026,,0.0139956599267,-0.0283561168969,1.14771477618
1589284721799865144,6315,1589284721799771471,,0.0146405656666,-0.0284421405098,1.1473794827
1589284721805720365,6316,1589284721805609456,,0.0152550461742,-0.0283887923168,1.14727863766
1589284721808709134,6317,1589284721808619383,,0.0158933401056,-0.0285044472319,1.14726907174
1589284721811724976,6318,1589284721811639905,,0.0164670822514,-0.028715024276,1.14711109782
1589284721817696135,6319,1589284721817553682,,0.0170524167388,-0.0288515159849,1.14679466903
1589284721820643511,6320,1589284721820537620,,0.017591594812,-0.029275352483,1.14649230293
1589284721823759698,6321,1589284721823658183,,0.0180227419273,-0.02955628345,1.14608737718
1589284721829986003,6322,1589284721829878362,,0.0184599549965,-0.0298908435091,1.14555487029
1589284721832765101,6323,1589284721832621972,,0.0188560441244,-0.0303592437828,1.14492184355
1589284721835852462,6324,1589284721835742772,,0.0192595958014,-0.0307350844688,1.14442286897
1589284721841847638,6325,1589284721841731066,,0.0197187613149,-0.0311998017687,1.14402213904
1589284721844795814,6326,1589284721844690321,,0.0201543272714,-0.0318961260678,1.14350367898
1589284721847858494,6327,1589284721847759629,,0.0205563907706,-0.0324525528029,1.14284278427
1589284721853812220,6328,1589284721853702869,,0.0210378414869,-0.0332282429844,1.14263054957
1589284721856852967,6329,1589284721856771081,,0.0215298131448,-0.0338950141887,1.14239762511
1589284721859868206,6330,1589284721859797712,,0.0219654817652,-0.0345009728814,1.14218634745
1589284721865741214,6331,1589284721865666083,,0.022387653205,-0.0352820223339,1.14190284742
1589284721868729424,6332,1589284721868603152,,0.0228141716384,-0.0359459508289,1.14148182128
1589284721874770318,6333,1589284721874684645,,0.0233762272011,-0.0366304510832,1.14156478438
1589284721877334730,6334,1589284721877250579,,0.0237201878922,-0.0371843171358,1.14143239413
1589284721880342007,6335,1589284721880238906,,0.0242244608886,-0.0378223026549,1.14130388391
1589284721883583712,6336,1589284721883509884,,0.0247299296299,-0.0384910512447,1.14108151703
1589284721889955901,6337,1589284721889801791,,0.0251959168649,-0.0392077336341,1.14082919137
1589284721892879991,6338,1589284721892715113,,0.0256292181073,-0.0400765883126,1.14064205395
1589284721895798646,6339,1589284721895691303,,0.0260802515627,-0.0410005816931,1.14029358524
1589284721901862310,6340,1589284721901787155,,0.0265612061151,-0.0419267854929,1.14006481965
1589284721904451857,6341,1589284721904371925,,0.0269744452597,-0.0426154227225,1.1398201659
1589284721910641573,6342,1589284721910559779,,0.0273804276703,-0.0435756313671,1.13948383625
1589284721913764521,6343,1589284721913678412,,0.0277956513544,-0.0443989260047,1.13956693514
1589284721919730977,6344,1589284721919640951,,0.0281493074922,-0.0454105197658,1.1394919462
1589284721922725079,6345,1589284721922646125,,0.0284748746986,-0.0462631584449,1.13951378573
1589284721925928823,6346,1589284721925786877,,0.0287364120888,-0.0471795482346,1.13979369796
1589284721929034457,6347,1589284721928898048,,0.0290888040381,-0.0479833516267,1.13988609083
1589284721934783505,6348,1589284721934677374,,0.029373992529,-0.049009168799,1.14013199923
1589284721937826833,6349,1589284721937717184,,0.0297054511305,-0.0498603326356,1.14034138036
1589284721943953564,6350,1589284721943831357,,0.0299771283333,-0.0509373071151,1.14044913588
1589284721946822293,6351,1589284721946695430,,0.0302650895177,-0.0517866224738,1.14049238824
1589284721949910307,6352,1589284721949813632,,0.0304855421321,-0.0527958393142,1.14069921152
1589284721952582465,6353,1589284721952504503,,0.0307066156521,-0.0537472473489,1.14074714535
1589284721958718620,6354,1589284721958580153,,0.0308320057216,-0.054759107483,1.14080245898
1589284721961416953,6355,1589284721961336689,,0.0309534057865,-0.0556316895729,1.14084545915
1589284721967506431,6356,1589284721967430837,,0.0310897018895,-0.0568185371957,1.14104017368
1589284721970458821,6357,1589284721970381782,,0.0311212468431,-0.0577524044845,1.14109613984
1589284721973646047,6358,1589284721973563101,,0.0310555284089,-0.0589126120425,1.14109334997
1589284721976495015,6359,1589284721976369201,,0.0308662361173,-0.0601634165275,1.14105644749
1589284721982469793,6360,1589284721982403225,,0.0306813594355,-0.0616210095966,1.14105665059
1589284721985663613,6361,1589284721985531862,,0.0305500604614,-0.0629979723207,1.14093245077
1589284721991670735,6362,1589284721991580685,,0.0304226764259,-0.0641233784495,1.14080018361
1589284721994416383,6363,1589284721994327594,,0.0303674771201,-0.0653138834116,1.14088333903
1589284721997735893,6364,1589284721997642785,,0.0302691475842,-0.0664031078623,1.14085743069
1589284722000785665,6365,1589284722000665334,,0.0302092329457,-0.0677714830227,1.14078381083
1589284722006826281,6366,1589284722006721666,,0.0301223892692,-0.0689629520606,1.14082748146
1589284722009654978,6367,1589284722009564875,,0.0299856848191,-0.0703434336525,1.14074558464
1589284722015408446,6368,1589284722015320212,,0.0298929646057,-0.0717230608154,1.14075635205
1589284722018716506,6369,1589284722018641082,,0.0297145239818,-0.0730018782329,1.14071836064
1589284722021732567,6370,1589284722021621621,,0.0295770895857,-0.0743310309666,1.14052937435
1589284722024640417,6371,1589284722024569511,,0.0294854013625,-0.075474584733,1.14065138119
1589284722031065128,6372,1589284722030993412,,0.0293763972672,-0.0766051594771,1.14049067966
1589284722033653497,6373,1589284722033587064,,0.0292963786132,-0.0775467981962,1.14036580236
1589284722039799451,6374,1589284722039701870,,0.0292304919046,-0.0786329650236,1.14026299506
1589284722042735830,6375,1589284722042611210,,0.0291559066328,-0.0797226084916,1.14027675863
1589284722045673657,6376,1589284722045534647,,0.0291237037359,-0.0806776503693,1.14028873777
1589284722051822953,6377,1589284722051706284,,0.0289217731343,-0.081819894415,1.14003660174
1589284722054887659,6378,1589284722054809891,,0.0288531192143,-0.0828043896374,1.14007749525
1589284722057836031,6379,1589284722057726867,,0.0287241845332,-0.0838225991494,1.13985148009
1589284722063951916,6380,1589284722063845482,,0.0286214777678,-0.0848811051998,1.13969918629
1589284722066871080,6381,1589284722066793254,,0.0285282204371,-0.0859839248765,1.13944298112
1589284722069712584,6382,1589284722069602587,,0.0285104449193,-0.0870570585649,1.13934650147
1589284722075722966,6383,1589284722075638258,,0.0285024556666,-0.0880714681249,1.1394050246
1589284722078414757,6384,1589284722078313539,,0.028426066501,-0.0891198003379,1.13935756982
1589284722081422750,6385,1589284722081342335,,0.0282363205764,-0.0901420927716,1.13913922507
1589284722087390043,6386,1589284722087293551,,0.0281776301371,-0.0913113297545,1.13920093061
1589284722090436361,6387,1589284722090286316,,0.0279739491819,-0.0923963431812,1.13899473742
1589284722093405903,6388,1589284722093336050,,0.0278725347044,-0.0932658988032,1.13883116406
1589284722099429632,6389,1589284722099303796,,0.0278582773336,-0.0941098208023,1.13889015508
1589284722102478170,6390,1589284722102311293,,0.0277437809229,-0.0949853926831,1.13874129939
1589284722105442416,6391,1589284722105356154,,0.0276739794603,-0.0957629145696,1.13863830269
1589284722111831119,6392,1589284722111748015,,0.0275965576309,-0.0963969707393,1.13843202062
1589284722114790959,6393,1589284722114712721,,0.0276597912912,-0.0971046683978,1.13855226133
1589284722120886291,6394,1589284722120777101,,0.027626152353,-0.0975287139594,1.13844765401
1589284722123920639,6395,1589284722123806660,,0.027568676429,-0.0981673890024,1.13830266333
1589284722126870363,6396,1589284722126752506,,0.0276273279398,-0.0986400623211,1.13829715409
1589284722129938921,6397,1589284722129840557,,0.0275220240928,-0.0991140922798,1.13813750661
1589284722135889921,6398,1589284722135804347,,0.0274258635698,-0.0996577767641,1.13797912751
1589284722138545644,6399,1589284722138331098,,0.0274619745716,-0.0999602032079,1.13804630972
1589284722141444913,6400,1589284722141370838,,0.0274504980551,-0.100240521291,1.13793605578
1589284722147824371,6401,1589284722147735867,,0.0273564898567,-0.10062021911,1.13785142876
1589284722150654669,6402,1589284722150570430,,0.0273227737086,-0.100834915906,1.13780667224
1589284722153627024,6403,1589284722153538365,,0.0272502566176,-0.101069367124,1.13775505137
1589284722159609623,6404,1589284722159514923,,0.0272525906784,-0.101205183654,1.13784501597
1589284722162757758,6405,1589284722162646778,,0.0272567784616,-0.101295466091,1.13770916126
1589284722165703522,6406,1589284722165626651,,0.0272553277479,-0.101512038763,1.13776586319
1589284722171714943,6407,1589284722171632039,,0.0272314199384,-0.101575564488,1.13773025508
1589284722174906443,6408,1589284722174735523,,0.0272268500188,-0.101763718581,1.1377591759
1589284722180742149,6409,1589284722180661414,,0.0271910277863,-0.101951376311,1.1377787402
1589284722183624355,6410,1589284722183547890,,0.0271889124809,-0.102028358155,1.13775781214
1589284722186614029,6411,1589284722186541780,,0.0271862183621,-0.102025776914,1.13775721382
1589284722192724087,6412,1589284722192648650,,0.0271873902472,-0.102179734379,1.13775003321
1589284722195764966,6413,1589284722195610584,,0.0271843593596,-0.102176830486,1.1377493601
1589284722198825356,6414,1589284722198631401,,0.0271747680674,-0.102220981356,1.13780487629
1589284722204671379,6415,1589284722204584843,,0.0271505705094,-0.102234982004,1.13769643112
1589284722207635408,6416,1589284722207547904,,0.0271767935313,-0.102234973198,1.13776360537
1589284722210671174,6417,1589284722210604135,,0.0271766137442,-0.102169409443,1.13774763994
1589284722216592724,6418,1589284722216520774,,0.0271538307565,-0.10236236365,1.13775885318
1589284722219687621,6419,1589284722219560120,,0.0271728645471,-0.102151269513,1.13782719889
1589284722222678954,6420,1589284722222559442,,0.0271394442343,-0.102146760562,1.13777015963
1589284722228938782,6421,1589284722228825857,,0.0271756269514,-0.102207028027,1.13788672138
1589284722232038778,6422,1589284722231921174,,0.0271602527573,-0.102110949472,1.13789206573
1589284722234587480,6423,1589284722234485233,,0.0271345964683,-0.102185402378,1.13788228787
1589284722240653422,6424,1589284722240556942,,0.0272011621676,-0.10204865212,1.13794344712
1589284722243737585,6425,1589284722243651019,,0.0272034341838,-0.102055703432,1.13791701416
1589284722246773305,6426,1589284722246666156,,0.0272230925879,-0.101964476907,1.13799503291
1589284722252869674,6427,1589284722252788029,,0.0271896725699,-0.101959967956,1.13793799366
1589284722255840267,6428,1589284722255743741,,0.0271955104768,-0.101901175912,1.13792361
1589284722258811622,6429,1589284722258725436,,0.027242161532,-0.101708224549,1.13797545351
1589284722264702787,6430,1589284722264604197,,0.0272420049771,-0.101773465763,1.13799134377
1589284722267551488,6431,1589284722267488101,,0.0272667023717,-0.101712152667,1.13798332273
1589284722270711362,6432,1589284722270646035,,0.0272483936759,-0.101704447065,1.13803071294
1589284722276536189,6433,1589284722276463848,,0.0272815101161,-0.101651200378,1.13802456191
1589284722279868833,6434,1589284722279757090,,0.0273157945967,-0.101579801602,1.1381079428
1589284722282985277,6435,1589284722282900106,,0.0273293745197,-0.101663455046,1.1380547427
1589284722288988074,6436,1589284722288868559,,0.0273133622155,-0.101572860108,1.13809001328
1589284722291972939,6437,1589284722291847394,,0.0273532567877,-0.101513093698,1.13810274411
1589284722297536743,6438,1589284722297452318,,0.0273440257252,-0.101512329744,1.1380879578
1589284722300564653,6439,1589284722300473782,,0.027416539554,-0.101394904008,1.13805918499
1589284722303888086,6440,1589284722303717676,,0.0274201611282,-0.101464988568,1.13808666901
1589284722309815953,6441,1589284722309720560,,0.0274201611282,-0.101464988568,1.13808666901
1589284722312902677,6442,1589284722312802322,,0.0273821613395,-0.101446267089,1.13808290883
1589284722315910920,6443,1589284722315825320,,0.0274209716021,-0.101473283518,1.13802197355
1589284722321787084,6444,1589284722321699660,,0.0274248757839,-0.101469505773,1.13808771615
1589284722324869545,6445,1589284722324744645,,0.0274840171513,-0.101488756647,1.13813203351
1589284722331068505,6446,1589284722330948625,,0.0274862894444,-0.101495807728,1.13810560045
1589284722333835521,6447,1589284722333711777,,0.0275265794143,-0.101576219674,1.13813642652
1589284722336747774,6448,1589284722336680226,,0.0275598265228,-0.101568774359,1.1382512683
1589284722339980654,6449,1589284722339849600,,0.0276262420377,-0.101604818801,1.13824290547
1589284722345862358,6450,1589284722345738761,,0.027677908972,-0.101696949686,1.13835791717
1589284722348887331,6451,1589284722348775097,,0.0278612850089,-0.101655707243,1.13857879702
1589284722354894439,6452,1589284722354739673,,0.027939115088,-0.101749082079,1.13865598738
1589284722357858686,6453,1589284722357757887,,0.0281388395111,-0.101804774056,1.1388721627
1589284722360833256,6454,1589284722360694296,,0.0283122631616,-0.101925615084,1.13904015054
1589284722363864538,6455,1589284722363748997,,0.0284666482894,-0.102000822205,1.13905927423
1589284722370007503,6456,1589284722369875618,,0.0286965374858,-0.102327777048,1.1390988057
1589284722372895067,6457,1589284722372812190,,0.0289481108243,-0.102525411505,1.13914929948
1589284722378754249,6458,1589284722378667828,,0.0291790882571,-0.102799038937,1.13906577871
1589284722381789205,6459,1589284722381687203,,0.0294722514122,-0.103158117575,1.13906352107
1589284722384701695,6460,1589284722384609710,,0.0297315590882,-0.103598759247,1.13902923352
1589284722387717034,6461,1589284722387649586,,0.0299461991461,-0.103955623258,1.138861267
1589284722393784942,6462,1589284722393646653,,0.0301512151078,-0.10447138678,1.13887061517
1589284722396787217,6463,1589284722396681962,,0.0303680177355,-0.104979908985,1.13877251959
1589284722402801974,6464,1589284722402614471,,0.0305174700761,-0.105311497591,1.13866360854
1589284722405795587,6465,1589284722405718275,,0.030596936126,-0.105912692666,1.13869550322
1589284722408691770,6466,1589284722408585714,,0.0306764705791,-0.106331752518,1.13881871198
1589284722411780607,6467,1589284722411681754,,0.0307377658996,-0.106979729279,1.13887615684
1589284722417752846,6468,1589284722417665174,,0.0308569712835,-0.107493342581,1.13893790949
1589284722421085153,6469,1589284722420944514,,0.0309286760269,-0.108059215233,1.1388612681
1589284722426743816,6470,1589284722426633319,,0.0310131385032,-0.108657055317,1.13892555463
1589284722430199664,6471,1589284722430073820,,0.0311496818626,-0.109194982086,1.13899230181
1589284722432892598,6472,1589284722432789550,,0.0311580545985,-0.10969812472,1.13888659112
1589284722438936545,6473,1589284722438747800,,0.0312840366803,-0.110108334936,1.13883724341
1589284722441730375,6474,1589284722441654435,,0.0314304845228,-0.110386059958,1.1389382095
1589284722444822836,6475,1589284722444745915,,0.0315060749161,-0.110787456278,1.13893991766
1589284722450745872,6476,1589284722450662044,,0.0315691567327,-0.110992477285,1.13903118851
1589284722453722866,6477,1589284722453636940,,0.0316525350006,-0.1113019942,1.13913685406
1589284722456867258,6478,1589284722456746527,,0.0317048016355,-0.111560822709,1.13911990958
1589284722462953285,6479,1589284722462862930,,0.0317243314254,-0.111886118065,1.13921812887
1589284722465862224,6480,1589284722465762454,,0.031807191157,-0.111997923618,1.13928485433
1589284722468961358,6481,1589284722468869553,,0.0318155795311,-0.112278314313,1.13932643396
1589284722474777852,6482,1589284722474690220,,0.031832854568,-0.112626577898,1.13936579378
1589284722477784605,6483,1589284722477691570,,0.0318699905406,-0.112790130123,1.13946258666
1589284722480806356,6484,1589284722480679305,,0.0318669307894,-0.113098063693,1.13942866077
1589284722487018982,6485,1589284722486832100,,0.0318646712051,-0.113268077636,1.13947393766
1589284722489853741,6486,1589284722489764527,,0.0319412160394,-0.1133865138,1.13952273395
1589284722492732871,6487,1589284722492644020,,0.0319279430496,-0.113615635963,1.13953422443
1589284722498798570,6488,1589284722498676604,,0.0319181542053,-0.113862490283,1.13954139101
1589284722501824167,6489,1589284722501719880,,0.0319915624379,-0.113955482234,1.13967565827
1589284722504698301,6490,1589284722504600354,,0.0319854574961,-0.114131223703,1.13958389582
1589284722510816729,6491,1589284722510720709,,0.0320042166492,-0.114243746474,1.13955388956
1589284722513790289,6492,1589284722513688968,,0.0320264476003,-0.114427424053,1.13955528471
1589284722516826968,6493,1589284722516727450,,0.0320020825469,-0.114585795621,1.13947185449
1589284722522783334,6494,1589284722522679993,,0.0320125591979,-0.114676596453,1.1394528911
1589284722525941606,6495,1589284722525828197,,0.032054364168,-0.114845810858,1.13945434252
1589284722528971643,6496,1589284722528885320,,0.0320644149393,-0.114893483639,1.13928552248
1589284722534933407,6497,1589284722534851700,,0.0320805468156,-0.115109533851,1.13941037348
1589284722537723835,6498,1589284722537641343,,0.0320589489583,-0.115176259289,1.13924844374
1589284722540783619,6499,1589284722540632220,,0.0321166732792,-0.115274278956,1.1392271949
1589284722546795638,6500,1589284722546708048,,0.0321611375867,-0.115515894921,1.13929002382
1589284722549762043,6501,1589284722549673763,,0.0321344337358,-0.115666146341,1.13923119315
1589284722552770378,6502,1589284722552689745,,0.0321804076563,-0.115771552423,1.13915558496
1589284722558775842,6503,1589284722558648941,,0.0321525404416,-0.115789924673,1.13906087666
1589284722561740275,6504,1589284722561624368,,0.0321558094559,-0.116004818059,1.13895633616
1589284722564817878,6505,1589284722564710950,,0.0322132770213,-0.116115774648,1.13888868668
1589284722570865174,6506,1589284722570775593,,0.0322283337362,-0.116228133729,1.13877701084
1589284722573992102,6507,1589284722573837963,,0.0322648098383,-0.116409371509,1.13867731081
1589284722579854117,6508,1589284722579707152,,0.0322742654178,-0.11688668725,1.13867790008
1589284722582860984,6509,1589284722582674776,,0.0322844731241,-0.117075064467,1.13854659073
1589284722586021247,6510,1589284722585879865,,0.0323582869571,-0.117881359015,1.13857249991
1589284722592281381,6511,1589284722592134147,,0.0324145171766,-0.119286543895,1.13879280042
1589284722594898580,6512,1589284722594782149,,0.0324951509114,-0.119411927329,1.13870907289
1589284722597767127,6513,1589284722597688819,,0.0324919392133,-0.121473215133,1.13898727362
1589284722603843760,6514,1589284722603735767,,0.032594221139,-0.123718372091,1.13937673636
1589284722607183551,6515,1589284722607031219,,0.032644270234,-0.123898886086,1.13936535834
1589284722609787166,6516,1589284722609690818,,0.0327331126367,-0.126697483202,1.13983364757
1589284722615877350,6517,1589284722615769030,,0.0328052855561,-0.126864388699,1.13989570032
1589284722618892211,6518,1589284722618797797,,0.0327992489476,-0.130091534456,1.14042114498
1589284722622056264,6519,1589284722621899714,,0.0328852080877,-0.130119292891,1.14048166133
1589284722628176291,6520,1589284722628079676,,0.0329705387339,-0.13387370244,1.14136250495
1589284722631133301,6521,1589284722631020315,,0.0329747924449,-0.138099216496,1.14217895387
1589284722633920865,6522,1589284722633777531,,0.033097621812,-0.13805837145,1.14231559549
1589284722639765754,6523,1589284722639666784,,0.0330751865927,-0.142690429346,1.14310634686
1589284722642772723,6524,1589284722642668611,,0.0331129497718,-0.142757586938,1.14319070639
1589284722645820279,6525,1589284722645737899,,0.0331435681377,-0.147977332054,1.14422912866
1589284722651819906,6526,1589284722651738012,,0.0331776376826,-0.153363846165,1.14541998443
1589284722654785609,6527,1589284722654680716,,0.0332660544455,-0.153316030105,1.1454777813
1589284722657793109,6528,1589284722657698906,,0.0332669343438,-0.159292199825,1.14667586377
1589284722663870582,6529,1589284722663771052,,0.0332772679475,-0.165724664599,1.14800322937
1589284722666940725,6530,1589284722666791713,,0.0333005837655,-0.165640363651,1.14804890949
1589284722669871694,6531,1589284722669766103,,0.0333470561407,-0.172146205915,1.14935825228
1589284722675781618,6532,1589284722675685247,,0.0333479018675,-0.172484686982,1.14938660452
1589284722678817989,6533,1589284722678697419,,0.0333470561407,-0.179720553731,1.15087312184
1589284722681789734,6534,1589284722681633602,,0.0334006508773,-0.179724720714,1.15097011515
1589284722687762647,6535,1589284722687678266,,0.0334004627324,-0.18747591421,1.15251120766
1589284722690874958,6536,1589284722690670637,,0.0334070099355,-0.195539629703,1.1541044389
1589284722696788785,6537,1589284722696693601,,0.0334722238241,-0.20402697437,1.15596645769
1589284722699803954,6538,1589284722699693133,,0.0334974118559,-0.203961901247,1.15592181689
1589284722702881812,6539,1589284722702762354,,0.0334464583499,-0.204059231513,1.15570868075
1589284722708714513,6540,1589284722708625087,,0.0335404199895,-0.212916030664,1.15759478018
1589284722711775235,6541,1589284722711680205,,0.0335421634256,-0.222403911473,1.15943897308
1589284722717795966,6542,1589284722717652040,,0.033553892516,-0.23211651848,1.16135931822
1589284722720835612,6543,1589284722720742765,,0.0335851013136,-0.23210923778,1.16137353598
1589284722723716816,6544,1589284722723617346,,0.0336642430624,-0.242148470613,1.16332550973
1589284722726713745,6545,1589284722726636497,,0.0337495810242,-0.242086110228,1.16341503341
1589284722732816809,6546,1589284722732726137,,0.0337553993061,-0.252626447369,1.16540615521
1589284722735774328,6547,1589284722735688233,,0.0337936976239,-0.252502098784,1.1653859064
1589284722741774292,6548,1589284722741654404,,0.0338605288715,-0.26344326129,1.16752193387
1589284722744824045,6549,1589284722744723922,,0.0338988130465,-0.274800440767,1.1697859845
1589284722747853396,6550,1589284722747707720,,0.0339444389911,-0.274746173,1.16977646279
1589284722750798629,6551,1589284722750677706,,0.034004201486,-0.286486667501,1.17221208038
1589284722759717185,6552,1589284722759624788,,0.0342104884136,-0.298186911927,1.17450033035
1589284722765646101,6553,1589284722765535187,,0.0342058287357,-0.310835150005,1.1768479385
1589284722768627715,6554,1589284722768555256,,0.0343375260556,-0.310434912814,1.17698146859
1589284722771622137,6555,1589284722771547345,,0.0344698001704,-0.323369185591,1.17950187952
1589284722774598339,6556,1589284722774531242,,0.0345564812274,-0.323060715234,1.17936878465
1589284722780652104,6557,1589284722780582712,,0.0346626422338,-0.336157147407,1.18185497295
1589284722783652066,6558,1589284722783575981,,0.0348009227946,-0.349690599491,1.18452481746
1589284722789829231,6559,1589284722789755690,,0.0349407059081,-0.362150133424,1.18686417535
1589284722792659667,6560,1589284722792555234,,0.0351582661608,-0.363090166014,1.18715836627
1589284722795636547,6561,1589284722795549786,,0.0353640282227,-0.362483974247,1.18703395385
1589284722798614716,6562,1589284722798485186,,0.0356692546996,-0.376528016973,1.18997125364
1589284722804693472,6563,1589284722804620158,,0.0358830485853,-0.390927416836,1.19284819706
1589284722807726308,6564,1589284722807549726,,0.0361972113768,-0.390146930758,1.1928207832
1589284722813966385,6565,1589284722813892462,,0.0365262700831,-0.404623675604,1.19602560115
1589284722816982953,6566,1589284722816878596,,0.0368199137874,-0.41967248601,1.19924088827
1589284722819957105,6567,1589284722819861203,,0.0369816065137,-0.418933027792,1.19907396841
1589284722822899430,6568,1589284722822819181,,0.037150943288,-0.432294860334,1.20177724614
1589284722829419519,6569,1589284722829315703,,0.0374111425065,-0.433534933718,1.20213630062
1589284722832222602,6570,1589284722832124314,,0.0375442221887,-0.449212013245,1.20525625656
1589284722838034428,6571,1589284722837905406,,0.0377009965276,-0.465147541748,1.20845142796
1589284722840961686,6572,1589284722840863709,,0.0379235458824,-0.46426724966,1.20832621042
1589284722843965881,6573,1589284722843884071,,0.0381318949324,-0.479853776107,1.21147725517
1589284722850036842,6574,1589284722849898641,,0.0383608446364,-0.49435599231,1.21423197912
1589284722853067854,6575,1589284722852918304,,0.0384475984274,-0.493124419884,1.21379946991
1589284722856015589,6576,1589284722855928741,,0.0386334442196,-0.492115784641,1.21368142614
1589284722861990201,6577,1589284722861912328,,0.0387639997337,-0.508851604899,1.21700738858
1589284722864992251,6578,1589284722864903860,,0.0388080188892,-0.526239332267,1.22045487349
1589284722867972752,6579,1589284722867859115,,0.0388283550422,-0.525255358826,1.22015743244
1589284722873637894,6580,1589284722873517037,,0.0388488886863,-0.542713438655,1.22359748589
1589284722876575096,6581,1589284722876493483,,0.0389225499355,-0.560451132642,1.22708276282
1589284722879634977,6582,1589284722879547596,,0.0387999792907,-0.559433940267,1.22662323749
1589284722885714036,6583,1589284722885637845,,0.038647229005,-0.577485766832,1.23007233818
1589284722888638195,6584,1589284722888535345,,0.0384588373746,-0.576506791225,1.22980303668
1589284722891798154,6585,1589284722891661429,,0.0381448124553,-0.594828484682,1.23336565397
1589284722898017927,6586,1589284722897891598,,0.0378387975534,-0.613783823428,1.23741256404
1589284722900655857,6587,1589284722900558364,,0.0376642953895,-0.612822496493,1.23735627011
1589284722903648249,6588,1589284722903546979,,0.0375735938855,-0.632221480897,1.24105478569
1589284722909673666,6589,1589284722909556388,,0.0374394890528,-0.631500807883,1.24070622958
1589284722912576542,6590,1589284722912501088,,0.037351046866,-0.651417564472,1.24451910397
1589284722915538795,6591,1589284722915476622,,0.037218421269,-0.650747994786,1.24410041858
1589284722921553170,6592,1589284722921484276,,0.0371891628963,-0.670667473719,1.24804399762
1589284722924563688,6593,1589284722924482325,,0.0370881053823,-0.691156066099,1.25194966382
1589284722927706792,6594,1589284722927631949,,0.0370496297709,-0.69029461386,1.25191821485
1589284722933681497,6595,1589284722933610386,,0.0369340295695,-0.710831761546,1.25597427444
1589284722936748706,6596,1589284722936660952,,0.0368143845797,-0.731748107189,1.26005121664
1589284722942664181,6597,1589284722942609210,,0.0367064152854,-0.730780328114,1.2598650387
1589284722945667057,6598,1589284722945601409,,0.036541656463,-0.751773090267,1.26413781392
1589284722948635724,6599,1589284722948542618,,0.036434839715,-0.751001893376,1.26425491427
1589284722951639132,6600,1589284722951566901,,0.0362451221313,-0.772277400941,1.26857684899
1589284722957950117,6601,1589284722957886154,,0.0361532666016,-0.793938406916,1.2729104999
1589284722960978584,6602,1589284722960865044,,0.036063247759,-0.793128161373,1.27264512164
1589284722966671398,6603,1589284722966567051,,0.0359853485388,-0.815090387761,1.27690292836
1589284722969685983,6604,1589284722969617575,,0.0358771653726,-0.832834580379,1.28038830936
1589284722972752298,6605,1589284722972666673,,0.0358214111839,-0.836282220225,1.28085133045
1589284722979110634,6606,1589284722978963083,,0.0357969958027,-0.858602707376,1.28527214275
1589284722981927325,6607,1589284722981841466,,0.0357468218768,-0.85743553739,1.28493309781
1589284722984742338,6608,1589284722984658216,,0.0357597214616,-0.87990788311,1.28936874361
1589284722990780952,6609,1589284722990656181,,0.0357297986606,-0.902687846174,1.29386821147
1589284722993736202,6610,1589284722993644534,,0.0356660620157,-0.901591560176,1.29348845621
1589284722996603859,6611,1589284722996457325,,0.0357037740455,-0.91946983349,1.29709821526
1589284723002557994,6612,1589284723002471539,,0.0357196913483,-0.923069867138,1.29774561327
1589284723006017348,6613,1589284723005926591,,0.0358225305082,-0.946120357477,1.30245606039
1589284723008977919,6614,1589284723008837627,,0.0358325102051,-0.94482202677,1.30214280395
1589284723014762003,6615,1589284723014617546,,0.0358246136775,-0.968372177311,1.30669116597
1589284723017947479,6616,1589284723017812471,,0.0358334752954,-0.992278808951,1.31139933663
1589284723021055182,6617,1589284723020900475,,0.0357761753174,-0.991166763337,1.3110828014
1589284723026996296,6618,1589284723026903756,,0.0357388144494,-1.0152233932,1.31565668335
1589284723030182549,6619,1589284723030091438,,0.0357507934968,-1.03947532626,1.32041881406
1589284723033326811,6620,1589284723033197155,,0.0356452224938,-1.03826035204,1.31989168915
1589284723038760970,6621,1589284723038679793,,0.0356307187501,-1.06263581532,1.32470646068
1589284723041936098,6622,1589284723041822732,,0.0356707068934,-1.06120527603,1.32450567121
1589284723044760864,6623,1589284723044688266,,0.0356889481378,-1.08580351994,1.32946238937
1589284723050765941,6624,1589284723050670060,,0.0356499364042,-1.11081328219,1.33428252335
1589284723053739066,6625,1589284723053659841,,0.0355792145169,-1.10932967913,1.3339030208
1589284723057041780,6626,1589284723056909674,,0.0356451861354,-1.13438060034,1.33886877917
1589284723063018191,6627,1589284723062951155,,0.0356661362791,-1.15315721511,1.34268322383
1589284723065960092,6628,1589284723065863942,,0.0356830503491,-1.15767639142,1.34353310606
1589284723069066774,6629,1589284723068945180,,0.0356977849318,-1.15600875501,1.3431192212
1589284723075005740,6630,1589284723074886093,,0.0357417903723,-1.1811480092,1.34805120442
1589284723078035721,6631,1589284723077937667,,0.0357391418682,-1.2067104835,1.35294180976
1589284723080907782,6632,1589284723080819590,,0.0358278875629,-1.20502469313,1.35256996275
1589284723087027759,6633,1589284723086946048,,0.0358804215876,-1.23066953355,1.35753413826
1589284723090199078,6634,1589284723090041693,,0.0358818117864,-1.25669227906,1.36257797165
1589284723096106038,6635,1589284723096001052,,0.0358417822902,-1.25525568401,1.36218341753
1589284723098969723,6636,1589284723098888875,,0.0358732699838,-1.28159500688,1.36728189209
1589284723105076989,6637,1589284723104975622,,0.0359161247095,-1.30774336447,1.37268422236
1589284723108136033,6638,1589284723108011922,,0.0358143152132,-1.30610320924,1.3722321691
1589284723111013244,6639,1589284723110938851,,0.0357676074766,-1.33262373297,1.37754932393
1589284723114001476,6640,1589284723113917565,,0.0357111059611,-1.3310313625,1.37720401417
1589284723120034803,6641,1589284723119922691,,0.0355632123477,-1.35811199962,1.38257416433
1589284723123094535,6642,1589284723122997466,,0.0355479258322,-1.37777661507,1.38645710041
1589284723129373606,6643,1589284723129264513,,0.0355155555472,-1.38379550656,1.38765106637
1589284723132253816,6644,1589284723132176356,,0.0354256761868,-1.41120047583,1.39304763936
1589284723134618589,6645,1589284723134468981,,0.035358913849,-1.40985908565,1.39270856959
1589284723138003283,6646,1589284723137893810,,0.0352537380711,-1.43745955785,1.39800678089
1589284723143991133,6647,1589284723143892380,,0.0351636506865,-1.46529186645,1.40342592067
1589284723146976753,6648,1589284723146887276,,0.0350327833177,-1.4638721212,1.40297700308
1589284723152980393,6649,1589284723152893925,,0.0349499799267,-1.49187066326,1.40836160661
1589284723155666254,6650,1589284723155597366,,0.0348277493471,-1.4905717691,1.40794691672
1589284723158613123,6651,1589284723158551411,,0.0347483983048,-1.51856590201,1.41328149
1589284723161621967,6652,1589284723161545164,,0.0346083275058,-1.51732925173,1.41274385303
1589284723167729110,6653,1589284723167638580,,0.0345917085841,-1.54553525303,1.4183271905
1589284723170949560,6654,1589284723170805256,,0.0345605336605,-1.57394594409,1.4237901123
1589284723176534328,6655,1589284723176471580,,0.034405721244,-1.60261169818,1.42928354842
1589284723179530921,6656,1589284723179472430,,0.0343048790951,-1.60140430973,1.42895365155
1589284723182548304,6657,1589284723182430413,,0.0341985428253,-1.60006764131,1.42860594747
1589284723185912153,6658,1589284723185837747,,0.0339829689398,-1.62909265985,1.43405538967
1589284723192056191,6659,1589284723191931340,,0.033859005233,-1.65822627658,1.43975786799
1589284723195032732,6660,1589284723194961842,,0.0337339743514,-1.65717407534,1.43922502356
1589284723200954935,6661,1589284723200875599,,0.0335934803842,-1.68648025513,1.44476208884
1589284723203954900,6662,1589284723203896967,,0.0334815478336,-1.71602029957,1.45052620096
1589284723206852349,6663,1589284723206774340,,0.0332886851417,-1.71487278282,1.44982419746
1589284723209590187,6664,1589284723209522573,,0.0332363206467,-1.7136986155,1.44941456629
1589284723215689871,6665,1589284723215631614,,0.0330763396626,-1.74322126148,1.45496333318
1589284723218905535,6666,1589284723218832410,,0.032909959856,-1.77281001456,1.46047678253
1589284723224827862,6667,1589284723224768740,,0.0327740890176,-1.80247808992,1.46616952633
1589284723227951963,6668,1589284723227819642,,0.0325523223333,-1.80128299761,1.46568858584
1589284723230944803,6669,1589284723230872840,,0.0324500294361,-1.83123243479,1.47147576606
1589284723236981144,6670,1589284723236786476,,0.0322785801754,-1.86117447839,1.47724472021
1589284723240037504,6671,1589284723239911266,,0.0321147571289,-1.85978250418,1.47674430643
1589284723242955490,6672,1589284723242887304,,0.0319806543879,-1.85847086806,1.47637692992
1589284723248966744,6673,1589284723248892621,,0.0317570265073,-1.88827803393,1.48217738928
1589284723252061307,6674,1589284723251908782,,0.0316968285528,-1.91809721279,1.48813023112
1589284723254877804,6675,1589284723254788991,,0.0315670570577,-1.91645166852,1.48771486028
1589284723260912961,6676,1589284723260839115,,0.0314780727952,-1.94631414715,1.49365726298
1589284723263725474,6677,1589284723263630280,,0.0312224518073,-1.97630142471,1.49935778063
1589284723266701497,6678,1589284723266616599,,0.0310846820859,-1.97457084934,1.49883751007
1589284723273008853,6679,1589284723272890923,,0.030967568526,-2.00459961238,1.50464501875
1589284723275945585,6680,1589284723275804666,,0.0308481901968,-2.00280717997,1.50416826812
1589284723278873370,6681,1589284723278795404,,0.030712629292,-2.03312029194,1.51015748986
1589284723284856541,6682,1589284723284757729,,0.0306744754486,-2.06321088377,1.51615933376
1589284723287977850,6683,1589284723287891617,,0.0305044735203,-2.06156730422,1.51560767514
1589284723290960258,6684,1589284723290881624,,0.0304282748127,-2.09212183601,1.52158612321
1589284723300043024,6685,1589284723299931713,,0.0299412557027,-2.12109792897,1.52689371998
1589284723303132158,6686,1589284723303044904,,0.029758430497,-2.14038909647,1.53070872734
1589284723309040156,6687,1589284723308967067,,0.0295422196795,-2.15016212186,1.53249312775
1589284723311938865,6688,1589284723311856043,,0.029420575289,-2.18090194018,1.53879255447
1589284723314663858,6689,1589284723314563869,,0.0292592031886,-2.17924899743,1.53838660069
1589284723320786546,6690,1589284723320678059,,0.0291081535134,-2.20978600875,1.54433702018
1589284723323937991,6691,1589284723323839285,,0.0290054963321,-2.24037641383,1.55023505763
1589284723326970074,6692,1589284723326851444,,0.0288854707133,-2.23861950237,1.54976965136
1589284723333265506,6693,1589284723333179613,,0.0287798946382,-2.26911663485,1.55578772017
1589284723336124113,6694,1589284723335991102,,0.0286611575165,-2.26697800896,1.5553591165
1589284723338976064,6695,1589284723338847441,,0.0285807084995,-2.29756775398,1.56155038549
1589284723344751164,6696,1589284723344661589,,0.028386267926,-2.32816074113,1.56750546872
1589284723348035350,6697,1589284723347949048,,0.0281304339861,-2.32600809715,1.56672075978
1589284723353975464,6698,1589284723353860340,,0.0278840751631,-2.35674183285,1.57279431749
1589284723360060446,6699,1589284723359920610,,0.0274403126848,-2.3852634372,1.5785598703
1589284723366117942,6700,1589284723366023795,,0.0271746301132,-2.4159299096,1.5843963377
1589284723369094959,6701,1589284723368986197,,0.0269632940896,-2.41364611694,1.58367987871
1589284723372056391,6702,1589284723371977995,,0.026774075963,-2.4446418209,1.58958216437
1589284723377957522,6703,1589284723377852033,,0.0266813687817,-2.47595777739,1.59579205123
1589284723380958845,6704,1589284723380851611,,0.0264153373377,-2.4739538547,1.59518028137
1589284723383882980,6705,1589284723383804402,,0.0261412050489,-2.50541359035,1.60117634504
1589284723390081672,6706,1589284723389980844,,0.0259397747022,-2.53684899259,1.60743172054
1589284723392992997,6707,1589284723392899089,,0.0256109266656,-2.53496068084,1.60683528938
1589284723396034224,6708,1589284723395901572,,0.0252691529991,-2.5327704388,1.60620162651
1589284723401964028,6709,1589284723401858131,,0.0250364808175,-2.56429445394,1.61244753094
1589284723404976221,6710,1589284723404882164,,0.024754301385,-2.59552026168,1.61858795287
1589284723408098536,6711,1589284723407991511,,0.0243877359339,-2.59341558975,1.61793755373
1589284723414027692,6712,1589284723413931619,,0.0241504610281,-2.6246188458,1.6239940273
1589284723420093325,6713,1589284723419990247,,0.0237685310103,-2.65367545956,1.62954540834
1589284723426017278,6714,1589284723425902394,,0.0234947047929,-2.68481088855,1.63537040375
1589284723429530672,6715,1589284723429390073,,0.0233222266918,-2.68255984011,1.63470097953
1589284723432264889,6716,1589284723432163902,,0.0230572413311,-2.71354176986,1.6404200138
1589284723438083689,6717,1589284723437970162,,0.0226758984848,-2.74454359957,1.64623482552
1589284723444159376,6718,1589284723444054496,,0.0224115519504,-2.77504994571,1.65229987374
1589284723447005577,6719,1589284723446899535,,0.0220626986245,-2.77224943375,1.65171517074
1589284723450230642,6720,1589284723450136937,,0.0218487872185,-2.78904380098,1.65483077289
1589284723452982874,6721,1589284723452894083,,0.0216276553233,-2.80071330772,1.65723761844
1589284723455981231,6722,1589284723455893050,,0.0213505697175,-2.7977444034,1.65679296675
1589284723462107988,6723,1589284723461917310,,0.0211108219567,-2.82892990463,1.6628415334
1589284723465163207,6724,1589284723465042418,,0.0208514995737,-2.85952525642,1.66860761664
1589284723471071250,6725,1589284723470898842,,0.0205552181832,-2.89021189634,1.6744978329
1589284723474109456,6726,1589284723474014166,,0.0204163723776,-2.88718433307,1.67397212037
1589284723480056560,6727,1589284723479941910,,0.0199855445018,-2.91530141288,1.67929645526
1589284723486127685,6728,1589284723485960904,,0.0197255504252,-2.94614007661,1.6852653507
1589284723492148556,6729,1589284723492003175,,0.0196081078176,-2.9767737477,1.6913225543
1589284723495101162,6730,1589284723494960129,,0.0193888957892,-2.97418920623,1.69042232803
1589284723498053685,6731,1589284723497938090,,0.0191134147229,-3.00485636396,1.69597370301
1589284723501051956,6732,1589284723500960076,,0.0190240174989,-3.0018694463,1.69533326361
1589284723506982223,6733,1589284723506893080,,0.0188808435026,-3.03243066472,1.70124119907
1589284723510113311,6734,1589284723510023781,,0.0186476723885,-3.0478703269,1.70404457956
1589284723516064030,6735,1589284723515983323,,0.018505146241,-3.06036105844,1.70615937625
1589284723519089222,6736,1589284723518927064,,0.0184648635169,-3.09080672743,1.71207686949
1589284723522085518,6737,1589284723521963621,,0.0182736649015,-3.08799122343,1.71126650763
1589284723524957319,6738,1589284723524855848,,0.0181376466307,-3.11832058366,1.71695641352
1589284723531222836,6739,1589284723531110361,,0.0180333348567,-3.1486619025,1.72265526354
1589284723534167228,6740,1589284723534066618,,0.0179055826155,-3.14576507157,1.72198949058
1589284723540027373,6741,1589284723539940896,,0.0177897609778,-3.17592933376,1.72763355733
1589284723542949858,6742,1589284723542844853,,0.0176679715926,-3.17290215541,1.7267345354
1589284723546107052,6743,1589284723545972296,,0.0174734775918,-3.20336183519,1.73249809511
1589284723549114394,6744,1589284723549032289,,0.0172790955017,-3.20040357414,1.73139049912
1589284723555145024,6745,1589284723555012014,,0.0170116177207,-3.23066621093,1.73687210049
1589284723558113986,6746,1589284723558000038,,0.0169586312809,-3.26079910342,1.74268163005
1589284723564214911,6747,1589284723564092131,,0.0168524638655,-3.29084157392,1.74834806373
1589284723567099916,6748,1589284723566981896,,0.0167059416029,-3.28835518289,1.74742698739
1589284723570263474,6749,1589284723570127325,,0.0164105853449,-3.31853797095,1.75282887177
1589284723573105553,6750,1589284723573007768,,0.0162926441348,-3.31568080292,1.75194260824
1589284723579111890,6751,1589284723578989324,,0.01618792991,-3.34569606175,1.75795170912
1589284723582104543,6752,1589284723581998960,,0.0159808368837,-3.34310197595,1.75696718573
1589284723588060984,6753,1589284723587952338,,0.0157672420818,-3.37304423813,1.76274342666
1589284723591079098,6754,1589284723590988671,,0.0156122374791,-3.4028827726,1.76870882388
1589284723594077795,6755,1589284723593951197,,0.015604236288,-3.40021104509,1.76805450454
1589284723603283441,6756,1589284723603165140,,0.0152167129467,-3.42779448814,1.77274337906
1589284723605969041,6757,1589284723605867393,,0.0151117100942,-3.45765172596,1.77869851004
1589284723612064740,6758,1589284723611970952,,0.0149540847438,-3.48748018441,1.7845898142
1589284723615048947,6759,1589284723614963245,,0.0148558891583,-3.48449239997,1.78386862345
1589284723617985161,6760,1589284723617906082,,0.0148263918578,-3.51410929109,1.78965711575
1589284723624075919,6761,1589284723623979169,,0.014713010083,-3.54379412616,1.79506240768
1589284723626961781,6762,1589284723626879661,,0.0146741442804,-3.54155780209,1.79418926523
1589284723636077159,6763,1589284723635944068,,0.0146048310899,-3.5690038591,1.79875589419
1589284723639096481,6764,1589284723639028322,,0.0147344804242,-3.59856871577,1.80465407246
1589284723642158753,6765,1589284723642049953,,0.0147057951532,-3.59612136969,1.80385211039
1589284723648033720,6766,1589284723647901265,,0.0147014537578,-3.62567235266,1.80973165133
1589284723651167293,6767,1589284723650997690,,0.0147042961278,-3.65471248137,1.81526817552
1589284723653837322,6768,1589284723653770145,,0.0147077542388,-3.6517685264,1.81451018113
1589284723660134616,6769,1589284723659944820,,0.0147680509137,-3.68146760302,1.82036440701
1589284723663107909,6770,1589284723662933681,,0.0148344285708,-3.67959020821,1.81991642167
1589284723665981524,6771,1589284723665883385,,0.0149451421539,-3.70896924383,1.82576959156
1589284723671964524,6772,1589284723671886142,,0.0149563755871,-3.73853025698,1.83141313841
1589284723674908271,6773,1589284723674820671,,0.0151404145352,-3.73654841847,1.83105376394
1589284723677800532,6774,1589284723677718349,,0.0153169330865,-3.76591120074,1.83675606786
1589284723683898590,6775,1589284723683769066,,0.0154427844179,-3.79495477543,1.84233336718
1589284723686893908,6776,1589284723686808098,,0.0155063306387,-3.79250322048,1.84163951778
1589284723690017036,6777,1589284723689940587,,0.0155825911947,-3.80310335367,1.84373473314
1589284723695852526,6778,1589284723695767467,,0.0156433474338,-3.81871393088,1.84673071287
1589284723698879394,6779,1589284723698762576,,0.0156449970069,-3.84768603454,1.85235718856
1589284723701814045,6780,1589284723701749992,,0.0157619897523,-3.84497328612,1.85166720846
1589284723707883504,6781,1589284723707821790,,0.0158990716521,-3.87366461373,1.85723014222
1589284723710849511,6782,1589284723710776887,,0.0160226368787,-3.90208046472,1.86287090591
1589284723713913293,6783,1589284723713830820,,0.0161879862439,-3.89930229992,1.86198059346
1589284723719871154,6784,1589284723719762942,,0.0164344026536,-3.92727256112,1.86751775123
1589284723722864868,6785,1589284723722757728,,0.0166681822836,-3.92423269562,1.86682396435
1589284723725838700,6786,1589284723725739808,,0.0169412382474,-3.95177496192,1.87218759261
1589284723732147591,6787,1589284723732087455,,0.0171282145749,-3.9793409711,1.8772989331
1589284723734803490,6788,1589284723734734403,,0.0175235262783,-3.97585555464,1.87673579532
1589284723740985500,6789,1589284723740916718,,0.0178952089972,-4.00287841182,1.88229371931
1589284723744031307,6790,1589284723743912583,,0.018248779509,-4.02949162101,1.88777714373
1589284723747170397,6791,1589284723747064346,,0.0186724897239,-4.02483995021,1.88684093586
1589284723753086778,6792,1589284723752972648,,0.0192245886369,-4.05052953744,1.89195368939
1589284723755909258,6793,1589284723755747904,,0.0201718796052,-4.04548069362,1.89052755633
1589284723759096606,6794,1589284723758993914,,0.0210541543791,-4.07056744684,1.89485016199
1589284723765013673,6795,1589284723764941118,,0.0215032913029,-4.09645736318,1.89943000645
1589284723768030602,6796,1589284723767933213,,0.0215901014366,-4.09208030905,1.89765390245
1589284723771023949,6797,1589284723770946140,,0.0215166456016,-4.11747200489,1.90170980121
1589284723779996122,6798,1589284723779911194,,0.0219525680294,-4.13832019275,1.90538694754
1589284723783000588,6799,1589284723782908995,,0.0226539684637,-4.13374686164,1.9045397384
1589284723788978673,6800,1589284723788846571,,0.0235880382254,-4.15854142134,1.9096657994
1589284723792082755,6801,1589284723791973881,,0.0243776375825,-4.18403963548,1.91542597075
1589284723795122537,6802,1589284723795004000,,0.0251268773951,-4.17996190918,1.91546198347
1589284723800987954,6803,1589284723800896115,,0.0258068711385,-4.20514386758,1.92124877386
1589284723804007221,6804,1589284723803910023,,0.0266162247819,-4.22981249023,1.92701230871
1589284723807019920,6805,1589284723806939267,,0.0271463810987,-4.22627577393,1.92695365477
1589284723813208452,6806,1589284723813064957,,0.02790084754,-4.24980370469,1.93197180788
1589284723816149483,6807,1589284723816064048,,0.028857652233,-4.24246466635,1.93060647069
1589284723819101381,6808,1589284723819019323,,0.0294189946378,-4.26602915032,1.93478672817
1589284723825092830,6809,1589284723824990437,,0.0300546462153,-4.28787860542,1.93825521964
1589284723829781283,6810,1589284723829594842,,0.0313507225511,-4.27862666564,1.93578204246
1589284723834446131,6811,1589284723834348974,,0.0323687752157,-4.29875840691,1.93880659869
1589284723840051995,6812,1589284723839953423,,0.0347179886636,-4.30908422004,1.93903914896
1589284723843016525,6813,1589284723842868448,,0.0359600109273,-4.29948089785,1.9362611503
1589284723849037541,6814,1589284723848952001,,0.0372358780816,-4.31782317222,1.93927590886
1589284723852000536,6815,1589284723851900434,,0.0384207734413,-4.33598624177,1.9422692749
1589284723855101481,6816,1589284723854993110,,0.0397396597022,-4.32610713815,1.93970259014
1589284723861019592,6817,1589284723860926321,,0.041069609801,-4.34430820381,1.94300177108
1589284723864077312,6818,1589284723863991357,,0.0422390038374,-4.36326566771,1.94627462048
1589284723870104752,6819,1589284723870020047,,0.0431778546268,-4.3633163212,1.94593664455
1589284723873265023,6820,1589284723873098770,,0.0444713026787,-4.3746672937,1.94796508863
1589284723876171276,6821,1589284723876073432,,0.0456191238071,-4.36589096445,1.94575190575
1589284723879089375,6822,1589284723878982921,,0.0463774000866,-4.38680439681,1.94920283189
1589284723885129388,6823,1589284723885028404,,0.0473276262459,-4.40647989314,1.95252294444
1589284723888138929,6824,1589284723888043654,,0.0482575988868,-4.39896060641,1.94999134762
1589284723894195511,6825,1589284723894121086,,0.0489249404002,-4.41899674278,1.952723068
1589284723903104111,6826,1589284723903006574,,0.0505717044258,-4.43279314316,1.9531507055
1589284723906153165,6827,1589284723905999931,,0.0516110808976,-4.45230886495,1.95618343218
1589284723909107593,6828,1589284723908991608,,0.0526196606961,-4.44490389297,1.95363954893
1589284723912110069,6829,1589284723912011608,,0.053771399912,-4.46344353465,1.95634523666
1589284723918111800,6830,1589284723918004631,,0.0548281364027,-4.48147216748,1.95921111272
1589284723920946605,6831,1589284723920848744,,0.0561126497137,-4.47265949875,1.95689097925
1589284723927024506,6832,1589284723926928574,,0.0575114326625,-4.48996443584,1.96034336043
1589284723930300726,6833,1589284723930193729,,0.0586733194551,-4.50817968632,1.96330520965
1589284723933261689,6834,1589284723933174815,,0.0602715795044,-4.49803777145,1.96105824061
1589284723936070298,6835,1589284723935999649,,0.0618527029653,-4.48674159867,1.95846678186
1589284723942160825,6836,1589284723942038203,,0.0632654316814,-4.50320540439,1.96161724033
1589284723945002961,6837,1589284723944913621,,0.0647138670099,-4.51794021393,1.96402306958
1589284723950986833,6838,1589284723950830737,,0.0664364743795,-4.53079890905,1.96632525594
1589284723953953681,6839,1589284723953871786,,0.0676806905099,-4.52049405636,1.96363112137
1589284723960145961,6840,1589284723959986598,,0.0699917590783,-4.52569082138,1.96295711761
1589284723966158288,6841,1589284723966080490,,0.0710910202226,-4.54102690838,1.9652623293
1589284723969110694,6842,1589284723968999200,,0.0720579493326,-4.5322652617,1.96265915843
1589284723975068229,6843,1589284723974968620,,0.0730734051817,-4.54836545369,1.96542690801
1589284723978073037,6844,1589284723977962508,,0.0739479132502,-4.56437995229,1.96794101988
1589284723981032272,6845,1589284723980924736,,0.0747758716471,-4.55655027286,1.96585209787
1589284723984272536,6846,1589284723984185053,,0.0757458415856,-4.57362153926,1.9693309422
1589284723989925780,6847,1589284723989793287,,0.0763048984989,-4.56877912697,1.96796308678
1589284723993101581,6848,1589284723993013095,,0.0771428710084,-4.58577521942,1.97104280021
1589284723999064883,6849,1589284723998956815,,0.0781434967317,-4.6015590171,1.97451742611
1589284724002088462,6850,1589284724002010464,,0.0789105176925,-4.59672991111,1.9737317913
1589284724005191307,6851,1589284724005075166,,0.0797240048477,-4.61308192546,1.97667543114
1589284724011302011,6852,1589284724011178758,,0.0807075228641,-4.62779810857,1.97956494087
1589284724014193347,6853,1589284724014074147,,0.081513624414,-4.62040250353,1.97781936524
1589284724023317834,6854,1589284724023184674,,0.0832069119809,-4.62894805713,1.97842898178
1589284724026240692,6855,1589284724026141472,,0.0843231378631,-4.64079527981,1.9802252016
1589284724029061432,6856,1589284724028956385,,0.0853387251118,-4.63113793431,1.97756955236
1589284724035470039,6857,1589284724035326199,,0.0863171053347,-4.64329453391,1.9792130414
1589284724038094030,6858,1589284724038005016,,0.087479463802,-4.65431092618,1.98081096404
1589284724041178553,6859,1589284724041091117,,0.0885735898221,-4.64289469786,1.97804361526
1589284724047192183,6860,1589284724047079861,,0.0896256433189,-4.65548386932,1.98045001272
1589284724050178250,6861,1589284724050077786,,0.0906080119358,-4.64655000319,1.97815497814
1589284724053113033,6862,1589284724053029805,,0.0917662704285,-4.65488653619,1.97964589713
1589284724059155075,6863,1589284724059067956,,0.0926690533757,-4.66674329572,1.98185230954
1589284724062021175,6864,1589284724061955757,,0.0933734280513,-4.65836155875,1.98008973721
1589284724064730921,6865,1589284724064665244,,0.0941604006446,-4.6693305785,1.98235171973
1589284724071060323,6866,1589284724070968619,,0.0947800763945,-4.66007773883,1.98051254371
1589284724073837358,6867,1589284724073759388,,0.0952752769901,-4.67333497537,1.98337479444
1589284724083084897,6868,1589284724082889690,,0.096071629788,-4.68146870163,1.98467026226
1589284724085746580,6869,1589284724085638470,,0.0963189409124,-4.69585014867,1.9872442984
1589284724089094991,6870,1589284724089000816,,0.0966496661215,-4.69017038346,1.98572348327
1589284724095175389,6871,1589284724095102939,,0.09708677122,-4.70429515755,1.9879745432
1589284724097902502,6872,1589284724097830754,,0.0974531322999,-4.71783800223,1.99013773158
1589284724100921352,6873,1589284724100850097,,0.0978955298605,-4.71091297672,1.9881216818
1589284724106917502,6874,1589284724106835488,,0.0984082461087,-4.72544712783,1.99070531219
1589284724110028271,6875,1589284724109933554,,0.0987566644804,-4.71933054649,1.98891698599
1589284724112929179,6876,1589284724112799848,,0.099367185753,-4.72926655707,1.9903998716
1589284724118765585,6877,1589284724118675759,,0.100166796176,-4.74019097378,1.99243814988
1589284724121787584,6878,1589284724121694252,,0.100705602256,-4.73293269909,1.99109530937
1589284724124742134,6879,1589284724124664818,,0.101411394796,-4.74113848958,1.99239096271
1589284724131668625,6880,1589284724131504337,,0.102261081371,-4.74876454952,1.99387865239
1589284724134450971,6881,1589284724134364177,,0.103144120693,-4.73924131294,1.99219730145
1589284724140081022,6882,1589284724139982455,,0.104052042632,-4.74755848435,1.99379666897
1589284724143478035,6883,1589284724143234929,,0.104832385606,-4.7375513266,1.99158517712
1589284724146029820,6884,1589284724145943129,,0.105686901941,-4.74589166347,1.99293641608
1589284724152245181,6885,1589284724152113026,,0.10641057999,-4.75379209658,1.99411505544
1589284724155198160,6886,1589284724155082800,,0.107101454979,-4.74430802893,1.99201299882
1589284724158169616,6887,1589284724158041373,,0.107600402689,-4.75247050568,1.99318767994
1589284724164130445,6888,1589284724164030361,,0.10827765478,-4.76062071175,1.99465931227
1589284724167016531,6889,1589284724166891145,,0.10874928799,-4.75218993307,1.99287556088
1589284724170349835,6890,1589284724170262551,,0.109213125684,-4.76128977618,1.99431844462
1589284724176205663,6891,1589284724176128121,,0.109650000286,-4.75360477581,1.99250063572
1589284724179258811,6892,1589284724179135795,,0.11009153739,-4.76326612449,1.99432365516
1589284724182215585,6893,1589284724182116430,,0.110320296888,-4.75693967822,1.99287000797
1589284724188306860,6894,1589284724188186324,,0.110599719396,-4.76721531553,1.99481582941
1589284724191114575,6895,1589284724191014292,,0.110914955765,-4.77772131845,1.99657086013
1589284724194203062,6896,1589284724194101084,,0.111111095197,-4.7717935123,1.99501875126
1589284724200212847,6897,1589284724200077566,,0.11146315961,-4.78121412757,1.99685005962
1589284724203289798,6898,1589284724203142463,,0.111865963509,-4.77482955978,1.9953070651
1589284724206131829,6899,1589284724206032924,,0.112172918591,-4.78372941197,1.99652581739
1589284724211774254,6900,1589284724211700595,,0.112736013922,-4.79154134225,1.9976098154
1589284724215016130,6901,1589284724214912407,,0.113298222513,-4.78326447409,1.99558359664
1589284724217891702,6902,1589284724217755361,,0.113719090593,-4.7896274486,1.99637463669
1589284724223993362,6903,1589284724223908746,,0.114295521011,-4.79494745423,1.99670866216
1589284724227006149,6904,1589284724226915899,,0.115146429292,-4.78521298587,1.99500063272
1589284724230145073,6905,1589284724230056948,,0.11583169916,-4.76880682493,1.99148829082
1589284724236051411,6906,1589284724235924931,,0.116451177518,-4.77839502803,1.99272802711
1589284724238964840,6907,1589284724238843495,,0.117204753636,-4.78218612771,1.99340257379
1589284724241966382,6908,1589284724241860725,,0.118111658658,-4.77143517201,1.99123610362
1589284724247956368,6909,1589284724247882345,,0.118716855682,-4.77524820996,1.9918108402
1589284724250956075,6910,1589284724250859547,,0.119325731046,-4.7791396265,1.99254072922
1589284724253954448,6911,1589284724253862937,,0.119888452373,-4.76976237675,1.99042849157
1589284724259733879,6912,1589284724259655934,,0.120466586617,-4.77492995331,1.99157984268
1589284724263167945,6913,1589284724263001169,,0.120756887001,-4.7669400573,1.98994150596
1589284724268931062,6914,1589284724268847111,,0.120894058992,-4.77323106996,1.99108969777
1589284724271873898,6915,1589284724271787816,,0.121078164263,-4.77965656703,1.99252437602
1589284724274972203,6916,1589284724274802341,,0.121003834582,-4.77412584337,1.9910688742
