%time,field.header.seq,field.header.stamp,field.header.frame_id,field.wrench.force.x,field.wrench.force.y,field.wrench.force.z,field.wrench.torque.x,field.wrench.torque.y,field.wrench.torque.z
1589284721589401071,6263,1589284721589299012,,0.0702238062163,0.12640858048,1.09489066849,0.270782183673,5.640588143e-05,-0.0185764851014
1589284721595531719,6264,1589284721595438107,,0.0705609594908,0.126301083844,1.07161342914,0.270960994061,5.71276775364e-05,-0.020349479375
1589284721598380851,6265,1589284721598286309,,0.0705621943323,0.126297569369,1.07161376204,0.270960979952,5.61584604263e-05,-0.0203496699412
1589284721604428684,6266,1589284721604242741,,0.0705637257329,0.126292833386,1.07161421937,0.270960965851,5.4586029483e-05,-0.0203498619839
1589284721607347020,6267,1589284721607242631,,0.0930288561983,0.126253465462,1.0721143458,0.271034962016,5.55454761802e-05,-0.0237697698071
1589284721610346005,6268,1589284721610260230,,0.0930304276809,0.126254715186,1.07211406227,0.271034922721,5.59437282203e-05,-0.0237702169248
1589284721613401775,6269,1589284721613257418,,0.0927161724998,-0.000691058711728,1.07171427111,0.270123975375,-0.000589558170787,-0.0237827098417
1589284721619387212,6270,1589284721619270513,,0.0927037407524,0.12635567821,1.09538944337,0.270913809567,5.5506176223e-05,-0.0246665857536
1589284721622339079,6271,1589284721622249711,,0.09302319857,0.126244431119,1.07211590057,0.270164805573,5.73661988957e-05,-0.0255657927865
1589284721628532170,6272,1589284721628446119,,0.0927070151227,0.126352264353,1.09538956004,0.2700320235,-0.000589687639573,-0.026455483176
1589284721631325098,6273,1589284721631237065,,0.0920764664485,-0.000720103648438,1.11838971337,0.266247748392,6.54112148618e-05,-0.0273951829892
1589284721634410853,6274,1589284721634277695,,0.114787456206,-0.000761899553684,1.09551834474,0.261835129536,7.43274273562e-05,-0.0282000845199
1589284721640418558,6275,1589284721640272475,,0.115413373358,-0.127436648622,1.02598431364,0.254995739448,0.00074317514219,-0.0300732668117
1589284721643397040,6276,1589284721643286983,,0.115421882283,-0.127438631721,1.02598311011,0.254995475535,0.000741982102925,-0.0300755339424
1589284721646315885,6277,1589284721646227215,,0.137871973634,-0.127507276795,1.02653297109,0.254125534939,0.00139540826926,-0.0317229139011
1589284721652384077,6278,1589284721652289490,,0.137891079169,-0.12751852516,1.02652900764,0.253205681293,0.00139498127061,-0.0317395956776
1589284721655271591,6279,1589284721655190825,,0.115463322968,-0.127451500545,1.02597684869,0.25139807271,8.96004126945e-05,-0.032800316897
1589284721658362996,6280,1589284721658240359,,0.115468470978,-0.127452974589,1.02597608621,0.251397867116,8.70233545278e-05,-0.0328018995765
1589284721664345111,6281,1589284721664205630,,0.115469149889,-0.127455996837,1.02597563436,0.250478639689,8.75651917278e-05,-0.0328136547515
1589284721667481780,6282,1589284721667376690,,0.138416958322,-0.127237336843,0.979912805184,0.248955213059,-0.000553571086058,-0.0335792858431
1589284721670416546,6283,1589284721670248921,,0.138417423125,-0.127227384373,0.979914031761,0.249897009573,8.76847152332e-05,-0.0344534995111
1589284721676438110,6284,1589284721676263688,,0.138659764309,-0.000759463232041,0.979571200196,0.248998907925,8.78593778041e-05,-0.0353523803674
1589284721679405238,6285,1589284721679210581,,0.138416539245,-0.000752405968077,1.00284305722,0.247937261966,-0.000555874445712,-0.0353660817051
1589284721682358341,6286,1589284721682266820,,0.138418243228,-0.000743544976388,1.00284282864,0.247051403746,8.99073714314e-05,-0.0362718928175
1589284721688344136,6287,1589284721688254544,,0.160737632961,-0.127260667988,0.980500585416,0.246323295771,9.03248562813e-05,-0.0379089349387
1589284721691319010,6288,1589284721691243600,,0.138669058519,-0.000714959819849,0.979569918034,0.244497223314,-0.000551569551896,-0.0380735915076
1589284721694339451,6289,1589284721694266714,,0.138667035251,-0.000705715597055,0.979570211152,0.246303374648,-0.000555862176049,-0.037166980163
1589284721700385692,6290,1589284721700261989,,0.138672056153,-0.00069994693864,0.979569504524,0.246303177639,-0.000558881641278,-0.0371682404264
1589284721703385821,6291,1589284721703295863,,0.138430168513,-0.000712498524172,1.00284120511,0.247978583023,-0.00120693938527,-0.0371500789422
1589284721706353074,6292,1589284721706255860,,0.13844146793,-0.00071952237,1.00283964028,0.247978148877,-0.00120986533415,-0.0371528816094
1589284721712409844,6293,1589284721712310676,,0.138195848678,-0.000738394930677,1.02621225275,0.249669662752,-0.000569897636465,-0.0371349535725
1589284721715430385,6294,1589284721715315783,,0.115769759743,-0.000690785518797,1.02565929708,0.253307572388,-0.000580399632957,-0.036346185577
1589284721718398995,6295,1589284721718282651,,0.138455221494,-0.000742642923983,1.00283772466,0.254382242066,-0.000583293091025,-0.0370807326577
1589284721724423468,6296,1589284721724296509,,0.13794665304,-0.127487225919,1.02652542864,0.259688418202,4.80432475134e-05,-0.0352316094526
1589284721727728216,6297,1589284721727607710,,0.137951309117,-0.12748821883,1.02652467962,0.259688250022,4.75656269024e-05,-0.0352328497162
1589284721730718901,6298,1589284721730601748,,0.160054275409,-0.127701977407,1.05034696617,0.260477630381,0.00135609434694,-0.0359654412466
1589284721736385348,6299,1589284721736285920,,0.160036808549,-0.127698088908,1.05035010042,0.260478244195,0.00135735118959,-0.0359609480386
1589284721739307624,6300,1589284721739206764,,0.137919554396,-0.127492405911,1.02652842652,0.260610149958,0.000701537220502,-0.0352130395028
1589284721742520414,6301,1589284721742362274,,0.114888318713,-0.127685288941,1.07251450014,0.259381995363,0.000704242252526,-0.0344761574249
1589284721748312977,6302,1589284721748229705,,0.114867094008,-0.127681248927,1.07251725449,0.259382691988,0.000705227294471,-0.03447089581
1589284721751411897,6303,1589284721751309023,,0.115140556207,-0.12755177296,1.04925127052,0.258613425203,5.28167072488e-05,-0.0344764215407
1589284721754471840,6304,1589284721754295489,,0.115115961901,-0.127550705091,1.04925409892,0.257654863363,0.000710112964963,-0.0327086281871
1589284721760476177,6305,1589284721760359664,,0.115109165769,-0.1275498074,1.04925495365,0.257655085623,0.000710917600639,-0.0327068598629
1589284721763311703,6306,1589284721763242175,,0.115113558364,-0.127554214802,1.04925393596,0.260421850437,5.16427980447e-05,-0.0335596524078
1589284721766328367,6307,1589284721766202675,,0.11511695319,-0.127560320276,1.04925282127,0.260421755643,5.2742181173e-05,-0.0335603862919
1589284721772442830,6308,1589284721772338400,,0.0927646090397,-0.127493524226,1.04872966838,0.261323472221,5.23008124631e-05,-0.0328050095444
1589284721775432932,6309,1589284721775312642,,0.137698819105,-0.254493758732,1.02753265606,0.266054686348,4.37989191347e-05,-0.0333508736987
1589284721778419970,6310,1589284721778257689,,0.13742645723,-0.254736295181,1.05075229993,0.266822998475,4.48941017465e-05,-0.0333407198609
1589284721784418619,6311,1589284721784314389,,0.137434334638,-0.254739730313,1.05075043683,0.267762682095,4.46751309708e-05,-0.0342180476848
1589284721787414533,6312,1589284721787301578,,0.114656662632,-0.254893812781,1.07344110279,0.269422962797,4.48665669477e-05,-0.0334473238596
1589284721793473522,6313,1589284721793387961,,0.0922570354748,-0.254813075074,1.07293043159,0.269404518798,-0.000596254541124,-0.032700404171
1589284721796435187,6314,1589284721796329363,,0.115119356559,-0.127571024751,1.04925125616,0.271422189127,-0.000595886609558,-0.0343048470946
1589284721799500474,6315,1589284721799384819,,0.114819625609,-0.127698527737,1.07252028018,0.270341635719,-0.000592358431164,-0.0334285739054
1589284721805372468,6316,1589284721805280670,,0.114808386256,-0.127694028546,1.07252201904,0.270342049714,-0.000588680743215,-0.033425290666
1589284721808401714,6317,1589284721808279317,,0.11480215525,-0.127690521473,1.07252310356,0.270342306405,-0.000585040435746,-0.0334232784181
1589284721811463969,6318,1589284721811305996,,0.11479177014,-0.127682142645,1.07252521265,0.270342676103,-0.00058253523552,-0.0334203317649
1589284721817358084,6319,1589284721817256213,,0.114617017591,-0.254862976598,1.07345265833,0.269444090886,-0.000577655564534,-0.0343197197002
1589284721820345264,6320,1589284721820230991,,0.114615007201,-0.254861921374,1.07345312352,0.271272709872,-0.000580785598755,-0.0342952003608
1589284721823473974,6321,1589284721823323705,,0.114615151059,-0.254852166481,1.07345542414,0.271274247366,6.8500361628e-05,-0.0342942019404
1589284721829609770,6322,1589284721829452548,,0.11462131503,-0.254852508572,1.07345468477,0.273082150227,6.72512951078e-05,-0.0333830100794
1589284721832382391,6323,1589284721832270176,,0.136839731719,-0.255155737892,1.0972171546,0.274766402552,6.33832573585e-05,-0.033222529912
1589284721835469184,6324,1589284721835377555,,0.136842281792,-0.255160203353,1.09721579812,0.276594995245,6.03540479049e-05,-0.0331986769079
1589284721841462760,6325,1589284721841319144,,0.136845429486,-0.255155119482,1.0972165878,0.276594938852,6.16240954356e-05,-0.0331991444099
1589284721844432309,6326,1589284721844320042,,0.114026362226,-0.255300650454,1.12002119297,0.277308671155,5.83386777506e-05,-0.0306553533596
1589284721847439429,6327,1589284721847322972,,0.114038750396,-0.25529466851,1.12002129522,0.277306922594,-0.000587883839507,-0.030658520806
1589284721853470855,6328,1589284721853348014,,0.113902707856,-0.38305866251,1.12137978337,0.279115874326,-0.000592318021895,-0.0297440141913
1589284721856483147,6329,1589284721856416439,,0.0914412908691,-0.382973026536,1.12088420924,0.280909816919,5.01297717472e-05,-0.0280834670939
1589284721859511932,6330,1589284721859430799,,0.0914375396121,-0.382972797825,1.1208845934,0.282719046047,4.5477664539e-05,-0.0271583758496
1589284721865395013,6331,1589284721865304098,,0.0914401330908,-0.382967192717,1.12088629692,0.281809458106,4.68520363084e-05,-0.0271720620808
1589284721868367358,6332,1589284721868236487,,0.0907686395058,-0.38353566239,1.16728055244,0.282387894214,4.47007471966e-05,-0.0253866071024
1589284721874395109,6333,1589284721874310758,,0.0910966800876,-0.383248248132,1.14408412054,0.282500435071,4.54095030099e-05,-0.023593866861
1589284721877156763,6334,1589284721877092080,,0.0910896974812,-0.383243024436,1.14408642633,0.282500609758,4.64127341228e-05,-0.0235917732045
1589284721880146137,6335,1589284721880084758,,0.0909196944266,-0.255607033126,1.16601387737,0.281440065244,4.92911121772e-05,-0.0236063776392
1589284721883455136,6336,1589284721883344156,,0.0687092676763,-0.255334507116,1.14228103773,0.280655364392,4.99601751957e-05,-0.0228682380501
1589284721889515831,6337,1589284721889386339,,0.0687077415522,-0.255333176255,1.14228142701,0.280655394829,4.99270534114e-05,-0.0228678645848
1589284721892481491,6338,1589284721892347655,,0.0687101724002,-0.255332786405,1.14228136794,0.281526855972,4.69127070947e-05,-0.0210779689078
1589284721895467975,6339,1589284721895345332,,0.0687131719601,-0.255329035847,1.14228202585,0.281507692665,4.59186253279e-05,-0.0201805985065
1589284721901484368,6340,1589284721901400265,,0.0237367645273,-0.255206171892,1.14136294711,0.285127747424,0.000693459837975,-0.01774110445
1589284721904275109,6341,1589284721904150063,,0.0237371703178,-0.255207808677,1.14136257269,0.285127752961,0.000694518464887,-0.0177409740544
1589284721910332655,6342,1589284721910236478,,0.0456867367743,-0.383375455779,1.16634818726,0.284071076266,3.95464304141e-05,-0.0185083778461
1589284721913411994,6343,1589284721913282621,,0.023489484718,-0.383034027027,1.14269544137,0.285107794722,3.78517722564e-05,-0.0168519841494
1589284721919390846,6344,1589284721919248629,,0.0234917549305,-0.383047515676,1.14269087319,0.285070908618,3.84111732305e-05,-0.0150648405146
1589284721922508799,6345,1589284721922261081,,0.0234914567822,-0.383073107347,1.14268230028,0.283249985429,4.40604423753e-05,-0.0159914734172
1589284721925491179,6346,1589284721925405087,,0.0237287591292,-0.255296256169,1.1413429672,0.283231615113,4.69556066921e-05,-0.0150904548474
1589284721928664777,6347,1589284721928507055,,0.023723542627,-0.255327530449,1.14133607974,0.283231710511,4.96215138067e-05,-0.0150886557031
1589284721934504657,6348,1589284721934290330,,0.0230840066304,-0.383442444627,1.16585888524,0.284001989953,0.000706028804674,-0.0150739352666
1589284721937467058,6349,1589284721937341520,,0.0462432989484,-0.255405299164,1.14178447764,0.280492880989,0.00137072655488,-0.0149871080038
1589284721943639297,6350,1589284721943389428,,0.0462395245613,-0.255410213586,1.14178353119,0.280492933118,0.00137115827436,-0.0149860928416
1589284721946441934,6351,1589284721946335700,,0.00126794955197,-0.255305850048,1.14089657274,0.279504662349,0.000716224387041,-0.0117202571074
1589284721949557274,6352,1589284721949414328,,0.0466039055777,-0.255211547232,1.11853201387,0.278767896295,0.00137601996851,-0.0132254826587
1589284721952438816,6353,1589284721952329687,,0.0466000311688,-0.255214874052,1.11853141621,0.278767945166,0.00137658030172,-0.0132243942116
1589284721958303654,6354,1589284721958203684,,0.0236983924872,-0.25538529885,1.14132367737,0.278592074353,0.000718170855315,-0.0115905113579
1589284721961242014,6355,1589284721961161976,,0.00165792039992,-0.255126018453,1.11763843761,0.27780838349,0.000719985505287,-0.0108558309953
1589284721967410249,6356,1589284721967211538,,0.0238308217972,-0.382923984736,1.11943474324,0.278715334046,0.000716196237643,-0.0106974882748
1589284721970275986,6357,1589284721970184431,,0.0240692384623,-0.25518431693,1.11807128372,0.277825040353,0.00137563882563,-0.0115991733129
1589284721973438129,6358,1589284721973311280,,0.00165648636729,-0.255129652316,1.11763761022,0.277808394236,0.000719517858175,-0.0108555870055
1589284721976258089,6359,1589284721976177932,,0.00138747021813,-0.382863285102,1.11900426372,0.278700340415,0.000716548603215,-0.00995289765597
1589284721982313900,6360,1589284721982215869,,-0.0210561804866,-0.382799781251,1.11859392948,0.278685407042,0.000714176697463,-0.00920898326962
1589284721985439212,6361,1589284721985335968,,0.00166828333883,-0.25510154372,1.11764400882,0.276869155012,6.04149205459e-05,-0.00998670467624
1589284721991507572,6362,1589284721991325797,,0.0016732690348,-0.255097225562,1.11764498697,0.277808205608,0.000715167478704,-0.0108607005011
1589284721994292998,6363,1589284721994175007,,0.00140480223977,-0.38283053402,1.11901544723,0.278700165119,0.000714071717718,-0.00995798300215
1589284721997459698,6364,1589284721997321554,,0.0242439233658,-0.38257636215,1.09615486812,0.27794459076,0.00137186046237,-0.0107167529449
1589284722000467036,6365,1589284722000333407,,0.0242411509406,-0.382572932627,1.09615612639,0.277944581823,0.00136759767793,-0.0107175295213
1589284722006532200,6366,1589284722006407867,,0.00181096787677,-0.382512836934,1.09572520903,0.27792805846,0.000708408527431,-0.00997342379099
1589284722009332841,6367,1589284722009230639,,0.0242384018375,-0.382560610958,1.09616048753,0.279754779381,0.000701414199909,-0.00980143459727
1589284722015260311,6368,1589284722015145841,,0.0013971782659,-0.382805460262,1.11902403454,0.281431782359,0.000694044907975,-0.00902785139106
1589284722018355587,6369,1589284722018254167,,0.000993085908387,-0.383095886254,1.1422254638,0.282200507257,0.000690881303656,-0.0090155676503
1589284722021414875,6370,1589284722021345372,,0.0234611510745,-0.383145906666,1.14265851508,0.282215284833,0.000689254319472,-0.00976284319225
1589284722024338503,6371,1589284722024265617,,0.00127051411889,-0.255267974613,1.14090504486,0.283110296083,0.000686647940586,-0.00900119920742
1589284722030749642,6372,1589284722030660771,,0.00167138322655,-0.255048041176,1.11765621476,0.28326137106,0.000685711457356,-0.0089985160928
1589284722033389118,6373,1589284722033281211,,0.0016736795875,-0.255050624446,1.11765562182,0.283261349054,0.000685004159584,-0.00899926265054
1589284722039420292,6374,1589284722039321963,,0.0463889235562,-0.382913259111,1.1199101193,0.282390732246,0.00134402151254,-0.0113974797418
1589284722042390634,6375,1589284722042283382,,0.0240884747959,-0.255100657689,1.11808996022,0.282356404974,0.000686099836313,-0.00975923709015
1589284722045317823,6376,1589284722045244663,,0.0466030032971,-0.255155580001,1.11854481983,0.283292752749,0.00134273252187,-0.0104921023115
1589284722051389621,6377,1589284722051291825,,0.0466075419343,-0.255149462488,1.1185460262,0.283292711518,0.00134303816382,-0.0104931763968
1589284722054514277,6378,1589284722054369616,,0.00166781180345,-0.255031761396,1.117659935,0.283261405436,0.000686745795757,-0.00899735501385
1589284722057419761,6379,1589284722057344614,,0.00126866029056,-0.255247650186,1.14090959416,0.283108800142,3.13382213352e-05,-0.00900068667624
1589284722063533613,6380,1589284722063448323,,0.00126663248867,-0.255248782302,1.14090934313,0.283108817568,3.15511775567e-05,-0.00900013781636
1589284722066499312,6381,1589284722066398965,,0.00195428582132,-0.127680589766,1.11679272565,0.283242062222,2.97671695868e-05,-0.00810169553478
1589284722069369459,6382,1589284722069291110,,0.00195467126284,-0.127678979622,1.11679290906,0.283242059673,2.98335827969e-05,-0.00810178440596
1589284722075443539,6383,1589284722075314392,,0.00195065181697,-0.127679150538,1.11679289654,0.284181161802,0.000685492287056,-0.00898355695169
1589284722078201617,6384,1589284722078127465,,0.0243504372959,-0.127735674667,1.11722671919,0.283274661904,2.94409839216e-05,-0.00974474489587
1589284722081241766,6385,1589284722081145733,,0.0243582612413,-0.127734669282,1.11722666358,0.284194385359,2.75104867167e-05,-0.00973175112278
1589284722087203839,6386,1589284722087137793,,0.0468526887637,-0.127786788409,1.11768288704,0.285119140285,2.46646924599e-05,-0.010465282746
1589284722090234942,6387,1589284722090123543,,0.0243580567228,-0.127729443999,1.11722726544,0.2851234222,0.000681949910397,-0.0106054370128
1589284722093315168,6388,1589284722093162225,,0.0243595782715,-0.127724866315,1.11722775561,0.285123408028,0.000682053076073,-0.0106058113594
1589284722099241672,6389,1589284722099138752,,0.024359429335,-0.127720626723,1.11722824354,0.285123410791,0.000682738855651,-0.0106056929687
1589284722102252620,6390,1589284722102158688,,0.0243592808779,-0.127717510635,1.117228603,0.285123408964,0.00068096909446,-0.0106058558464
1589284722105309056,6391,1589284722105196855,,0.0243595771408,-0.127717785449,1.11722856512,0.285123404223,0.000679937113132,-0.0106060495157
1589284722111491010,6392,1589284722111339157,,0.0015607077763,-0.127784747959,1.14007822384,0.285912767578,0.000677800970755,-0.0116261033485
1589284722114428095,6393,1589284722114334418,,0.00155295696286,-0.127782861926,1.14007844581,0.285912843431,0.000676328535565,-0.0116243235683
1589284722120546380,6394,1589284722120415283,,0.0239760117518,-0.127834315574,1.14051188872,0.285926313284,2.08115072649e-05,-0.0123714178531
1589284722123554167,6395,1589284722123420890,,0.0239787060195,-0.127836933449,1.14051153865,0.286847576089,0.000674066439354,-0.012357295178
1589284722126501878,6396,1589284722126385547,,0.0239776008341,-0.127832425867,1.14051206712,0.286847585277,0.000672893234857,-0.0123571458434
1589284722129566800,6397,1589284722129448148,,0.0465004092465,-0.127890250585,1.14096567408,0.286882524836,0.00133007283102,-0.0140063080143
1589284722135529667,6398,1589284722135415671,,0.0465019275191,-0.12789045881,1.14096558886,0.286882504351,0.00132787320643,-0.01400693629
1589284722138291626,6399,1589284722138175809,,0.0461347350528,-0.128004225261,1.16424810367,0.288577509552,0.000667353262108,-0.0148693464512
1589284722141336457,6400,1589284722141195856,,0.046135648303,-0.128002900823,1.16424821309,0.288577495408,0.000666595251718,-0.0148696549552
1589284722147591673,6401,1589284722147430737,,0.046136908422,-0.127996437888,1.16424887371,0.288577475635,0.000665414769937,-0.0148700915562
1589284722150435113,6402,1589284722150244792,,0.0467716724944,-0.000621246984816,1.14071676374,0.287827069496,0.00066660678952,-0.0157706580656
1589284722153372193,6403,1589284722153278383,,0.0464090952603,-0.000628127083538,1.16401062789,0.286764718073,1.17799433882e-05,-0.0157878492578
1589284722159331834,6404,1589284722159231274,,0.0467708006771,-0.000618020239118,1.14071680124,0.285996080373,1.35403942661e-05,-0.0157992737419
1589284722162437095,6405,1589284722162341849,,0.0238761885604,-0.000574235405151,1.16355747261,0.287669097327,9.29286764375e-06,-0.0150233421473
1589284722165423847,6406,1589284722165331921,,0.00184321511211,-0.000511948400281,1.13982851703,0.286883710547,-0.000636822319089,-0.0142889483278
1589284722171522988,6407,1589284722171347019,,0.0467675968603,-0.000611269829975,1.14071693623,0.286915847938,1.14283022923e-05,-0.0157841256424
1589284722174456505,6408,1589284722174343492,,0.0464039076597,-0.000618428728074,1.1640108399,0.287684512693,9.65695728566e-06,-0.0157722150685
1589284722180446403,6409,1589284722180345808,,0.0467654883486,-0.000606690652465,1.14071702512,0.28691587712,1.05746884247e-05,-0.0157835957708
1589284722183437114,6410,1589284722183276494,,0.0242551925286,-0.000559729587134,1.14026214096,0.286900469294,9.83696878491e-06,-0.0150344530758
1589284722186359602,6411,1589284722186275290,,0.0467610526815,-0.00061019312057,1.14071720509,0.286915938493,1.04017551072e-05,-0.0157824801871
1589284722192502875,6412,1589284722192336377,,0.0467643290321,-0.000609449930657,1.14071707118,0.286915893162,1.0416803527e-05,-0.0157833042559
1589284722195427300,6413,1589284722195311293,,0.0464914014121,-0.127871259692,1.14096816968,0.286897636553,1.03566600747e-05,-0.0148942747
1589284722198409034,6414,1589284722198327345,,0.0467621249188,-0.000606135531041,1.1407171633,0.286915923656,1.06096968184e-05,-0.0157827497753
1589284722204421652,6415,1589284722204273870,,0.046125449318,-0.127984367423,1.1642506547,0.287666321852,7.90679501132e-06,-0.0148820821678
1589284722207339821,6416,1589284722207257172,,0.02397351465,-0.12781478859,1.14051412973,0.286000806932,0.000669755005508,-0.0159465200937
1589284722210413308,6417,1589284722210345218,,0.0239744113378,-0.127814489223,1.14051414443,0.285980764505,1.31693830697e-05,-0.0150483364179
1589284722216352450,6418,1589284722216255388,,0.0239736653107,-0.127811074036,1.14051454284,0.285980764253,1.13978944638e-05,-0.0150483426519
1589284722219344079,6419,1589284722219265328,,0.0239712861111,-0.127814060766,1.14051425814,0.285980805103,1.30547199942e-05,-0.0150475649839
1589284722222364107,6420,1589284722222273055,,0.0246364775315,-0.000548751426273,1.11696679166,0.286133344173,0.000669702922154,-0.0150462024067
1589284722228633434,6421,1589284722228541323,,0.0239684564472,-0.127812238504,1.14051452182,0.285999321774,1.20971525503e-05,-0.0159456004768
1589284722231773626,6422,1589284722231645165,,0.0239674727634,-0.12781424549,1.14051431758,0.286902136539,0.00066748919873,-0.0150319679809
1589284722234357744,6423,1589284722234227912,,0.0462358058472,-0.255329198155,1.14180180143,0.284169965278,0.00133017925959,-0.0158241411542
1589284722240350440,6424,1589284722240260800,,0.0237026240884,-0.255266085705,1.14135025838,0.285092745911,0.00132884657764,-0.0159593849986
1589284722243529260,6425,1589284722243378163,,0.0464843458339,-0.127866362619,1.14096900597,0.285088095919,0.000671735467616,-0.0158097698227
1589284722246463665,6426,1589284722246342123,,0.0462373907296,-0.255326178336,1.14180241254,0.285979516634,0.000669797826701,-0.0149072067965
1589284722252552991,6427,1589284722252406605,,0.0464882849241,-0.127866353919,1.14096884646,0.285997766772,0.000670065572072,-0.0157965470559
1589284722255470389,6428,1589284722255380625,,0.0464889022368,-0.127866617347,1.14096879178,0.285997759111,0.000670300157067,-0.0157966757934
1589284722258454210,6429,1589284722258363620,,0.0461231395895,-0.127977925403,1.16425145435,0.286766436069,0.000669002369218,-0.0157845119171
1589284722264437554,6430,1589284722264336267,,0.0464874866931,-0.127864174072,1.14096912327,0.285997776959,0.000669810419281,-0.0157963734264
1589284722267417403,6431,1589284722267255626,,0.0464892874594,-0.127862707622,1.14096921424,0.28416675506,1.67638645656e-05,-0.0158256014982
1589284722270539170,6432,1589284722270398007,,0.0464877912526,-0.127864472402,1.14096907743,0.285088047713,0.000671589078789,-0.0158106452757
1589284722276321025,6433,1589284722276244931,,0.0464873155126,-0.127863874029,1.14096916387,0.285088051322,0.000670806101793,-0.0158106134516
1589284722279517366,6434,1589284722279392460,,0.0239731850725,-0.127804167083,1.14051532693,0.28507259336,0.00067109469007,-0.0150621078655
1589284722282568186,6435,1589284722282454812,,0.0237032346528,-0.255258266981,1.14135199435,0.286000835058,0.000667883431177,-0.0159460941487
1589284722288584679,6436,1589284722288430661,,0.0237048840573,-0.255266176742,1.14135019108,0.285089537037,1.32483294366e-05,-0.0159608745929
1589284722291520279,6437,1589284722291434594,,0.0237052473379,-0.255259640503,1.14135164536,0.285089539418,1.37557297966e-05,-0.0159608316438
1589284722297316667,6438,1589284722297226878,,0.0462433690078,-0.255327084655,1.14180196776,0.286915849739,8.78383064186e-06,-0.0157840945886
1589284722300368878,6439,1589284722300261624,,0.0233249786083,-0.255470885285,1.16460225776,0.285878064649,0.000669001891616,-0.0168388516307
1589284722303471916,6440,1589284722303378849,,0.0237102379354,-0.255265262308,1.14135028439,0.28508944712,1.20284361154e-05,-0.0159624815683
1589284722309444943,6441,1589284722309364178,,0.0462450527178,-0.255326281773,1.14180207911,0.285123408249,1.26771198541e-05,-0.0176006156221
1589284722312591649,6442,1589284722312418653,,0.0462476100974,-0.255326726235,1.14180187614,0.285104903271,1.235816328e-05,-0.0167123671533
1589284722315538688,6443,1589284722315442139,,0.0683423714338,-0.255596140663,1.1655180598,0.287718403644,7.28061859206e-06,-0.0174191526509
1589284722321423411,6444,1589284722321312277,,0.0683391760687,-0.25559882693,1.16551765807,0.28771844036,6.48483216887e-06,-0.0174185465033
1589284722324518395,6445,1589284722324398236,,0.0462501947881,-0.255325395883,1.14180206893,0.286014575501,1.01745315842e-05,-0.0166989778355
1589284722330697154,6446,1589284722330622660,,0.046251169795,-0.255325641967,1.14180197441,0.286014560409,1.01140955929e-05,-0.0166992363522
1589284722333503635,6447,1589284722333358076,,0.0686922152129,-0.255389626059,1.14226974118,0.286048575766,1.04040433529e-05,-0.0183342842705
1589284722336440950,6448,1589284722336364176,,0.0466138133375,-0.255108312466,1.11855515073,0.284374837903,0.000671091561331,-0.0185018892137
1589284722339627696,6449,1589284722339489013,,0.0466150816305,-0.255107712728,1.11855523465,0.284374815923,0.000671001142626,-0.0185022303342
1589284722345477785,6450,1589284722345374496,,0.0462471364647,-0.255322271677,1.14180289143,0.285143489702,0.000669450766207,-0.0184898747131
1589284722348505650,6451,1589284722348409312,,0.0686833945576,-0.255384773004,1.14227135663,0.286068918446,0.000668615571013,-0.0192206196469
1589284722354472208,6452,1589284722354363685,,0.0690293760695,-0.255171241143,1.11902586061,0.28530032,0.000669882815864,-0.019231925524
1589284722357522429,6453,1589284722357416041,,0.0689101438594,-0.127914204175,1.14144115151,0.286087758399,0.000668668838814,-0.0201080379739
1589284722360447323,6454,1589284722360324339,,0.068909299668,-0.127912974687,1.14144134026,0.286087776477,0.000669228577338,-0.0201077621488
1589284722363447427,6455,1589284722363332438,,0.0689109829987,-0.127911165278,1.1414414414,0.285178087647,0.000671012812953,-0.020121923544
1589284722369645876,6456,1589284722369555447,,0.0464867935946,-0.12784842977,1.1409709158,0.283341999435,0.000673347309408,-0.0203023237293
1589284722372558489,6457,1589284722372451792,,0.0689137958431,-0.127910892016,1.1414413022,0.284277433422,0.000671661215108,-0.0210352031062
1589284722378447365,6458,1589284722378361457,,0.0689215979301,-0.127905930864,1.14144138707,0.284277290419,0.000671702837732,-0.0210371342825
1589284722381473176,6459,1589284722381358236,,0.0689263442675,-0.127908460622,1.14144081699,0.284258148359,0.000670137000719,-0.0201399207419
1589284722384399153,6460,1589284722384315378,,0.0465087272895,-0.127855625345,1.14096921564,0.283341599284,0.000671736014109,-0.0203079608768
1589284722387419106,6461,1589284722387306566,,0.0465171784012,-0.127862874115,1.14096805881,0.283341443883,0.000670984469415,-0.0203101537875
1589284722393422264,6462,1589284722393339092,,0.0461557480007,-0.127980213965,1.16424991051,0.284091043245,0.000669444745555,-0.0194008440019
1589284722396470700,6463,1589284722396349614,,0.046533677905,-0.127875906645,1.14096592543,0.284260803977,0.000670149465975,-0.0203003565858
1589284722402453672,6464,1589284722402324542,,0.04617895104,-0.128013827868,1.16424529491,0.28499015526,1.36509427938e-05,-0.0185036602061
1589284722405456221,6465,1589284722405386760,,0.046182343732,-0.128020590425,1.16424441674,0.284990123688,1.69208468392e-05,-0.0185041437538
1589284722408371369,6466,1589284722408293390,,0.0465447880471,-0.127920328566,1.14096049271,0.284221556151,2.43694399301e-05,-0.0185148163907
1589284722411505413,6467,1589284722411367267,,0.0465491169509,-0.127929172297,1.14095932455,0.285142725019,0.000683419060647,-0.018501152891
1589284722417447566,6468,1589284722417356462,,0.0465512162928,-0.127935472511,1.14095853247,0.284221493267,3.03787697532e-05,-0.0185157728117
1589284722420676870,6469,1589284722420564374,,0.0465589512896,-0.127940878775,1.14095761064,0.283301703467,3.45529820969e-05,-0.0185314280992
1589284722426427813,6470,1589284722426331672,,0.0240434807229,-0.127887978674,1.14050445227,0.283267568878,3.38650405161e-05,-0.0168940700736
1589284722429853500,6471,1589284722429617154,,0.0461934460399,-0.128058934412,1.16423975933,0.284051825072,3.26717000761e-05,-0.0176305577862
1589284722432545007,6472,1589284722432428006,,0.0461999994567,-0.128062274891,1.16423913186,0.284033281859,3.10756125423e-05,-0.0167435203917
1589284722438547931,6473,1589284722438453318,,0.0463250086645,-0.255404658508,1.14178130871,0.283266074112,0.00068928710099,-0.016756327726
1589284722441470894,6474,1589284722441362516,,0.0463202645021,-0.255404658776,1.14178150112,0.283266140864,0.000689020713038,-0.0167552102127
1589284722444526503,6475,1589284722444427342,,0.0469255867188,-0.127820530857,1.11767597045,0.28341719648,0.000688340694945,-0.0167528363846
1589284722450427638,6476,1589284722450330971,,0.0469243868976,-0.12782165444,1.11767589233,0.282497506474,0.000689686601934,-0.0167667377066
1589284722453474744,6477,1589284722453312584,,0.0469211107142,-0.127815132146,1.11767677577,0.282497552539,0.000688878215678,-0.0167659947885
1589284722456504166,6478,1589284722456408642,,0.046562442689,-0.127931805452,1.14095848556,0.283266159703,0.000686732330293,-0.0167549856605
1589284722462723478,6479,1589284722462530997,,0.0240396888789,-0.127872877891,1.14050622539,0.282339506718,3.07984327435e-05,-0.0160190173501
1589284722465494025,6480,1589284722465393281,,0.0469184176936,-0.127807103396,1.11767780694,0.282514518078,3.11204334189e-05,-0.0176543900607
1589284722468720682,6481,1589284722468538330,,0.0244119287467,-0.127752233062,1.11722348397,0.283400394231,2.69493505425e-05,-0.0160005883677
1589284722474476104,6482,1589284722474370809,,0.0244128981828,-0.127744614818,1.11722433389,0.282499040715,2.78339039548e-05,-0.01690381714
1589284722477468268,6483,1589284722477379311,,0.0240232049772,-0.127859956329,1.14050802141,0.283267824581,2.66625814719e-05,-0.0168897949957
1589284722480473556,6484,1589284722480381644,,0.0240254811886,-0.127859948225,1.14050797437,0.28326777867,2.4809721141e-05,-0.016890567788
1589284722486594422,6485,1589284722486483240,,0.00160030279358,-0.127799609007,1.14007650316,0.28325241933,2.36654725601e-05,-0.0161433653794
1589284722489513794,6486,1589284722489424444,,0.0240151778625,-0.127854970061,1.14050874945,0.283249539369,2.36375379311e-05,-0.0159994155343
1589284722492438275,6487,1589284722492335412,,0.0465317924095,-0.127901184798,1.14096316895,0.284186292493,0.000678755013201,-0.016733845774
1589284722498477633,6488,1589284722498382557,,0.0466400741805,-0.255144406178,1.11854582355,0.282498061756,0.000681636795711,-0.0167577086797
1589284722501554236,6489,1589284722501392012,,0.0462701063159,-0.255361891706,1.14179310054,0.284186495499,0.000678373019159,-0.0167304133043
1589284722504437976,6490,1589284722504305724,,0.0465183461892,-0.12789735593,1.14096414646,0.284186487132,0.000678092386579,-0.0167305668037
1589284722510530842,6491,1589284722510399854,,0.0465127990295,-0.127898358143,1.14096426026,0.284186567442,0.000677862477461,-0.0167292119225
1589284722513479211,6492,1589284722513388254,,0.0462584063381,-0.255351877641,1.14179581421,0.285106366275,0.000675547483265,-0.0167134650503
1589284722516516483,6493,1589284722516414838,,0.0692763932048,-0.127832560602,1.11815644384,0.283433486444,0.000678812090007,-0.0174859454811
1589284722522503851,6494,1589284722522385279,,0.0465021686031,-0.127892588869,1.14096534028,0.285124893197,0.000675673891765,-0.0176012968019
1589284722525474093,6495,1589284722525383329,,0.0468617713396,-0.12777151297,1.11768425263,0.285247527656,0.000674095953054,-0.0167095194973
1589284722528667773,6496,1589284722528582373,,0.0468640226113,-0.127776171708,1.11768362565,0.284317654736,1.86841278734e-05,-0.0158260207381
1589284722534513053,6497,1589284722534412795,,0.0466099529174,-0.255133565817,1.11854955178,0.283436691765,0.000677953247315,-0.0176250687771
1589284722537435353,6498,1589284722537342133,,0.0466166866597,-0.255132128133,1.11854959909,0.283436587169,0.000678059212183,-0.0176267466817
1589284722540400147,6499,1589284722540322101,,0.0464976789228,-0.1278859623,1.14096626602,0.285124958178,0.000674629351853,-0.0176002842103
1589284722546460799,6500,1589284722546381149,,0.0468549630163,-0.127763756864,1.11768542471,0.283435157922,2.08354200184e-05,-0.0176251199178
1589284722549462562,6501,1589284722549374595,,0.0462455334316,-0.255344817943,1.14179791448,0.28510653188,0.000673315873063,-0.0167107298968
1589284722552529630,6502,1589284722552384708,,0.0686866881664,-0.255409123584,1.14226571409,0.285120483877,1.63615054275e-05,-0.0174570109459
1589284722558460523,6503,1589284722558367417,,0.0689231665834,-0.12794166686,1.14143728733,0.284219287047,1.99993994021e-05,-0.0183609497711
1589284722561418719,6504,1589284722561339623,,0.0692667475488,-0.127823887873,1.11815803288,0.285261480153,1.70569339463e-05,-0.0174557766
1589284722564512389,6505,1589284722564420757,,0.0464998608934,-0.127885802662,1.14096619498,0.284203681636,1.95419712481e-05,-0.0176152540135
1589284722570539831,6506,1589284722570441479,,0.0239862412366,-0.127830707925,1.14051207799,0.285089371692,1.78094686183e-05,-0.0159638232476
1589284722573498962,6507,1589284722573386615,,0.046506792573,-0.127886249897,1.14096586234,0.28508477859,-0.000629477255126,-0.0158156387497
1589284722579489478,6508,1589284722579375742,,0.0465071168514,-0.127883771892,1.14096612686,0.285084768393,-0.000630189748417,-0.0158157941841
1589284722582416713,6509,1589284722582326772,,0.0689352542506,-0.127946876073,1.14143597348,0.285120241953,1.8324695258e-05,-0.0174609598178
1589284722585555144,6510,1589284722585438323,,0.0685925081762,-0.128064574685,1.16471557748,0.285888832608,1.67571851658e-05,-0.0174500755648
1589284722591741430,6511,1589284722591600564,,0.024275537813,-0.000580678302105,1.14026169752,0.285997463748,-0.000630131357901,-0.0159528769681
1589284722594585831,6512,1589284722594468386,,0.0242780731671,-0.000581928499886,1.1402616429,0.28599742898,-0.00062979770352,-0.0159535134235
1589284722597472509,6513,1589284722597372449,,0.0461528951513,-0.128007010963,1.16424707763,0.285853301284,-0.000630627029188,-0.0158063138289
1589284722603519489,6514,1589284722603416283,,0.0242811775525,-0.000577663707089,1.14026157897,0.285997385769,-0.000629757195296,-0.0159542896556
1589284722606655962,6515,1589284722606490495,,0.0242811821487,-0.000582128955169,1.1402615766,0.285997386179,-0.000629481711624,-0.0159542931758
1589284722609559793,6516,1589284722609369464,,0.00186924417221,-0.000529849224846,1.13982846646,0.285982030395,-0.000629279549264,-0.0152085750053
1589284722615546577,6517,1589284722615435069,,0.0465186743537,-0.12789379609,1.14096453211,0.285121647933,-0.000625732231391,-0.0176056918188
1589284722618544258,6518,1589284722618401214,,0.0465229317948,-0.127897076912,1.14096399076,0.285121585707,-0.000625299873924,-0.0176067148837
1589284722621669960,6519,1589284722621562018,,0.0692890557198,-0.12783495234,1.11815538582,0.285278241874,-0.000623807949113,-0.0183500043888
1589284722627863311,6520,1589284722627783197,,0.0692827981777,-0.127835122126,1.11815575415,0.285278344965,-0.000623762629917,-0.0183484031409
1589284722630804111,6521,1589284722630702564,,0.0692840286678,-0.127834165221,1.11815578731,0.284387284128,-0.000621032828776,-0.0192513991428
1589284722633535012,6522,1589284722633424908,,0.0692780169821,-0.127836984455,1.11815583748,0.28438739121,-0.00062062178931,-0.0192498304978
1589284722639509619,6523,1589284722639311499,,0.069280785147,-0.127835488103,1.11815583704,0.28440754467,2.72380496206e-05,-0.0201390741798
1589284722642451713,6524,1589284722642362725,,0.0468746961708,-0.12777680872,1.11768310524,0.283453473184,2.80929063935e-05,-0.0185180902755
1589284722645534001,6525,1589284722645443695,,0.0468721814934,-0.127773999409,1.11768353187,0.283472185102,2.74602430935e-05,-0.0194063121812
1589284722651521184,6526,1589284722651423610,,0.046869295118,-0.127772479825,1.11768382663,0.283472241105,2.81979924998e-05,-0.0194054930543
1589284722654474807,6527,1589284722654383463,,0.0689318218693,-0.127949051834,1.14143593688,0.284219192857,2.64337657453e-05,-0.018362399597
1589284722657496234,6528,1589284722657393896,,0.0691923565472,-0.000680027738106,1.14118857222,0.28515755868,2.39471422886e-05,-0.0192366099625
1589284722663642622,6529,1589284722663446343,,0.0691912521956,-0.000676829622524,1.14118864108,0.285157577285,2.41205692277e-05,-0.0192363339413
1589284722666586312,6530,1589284722666466750,,0.0468660202377,-0.127768501963,1.11768441869,0.283472296832,2.79821401315e-05,-0.0194046792969
1589284722669519071,6531,1589284722669408793,,0.0468639439924,-0.127768316251,1.11768452698,0.283472329983,2.76031797255e-05,-0.0194041955456
1589284722675527790,6532,1589284722675377912,,0.0468675972793,-0.127771856943,1.11768396903,0.283453585842,2.73370208523e-05,-0.0185163668892
1589284722678525888,6533,1589284722678405027,,0.0468639439924,-0.127768316251,1.11768452698,0.283472329983,2.76031797255e-05,-0.0194041955456
1589284722681466040,6534,1589284722681370579,,0.0468636008169,-0.127766375356,1.11768476324,0.283472340094,2.81084908004e-05,-0.0194040471141
1589284722687534662,6535,1589284722687409819,,0.0471295328291,-0.000610963642385,1.11742316761,0.284373372216,2.50794524238e-05,-0.0185007084418
1589284722690500838,6536,1589284722690408575,,0.0467687957607,-0.000617554516866,1.14071688369,0.285141988098,2.37323166344e-05,-0.0184892470662
1589284722696495122,6537,1589284722696399124,,0.0467634623406,-0.000621673561346,1.14071710011,0.28514207455,2.36182766855e-05,-0.0184879138983
1589284722699625555,6538,1589284722699416710,,0.0467647508802,-0.000623483133525,1.1407170463,0.285142053635,2.42900874759e-05,-0.0184882356012
1589284722702474932,6539,1589284722702377135,,0.0468678494009,-0.127762173928,1.11768506536,0.284373258753,2.49175736625e-05,-0.0185024526149
1589284722708506490,6540,1589284722708326107,,0.046862395588,-0.127764958811,1.1176849757,0.284373350039,2.51009389317e-05,-0.0185010492868
1589284722711451312,6541,1589284722711328812,,0.0465007743315,-0.127884110316,1.14096634744,0.28514195788,2.28003663218e-05,-0.0184897142529
1589284722717452758,6542,1589284722717363130,,0.046772240216,-0.000619004891209,1.14071674168,0.285141932284,2.34040885849e-05,-0.018490108229
1589284722720571892,6543,1589284722720470082,,0.0468641445755,-0.127762858932,1.11768514241,0.284373314116,2.41150911939e-05,-0.0185016027567
1589284722723474055,6544,1589284722723345741,,0.0692725245715,-0.127820880512,1.11815801878,0.284387470244,-0.000622469326717,-0.0192486031867
1589284722726452439,6545,1589284722726351112,,0.0692665466743,-0.12781780115,1.11815874112,0.284387575612,-0.000622272936044,-0.0192470527238
1589284722732545212,6546,1589284722732416600,,0.0685791675314,-0.128054359836,1.16471748617,0.285026827874,0.000680460194785,-0.0201269628444
1589284722735455388,6547,1589284722735333217,,0.068582734181,-0.128053863838,1.16471733069,0.285026765454,0.000680305110367,-0.0201278520179
1589284722741475560,6548,1589284722741392810,,0.0689256297541,-0.127939293542,1.14143740462,0.283318258346,2.53862148622e-05,-0.0192639760059
1589284722744497655,6549,1589284722744350018,,0.0685820392224,-0.128050344764,1.16471775851,0.285006494806,2.17010038785e-05,-0.0192391741223
1589284722747515873,6550,1589284722747372989,,0.0461360754671,-0.127992481339,1.16424934169,0.284990882129,1.97774752586e-05,-0.0184924561455
1589284722750510050,6551,1589284722750413123,,0.0464977401644,-0.127879169225,1.14096702491,0.284222299028,2.08758579728e-05,-0.0185034132011
1589284722759490215,6552,1589284722759374235,,0.0467711747734,-0.000609171351401,1.14071679066,0.285141949757,1.78009908085e-05,-0.0184898450196
1589284722765388741,6553,1589284722765307166,,0.0465046651168,-0.127864167535,1.14096842396,0.285141846758,1.57834883712e-05,-0.0184914351825
1589284722768388070,6554,1589284722768305528,,0.0464971887691,-0.127862100904,1.14096896026,0.285141963536,1.51406637815e-05,-0.0184896348871
1589284722771458424,6555,1589284722771315648,,0.0464956154051,-0.127853634436,1.14096997313,0.285141965831,1.17810508417e-05,-0.0184896019447
1589284722774416000,6556,1589284722774311381,,0.0689211545708,-0.127889404555,1.1414432656,0.285138950941,9.98425102045e-06,-0.0183472068863
1589284722780415114,6557,1589284722780328784,,0.0465002959046,-0.127816476361,1.1409739456,0.286972804057,0.000661096114416,-0.0184629365653
1589284722783407294,6558,1589284722783300347,,0.0464977327331,-0.127794806977,1.14097647734,0.28786400293,0.000655880757641,-0.0175594970277
1589284722789641466,6559,1589284722789443845,,0.0464967748976,-0.127781781235,1.14097797524,0.287864000589,0.000651925298749,-0.0175596826941
1589284722792557180,6560,1589284722792341365,,0.0464953468807,-0.127778465286,1.1409784048,0.288782127887,-9.31256753702e-06,-0.0175455915521
1589284722795422924,6561,1589284722795327828,,0.0464950152844,-0.127775206997,1.1409787832,0.287843985693,-1.09269943435e-05,-0.0166708978343
1589284722798368053,6562,1589284722798266339,,0.0464864760391,-0.127782315119,1.1409783351,0.287844075992,-1.61108171099e-05,-0.0166693344182
1589284722804487924,6563,1589284722804392243,,0.0235797247419,-0.127844959503,1.163807367,0.2885788864,-2.32403667297e-05,-0.0150080604916
1589284722807430180,6564,1589284722807321048,,0.0235741239221,-0.127859278888,1.16380590738,0.288578936038,-2.69538403039e-05,-0.0150070997925
1589284722813585562,6565,1589284722813506542,,0.0239475940805,-0.127759118738,1.1405209117,0.28781038286,-2.65100554851e-05,-0.0150167722599
1589284722816559835,6566,1589284722816476164,,0.0239399326183,-0.127764133202,1.14052051082,0.287810472114,-2.84016483133e-05,-0.0150150580592
1589284722819653976,6567,1589284722819507927,,0.0236537671967,-0.255223289772,1.14136084252,0.287772664751,-0.000678001588415,-0.0132366568166
1589284722822557649,6568,1589284722822466787,,0.0236523891154,-0.255228136408,1.1413597873,0.285961264783,-0.000674186840993,-0.0141545381381
1589284722829010757,6569,1589284722828904314,,0.0236519755094,-0.255233631288,1.14135856711,0.28596125177,-0.000675471061787,-0.0141547398005
1589284722831822464,6570,1589284722831735002,,0.0236501008521,-0.255229585476,1.14135951068,0.285981040829,-2.84228101109e-05,-0.0150430631252
1589284722837625037,6571,1589284722837487455,,0.0240356019056,-0.255018053221,1.11810994169,0.286115525526,0.000628247018012,-0.0141517481044
1589284722840561313,6572,1589284722840452852,,0.0459413579654,-0.383119897575,1.14314064208,0.286901191154,0.00128373642561,-0.0148896072667
1589284722843612313,6573,1589284722843509510,,0.0232788634927,-0.255444870436,1.16460888685,0.287634705282,0.000630283101352,-0.0132403447789
1589284722849671196,6574,1589284722849522915,,0.0233124007533,-0.255450413278,1.16460700022,0.287634462149,0.000647909837803,-0.013244775064
1589284722852704996,6575,1589284722852558483,,0.0460097244492,-0.383128920975,1.14313486826,0.289620101434,0.000646671787698,-0.0139659248783
1589284722855605937,6576,1589284722855537918,,0.046007453306,-0.383130019527,1.14313459148,0.289620134233,0.000647048667419,-0.0139652272364
1589284722861605980,6577,1589284722861515311,,0.0458811056159,-0.255508572211,1.16505763939,0.289459235183,-8.31014643407e-06,-0.0130695317294
1589284722864558246,6578,1589284722864474602,,0.0226831644687,-0.383609079764,1.18910356291,0.290194929593,-9.0744790458e-06,-0.0114195743752
1589284722867596897,6579,1589284722867472300,,0.000186681609966,-0.383556927532,1.18867250157,0.289260253204,-6.60391748167e-06,-0.0106877405206
1589284722873404545,6580,1589284722873313615,,0.0226912712366,-0.383624465022,1.18909844479,0.290196438021,0.000649582233102,-0.0114209107742
1589284722876376040,6581,1589284722876294808,,0.0226922724328,-0.383630021133,1.18909663316,0.291086888932,-1.1534160383e-05,-0.0105178383121
1589284722879443422,6582,1589284722879327444,,0.0226938709542,-0.383629991006,1.18909661238,0.291086863244,-1.25222096517e-05,-0.0105185480856
1589284722885549328,6583,1589284722885433178,,0.0227039779583,-0.383637007803,1.18909415564,0.291086802394,-1.00168303153e-05,-0.0105202345858
1589284722888530905,6584,1589284722888345882,,0.0227066172977,-0.383637980365,1.18909379146,0.291106086924,0.000649176275118,-0.0114095323897
1589284722891518079,6585,1589284722891406636,,0.0223172818279,-0.383924117618,1.2124009001,0.291878113678,0.00064977109816,-0.0113966594841
1589284722897635671,6586,1589284722897526309,,0.000201451081426,-0.383596084426,1.18865986343,0.290179964103,-3.44615586629e-06,-0.0106748752157
1589284722900519699,6587,1589284722900344743,,0.000194192344226,-0.383598972961,1.18865893246,0.290180042444,-2.31259959422e-06,-0.0106727457504
1589284722903476260,6588,1589284722903319761,,0.0226933758259,-0.383657416781,1.18908777329,0.291104693236,-4.31318047361e-06,-0.01140536039
1589284722909459723,6589,1589284722909365737,,0.0227024442452,-0.383658361686,1.18908729532,0.291104607191,-4.22939079391e-06,-0.0114075563725
1589284722912365974,6590,1589284722912308837,,0.0230917552203,-0.383385099936,1.16587759048,0.291255644334,-5.46387408689e-06,-0.0114058009531
1589284722915371706,6591,1589284722915268059,,0.0230984857338,-0.383381531318,1.16587863064,0.292193160246,-7.39519296637e-06,-0.0122822301225
1589284722921350144,6592,1589284722921284927,,0.023100328333,-0.383386440534,1.1658769798,0.292193148619,-6.78086575135e-06,-0.0122825070933
1589284722924386490,6593,1589284722924293307,,0.0231008520741,-0.383386566819,1.1658769279,0.292212788818,0.000650741151592,-0.0131816564471
1589284722927479315,6594,1589284722927379954,,0.0456739180075,-0.383457740844,1.16632163923,0.292228029932,0.000653026773078,-0.0139295941206
1589284722933452740,6595,1589284722933377291,,0.0456766297151,-0.383456182147,1.16632204549,0.292228013868,0.000654225357229,-0.0139298748814
1589284722936485170,6596,1589284722936414666,,0.0453059953138,-0.383730491787,1.18953017466,0.291157191719,0.000657003002502,-0.0139470393151
1589284722942435963,6597,1589284722942361112,,0.0453060723499,-0.383733838003,1.18952909226,0.291157219593,0.000659227571694,-0.0139463524448
1589284722945493909,6598,1589284722945373080,,0.067442897553,-0.384072454451,1.21329797907,0.293782366117,-2.51246486378e-06,-0.014651020271
1589284722948397109,6599,1589284722948315348,,0.0675919766433,-0.512212081643,1.19156957314,0.2921090003,1.95566841834e-07,-0.0155632725674
1589284722951421116,6600,1589284722951302052,,0.0450647830198,-0.512139620416,1.19111496235,0.292095289733,0.000659194345575,-0.0148163987456
1589284722957577106,6601,1589284722957498028,,0.0450561080232,-0.512144330615,1.1911132653,0.292095383901,0.000658549117398,-0.0148145708812
1589284722960630235,6602,1589284722960502862,,0.0224327782666,-0.512078580245,1.1906701004,0.293871965163,-4.73084440125e-06,-0.0122476154999
1589284722966588846,6603,1589284722966331519,,0.0224353227711,-0.512078028933,1.19067028956,0.293871938192,-4.78096540109e-06,-0.0122482626143
1589284722969466615,6604,1589284722969370140,,0.0450611899774,-0.512144152739,1.19111314953,0.292996972224,0.000655529800322,-0.0139119752213
1589284722972579440,6605,1589284722972432699,,0.0450715319379,-0.512141862761,1.19111374286,0.292995303588,-2.07652685912e-06,-0.0139148216651
1589284722978718051,6606,1589284722978558841,,0.0220488748863,-0.512391203583,1.21393659381,0.293752172795,-5.43063908591e-06,-0.0131519606958
1589284722981509248,6607,1589284722981413862,,0.0450675360917,-0.512135982633,1.19111642231,0.294842877371,-7.46710084171e-06,-0.0147753004289
1589284722984559923,6608,1589284722984399509,,0.0450692940103,-0.512136433053,1.19111616213,0.294842841089,-8.13376339031e-06,-0.0147760240731
1589284722990475491,6609,1589284722990347645,,0.0224445017193,-0.5120692795,1.19067387945,0.294827637496,-7.7094850756e-06,-0.0140256599454
1589284722993439138,6610,1589284722993350499,,0.0224457590175,-0.512068474437,1.19067420198,0.294809651074,-8.09747944886e-06,-0.0131361813357
1589284722996396268,6611,1589284722996297396,,0.0224472480145,-0.512070639151,1.19067324294,0.294827637605,-6.10730208577e-06,-0.014025658428
1589284723002384791,6612,1589284723002316181,,0.0450723591946,-0.512146893675,1.19111154841,0.294824810276,-5.80930653489e-06,-0.0138858709601
1589284723005764471,6613,1589284723005538651,,0.0446885631462,-0.512471340973,1.21437239109,0.295596873756,-6.64156460172e-06,-0.0138721390968
1589284723008607364,6614,1589284723008495788,,0.0450603019431,-0.512162664716,1.19110522334,0.294824937921,-6.26318581001e-06,-0.013883160331
1589284723014483153,6615,1589284723014394718,,0.0440810786876,-0.641746706045,1.23925882564,0.296348976547,0.000646503185834,-0.012960057009
1589284723017540233,6616,1589284723017430217,,0.0440763855838,-0.641746772584,1.23925895811,0.296331142215,0.000644829858048,-0.0120696682792
1589284723020626638,6617,1589284723020522065,,0.0444579298385,-0.641400829658,1.21613954387,0.295562420121,0.000645347665304,-0.012082353585
1589284723026695918,6618,1589284723026539153,,0.0448437643456,-0.641046375681,1.19292790453,0.294806684617,-1.08608609424e-05,-0.0129857830521
1589284723029816051,6619,1589284723029724168,,0.0440821729934,-0.641721187834,1.23927200091,0.296348910508,0.000643565251699,-0.0129617131951
1589284723032928976,6620,1589284723032805316,,0.0440851233178,-0.641707261242,1.23927910735,0.296332631358,0.0013005504632,-0.0120723707756
1589284723038468251,6621,1589284723038389055,,0.0213968910273,-0.641646997107,1.23883777603,0.296317694162,0.00130047194785,-0.0113211967539
1589284723041658388,6622,1589284723041574449,,0.0213898076927,-0.641653052418,1.23883476203,0.297245302924,0.00129820624544,-0.0121951834538
1589284723044538263,6623,1589284723044449468,,0.0211245873302,-0.771067565932,1.24069671444,0.298145749156,0.000636397238716,-0.0112895719513
1589284723050450762,6624,1589284723050368536,,0.0211206462357,-0.771072844587,1.24069350095,0.298145712126,0.000633037691243,-0.0112907386962
1589284723053506438,6625,1589284723053424948,,0.0211160636205,-0.771080263315,1.24068896829,0.299975335724,0.000629611233752,-0.0112596554257
1589284723056630323,6626,1589284723056526648,,0.021116298623,-0.771072065337,1.24069405925,0.299957666901,0.000628910068103,-0.0103696125242
1589284723062630785,6627,1589284723062537055,,0.0211179181862,-0.771070158284,1.24069521688,0.299973801041,-2.6408126851e-05,-0.0112590838091
1589284723065577315,6628,1589284723065488915,,0.0204642825966,-0.901264926238,1.26566871087,0.301628655458,0.000628404759051,-0.00945050397689
1589284723068622476,6629,1589284723068501239,,0.0204641978515,-0.901262578832,1.26567038379,0.30162867799,0.000629470591814,-0.00944971385771
1589284723074621929,6630,1589284723074509707,,0.0211230230762,-0.771061527123,1.24070049405,0.301768174815,-2.87659613422e-05,-0.00944817007458
1589284723077664614,6631,1589284723077546420,,-0.00148884254613,-0.771004044545,1.24027497473,0.301772474068,0.000629713414638,-0.00959322544088
1589284723080573453,6632,1589284723080452713,,-0.00149474371746,-0.771005888437,1.24027382139,0.301772505264,0.000628910412074,-0.00959229674684
1589284723086635510,6633,1589284723086548479,,-0.00177851140061,-0.900851770949,1.24219657836,0.302692261156,0.000628276716664,-0.00957851458658
1589284723089677670,6634,1589284723089587178,,0.0204854361305,-0.901257765555,1.26567346766,0.30436794138,0.000624039732484,-0.00940936969452
1589284723095703757,6635,1589284723095606863,,0.0204813814583,-0.901260221349,1.26567178456,0.304367952706,0.000623115002746,-0.00940906459666
1589284723098624727,6636,1589284723098531713,,0.0206270119095,-1.03115197877,1.24454076288,0.304536504887,0.000622912747034,-0.010298630493
1589284723104694789,6637,1589284723104602001,,0.0206292946559,-1.03115793515,1.24453578992,0.304536582612,0.000626685126333,-0.0102961029389
1589284723107718031,6638,1589284723107638394,,0.0202376163005,-1.03151798782,1.26754419905,0.305287745378,0.000625994545773,-0.0093939475672
1589284723110625539,6639,1589284723110531085,,0.0202399608638,-1.03151473789,1.26754680637,0.305287762324,0.000627464222797,-0.00939329880009
1589284723113691576,6640,1589284723113578670,,-0.00246252714225,-1.03146084931,1.26712105151,0.305273141889,0.000628094509846,-0.0086447059441
1589284723119629993,6641,1589284723119537131,,-0.00275890813075,-1.16205041478,1.26896613305,0.305255610767,0.000628012016975,-0.00774305306918
1589284723122641561,6642,1589284723122557235,,-0.00287301231199,-1.03180379423,1.29024886054,0.306027644491,0.000627078521375,-0.00773058993028
1589284723129004023,6643,1589284723128928894,,-0.00316060060483,-1.16238531503,1.29206762621,0.306011938389,0.00128641539792,-0.00683956273013
1589284723131922674,6644,1589284723131835795,,-0.00316045958776,-1.16238133413,1.29207120789,0.306011944054,0.00128679751195,-0.00683923735855
1589284723134415190,6645,1589284723134297432,,0.019977064063,-1.16210400675,1.26939171223,0.30525603515,0.00193577770473,-0.0075988165682
1589284723137615729,6646,1589284723137529048,,-0.0023491155103,-1.16170768914,1.24597724429,0.303551327815,0.00128916663821,-0.00688078586208
1589284723143626214,6647,1589284723143543616,,-0.00235497127062,-1.16170599586,1.24597881199,0.305398267207,0.00128429240857,-0.00774084648804
1589284723146608936,6648,1589284723146519678,,-0.00275409136759,-1.16205063684,1.26896594016,0.306166985925,0.00128452414038,-0.00772880044022
1589284723152597410,6649,1589284723152517832,,-0.00274788609065,-1.16205149359,1.26896516905,0.3061669783,0.00128612394581,-0.00772883643404
1589284723155457184,6650,1589284723155368277,,-0.0034467783294,-1.2932798228,1.29381136148,0.308742605133,0.000621726767932,-0.00590434385128
1589284723158437655,6651,1589284723158367608,,0.0193316396778,-1.29334495868,1.29422428765,0.308757006718,0.000622561554951,-0.0066528405932
1589284723161415263,6652,1589284723161349140,,0.019334987672,-1.29334912904,1.29422007009,0.308756980979,0.000622145949829,-0.00665407392588
1589284723167538967,6653,1589284723167477807,,-0.00355580127263,-1.16273358642,1.31506242933,0.310421174166,0.000619437555531,-0.00587675146983
1589284723170731993,6654,1589284723170644736,,-0.00314154355532,-1.16240249992,1.2920522124,0.310572241254,0.000620311745869,-0.00587432132894
1589284723176388280,6655,1589284723176311638,,0.0191989024333,-1.16279753984,1.31547774777,0.312282469342,0.000618699544784,-0.00748477446191
1589284723179385932,6656,1589284723179298810,,-0.00313894750561,-1.16240240365,1.29205230531,0.311483660687,0.00127923609678,-0.00585748187048
1589284723182330320,6657,1589284723182264470,,-0.00313587391596,-1.16239801307,1.29205626278,0.311483671084,0.0012811158864,-0.0058565180676
1589284723185570014,6658,1589284723185478757,,-0.00382948152537,-1.29361445468,1.31678626709,0.311358178089,0.000623495563278,-0.00675150631931
1589284723191629281,6659,1589284723191553802,,-0.0266108926518,-1.29356005627,1.31637388983,0.312253627105,0.000622745438454,-0.00598605724448
1589284723194685383,6660,1589284723194584212,,-0.0266069424599,-1.29356006095,1.31637396507,0.312253616103,0.000623158606388,-0.00598658812979
1589284723200621296,6661,1589284723200517351,,-0.00382736775701,-1.29361788634,1.31678290195,0.314080527444,0.000619766166548,-0.00581212920398
1589284723203631549,6662,1589284723203527724,,-0.00383690509614,-1.29361846367,1.31678230703,0.314080556349,0.000618955058874,-0.00581065345543
1589284723206612062,6663,1589284723206481134,,-0.00383369803511,-1.29361886656,1.31678192056,0.315000375233,0.000617306410758,-0.00579559383404
1589284723209533914,6664,1589284723209351617,,-0.00425900582943,-1.29393654934,1.33977892362,0.314849339734,0.00061581685171,-0.00579636612576
1589284723215422282,6665,1589284723215318156,,-0.0042575130173,-1.29393712103,1.33977837623,0.316678986306,0.00061156751355,-0.00576614887387
1589284723218666171,6666,1589284723218527766,,-0.00496158026345,-1.4253664098,1.36439609448,0.317447730534,0.000608833334643,-0.00575396615338
1589284723224486811,6667,1589284723224430546,,-0.00496609419976,-1.42536498813,1.36439756325,0.317430674518,0.000608114908671,-0.00486145737295
1589284723227585649,6668,1589284723227482882,,-0.0045571534966,-1.42506579666,1.34140535941,0.31756456653,0.000606342997593,-0.00395803792367
1589284723230628932,6669,1589284723230559880,,-0.00497253197907,-1.42535656585,1.36440633838,0.318333333198,0.000603786306874,-0.00394480064193
1589284723236596772,6670,1589284723236476426,,0.0178331897814,-1.42541472595,1.36482513357,0.318364843182,0.000602818530312,-0.00559384220989
1589284723239628880,6671,1589284723239535637,,0.0178336721684,-1.42540857691,1.36483154925,0.31836482389,0.000601741234769,-0.00559505601227
1589284723242605820,6672,1589284723242478347,,0.017816309126,-1.42540447386,1.36483606116,0.318364856881,0.000599405205003,-0.00559342930973
1589284723248610095,6673,1589284723248535526,,0.0174110608406,-1.42570174383,1.38793479499,0.31911967285,0.000597858723024,-0.00467892304548
1589284723251721767,6674,1589284723251518918,,0.0174083338326,-1.42569670194,1.38794000825,0.320058348711,0.00125698507636,-0.00556265428717
1589284723254568859,6675,1589284723254477924,,0.0178220192839,-1.42539873176,1.36484198351,0.319284710187,0.000600267804829,-0.00557619815352
1589284723260665986,6676,1589284723260501308,,-0.00499902177558,-1.4253450206,1.36441830247,0.319270414066,0.000601015160294,-0.00482573632763
1589284723263522487,6677,1589284723263400071,,-0.0282186584282,-1.42559172908,1.38710020784,0.320028177049,0.0006006872556,-0.0040659054979
1589284723266470747,6678,1589284723266385597,,-0.00538672436692,-1.42565405493,1.38750520401,0.320042415572,0.00060161115497,-0.00481619972383
1589284723272621266,6679,1589284723272503591,,-0.00537572075424,-1.42564868029,1.38751076907,0.320042401011,0.000603332794648,-0.00481695191885
1589284723275572933,6680,1589284723275476893,,-0.00525148307556,-1.55668547484,1.36594653144,0.321082843406,0.000601209774663,-0.00389752790814
1589284723278574402,6681,1589284723278483250,,-0.00524250697335,-1.55668250954,1.36594994528,0.322008317648,-5.80645776647e-05,-0.00478421867987
1589284723284538261,6682,1589284723284443235,,-0.0280829665696,-1.55663271929,1.36553229365,0.321995595558,0.00060305875791,-0.00403383990218
1589284723287658278,6683,1589284723287559285,,-0.0280852091125,-1.55663184858,1.36553324009,0.323808175147,0.000597374461862,-0.0031016263091
