%time,field.header.seq,field.header.stamp,field.header.frame_id,field.vector.x,field.vector.y,field.vector.z
1589284721589176524,6263,1589284721589072964,,0.499952113359,-0.200268516705,0.221733045602
1589284721595295976,6264,1589284721595103754,,0.49995198554,-0.200270658323,0.221728084667
1589284721598144801,6265,1589284721598049994,,0.499952302835,-0.200272426903,0.221723703478
1589284721604187409,6266,1589284721604045336,,0.499952706263,-0.200275221957,0.221717869874
1589284721607214548,6267,1589284721607042172,,0.499953235274,-0.200277175917,0.221713707527
1589284721610161603,6268,1589284721610065380,,0.499953415546,-0.200279752261,0.221710105571
1589284721613212119,6269,1589284721613062903,,0.499953012213,-0.200282665549,0.221705850818
1589284721619239989,6270,1589284721619065345,,0.499953497945,-0.200282696646,0.221702624627
1589284721622195872,6271,1589284721622044123,,0.499953683624,-0.200284278089,0.221698884497
1589284721628398611,6272,1589284721628252303,,0.499954070499,-0.200287074579,0.221695203547
1589284721631177079,6273,1589284721631037411,,0.49995453249,-0.200287995097,0.221690887951
1589284721634193779,6274,1589284721634084460,,0.49995505956,-0.200288814255,0.221687510333
1589284721640182747,6275,1589284721640088995,,0.499956001335,-0.200291434695,0.221683864457
1589284721643200136,6276,1589284721643091833,,0.499956262073,-0.20029259881,0.221678079007
1589284721646176171,6277,1589284721646040537,,0.499957488611,-0.200296978863,0.221671940274
1589284721652194439,6278,1589284721652094096,,0.49995816857,-0.200299300776,0.221662550356
1589284721655156103,6279,1589284721655002395,,0.499958679049,-0.200301644574,0.221655595328
1589284721658176949,6280,1589284721658028340,,0.499959281357,-0.200303829934,0.221649908931
1589284721664178168,6281,1589284721664024247,,0.49996022608,-0.200306014062,0.221645810881
1589284721667405106,6282,1589284721667120647,,0.499961492968,-0.200305533188,0.221641794335
1589284721670180719,6283,1589284721670029959,,0.499963073576,-0.2003060729,0.221637825346
1589284721676269332,6284,1589284721676076175,,0.499964240253,-0.200306021369,0.221632402923
1589284721679170302,6285,1589284721679031576,,0.49996653352,-0.200305616913,0.221627931162
1589284721682192075,6286,1589284721682060172,,0.499968852778,-0.200303944102,0.221623340094
1589284721688122295,6287,1589284721688018791,,0.499971325836,-0.200304740534,0.221619667951
1589284721691150395,6288,1589284721691055237,,0.499973913748,-0.200303641942,0.221613143144
1589284721694160395,6289,1589284721694063378,,0.499977763498,-0.200301520389,0.22160776098
1589284721700215542,6290,1589284721700077346,,0.499980727755,-0.200303121764,0.221601918685
1589284721703263253,6291,1589284721703096414,,0.499984202917,-0.200301663079,0.221594521177
1589284721706149585,6292,1589284721706032614,,0.499986969767,-0.200304242448,0.221584855146
1589284721712299319,6293,1589284721712086272,,0.499991486028,-0.200303713674,0.221574382049
1589284721715283086,6294,1589284721715093620,,0.499996908367,-0.200305432409,0.221565885312
1589284721718191285,6295,1589284721718060037,,0.500003347059,-0.200305456175,0.221558054956
1589284721724181682,6296,1589284721724084785,,0.500009979775,-0.200307234643,0.22155231925
1589284721727499510,6297,1589284721727349897,,0.500017943486,-0.20030743452,0.221545920952
1589284721730519600,6298,1589284721730385283,,0.500026962777,-0.200307702686,0.221543364982
1589284721736213607,6299,1589284721736068277,,0.500035960447,-0.200305057894,0.221542660209
1589284721739122635,6300,1589284721739022025,,0.500044185271,-0.200304316172,0.221539218847
1589284721742290215,6301,1589284721742086192,,0.500051508949,-0.200303830349,0.22153688601
1589284721748266426,6302,1589284721748035318,,0.500059545949,-0.200301141019,0.221534076997
1589284721751213230,6303,1589284721751095298,,0.500067116939,-0.200299174309,0.22153114744
1589284721754199487,6304,1589284721754059486,,0.500075131836,-0.200296584751,0.221530491803
1589284721760267500,6305,1589284721760106815,,0.500082288817,-0.200295406102,0.22152585815
1589284721763294243,6306,1589284721763083382,,0.500090978222,-0.200292910696,0.221520805394
1589284721766208159,6307,1589284721766060726,,0.500097794644,-0.200292031184,0.221514164775
1589284721772227537,6308,1589284721772121150,,0.500104556781,-0.200291209071,0.221508455158
1589284721775279786,6309,1589284721775108047,,0.500110494554,-0.200288749172,0.221501383781
1589284721778171765,6310,1589284721778064686,,0.50011651564,-0.200286918499,0.221495811026
1589284721784229374,6311,1589284721784125492,,0.500122305246,-0.200286797787,0.221489589595
1589284721787145868,6312,1589284721787044816,,0.500127879563,-0.200286155974,0.221484194483
1589284721793305070,6313,1589284721793101196,,0.500133958496,-0.200284916616,0.221480332335
1589284721796210650,6314,1589284721796108427,,0.500139956599,-0.200283561169,0.221477147762
1589284721799272894,6315,1589284721799090527,,0.500146405657,-0.200284421405,0.221473794827
1589284721805257951,6316,1589284721805091268,,0.500152550462,-0.200283887923,0.221472786377
1589284721808255232,6317,1589284721808084430,,0.500158933401,-0.200285044472,0.221472690717
1589284721811238097,6318,1589284721811096984,,0.500164670823,-0.200287150243,0.221471110978
1589284721817200679,6319,1589284721817066991,,0.500170524167,-0.20028851516,0.22146794669
1589284721820209345,6320,1589284721820048936,,0.500175915948,-0.200292753525,0.221464923029
1589284721823216482,6321,1589284721823104631,,0.500180227419,-0.200295562834,0.221460873772
1589284721829342207,6322,1589284721829213857,,0.50018459955,-0.200298908435,0.221455548703
1589284721832160521,6323,1589284721832054233,,0.500188560441,-0.200303592438,0.221449218435
1589284721835273127,6324,1589284721835107748,,0.500192595958,-0.200307350845,0.22144422869
1589284721841260751,6325,1589284721841080647,,0.500197187613,-0.200311998018,0.22144022139
1589284721844232694,6326,1589284721844092691,,0.500201543273,-0.200318961261,0.22143503679
1589284721847275893,6327,1589284721847094255,,0.500205563908,-0.200324525528,0.221428427843
1589284721853271225,6328,1589284721853104569,,0.500210378415,-0.20033228243,0.221426305496
1589284721856385519,6329,1589284721856144995,,0.500215298131,-0.200338950142,0.221423976251
1589284721859312939,6330,1589284721859141112,,0.500219654818,-0.200345009729,0.221421863474
1589284721865241558,6331,1589284721865093961,,0.500223876532,-0.200352820223,0.221419028474
1589284721868227769,6332,1589284721868036041,,0.500228141716,-0.200359459508,0.221414818213
1589284721874206499,6333,1589284721874070599,,0.500233762272,-0.200366304511,0.221415647844
1589284721877142590,6334,1589284721876984709,,0.500237201879,-0.200371843171,0.221414323941
1589284721880121797,6335,1589284721879990959,,0.500242244609,-0.200378223027,0.221413038839
1589284721883225782,6336,1589284721883085356,,0.500247299296,-0.200384910512,0.22141081517
1589284721889326557,6337,1589284721889148283,,0.500251959169,-0.200392077336,0.221408291914
1589284721892197731,6338,1589284721892089958,,0.500256292181,-0.200400765883,0.22140642054
1589284721895259499,6339,1589284721895106567,,0.500260802516,-0.200410005817,0.221402935852
1589284721901333298,6340,1589284721901151919,,0.500265612061,-0.200419267855,0.221400648196
1589284721904192308,6341,1589284721904038559,,0.500269744453,-0.200426154227,0.221398201659
1589284721910181959,6342,1589284721910051818,,0.500273804277,-0.200435756314,0.221394838362
1589284721913163654,6343,1589284721913043140,,0.500277956514,-0.20044398926,0.221395669351
1589284721919187279,6344,1589284721919045979,,0.500281493075,-0.200454105198,0.221394919462
1589284721922279636,6345,1589284721922059219,,0.500284748747,-0.200462631584,0.221395137857
1589284721925314594,6346,1589284721925119818,,0.500287364121,-0.200471795482,0.22139793698
1589284721928452413,6347,1589284721928291930,,0.50029088804,-0.200479833516,0.221398860908
1589284721934248006,6348,1589284721934078661,,0.500293739925,-0.200490091688,0.221401319992
1589284721937269767,6349,1589284721937120158,,0.500297054511,-0.200498603326,0.221403413804
1589284721943275817,6350,1589284721943093379,,0.500299771283,-0.200509373071,0.221404491359
1589284721946208728,6351,1589284721946070547,,0.500302650895,-0.200517866225,0.221404923882
1589284721949298127,6352,1589284721949123796,,0.500304855421,-0.200527958393,0.221406992115
1589284721952295739,6353,1589284721952125457,,0.500307066157,-0.200537472473,0.221407471453
1589284721958259183,6354,1589284721958083469,,0.500308320057,-0.200547591075,0.22140802459
1589284721961155778,6355,1589284721961036289,,0.500309534058,-0.200556316896,0.221408454591
1589284721967281391,6356,1589284721967099202,,0.500310897019,-0.200568185372,0.221410401737
1589284721970209599,6357,1589284721970061081,,0.500311212468,-0.200577524045,0.221410961398
1589284721973184627,6358,1589284721973077493,,0.500310555284,-0.20058912612,0.2214109335
1589284721976203400,6359,1589284721976059808,,0.500308662361,-0.200601634165,0.221410564475
1589284721982232749,6360,1589284721982100155,,0.500306813594,-0.200616210096,0.221410566506
1589284721985342652,6361,1589284721985158593,,0.500305500605,-0.200629979723,0.221409324508
1589284721991454032,6362,1589284721991153565,,0.500304226764,-0.200641233784,0.221408001836
1589284721994186964,6363,1589284721994078922,,0.500303674771,-0.200653138834,0.22140883339
1589284721997258324,6364,1589284721997120607,,0.500302691476,-0.200664031079,0.221408574307
1589284722000217143,6365,1589284722000110552,,0.500302092329,-0.20067771483,0.221407838108
1589284722006292141,6366,1589284722006158331,,0.500301223893,-0.200689629521,0.221408274815
1589284722009161360,6367,1589284722009041652,,0.500299856848,-0.200703434337,0.221407455846
1589284722015245964,6368,1589284722015028455,,0.500298929646,-0.200717230608,0.221407563521
1589284722018192453,6369,1589284722018062277,,0.50029714524,-0.200730018782,0.221407183606
1589284722021239186,6370,1589284722021086733,,0.500295770896,-0.20074331031,0.221405293743
1589284722024175091,6371,1589284722024086236,,0.500294854014,-0.200754745847,0.221406513812
1589284722030543166,6372,1589284722030431470,,0.500293763973,-0.200766051595,0.221404906797
1589284722033171554,6373,1589284722033093157,,0.500292963786,-0.200775467982,0.221403658024
1589284722039255717,6374,1589284722039127131,,0.500292304919,-0.20078632965,0.221402629951
1589284722042227701,6375,1589284722042098587,,0.500291559066,-0.200797226085,0.221402767586
1589284722045236641,6376,1589284722045060795,,0.500291237037,-0.200806776504,0.221402887378
1589284722051246242,6377,1589284722051071565,,0.500289217731,-0.200818198944,0.221400366017
1589284722054210871,6378,1589284722054091671,,0.500288531192,-0.200828043896,0.221400774952
1589284722057222972,6379,1589284722057082148,,0.500287241845,-0.200838225991,0.221398514801
1589284722063281758,6380,1589284722063117232,,0.500286214778,-0.200848811052,0.221396991863
1589284722066363565,6381,1589284722066138779,,0.500285282204,-0.200859839249,0.221394429811
1589284722069190838,6382,1589284722069082836,,0.500285104449,-0.200870570586,0.221393465015
1589284722075256278,6383,1589284722075120820,,0.500285024557,-0.200880714681,0.221394050246
1589284722078187745,6384,1589284722078030543,,0.500284260665,-0.200891198003,0.221393575698
1589284722081202274,6385,1589284722081053450,,0.500282363206,-0.200901420928,0.221391392251
1589284722087190429,6386,1589284722087043772,,0.500281776301,-0.200913113298,0.221392009306
1589284722090158439,6387,1589284722090028905,,0.500279739492,-0.200923963432,0.221389947374
1589284722093227573,6388,1589284722093067119,,0.500278725347,-0.200932658988,0.221388311641
1589284722099170369,6389,1589284722099042013,,0.500278582773,-0.200941098208,0.221388901551
1589284722102229670,6390,1589284722102066728,,0.500277437809,-0.200949853927,0.221387412994
1589284722105295440,6391,1589284722105082675,,0.500276739795,-0.200957629146,0.221386383027
1589284722111240555,6392,1589284722111136640,,0.500275965576,-0.200963969707,0.221384320206
1589284722114215592,6393,1589284722114103500,,0.500276597913,-0.200971046684,0.221385522613
1589284722120231212,6394,1589284722120103689,,0.500276261524,-0.20097528714,0.22138447654
1589284722123263995,6395,1589284722123136138,,0.500275686764,-0.20098167389,0.221383026633
1589284722126273000,6396,1589284722126139823,,0.500276273279,-0.200986400623,0.221382971541
1589284722129415869,6397,1589284722129226606,,0.500275220241,-0.200991140923,0.221381375066
1589284722135338279,6398,1589284722135148055,,0.500274258636,-0.200996577768,0.221379791275
1589284722138207945,6399,1589284722138079496,,0.500274619746,-0.200999602032,0.221380463097
1589284722141290965,6400,1589284722141098176,,0.500274504981,-0.201002405213,0.221379360558
1589284722147343451,6401,1589284722147135497,,0.500273564899,-0.201006202191,0.221378514288
1589284722150221117,6402,1589284722150092940,,0.500273227737,-0.201008349159,0.221378066722
1589284722153359202,6403,1589284722153083346,,0.500272502566,-0.201010693671,0.221377550514
1589284722159234620,6404,1589284722159075949,,0.500272525907,-0.201012051837,0.22137845016
1589284722162251268,6405,1589284722162128987,,0.500272567785,-0.201012954661,0.221377091613
1589284722165248351,6406,1589284722165148337,,0.500272553277,-0.201015120388,0.221377658632
1589284722171276632,6407,1589284722171149269,,0.500272314199,-0.201015755645,0.221377302551
1589284722174352074,6408,1589284722174136730,,0.5002722685,-0.201017637186,0.221377591759
1589284722180339806,6409,1589284722180160128,,0.500271910278,-0.201019513763,0.221377787402
1589284722183220964,6410,1589284722183103857,,0.500271889125,-0.201020283582,0.221377578121
1589284722186273222,6411,1589284722186110044,,0.500271862184,-0.201020257769,0.221377572138
1589284722192312423,6412,1589284722192148416,,0.500271873902,-0.201021797344,0.221377500332
1589284722195293213,6413,1589284722195131028,,0.500271843594,-0.201021768305,0.221377493601
1589284722198358102,6414,1589284722198146457,,0.500271747681,-0.201022209814,0.221378048763
1589284722204239515,6415,1589284722204109550,,0.500271505705,-0.20102234982,0.221376964311
1589284722207229714,6416,1589284722207091304,,0.500271767935,-0.201022349732,0.221377636054
1589284722210216405,6417,1589284722210108892,,0.500271766137,-0.201021694094,0.221377476399
1589284722216252201,6418,1589284722216083730,,0.500271538308,-0.201023623636,0.221377588532
1589284722219188232,6419,1589284722219084502,,0.500271728645,-0.201021512695,0.221378271989
1589284722222244163,6420,1589284722222096081,,0.500271394442,-0.201021467606,0.221377701596
1589284722228515268,6421,1589284722228366785,,0.50027175627,-0.20102207028,0.221378867214
1589284722231577731,6422,1589284722231480914,,0.500271602528,-0.201021109495,0.221378920657
1589284722234179106,6423,1589284722234085777,,0.500271345965,-0.201021854024,0.221378822879
1589284722240236073,6424,1589284722240087969,,0.500272011622,-0.201020486521,0.221379434471
1589284722243327650,6425,1589284722243152655,,0.500272034342,-0.201020557034,0.221379170142
1589284722246333869,6426,1589284722246146822,,0.500272230926,-0.201019644769,0.221379950329
1589284722252364383,6427,1589284722252172171,,0.500271896726,-0.20101959968,0.221379379937
1589284722255235230,6428,1589284722255121235,,0.500271955105,-0.201019011759,0.2213792361
1589284722258246494,6429,1589284722258108179,,0.500272421615,-0.201017082245,0.221379754535
1589284722264319745,6430,1589284722264124204,,0.50027242005,-0.201017734658,0.221379913438
1589284722267224428,6431,1589284722267124173,,0.500272667024,-0.201017121527,0.221379833227
1589284722270274117,6432,1589284722270155337,,0.500272483937,-0.201017044471,0.221380307129
1589284722276310603,6433,1589284722276107794,,0.500272815101,-0.201016512004,0.221380245619
1589284722279328971,6434,1589284722279138000,,0.500273157946,-0.201015798016,0.221381079428
1589284722282375904,6435,1589284722282186816,,0.500273293745,-0.20101663455,0.221380547427
1589284722288236920,6436,1589284722288143375,,0.500273133622,-0.201015728601,0.221380900133
1589284722291271862,6437,1589284722291152402,,0.500273532568,-0.201015130937,0.221381027441
1589284722297228045,6438,1589284722297077819,,0.500273440257,-0.201015123297,0.221380879578
1589284722300265866,6439,1589284722300130402,,0.500274165396,-0.20101394904,0.22138059185
1589284722303212560,6440,1589284722303111353,,0.500274201611,-0.201014649886,0.22138086669
1589284722309259922,6441,1589284722309159918,,0.500274201611,-0.201014649886,0.22138086669
1589284722312302356,6442,1589284722312162691,,0.500273821613,-0.201014462671,0.221380829088
1589284722315287447,6443,1589284722315133713,,0.500274209716,-0.201014732835,0.221380219736
1589284722321279384,6444,1589284722321111719,,0.500274248758,-0.201014695058,0.221380877162
1589284722324293240,6445,1589284722324130777,,0.500274840172,-0.201014887566,0.221381320335
1589284722330538372,6446,1589284722330406370,,0.500274862894,-0.201014958077,0.221381056004
1589284722333266903,6447,1589284722333115632,,0.500275265794,-0.201015762197,0.221381364265
1589284722336232166,6448,1589284722336141803,,0.500275598265,-0.201015687744,0.221382512683
1589284722339387443,6449,1589284722339190032,,0.50027626242,-0.201016048188,0.221382429055
1589284722345276499,6450,1589284722345139020,,0.50027677909,-0.201016969497,0.221383579172
1589284722348273144,6451,1589284722348149279,,0.50027861285,-0.201016557072,0.22138578797
1589284722354293868,6452,1589284722354137706,,0.500279391151,-0.201017490821,0.221386559874
1589284722357260468,6453,1589284722357132977,,0.500281388395,-0.201018047741,0.221388721627
1589284722360288307,6454,1589284722360120900,,0.500283122632,-0.201019256151,0.221390401505
1589284722363239846,6455,1589284722363122194,,0.500284666483,-0.201020008222,0.221390592742
1589284722369454534,6456,1589284722369179309,,0.500286965375,-0.20102327777,0.221390988057
1589284722372362291,6457,1589284722372230305,,0.500289481108,-0.201025254115,0.221391492995
1589284722378309470,6458,1589284722378124707,,0.500291790883,-0.201027990389,0.221390657787
1589284722381307061,6459,1589284722381173652,,0.500294722514,-0.201031581176,0.221390635211
1589284722384240994,6460,1589284722384134576,,0.500297315591,-0.201035987592,0.221390292335
1589284722387236975,6461,1589284722387124308,,0.500299461991,-0.201039556233,0.22138861267
1589284722393291102,6462,1589284722393156649,,0.500301512151,-0.201044713868,0.221388706152
1589284722396287235,6463,1589284722396156528,,0.500303680177,-0.20104979909,0.221387725196
1589284722402367617,6464,1589284722402142907,,0.500305174701,-0.201053114976,0.221386636085
1589284722405316710,6465,1589284722405190007,,0.500305969361,-0.201059126927,0.221386955032
1589284722408211464,6466,1589284722408115802,,0.500306764706,-0.201063317525,0.22138818712
1589284722411308715,6467,1589284722411168243,,0.500307377659,-0.201069797293,0.221388761568
1589284722417282115,6468,1589284722417164078,,0.500308569713,-0.201074933426,0.221389379095
1589284722420460426,6469,1589284722420243809,,0.50030928676,-0.201080592152,0.221388612681
1589284722426355323,6470,1589284722426140452,,0.500310131385,-0.201086570553,0.221389255546
1589284722429483434,6471,1589284722429342054,,0.500311496819,-0.201091949821,0.221389923018
1589284722432335929,6472,1589284722432191976,,0.500311580546,-0.201096981247,0.221388865911
1589284722438373592,6473,1589284722438175598,,0.500312840367,-0.201101083349,0.221388372434
1589284722441401676,6474,1589284722441173241,,0.500314304845,-0.2011038606,0.221389382095
1589284722444354924,6475,1589284722444225154,,0.500315060749,-0.201107874563,0.221389399177
1589284722450255567,6476,1589284722450129627,,0.500315691567,-0.201109924773,0.221390311885
1589284722453368502,6477,1589284722453130247,,0.50031652535,-0.201113019942,0.221391368541
1589284722456332104,6478,1589284722456178065,,0.500317048016,-0.201115608227,0.221391199096
1589284722462460648,6479,1589284722462275323,,0.500317243314,-0.201118861181,0.221392181289
1589284722465391835,6480,1589284722465216659,,0.500318071912,-0.201119979236,0.221392848543
1589284722468447267,6481,1589284722468231460,,0.500318155795,-0.201122783143,0.22139326434
1589284722474364947,6482,1589284722474187211,,0.500318328546,-0.201126265779,0.221393657938
1589284722477328642,6483,1589284722477173912,,0.500318699905,-0.201127901301,0.221394625867
1589284722480305724,6484,1589284722480198296,,0.500318669308,-0.201130980637,0.221394286608
1589284722486448444,6485,1589284722486250343,,0.500318646712,-0.201132680776,0.221394739377
1589284722489406053,6486,1589284722489223822,,0.50031941216,-0.201133865138,0.221395227339
1589284722492337612,6487,1589284722492152129,,0.50031927943,-0.20113615636,0.221395342244
1589284722498312158,6488,1589284722498206004,,0.500319181542,-0.201138624903,0.22139541391
1589284722501398683,6489,1589284722501185192,,0.500319915624,-0.201139554822,0.221396756583
1589284722504297140,6490,1589284722504123774,,0.500319854575,-0.201141312237,0.221395838958
1589284722510344839,6491,1589284722510205789,,0.500320042166,-0.201142437465,0.221395538896
1589284722513352886,6492,1589284722513204289,,0.500320264476,-0.201144274241,0.221395552847
1589284722516345137,6493,1589284722516224294,,0.500320020825,-0.201145857956,0.221394718545
1589284722522372306,6494,1589284722522212519,,0.500320125592,-0.201146765965,0.221394528911
1589284722525303680,6495,1589284722525191417,,0.500320543642,-0.201148458109,0.221394543425
1589284722528552454,6496,1589284722528410333,,0.500320644149,-0.201148934836,0.221392855225
1589284722534258063,6497,1589284722534161435,,0.500320805468,-0.201151095339,0.221394103735
1589284722537333222,6498,1589284722537164223,,0.50032058949,-0.201151762593,0.221392484437
1589284722540240514,6499,1589284722540149628,,0.500321166733,-0.20115274279,0.221392271949
1589284722546344064,6500,1589284722546206100,,0.500321611376,-0.201155158949,0.221392900238
1589284722549281619,6501,1589284722549202839,,0.500321344337,-0.201156661463,0.221392311931
1589284722552342490,6502,1589284722552198368,,0.500321804077,-0.201157715524,0.22139155585
1589284722558337080,6503,1589284722558170086,,0.500321525404,-0.201157899247,0.221390608767
1589284722561300402,6504,1589284722561166853,,0.500321558095,-0.201160048181,0.221389563362
1589284722564370034,6505,1589284722564246649,,0.50032213277,-0.201161157746,0.221388886867
1589284722570376468,6506,1589284722570262841,,0.500322283337,-0.201162281337,0.221387770108
1589284722573218228,6507,1589284722573124907,,0.500322648098,-0.201164093715,0.221386773108
1589284722579272590,6508,1589284722579122457,,0.500322742654,-0.20116640323,0.221386286272
1589284722582341880,6509,1589284722582153827,,0.500322844731,-0.201168287002,0.221384973179
1589284722585331380,6510,1589284722585203310,,0.50032358287,-0.20116898104,0.221383758489
1589284722591323565,6511,1589284722591221151,,0.500324145172,-0.201170791855,0.221383513287
1589284722594412279,6512,1589284722594238861,,0.500324951509,-0.201172045689,0.221382676012
1589284722597292794,6513,1589284722597178257,,0.500324919392,-0.201175578689,0.221382042044
1589284722603303538,6514,1589284722603187620,,0.500325942211,-0.201176144956,0.221381559611
1589284722606303775,6515,1589284722606198828,,0.500326442702,-0.201177950096,0.221381445831
1589284722609331932,6516,1589284722609176851,,0.500327331126,-0.20117976602,0.221380894713
1589284722615295161,6517,1589284722615189470,,0.500328052856,-0.201180947958,0.221381417817
1589284722618341714,6518,1589284722618187310,,0.500327992489,-0.201181824085,0.221380393198
1589284722621427152,6519,1589284722621230407,,0.500328852081,-0.20118210167,0.221380998361
1589284722627710635,6520,1589284722627604264,,0.500329705387,-0.2011835461,0.221382586865
1589284722630633018,6521,1589284722630494057,,0.500329747924,-0.201185031205,0.221382597347
1589284722633371727,6522,1589284722633173698,,0.500330976218,-0.201184622754,0.221383963763
1589284722639254224,6523,1589284722639125067,,0.500330751866,-0.201185537022,0.221382790014
1589284722642321650,6524,1589284722642174853,,0.500331129498,-0.201186208598,0.22138363361
1589284722645371512,6525,1589284722645238718,,0.500331435681,-0.201188397686,0.22138401616
1589284722651386564,6526,1589284722651225956,,0.500331776377,-0.201187686762,0.221385009504
1589284722654310827,6527,1589284722654201136,,0.500332660544,-0.201187208601,0.221385587473
1589284722657308205,6528,1589284722657191619,,0.500332669343,-0.201187861007,0.221385746439
1589284722663334577,6529,1589284722663234855,,0.500332772679,-0.201188577735,0.221386298511
1589284722666407592,6530,1589284722666217990,,0.500333005838,-0.201187734725,0.221386755313
1589284722669365702,6531,1589284722669184247,,0.500333470561,-0.201187963896,0.22138688289
1589284722675349779,6532,1589284722675191453,,0.500333479019,-0.201188106129,0.221386517897
1589284722678410329,6533,1589284722678220187,,0.500333470561,-0.201187963896,0.22138688289
1589284722681324934,6534,1589284722681206314,,0.500334006509,-0.201188005566,0.221387852823
1589284722687365027,6535,1589284722687206883,,0.500334004627,-0.201188622484,0.221387884745
1589284722690345110,6536,1589284722690245089,,0.500334070099,-0.201188005577,0.221387566245
1589284722696292113,6537,1589284722696171898,,0.500334722238,-0.201187301099,0.221389070848
1589284722699406213,6538,1589284722699225058,,0.500334974119,-0.201186650368,0.22138862444
1589284722702296407,6539,1589284722702195734,,0.500334464583,-0.201187623671,0.221386493079
1589284722708261826,6540,1589284722708162269,,0.5003354042,-0.20118632517,0.221387380774
1589284722711386582,6541,1589284722711162377,,0.500335421634,-0.201187084322,0.221386998772
1589284722717312437,6542,1589284722717180260,,0.500335538925,-0.201185873083,0.221386534762
1589284722720342469,6543,1589284722720224213,,0.500335851013,-0.201185800276,0.221386676939
1589284722723251544,6544,1589284722723167238,,0.500336642431,-0.201183673259,0.221385692808
1589284722726337833,6545,1589284722726181100,,0.50033749581,-0.201183049655,0.221386588045
1589284722732398984,6546,1589284722732240964,,0.500337553993,-0.201181787366,0.22138516613
1589284722735373421,6547,1589284722735164490,,0.500337936976,-0.20118054388,0.221384963642
1589284722741350010,6548,1589284722741215134,,0.500338605289,-0.201179179349,0.221384168686
1589284722744292823,6549,1589284722744169165,,0.50033898813,-0.201177900413,0.221383839046
1589284722747303921,6550,1589284722747184008,,0.50033944439,-0.201177357736,0.221383743829
1589284722750377482,6551,1589284722750209477,,0.500340042015,-0.201175873395,0.221384322148
1589284722759265273,6552,1589284722759153458,,0.500342104884,-0.201169984112,0.221382626302
1589284722765220349,6553,1589284722765139489,,0.500342058287,-0.201169608532,0.221380730791
1589284722768251114,6554,1589284722768172043,,0.500343375261,-0.20116560616,0.221382066092
1589284722771336130,6555,1589284722771172741,,0.500344698002,-0.201164160992,0.221381112622
1589284722774259384,6556,1589284722774174765,,0.500345564812,-0.201161076288,0.221379781674
1589284722780278654,6557,1589284722780160200,,0.500346626422,-0.201157359169,0.221377707268
1589284722783260199,6558,1589284722783146310,,0.500348009228,-0.20115415518,0.221376698011
1589284722789402603,6559,1589284722789250227,,0.500349407059,-0.201151358414,0.22137461317
1589284722792288737,6560,1589284722792191840,,0.500351582662,-0.201145791829,0.221374561696
1589284722795288428,6561,1589284722795176887,,0.500353640282,-0.201139729911,0.221373317572
1589284722798251596,6562,1589284722798129501,,0.500356692547,-0.201134027464,0.221373461995
1589284722804370930,6563,1589284722804199492,,0.500358830486,-0.201128131456,0.221372253428
1589284722807315463,6564,1589284722807174656,,0.500361972114,-0.201120326596,0.22137197929
1589284722813393931,6565,1589284722813245279,,0.500365262701,-0.201111493716,0.221373307404
1589284722816331804,6566,1589284722816239963,,0.500368199138,-0.201104708056,0.221374005522
1589284722819283828,6567,1589284722819204496,,0.500369816065,-0.201097313474,0.221372336323
1589284722822320025,6568,1589284722822236699,,0.500371509433,-0.201089473181,0.221371077377
1589284722828724920,6569,1589284722828608362,,0.500374111425,-0.201082422297,0.221370777598
1589284722831613035,6570,1589284722831518836,,0.500375442222,-0.201074683419,0.221369075223
1589284722837379516,6571,1589284722837265215,,0.500377009965,-0.201065966704,0.221367412537
1589284722840346889,6572,1589284722840230406,,0.500379235459,-0.201057163783,0.221366160362
1589284722843414389,6573,1589284722843232409,,0.500381318949,-0.2010414319,0.22136335138
1589284722849414150,6574,1589284722849238344,,0.500383608446,-0.201011369013,0.221355881609
1589284722852464496,6575,1589284722852304410,,0.500384475984,-0.200999053289,0.221351556517
1589284722855413024,6576,1589284722855252396,,0.500386334442,-0.200988966937,0.221350376079
1589284722861403537,6577,1589284722861224513,,0.500387639997,-0.200977789504,0.221347928577
1589284722864385512,6578,1589284722864230688,,0.500388080189,-0.200969717934,0.221346013657
1589284722867370118,6579,1589284722867238270,,0.50038828355,-0.2009598782,0.221343039247
1589284722873300046,6580,1589284722873176540,,0.500388488887,-0.200949134387,0.221340374859
1589284722876257734,6581,1589284722876176522,,0.500389225499,-0.200937848448,0.221337495053
1589284722879325018,6582,1589284722879205496,,0.500387999793,-0.200927676524,0.221332899799
1589284722885409650,6583,1589284722885279425,,0.50038647229,-0.200916231205,0.221328998089
1589284722888418104,6584,1589284722888229429,,0.500384588374,-0.200906441449,0.221326305074
1589284722891421449,6585,1589284722891222423,,0.500381448125,-0.200894431707,0.221322885912
1589284722897390469,6586,1589284722897292055,,0.500378387976,-0.200885532998,0.221323664593
1589284722900354490,6587,1589284722900210624,,0.500376642954,-0.200875919729,0.221323101654
1589284722903287112,6588,1589284722903194820,,0.500375735939,-0.20086826978,0.221319758851
1589284722909445020,6589,1589284722909205489,,0.500374394891,-0.20086106305,0.22131627329
1589284722912249885,6590,1589284722912168467,,0.500373510469,-0.200855440901,0.221313444091
1589284722915296974,6591,1589284722915148852,,0.500372184213,-0.200848745204,0.221309257237
1589284722921333534,6592,1589284722921164716,,0.500371891629,-0.200840038179,0.221307112665
1589284722924333952,6593,1589284722924167008,,0.500370881054,-0.200833948059,0.221303974118
1589284722927322716,6594,1589284722927210618,,0.500370496298,-0.200825333537,0.221303659628
1589284722933328445,6595,1589284722933228035,,0.500369340296,-0.200816692655,0.221301417752
1589284722936313912,6596,1589284722936198049,,0.500368143846,-0.200808845396,0.221298785031
1589284722942374932,6597,1589284722942193350,,0.500367064153,-0.200799167606,0.221296923252
1589284722945351127,6598,1589284722945212427,,0.500365416565,-0.200789124153,0.221295656789
1589284722948275231,6599,1589284722948166191,,0.500364348397,-0.200781412184,0.221296827793
1589284722951312302,6600,1589284722951162107,,0.500362451221,-0.200771273865,0.221295468461
1589284722957400725,6601,1589284722957276154,,0.500361532666,-0.200762106284,0.221293649442
1589284722960317540,6602,1589284722960233059,,0.500360632478,-0.200754003829,0.221290995659
1589284722966345568,6603,1589284722966179280,,0.500359853485,-0.200745002315,0.221287848971
1589284722969308612,6604,1589284722969198231,,0.500358771654,-0.200734896745,0.221285193282
1589284722972462389,6605,1589284722972261574,,0.500358214112,-0.200725488869,0.221281046638
1589284722978490896,6606,1589284722978304388,,0.500357969958,-0.20071449215,0.221278414443
1589284722981338295,6607,1589284722981192012,,0.500357468219,-0.200702820451,0.221275023993
1589284722984392154,6608,1589284722984244462,,0.500357597215,-0.200690610702,0.22127199381
1589284722990280108,6609,1589284722990168296,,0.500357297987,-0.200678783742,0.221269063171
1589284722993286563,6610,1589284722993178361,,0.50035666062,-0.200667820882,0.221265265618
1589284722996289529,6611,1589284722996145161,,0.50035703774,-0.200653286072,0.2212626997
1589284723002346861,6612,1589284723002205890,,0.500357196913,-0.200640322232,0.221259380845
1589284723005375599,6613,1589284723005266421,,0.500358225305,-0.200625928566,0.221257505602
1589284723008421393,6614,1589284723008287651,,0.500358325102,-0.200612945259,0.221254373038
1589284723014404917,6615,1589284723014255203,,0.500358246137,-0.200600969647,0.221250361234
1589284723017327700,6616,1589284723017203697,,0.500358334753,-0.200590018618,0.221247439472
1589284723020436984,6617,1589284723020255172,,0.500357761753,-0.200578898162,0.22124427412
1589284723026367920,6618,1589284723026259067,,0.500357388144,-0.200566945225,0.221239509092
1589284723029683715,6619,1589284723029477027,,0.500357507935,-0.200554481784,0.221236133845
1589284723032670993,6620,1589284723032539280,,0.500356452225,-0.200542332042,0.221230862596
1589284723038327784,6621,1589284723038222671,,0.500356307188,-0.200528678734,0.221227528723
1589284723041547635,6622,1589284723041301485,,0.500356707069,-0.200514373342,0.221225520828
1589284723044373591,6623,1589284723044251373,,0.500356889481,-0.200500561051,0.221223129064
1589284723050367727,6624,1589284723050215037,,0.500356499364,-0.200488515542,0.221218901778
1589284723053372351,6625,1589284723053216534,,0.500355792145,-0.200473679511,0.221215106752
1589284723056399271,6626,1589284723056282123,,0.500356451861,-0.200459735588,0.221211873709
1589284723062448688,6627,1589284723062273063,,0.500356661363,-0.200443026381,0.221209123084
1589284723065360939,6628,1589284723065252046,,0.500356830503,-0.200425968761,0.22120517203
1589284723068403022,6629,1589284723068261816,,0.500356977849,-0.200409292397,0.221201033181
1589284723074402137,6630,1589284723074268464,,0.500357417904,-0.200391727006,0.221196561427
1589284723077417687,6631,1589284723077275631,,0.500357391419,-0.200376199028,0.221191236936
1589284723080337799,6632,1589284723080212397,,0.500358278876,-0.200359341124,0.221187518466
1589284723086470492,6633,1589284723086271387,,0.500358804216,-0.200342480429,0.221182498401
1589284723089398650,6634,1589284723089282231,,0.500358818118,-0.200327280811,0.221177851321
1589284723095481662,6635,1589284723095283325,,0.500358417823,-0.200312914861,0.221173905779
1589284723098361968,6636,1589284723098282057,,0.5003587327,-0.200298801447,0.221169389196
1589284723104459776,6637,1589284723104275397,,0.500359161247,-0.200280737206,0.221167502936
1589284723107519055,6638,1589284723107319650,,0.500358143152,-0.200264335654,0.221162982403
1589284723110452385,6639,1589284723110323970,,0.500357676075,-0.20024799029,0.221159843831
1589284723113407549,6640,1589284723113296185,,0.50035711106,-0.200232066585,0.221156390734
1589284723119448441,6641,1589284723119318493,,0.500355632123,-0.200219357949,0.221153389234
1589284723122412294,6642,1589284723122297403,,0.500355479258,-0.200205285676,0.221150074909
1589284723128782443,6643,1589284723128652689,,0.500355155555,-0.200190751972,0.221147070045
1589284723131875751,6644,1589284723131608006,,0.500354256762,-0.200177472934,0.221143570029
1589284723134329206,6645,1589284723134187013,,0.500353589138,-0.200164059032,0.221140179331
1589284723137437972,6646,1589284723137313851,,0.500352537381,-0.200150885677,0.221135325829
1589284723143386937,6647,1589284723143284226,,0.500351636507,-0.200138219658,0.221131319405
1589284723146423290,6648,1589284723146288751,,0.500350327833,-0.200124022206,0.22112683023
1589284723152419804,6649,1589284723152290881,,0.500349499799,-0.200111245797,0.221122123899
1589284723155385047,6650,1589284723155232503,,0.500348277493,-0.200098256855,0.221117977
1589284723158376530,6651,1589284723158235872,,0.500347483983,-0.200083701909,0.221112423478
1589284723161379993,6652,1589284723161227477,,0.500346083275,-0.200071335406,0.221107047108
1589284723167524890,6653,1589284723167306004,,0.500345917086,-0.200057202954,0.22110364199
1589284723170553188,6654,1589284723170367213,,0.500345605337,-0.200043459441,0.221098701123
1589284723176350265,6655,1589284723176210120,,0.500344057212,-0.200030646802,0.221093741448
1589284723179252368,6656,1589284723179182491,,0.500343048791,-0.200018572918,0.22109044248
1589284723182260220,6657,1589284723182161676,,0.500341985428,-0.200005206234,0.221086965439
1589284723185363612,6658,1589284723185238946,,0.500339829689,-0.199994404658,0.221081249509
1589284723191498154,6659,1589284723191297356,,0.500338590052,-0.199983145626,0.221077755252
1589284723194486708,6660,1589284723194346209,,0.500337339744,-0.199972623614,0.221072426808
1589284723200379318,6661,1589284723200285341,,0.500335934804,-0.199961584884,0.221066977355
1589284723203363834,6662,1589284723203251147,,0.500334815478,-0.199951417546,0.22106350492
1589284723206369789,6663,1589284723206276256,,0.500332886851,-0.199939942379,0.221056484885
1589284723209361857,6664,1589284723209218772,,0.500332363206,-0.199928200706,0.221052388573
1589284723215293639,6665,1589284723215210497,,0.500330763397,-0.199916430167,0.221046476842
1589284723218375487,6666,1589284723218282181,,0.500329099599,-0.199903929483,0.221039933693
1589284723224350336,6667,1589284723224247179,,0.50032774089,-0.19989086876,0.221034912835
1589284723227315042,6668,1589284723227245936,,0.500325523223,-0.199878917837,0.221030103431
1589284723230535385,6669,1589284723230387139,,0.500324500294,-0.199867355388,0.221025763869
1589284723236357256,6670,1589284723236231803,,0.500322785802,-0.199854441527,0.221020986551
1589284723239442141,6671,1589284723239268601,,0.500321147571,-0.199840521785,0.221015982413
1589284723242424960,6672,1589284723242240209,,0.500319806544,-0.199827405424,0.221012308648
1589284723248378277,6673,1589284723248304226,,0.500317570265,-0.199811903134,0.221007598452
1589284723251404286,6674,1589284723251244884,,0.500316968286,-0.199795319095,0.221004171705
1589284723254480132,6675,1589284723254294254,,0.500315670571,-0.199778863652,0.221000017996
1589284723260460363,6676,1589284723260328026,,0.500314780728,-0.199761548456,0.220996254027
1589284723263326833,6677,1589284723263241487,,0.500312224518,-0.199744354766,0.22098984591
1589284723266381999,6678,1589284723266245912,,0.500310846821,-0.199727049012,0.220984643204
1589284723272438297,6679,1589284723272262055,,0.500309675685,-0.199709181309,0.220979087225
1589284723275406169,6680,1589284723275269773,,0.500308481902,-0.199691256985,0.220974319718
1589284723278411906,6681,1589284723278257363,,0.500307126293,-0.199675181463,0.220970370607
1589284723284419550,6682,1589284723284246583,,0.500306744754,-0.199655866933,0.220966344957
1589284723287408174,6683,1589284723287279192,,0.500305044735,-0.199639431137,0.22096082837
1589284723290417500,6684,1589284723290322947,,0.500304282748,-0.19962377964,0.220956373488
1589284723299438726,6685,1589284723299301133,,0.500299412557,-0.199591404767,0.220945022295
1589284723302464797,6686,1589284723302342543,,0.500297584305,-0.19957428213,0.220941165506
1589284723308473005,6687,1589284723308372542,,0.500295422197,-0.199559009218,0.220936408877
1589284723311467562,6688,1589284723311318686,,0.500294205753,-0.199542505498,0.220934622764
1589284723314322673,6689,1589284723314190905,,0.500292592032,-0.19952597607,0.220930563226
1589284723320381184,6690,1589284723320230152,,0.500291081535,-0.199506617032,0.220925121591
1589284723323401133,6691,1589284723323266259,,0.500290054963,-0.199487001792,0.220918998107
1589284723326409676,6692,1589284723326254226,,0.500288854707,-0.199469432678,0.220914344044
1589284723332873576,6693,1589284723332640750,,0.500287798946,-0.199448131611,0.220909270254
1589284723335452366,6694,1589284723335291522,,0.500286611575,-0.199426745352,0.220904984217
1589284723338430749,6695,1589284723338277799,,0.500285807085,-0.199405654271,0.220901499201
1589284723344362281,6696,1589284723344245377,,0.500283862679,-0.199383916359,0.220895516477
1589284723347373102,6697,1589284723347259220,,0.50028130434,-0.199362389919,0.220887669387
1589284723353405962,6698,1589284723353289679,,0.500278840752,-0.199341417048,0.220882742919
1589284723359459143,6699,1589284723359316057,,0.500274403127,-0.199297717149,0.220874615258
1589284723365485646,6700,1589284723365336290,,0.500271746301,-0.199274896861,0.22086708293
1589284723368459442,6701,1589284723368316875,,0.500269632941,-0.199252058934,0.22085991834
1589284723371524823,6702,1589284723371338715,,0.50026774076,-0.199231998456,0.220852937693
1589284723377363669,6703,1589284723377255025,,0.500266813688,-0.199214644473,0.220848933852
1589284723380488574,6704,1589284723380313988,,0.500264153373,-0.199194605247,0.220842816154
1589284723383328118,6705,1589284723383245440,,0.50026141205,-0.199178229416,0.220836582153
1589284723389642961,6706,1589284723389367171,,0.500259397747,-0.19916118691,0.220832856602
1589284723392410151,6707,1589284723392309804,,0.500256109267,-0.199142303792,0.220826892291
1589284723395437709,6708,1589284723395297998,,0.50025269153,-0.199120401372,0.220820555662
1589284723401483852,6709,1589284723401306600,,0.500250364808,-0.199103857862,0.220816657974
1589284723404410784,6710,1589284723404309872,,0.500247543014,-0.199083981258,0.220811635257
1589284723407509315,6711,1589284723407324590,,0.500243877359,-0.199062934539,0.220805131266
1589284723413393369,6712,1589284723413306382,,0.50024150461,-0.199042517418,0.220799206065
1589284723419524068,6713,1589284723419303977,,0.50023768531,-0.199000354794,0.220788174123
1589284723425439101,6714,1589284723425325101,,0.500234947048,-0.198978737064,0.220779829673
1589284723428838687,6715,1589284723428699954,,0.500233222267,-0.19895622658,0.220773135431
1589284723431743191,6716,1589284723431589158,,0.500230572413,-0.198932866319,0.220763689862
1589284723437455776,6717,1589284723437308047,,0.500226758985,-0.198909533135,0.220755167683
1589284723443428052,6718,1589284723443318212,,0.50022411552,-0.198881108705,0.220749120587
1589284723446473829,6719,1589284723446300286,,0.500220626986,-0.198853103586,0.220743273557
1589284723449396194,6720,1589284723449287309,,0.500218487872,-0.198830051312,0.220736230389
1589284723452402448,6721,1589284723452295192,,0.500216276553,-0.198804153427,0.220731780254
1589284723455438848,6722,1589284723455302097,,0.500213505697,-0.198774464384,0.220727333737
1589284723461514715,6723,1589284723461340181,,0.50021110822,-0.198752664785,0.220721088482
1589284723464551554,6724,1589284723464379844,,0.500208514996,-0.198724933163,0.220712012286
1589284723470420777,6725,1589284723470297998,,0.500205552182,-0.198698118963,0.220704178329
1589284723473466122,6726,1589284723473345287,,0.500204163724,-0.198667843331,0.220698921204
1589284723479484665,6727,1589284723479323304,,0.500199855445,-0.198615373026,0.220685436332
1589284723485498633,6728,1589284723485342939,,0.500197255504,-0.198590192896,0.220678411933
1589284723491536455,6729,1589284723491370688,,0.500196081078,-0.198563071893,0.220672292426
1589284723494472352,6730,1589284723494341898,,0.500193888958,-0.198537226478,0.220663290163
1589284723497438072,6731,1589284723497322776,,0.500191134147,-0.198510583993,0.220652141101
1589284723500446789,6732,1589284723500327751,,0.500190240175,-0.198480714816,0.220645736707
1589284723506438206,6733,1589284723506305559,,0.500188808435,-0.198453191065,0.220638188874
1589284723509479861,6734,1589284723509303106,,0.500186476724,-0.198428374018,0.220630379945
1589284723515568881,6735,1589284723515334184,,0.500185051462,-0.198399571544,0.220620785955
1589284723518533857,6736,1589284723518312625,,0.500184648635,-0.198371351477,0.220613425536
1589284723521473818,6737,1589284723521330070,,0.500182736649,-0.198343196437,0.220605321917
1589284723524462475,6738,1589284723524359172,,0.500181376466,-0.198314094078,0.220595741783
1589284723530601487,6739,1589284723530493693,,0.500180333349,-0.198285426065,0.220586314043
1589284723533506470,6740,1589284723533373283,,0.500179055826,-0.198256457756,0.220579656314
1589284723539573063,6741,1589284723539380930,,0.50017789761,-0.198226367767,0.220569750459
1589284723542464580,6742,1589284723542318881,,0.500176679716,-0.198196095984,0.22056076024
1589284723545447958,6743,1589284723545332691,,0.500174734776,-0.198169342459,0.220552125773
1589284723548469362,6744,1589284723548369907,,0.500172790955,-0.198139759849,0.220541049813
1589284723554466582,6745,1589284723554347239,,0.500170116177,-0.198111451743,0.220529678932
1589284723557545567,6746,1589284723557356899,,0.500169586313,-0.198082295464,0.220521677186
1589284723563598228,6747,1589284723563439425,,0.500168524639,-0.198052717516,0.220512340993
1589284723566510653,6748,1589284723566343899,,0.500167059416,-0.198027853606,0.220503130229
1589284723569405357,6749,1589284723569320674,,0.500164105853,-0.198000194524,0.220491251681
1589284723572447420,6750,1589284723572336012,,0.500162926441,-0.197971622844,0.220482389045
1589284723578421397,6751,1589284723578325860,,0.500161879299,-0.197942837155,0.220476692399
1589284723581488252,6752,1589284723581309506,,0.500159808369,-0.197916896297,0.220466847165
1589284723587508747,6753,1589284723587287028,,0.500157672421,-0.197887962173,0.220458938225
1589284723590456721,6754,1589284723590342512,,0.500156122375,-0.197858605006,0.220453043695
1589284723593410179,6755,1589284723593297379,,0.500156042363,-0.197831887731,0.220446500501
1589284723602496599,6756,1589284723602388255,,0.500152167129,-0.197780626432,0.220427970101
1589284723605471772,6757,1589284723605313753,,0.500151117101,-0.19775278226,0.2204222381
1589284723611537012,6758,1589284723611397948,,0.500149540847,-0.197725361718,0.220416010117
1589284723614431227,6759,1589284723614334263,,0.500148558892,-0.197695483873,0.220408798209
1589284723617444575,6760,1589284723617353519,,0.500148263919,-0.197666691168,0.220401690809
1589284723623474835,6761,1589284723623350467,,0.500147130101,-0.197639353343,0.220390906493
1589284723626474894,6762,1589284723626339732,,0.500146741443,-0.197616990102,0.220382175069
1589284723635554685,6763,1589284723635349526,,0.500146048311,-0.197568071705,0.220363165565
1589284723638419216,6764,1589284723638339893,,0.500147344804,-0.197541180121,0.220357639317
1589284723641463485,6765,1589284723641356223,,0.500147057952,-0.19751670666,0.220349619697
1589284723647455740,6766,1589284723647330100,,0.500147014538,-0.1974905466,0.220344081128
1589284723650458374,6767,1589284723650362892,,0.500147042961,-0.197460179534,0.220335292699
1589284723653436042,6768,1589284723653322708,,0.500147077542,-0.197430739984,0.220327712755
1589284723659551015,6769,1589284723659333455,,0.500147680509,-0.197407895045,0.220322287873
1589284723662460784,6770,1589284723662338011,,0.500148344286,-0.197389121097,0.22031780802
1589284723665417523,6771,1589284723665307992,,0.500149451422,-0.197364039335,0.220312565295
1589284723671509152,6772,1589284723671305587,,0.500149563756,-0.197341771706,0.220305425211
1589284723674387352,6773,1589284723674278803,,0.500151404145,-0.19732195332,0.220301831467
1589284723677352724,6774,1589284723677273578,,0.500153169331,-0.197298728333,0.220295483944
1589284723683451453,6775,1589284723683308797,,0.500154427844,-0.19727336664,0.220288097449
1589284723686501394,6776,1589284723686370976,,0.500155063306,-0.19724885109,0.220281158955
1589284723689448816,6777,1589284723689314104,,0.500155825912,-0.197222150029,0.22027557063
1589284723695470006,6778,1589284723695317917,,0.500156433474,-0.197196246367,0.22026912854
1589284723698429217,6779,1589284723698287797,,0.50015644997,-0.19717237125,0.220262674066
1589284723701418090,6780,1589284723701322526,,0.500157619898,-0.197145243765,0.220255774265
1589284723707482446,6781,1589284723707373589,,0.500158990717,-0.197119706443,0.220248913483
1589284723710410679,6782,1589284723710307444,,0.500160226369,-0.197092589607,0.220243066051
1589284723713513567,6783,1589284723713322365,,0.500161879862,-0.197064807959,0.220234162927
1589284723719460338,6784,1589284723719305984,,0.500164344027,-0.19703443999,0.220227520388
1589284723722398803,6785,1589284723722295576,,0.500166681823,-0.197004041335,0.220220582519
1589284723725445513,6786,1589284723725316606,,0.500169412382,-0.196970627506,0.220212451504
1589284723731854957,6787,1589284723731665406,,0.500171282146,-0.196938714331,0.220202050255
1589284723734390162,6788,1589284723734308750,,0.500175235263,-0.196903860167,0.220196418877
1589284723740438124,6789,1589284723740346454,,0.50017895209,-0.196867807641,0.220190741898
1589284723743454751,6790,1589284723743326550,,0.500182487795,-0.196828979556,0.220184584107
1589284723746627071,6791,1589284723746391984,,0.500186724897,-0.196782462848,0.220175222028
1589284723752441097,6792,1589284723752319498,,0.500192245886,-0.19673574802,0.220165627423
1589284723755404079,6793,1589284723755291426,,0.500201718796,-0.196685259582,0.220151366093
1589284723758460852,6794,1589284723758332714,,0.500210541544,-0.19663389425,0.220134145576
1589284723764489117,6795,1589284723764386622,,0.500215032913,-0.196591966545,0.220119778647
1589284723767555738,6796,1589284723767419098,,0.500215901014,-0.196548196004,0.220102017607
1589284723770473581,6797,1589284723770348161,,0.500215166456,-0.196502720049,0.220082698012
1589284723779537572,6798,1589284723779396218,,0.50021952568,-0.196413270725,0.220059883235
1589284723782451334,6799,1589284723782359709,,0.500226539685,-0.196367537414,0.220051411144
1589284723788525015,6800,1589284723788355973,,0.500235880382,-0.196319041072,0.220043383366
1589284723791589810,6801,1589284723791413837,,0.500243776376,-0.196279097882,0.220042000013
1589284723794571845,6802,1589284723794431834,,0.500251268774,-0.196238320619,0.22004236014
1589284723800505166,6803,1589284723800378804,,0.500258068711,-0.196196758614,0.220041551726
1589284723803489763,6804,1589284723803375638,,0.500266162248,-0.19615163392,0.220040824891
1589284723806610278,6805,1589284723806405997,,0.500271463811,-0.196116266757,0.220040238351
1589284723812618849,6806,1589284723812417425,,0.500279008475,-0.196061332525,0.220032377174
1589284723815550635,6807,1589284723815436559,,0.500288576522,-0.195987942142,0.220018723803
1589284723818488638,6808,1589284723818384514,,0.500294189946,-0.195934997321,0.220002808445
1589284723824473212,6809,1589284723824343850,,0.500300546462,-0.195866552372,0.21998010546
1589284723828999200,6810,1589284723828800747,,0.500313507226,-0.195774032974,0.219955373688
1589284723833875600,6811,1589284723833702232,,0.500323687752,-0.195690087109,0.219928566595
1589284723839567196,6812,1589284723839444834,,0.500347179887,-0.195509784028,0.219874179855
1589284723842479725,6813,1589284723842334127,,0.500359600109,-0.195413750806,0.219846399869
1589284723848568003,6814,1589284723848428178,,0.500372358781,-0.195315340024,0.219820180749
1589284723851528934,6815,1589284723851380390,,0.500384207734,-0.195216890274,0.21979409832
1589284723854554197,6816,1589284723854421301,,0.500397396597,-0.195118099237,0.219768431473
1589284723860546985,6817,1589284723860389813,,0.500410696098,-0.195021807699,0.219745762843
1589284723863538098,6818,1589284723863437533,,0.500422390038,-0.194934883334,0.219723191536
1589284723869471888,6819,1589284723869378652,,0.500431778546,-0.194861465418,0.219705026887
1589284723872544311,6820,1589284723872411595,,0.500444713027,-0.194774228493,0.219685161997
1589284723875594584,6821,1589284723875415116,,0.500456191238,-0.1946864652,0.219663030169
1589284723878484485,6822,1589284723878372627,,0.500463774001,-0.194622780803,0.219642975686
1589284723884547315,6823,1589284723884413554,,0.500473276262,-0.194548593672,0.219621988393
1589284723887528993,6824,1589284723887445338,,0.500482575989,-0.194473400805,0.219596672424
1589284723893618950,6825,1589284723893479261,,0.500489249404,-0.194404720708,0.219570181336
1589284723902563944,6826,1589284723902395668,,0.500505717044,-0.194275567656,0.2195210343
1589284723905514955,6827,1589284723905414956,,0.500516110809,-0.194205555753,0.219498327743
1589284723908530160,6828,1589284723908394184,,0.500526196607,-0.194131506033,0.21947288891
1589284723911565883,6829,1589284723911418047,,0.500537713999,-0.194053704553,0.219447306208
1589284723917487437,6830,1589284723917391472,,0.500548281364,-0.193972787254,0.219423724243
1589284723920444061,6831,1589284723920353562,,0.500561126497,-0.193884660566,0.219400522908
1589284723926489529,6832,1589284723926401111,,0.500575114327,-0.193798523377,0.219383209408
1589284723929434363,6833,1589284723929354122,,0.500586733195,-0.19372352894,0.219361398512
1589284723932709659,6834,1589284723932573414,,0.500602715795,-0.193622109792,0.219338928822
1589284723935546099,6835,1589284723935392763,,0.50061852703,-0.193509148064,0.219313014234
1589284723941603195,6836,1589284723941387441,,0.500632654317,-0.1934187011,0.219293501814
1589284723944449532,6837,1589284723944355732,,0.50064713867,-0.193313048144,0.219266959897
1589284723950452045,6838,1589284723950375457,,0.500664364744,-0.19319073981,0.219239802703
1589284723953515027,6839,1589284723953360491,,0.500676806905,-0.193087691284,0.219212861358
1589284723959492908,6840,1589284723959384007,,0.500699917591,-0.192890890956,0.219156367725
1589284723965569125,6841,1589284723965408526,,0.500710910202,-0.192797632438,0.219130095964
1589284723968575883,6842,1589284723968440942,,0.500720579493,-0.192710015971,0.219104064255
1589284723974521932,6843,1589284723974374859,,0.500730734052,-0.192626568117,0.219082851796
1589284723977525320,6844,1589284723977424315,,0.500739479133,-0.192544453705,0.219059541035
1589284723980537586,6845,1589284723980349092,,0.500747758716,-0.192466156911,0.219038651815
1589284723983638951,6846,1589284723983539655,,0.500757458416,-0.192396821051,0.219025430554
1589284723989432357,6847,1589284723989337410,,0.500763048985,-0.192348396928,0.219011752
1589284723992495954,6848,1589284723992383133,,0.50077142871,-0.192280540437,0.218994985651
1589284723998544470,6849,1589284723998371232,,0.500781434967,-0.192202812073,0.218982618641
1589284724001495835,6850,1589284724001363742,,0.500789105177,-0.192154521013,0.218974762293
1589284724004551493,6851,1589284724004445223,,0.500797240048,-0.192084745587,0.218957539578
1589284724010536943,6852,1589284724010449868,,0.500807075229,-0.192000902046,0.218940233601
1589284724013523797,6853,1589284724013408443,,0.500815136244,-0.191926945995,0.218922777844
1589284724022595840,6854,1589284724022438845,,0.50083206912,-0.191765207658,0.218879435235
1589284724025708347,6855,1589284724025510210,,0.500843231379,-0.191675809941,0.218855823445
1589284724028526715,6856,1589284724028393046,,0.500853387251,-0.191579236486,0.218829266952
1589284724034941846,6857,1589284724034786814,,0.500863171053,-0.191476781515,0.218800897649
1589284724037575675,6858,1589284724037465300,,0.500874794638,-0.191365289621,0.218772545712
1589284724040565864,6859,1589284724040441729,,0.500885735898,-0.191251127337,0.218744872224
1589284724046547274,6860,1589284724046415084,,0.500896256433,-0.191157746425,0.218725081674
1589284724049499126,6861,1589284724049398565,,0.500906080119,-0.191059767922,0.21870040336
1589284724052596771,6862,1589284724052433378,,0.500917662704,-0.190934901415,0.218673666182
1589284724058579439,6863,1589284724058425476,,0.500926690534,-0.190839015753,0.218652839655
1589284724061544677,6864,1589284724061398919,,0.500933734281,-0.190755198383,0.218635213931
1589284724064514919,6865,1589284724064351833,,0.500941604006,-0.190652870931,0.218615430226
1589284724070459259,6866,1589284724070335953,,0.500947800764,-0.190560342534,0.218597038466
1589284724073459742,6867,1589284724073356000,,0.50095275277,-0.190483349754,0.218583747944
1589284724082515906,6868,1589284724082400855,,0.500960716298,-0.190357590982,0.218555283416
1589284724085585078,6869,1589284724085360448,,0.500963189409,-0.190296794844,0.218540101655
1589284724088519821,6870,1589284724088431719,,0.500966496661,-0.190239997192,0.218524893504
1589284724094610787,6871,1589284724094455492,,0.500970867712,-0.190179135769,0.218506982271
1589284724097600045,6872,1589284724097459707,,0.500974531323,-0.19011497222,0.218488695755
1589284724100722547,6873,1589284724100476941,,0.500978955299,-0.190045721965,0.218468535258
1589284724106516113,6874,1589284724106349351,,0.500984082461,-0.189994004073,0.218454959681
1589284724109496424,6875,1589284724109349097,,0.500987566645,-0.18993283826,0.218437076419
1589284724112468360,6876,1589284724112349425,,0.500993671858,-0.189837686679,0.218413002938
1589284724118528340,6877,1589284724118361134,,0.501001667962,-0.189754981697,0.218394995891
1589284724121538961,6878,1589284724121385227,,0.501007056023,-0.189682398951,0.218381567486
1589284724124463014,6879,1589284724124336499,,0.501014113948,-0.189575084762,0.2183566496
1589284724131059422,6880,1589284724130874992,,0.501022610814,-0.189464564535,0.218334170332
1589284724133938959,6881,1589284724133787170,,0.501031441207,-0.189369332169,0.218317356823
1589284724139589166,6882,1589284724139436366,,0.501040520426,-0.189268328226,0.218296515366
1589284724142560041,6883,1589284724142427056,,0.501048323856,-0.189168256649,0.218274400448
1589284724145593071,6884,1589284724145398592,,0.501056869019,-0.189070103122,0.218251601458
1589284724151625156,6885,1589284724151442499,,0.5010641058,-0.188970182599,0.218227602881
1589284724154561562,6886,1589284724154460417,,0.50107101455,-0.188875341923,0.218206582315
1589284724157507043,6887,1589284724157384399,,0.501076004027,-0.188780686845,0.218183073157
1589284724163648785,6888,1589284724163498286,,0.501082776548,-0.18868856672,0.218163065043
1589284724166487910,6889,1589284724166369355,,0.50108749288,-0.188604258933,0.218145227529
1589284724169569391,6890,1589284724169465363,,0.501092131257,-0.188524305169,0.218125465928
1589284724175606416,6891,1589284724175475041,,0.501096500003,-0.188447455166,0.218107287839
1589284724178621335,6892,1589284724178479722,,0.501100915374,-0.188375798461,0.218091863995
1589284724181606044,6893,1589284724181463746,,0.501103202969,-0.188312533998,0.218077327523
1589284724187741398,6894,1589284724187638677,,0.501105997194,-0.188249713873,0.218063670438
1589284724190558878,6895,1589284724190409019,,0.501109149558,-0.188191902465,0.218048646457
1589284724193586585,6896,1589284724193478422,,0.501111110952,-0.188132624403,0.218033125369
1589284724199627209,6897,1589284724199417041,,0.501114631596,-0.188066675219,0.218019407385
1589284724202638072,6898,1589284724202461124,,0.501118659635,-0.188002829541,0.21800397744
1589284724205549625,6899,1589284724205446220,,0.501121729186,-0.187934399541,0.217984679258
1589284724211525431,6900,1589284724211387756,,0.501127360139,-0.187857827518,0.217964580973
1589284724214524792,6901,1589284724214429080,,0.501132982225,-0.187775058837,0.217944318786
1589284724217549263,6902,1589284724217440354,,0.501137190906,-0.187686744506,0.217921840371
1589284724223525634,6903,1589284724223448996,,0.50114295521,-0.187590757453,0.217895343204
1589284724226556397,6904,1589284724226461735,,0.501151464293,-0.187493412769,0.217878262909
1589284724229595705,6905,1589284724229465393,,0.501158316992,-0.187386742594,0.217854617777
1589284724235557370,6906,1589284724235425825,,0.501164511775,-0.187278812431,0.217826252701
1589284724238487357,6907,1589284724238392968,,0.501172047536,-0.187173078063,0.217804269095
1589284724241553250,6908,1589284724241373244,,0.501181116587,-0.187065568506,0.217782604393
1589284724247619673,6909,1589284724247407395,,0.501187168557,-0.186962837621,0.217760179506
1589284724250529490,6910,1589284724250386789,,0.50119325731,-0.186863682985,0.217739864636
1589284724253516384,6911,1589284724253417753,,0.501198884524,-0.186769910487,0.21771874226
1589284724259539896,6912,1589284724259401526,,0.501204665866,-0.186686317937,0.217703202108
1589284724262612333,6913,1589284724262468847,,0.50120756887,-0.186606418977,0.21768681874
1589284724268530760,6914,1589284724268398918,,0.50120894059,-0.186536868947,0.217671808627
1589284724271622831,6915,1589284724271403656,,0.501210781643,-0.186471479251,0.217660226476
