%time,field.header.seq,field.header.stamp,field.header.frame_id,field.vector.x,field.vector.y,field.vector.z
1589284779774425678,11756,1589284779774341641,,-0.0342955045551,-0.049685707105,1.19025923068
1589284779780344304,11757,1589284779780262620,,-0.0346716220571,-0.0500923382722,1.1895077834
1589284779783456708,11758,1589284779783243551,,-0.0351191114555,-0.0505928260028,1.18878399887
1589284779786343487,11759,1589284779786243501,,-0.0355613854444,-0.0510795043041,1.18789471697
1589284779792282307,11760,1589284779792214874,,-0.0359840638691,-0.0513687081372,1.18721087231
1589284779795338106,11761,1589284779795235688,,-0.0365320280048,-0.0518340692293,1.1864142186
1589284779798295574,11762,1589284779798177712,,-0.0369950932092,-0.0521837221966,1.18572854677
1589284779804578974,11763,1589284779804451218,,-0.0375503569103,-0.0527136488836,1.18498317056
1589284779807385953,11764,1589284779807272714,,-0.0380743601083,-0.0529502542098,1.18428885348
1589284779813558263,11765,1589284779813457595,,-0.0385946651749,-0.0533226551667,1.18368134607
1589284779816304807,11766,1589284779816220906,,-0.0391445275436,-0.0537340682634,1.18292097686
1589284779819285645,11767,1589284779819222531,,-0.0396775104645,-0.0540230245574,1.18236972754
1589284779822385564,11768,1589284779822244581,,-0.0402790333684,-0.0545343945539,1.18162819362
1589284779828331903,11769,1589284779828248632,,-0.040901385506,-0.0549430412518,1.18091806229
1589284779831300729,11770,1589284779831234043,,-0.0415839681199,-0.0554421971858,1.18004066919
1589284779834346572,11771,1589284779834217699,,-0.0422650880087,-0.0558134488564,1.17921840376
1589284779840347672,11772,1589284779840236548,,-0.0429420474256,-0.0561735153116,1.17836108468
1589284779843277487,11773,1589284779843205987,,-0.0436282606247,-0.0564369500884,1.17758153068
1589284779846248752,11774,1589284779846163637,,-0.0442942861953,-0.0568544935355,1.17685070243
1589284779855369966,11775,1589284779855256475,,-0.0449083045585,-0.0572100267575,1.17613952853
1589284779858990859,11776,1589284779858207262,,-0.0455354696177,-0.0575593996694,1.17551266653
1589284779861240136,11777,1589284779861144379,,-0.0461605982395,-0.0579846051567,1.17479150378
1589284779864228484,11778,1589284779864156723,,-0.0468678454058,-0.0583699982235,1.174158914
1589284779867460925,11779,1589284779867346853,,-0.0474723185142,-0.0586236924245,1.17359010235
1589284779873386679,11780,1589284779873305541,,-0.0481432694947,-0.0589396297144,1.17298766948
1589284779876271834,11781,1589284779876177891,,-0.0488563507515,-0.059287488797,1.17252447889
1589284779882257265,11782,1589284779882168776,,-0.0494938960705,-0.0595676218527,1.17216677392
1589284779885317630,11783,1589284779885239375,,-0.0502292471337,-0.059898398865,1.17200263592
1589284779888219276,11784,1589284779888145994,,-0.0509436021688,-0.0602647580121,1.17179222041
1589284779891250729,11785,1589284779891157741,,-0.051632809866,-0.0604813726613,1.17161505821
1589284779897475788,11786,1589284779897387350,,-0.0524168387812,-0.0608302460355,1.17130883207
1589284779902173119,11787,1589284779902005727,,-0.0531648338607,-0.061324299791,1.17118622332
1589284779906966506,11788,1589284779906872255,,-0.053925802231,-0.0614134700309,1.1706652261
1589284779909498299,11789,1589284779909414226,,-0.0547939918111,-0.061874440437,1.17045382295
1589284779912479490,11790,1589284779912392209,,-0.0555551670713,-0.0620523344241,1.17029707062
1589284779915615848,11791,1589284779915551773,,-0.0562682941208,-0.0623290794939,1.17015233054
1589284779921480631,11792,1589284779921400494,,-0.0570332472505,-0.0627995846462,1.16999992736
1589284779924469738,11793,1589284779924377297,,-0.0577851082641,-0.0628261909386,1.16983379841
1589284779930563816,11794,1589284779930482198,,-0.058533649814,-0.0631534296166,1.16967834291
1589284779933573950,11795,1589284779933502311,,-0.0593467920888,-0.0635262251515,1.16957620583
1589284779936419669,11796,1589284779936349625,,-0.0602219969582,-0.0637986411595,1.16908844571
1589284779939584620,11797,1589284779939479304,,-0.0610138209965,-0.0641797350311,1.16874957786
1589284779945664566,11798,1589284779945584943,,-0.0617601538294,-0.0644425835521,1.1686032178
1589284779951733725,11799,1589284779951645330,,-0.0625623934454,-0.0646903876949,1.16835836229
1589284779954727794,11800,1589284779954633500,,-0.0632656304425,-0.0649550133429,1.16790310488
1589284779957655758,11801,1589284779957554740,,-0.0639327898678,-0.0652728801547,1.16781510961
1589284779960654793,11802,1589284779960563220,,-0.0645709265492,-0.0654267268811,1.16731547324
1589284779963680591,11803,1589284779963593640,,-0.0652979295814,-0.0657814374287,1.16687017821
1589284779969697289,11804,1589284779969586744,,-0.0659755578335,-0.0659121416102,1.1663513599
1589284779972683524,11805,1589284779972546910,,-0.0665606162439,-0.0661030568441,1.1659875596
1589284779978725500,11806,1589284779978634266,,-0.0671653411679,-0.0663161475199,1.16564841446
1589284779981632800,11807,1589284779981545705,,-0.0677526104628,-0.0666233021255,1.16531481817
1589284779984558682,11808,1589284779984488157,,-0.0683836183072,-0.0666941955518,1.16491299259
1589284779990660906,11809,1589284779990559098,,-0.0688807913902,-0.0669650054336,1.16461315687
1589284779993614859,11810,1589284779993529759,,-0.069419039808,-0.0671871764119,1.16435813692
1589284779996684920,11811,1589284779996556648,,-0.0698299443493,-0.0674195028419,1.16413817248
1589284780002416174,11812,1589284780002359088,,-0.0703038690351,-0.0676822668255,1.16384238423
1589284780005836723,11813,1589284780005730341,,-0.0707118879344,-0.0678532404928,1.16360492845
1589284780008720400,11814,1589284780008548704,,-0.0711427008881,-0.0683231780556,1.16332529368
1589284780014705969,11815,1589284780014583955,,-0.0715767485365,-0.0686677787015,1.16300538709
1589284780017668440,11816,1589284780017566926,,-0.0719767658556,-0.0688014701579,1.16262390665
1589284780020382645,11817,1589284780020300436,,-0.0723180211698,-0.069097381143,1.16230892705
1589284780026720650,11818,1589284780026544003,,-0.0727693089429,-0.0694452165303,1.16198983732
1589284780029695339,11819,1589284780029602265,,-0.0730992215921,-0.0695964157282,1.16163721776
1589284780035548368,11820,1589284780035458567,,-0.0734557079737,-0.0698855971472,1.16129481588
1589284780038516628,11821,1589284780038435712,,-0.0737818314482,-0.070209973539,1.16100564004
1589284780041502643,11822,1589284780041399639,,-0.0740883406079,-0.0703801005067,1.16064506738
1589284780044464842,11823,1589284780044394099,,-0.0743151972148,-0.0705561401337,1.1603935808
1589284780053468260,11824,1589284780053372498,,-0.0746009497649,-0.0707864719438,1.16006925882
1589284780056508460,11825,1589284780056416398,,-0.0748106323621,-0.0709670175426,1.15986818179
1589284780059763611,11826,1589284780059608018,,-0.0750537983578,-0.0709434925894,1.15954983786
1589284780062646035,11827,1589284780062577548,,-0.0753054032747,-0.0712412910569,1.15929606662
1589284780065615651,11828,1589284780065549677,,-0.0755356242086,-0.0713826891574,1.15902764825
1589284780068691230,11829,1589284780068553111,,-0.0757364722828,-0.0714637074929,1.15888372539
1589284780074262413,11830,1589284780074144800,,-0.0759065699946,-0.0715995451788,1.15861920664
1589284780077231262,11831,1589284780077155932,,-0.0761017264103,-0.0717111213749,1.15838288883
1589284780080549697,11832,1589284780080481805,,-0.0762802627671,-0.0718197860063,1.15815004312
1589284780086596325,11833,1589284780086480251,,-0.0764888052364,-0.0720811330863,1.15790998216
1589284780089576136,11834,1589284780089500536,,-0.0766618014971,-0.0721840836108,1.15775180583
1589284780092679787,11835,1589284780092546857,,-0.0768531800247,-0.0722155426901,1.15747614843
1589284780098685244,11836,1589284780098595376,,-0.0770749843201,-0.072473621617,1.1572419453
1589284780101600344,11837,1589284780101514767,,-0.0773189650514,-0.0726969591161,1.15689115903
1589284780107579800,11838,1589284780107496752,,-0.0775297215317,-0.0728085437702,1.15663254436
1589284780110330024,11839,1589284780110219680,,-0.0777336568648,-0.073111440148,1.15649112531
1589284780113442215,11840,1589284780113364154,,-0.0779039674394,-0.0731182362422,1.15611016438
1589284780116627023,11841,1589284780116524935,,-0.0781979764701,-0.0734222382141,1.15578712055
1589284780122537694,11842,1589284780122411441,,-0.0783282216133,-0.0735463695008,1.15563753754
1589284780125220647,11843,1589284780125129043,,-0.0785052422034,-0.073660839877,1.15543939164
1589284780131331925,11844,1589284780131272912,,-0.0787655026551,-0.0739209464505,1.15508285807
1589284780134373218,11845,1589284780134317258,,-0.0789784859023,-0.0741119271817,1.15474444867
1589284780137264102,11846,1589284780137214701,,-0.0791139678485,-0.0742657175311,1.15462331589
1589284780143284308,11847,1589284780143209127,,-0.0793222118279,-0.0745788225327,1.15438753154
1589284780146199633,11848,1589284780146091605,,-0.079467356805,-0.074770169082,1.15427688064
1589284780149229609,11849,1589284780149174721,,-0.079625997418,-0.0750368295749,1.15412168636
1589284780155242126,11850,1589284780155170331,,-0.0798657232054,-0.0755118742259,1.15390982036
1589284780158519259,11851,1589284780158439144,,-0.0799865473411,-0.0758629161224,1.15377745778
1589284780161548706,11852,1589284780161293449,,-0.080148354904,-0.0761710327675,1.15374640857
1589284780167735966,11853,1589284780167645197,,-0.0803324936181,-0.0764754122144,1.15358822409
1589284780170654059,11854,1589284780170556945,,-0.0804976891665,-0.0768806111096,1.15348092844
1589284780173653834,11855,1589284780173577918,,-0.0807007048278,-0.0773035058765,1.15326895366
1589284780179734254,11856,1589284780179596829,,-0.0808788231088,-0.0776986632497,1.15313531533
1589284780182680032,11857,1589284780182564618,,-0.0810629327488,-0.0780782890026,1.1530599574
1589284780185616336,11858,1589284780185550639,,-0.0812158400703,-0.0787111377384,1.15288373734
1589284780191762719,11859,1589284780191644586,,-0.0813958574496,-0.0790487811399,1.15279187529
1589284780194602082,11860,1589284780194524141,,-0.0815495607523,-0.0797466437754,1.15263239926
1589284780197584743,11861,1589284780197510366,,-0.0816745556611,-0.0801716733817,1.15242480413
1589284780203976951,11862,1589284780203892535,,-0.0817662581101,-0.0808725818152,1.15222154666
1589284780206951497,11863,1589284780206880851,,-0.0818577137148,-0.0814879243598,1.15201890116
1589284780209604182,11864,1589284780209509793,,-0.0819385823818,-0.0821358102953,1.15151576773
1589284780215624963,11865,1589284780215550729,,-0.0819731939421,-0.0828000131035,1.15097382605
1589284780218627789,11866,1589284780218527632,,-0.0819303807488,-0.0834039429065,1.14988990882
1589284780221611646,11867,1589284780221497283,,-0.0819404652258,-0.0840706718431,1.14914492675
1589284780227752843,11868,1589284780227661336,,-0.0819537002004,-0.0843799777903,1.14879194236
1589284780230259761,11869,1589284780230185809,,-0.0820222349242,-0.0847427860214,1.14831885195
1589284780236280397,11870,1589284780236151319,,-0.0820262102027,-0.0849485645077,1.14802023302
1589284780239258375,11871,1589284780239198826,,-0.0820590677105,-0.0851898838138,1.14785294775
1589284780242496338,11872,1589284780242335703,,-0.0821048759561,-0.0854321076355,1.1475451907
1589284780248579434,11873,1589284780248489250,,-0.0821703460802,-0.085553496939,1.14718655666
1589284780254564082,11874,1589284780254491630,,-0.0822095392881,-0.0857556240313,1.14687218012
1589284780257490217,11875,1589284780257407848,,-0.0822201837338,-0.0858147363015,1.14662381981
1589284780260484146,11876,1589284780260409963,,-0.0822458042569,-0.0860599789099,1.14638486153
1589284780263478891,11877,1589284780263364715,,-0.0822361542964,-0.0861773919816,1.14615886443
1589284780269540693,11878,1589284780269447133,,-0.0822999014823,-0.0862849521305,1.14592720688
1589284780272560799,11879,1589284780272489249,,-0.0823220376746,-0.0863613403816,1.14549000379
1589284780275205934,11880,1589284780275138909,,-0.0823012761279,-0.0865984783551,1.1454075618
1589284780278540096,11881,1589284780278425176,,-0.082378281332,-0.0868176438016,1.14492858489
1589284780284609422,11882,1589284780284485555,,-0.0823810682577,-0.0869008002813,1.14451687534
1589284780287464305,11883,1589284780287386348,,-0.0823874873195,-0.0869999295226,1.14410738275
1589284780293452184,11884,1589284780293366423,,-0.0824712625767,-0.0872142540647,1.14364803117
1589284780296510064,11885,1589284780296420434,,-0.0824653368937,-0.0872832494229,1.14329696614
1589284780299544488,11886,1589284780299431539,,-0.082550116065,-0.0874770289483,1.14296629012
1589284780302572584,11887,1589284780302492758,,-0.0826368033451,-0.0874860340794,1.14267152319
1589284780308648426,11888,1589284780308559537,,-0.0827766898302,-0.087656714426,1.1422445776
1589284780311547467,11889,1589284780311454900,,-0.0828269128732,-0.0875915585517,1.1421158145
1589284780317954247,11890,1589284780317840330,,-0.0829612220272,-0.0878116864085,1.14180423777
1589284780320876779,11891,1589284780320761236,,-0.0830328625988,-0.0878158232976,1.14162019322
1589284780323822726,11892,1589284780323703202,,-0.0831620819784,-0.0878788475606,1.14140706424
1589284780326713922,11893,1589284780326591166,,-0.0832832230499,-0.08803365563,1.14113270968
1589284780332831084,11894,1589284780332634276,,-0.0834295367544,-0.0880922284107,1.1409407751
1589284780335682839,11895,1589284780335581738,,-0.083630997157,-0.0882227710141,1.14060505906
1589284780341708269,11896,1589284780341613079,,-0.0838901834577,-0.0884898782306,1.14018802916
1589284780344735774,11897,1589284780344617783,,-0.0840777513221,-0.0884367170468,1.14001851614
1589284780347813468,11898,1589284780347678382,,-0.084326324861,-0.0886989144214,1.13967352814
1589284780353803919,11899,1589284780353707965,,-0.0845347735254,-0.0886795192171,1.13931129865
1589284780356672684,11900,1589284780356563254,,-0.0847893282734,-0.0889451119011,1.13902747665
1589284780359798714,11901,1589284780359668279,,-0.0849800393689,-0.08898753365,1.13870976215
1589284780365694813,11902,1589284780365570984,,-0.0852542246053,-0.0891593847346,1.13840516326
1589284780368653059,11903,1589284780368561188,,-0.0855018059195,-0.0892593603051,1.13813205791
1589284780371635258,11904,1589284780371521835,,-0.0856975620264,-0.0893163794766,1.13784272078
1589284780377576018,11905,1589284780377485252,,-0.0859328646378,-0.0893215747703,1.13766026529
1589284780380632168,11906,1589284780380536836,,-0.0861970646643,-0.0894929261642,1.13729918646
1589284780383699270,11907,1589284780383592537,,-0.0864480787703,-0.0895178312525,1.13701485382
1589284780389710396,11908,1589284780389607865,,-0.0866916764736,-0.089628143051,1.13673675358
1589284780392695190,11909,1589284780392598984,,-0.0868871607102,-0.0898684565311,1.13656154745
1589284780395852838,11910,1589284780395765675,,-0.0871027154805,-0.0899699989644,1.13633379374
1589284780401722343,11911,1589284780401561881,,-0.0872822873407,-0.0899377023558,1.13609975485
1589284780405010652,11912,1589284780404896115,,-0.0874886156006,-0.0900343291528,1.13600998544
1589284780408094360,11913,1589284780407958761,,-0.0876358506982,-0.0902994994818,1.13580256688
1589284780413556369,11914,1589284780413469259,,-0.0878828367307,-0.0904568011571,1.13563082591
1589284780416644588,11915,1589284780416527263,,-0.0880008461295,-0.0905151839646,1.13550964012
1589284780419619712,11916,1589284780419534720,,-0.0881925258468,-0.0907550725231,1.13539677841
1589284780425638017,11917,1589284780425552393,,-0.0883505255213,-0.0908008729174,1.13525657753
1589284780428599032,11918,1589284780428510739,,-0.0885238536042,-0.0909629750612,1.13514229442
1589284780431573098,11919,1589284780431441563,,-0.088656821814,-0.0910242609714,1.13511595007
1589284780437539008,11920,1589284780437454169,,-0.0887635881494,-0.0911518012425,1.13506928348
1589284780440625009,11921,1589284780440494884,,-0.088932912438,-0.0913889884292,1.13495830062
1589284780443608619,11922,1589284780443508861,,-0.0890983998392,-0.0914266128484,1.13485653529
1589284780449583151,11923,1589284780449492334,,-0.0892560831015,-0.09159085986,1.1348198613
1589284780452587231,11924,1589284780452496012,,-0.0894451029262,-0.0916787449036,1.13473642741
1589284780455637824,11925,1589284780455534201,,-0.0895724035526,-0.0918214382387,1.13482115349
1589284780461543866,11926,1589284780461462460,,-0.0896814579113,-0.0918631587156,1.13479468553
1589284780464692034,11927,1589284780464590317,,-0.0898623355956,-0.0919460638155,1.1347575806
1589284780467794214,11928,1589284780467644149,,-0.0900368322299,-0.0920152550299,1.134788922
1589284780473582055,11929,1589284780473494550,,-0.090246590847,-0.0921301610334,1.13485005542
1589284780476692670,11930,1589284780476560380,,-0.0904081598784,-0.0921490876346,1.13511769851
1589284780479626568,11931,1589284780479535444,,-0.0905575769915,-0.0920605369553,1.13556800439
1589284780485677919,11932,1589284780485486091,,-0.0907768205085,-0.0919810601915,1.13613966122
1589284780488618335,11933,1589284780488475486,,-0.0910558530352,-0.0920673892355,1.13674372053
1589284780494547012,11934,1589284780494463059,,-0.091247415385,-0.0919509688951,1.13687578984
1589284780497640493,11935,1589284780497484366,,-0.0914030124913,-0.0920345835184,1.13688163074
1589284780500539647,11936,1589284780500448420,,-0.0915880586898,-0.0920115867238,1.13691383454
1589284780503967135,11937,1589284780503890473,,-0.0916533498504,-0.0921411973792,1.13692109667
1589284780509817577,11938,1589284780509703110,,-0.0917342526928,-0.092155353934,1.13698783313
1589284780512572498,11939,1589284780512452688,,-0.0919069883032,-0.0922650952713,1.1368892964
1589284780518726079,11940,1589284780518617833,,-0.0919665504316,-0.0922675959188,1.13681521318
1589284780521676975,11941,1589284780521524925,,-0.0920796503856,-0.0923590259885,1.13673890456
1589284780524588780,11942,1589284780524506240,,-0.0921800308618,-0.0924309082675,1.13672444815
1589284780530601086,11943,1589284780530508267,,-0.09229934274,-0.0924087015036,1.13652076262
1589284780533639191,11944,1589284780533510292,,-0.092394242118,-0.092467664874,1.13638655633
1589284780536561729,11945,1589284780536451513,,-0.0925273919631,-0.0924948044735,1.13630591651
1589284780542817361,11946,1589284780542741203,,-0.0926258575178,-0.0926135048497,1.13617577764
1589284780545858431,11947,1589284780545708434,,-0.0927217538703,-0.0926720582299,1.13607394711
1589284780548724159,11948,1589284780548604959,,-0.0927372863747,-0.0926706866716,1.13603293729
1589284780557711108,11949,1589284780557577675,,-0.0927668073992,-0.0927558652281,1.13594153485
1589284780560580295,11950,1589284780560465968,,-0.0928021732687,-0.0928036698631,1.13593728759
1589284780563457763,11951,1589284780563367117,,-0.0928346509105,-0.0928893718732,1.13587705456
1589284780566715997,11952,1589284780566613854,,-0.0928281066923,-0.0929151160245,1.13577032466
1589284780569641789,11953,1589284780569554729,,-0.092848404375,-0.092984669316,1.13570224381
1589284780572650170,11954,1589284780572551610,,-0.092845752791,-0.0929846695546,1.13569036484
1589284780578496088,11955,1589284780578423948,,-0.0928465672528,-0.0930223145292,1.13550570098
1589284780581738239,11956,1589284780581641829,,-0.0928981537642,-0.0931110869178,1.13532604747
1589284780584710675,11957,1589284780584616100,,-0.0928703767527,-0.0930231837765,1.13515965425
1589284780590422168,11958,1589284780590343458,,-0.0929556361606,-0.0931530755975,1.13501049222
1589284780593515465,11959,1589284780593427945,,-0.0929739064895,-0.0930119456978,1.13492589398
1589284780596575597,11960,1589284780596444804,,-0.0930439699169,-0.0929325321345,1.13483583041
1589284780602706692,11961,1589284780602630200,,-0.0930877877786,-0.0930017069508,1.13471887961
1589284780605867301,11962,1589284780605753604,,-0.0931282141004,-0.093002048027,1.13459865824
1589284780608751338,11963,1589284780608660324,,-0.0931652574379,-0.092928403688,1.13450573043
1589284780614840577,11964,1589284780614681340,,-0.0931561143295,-0.0927411224303,1.13435053498
1589284780617685651,11965,1589284780617577825,,-0.0932173739116,-0.0929450060507,1.13429842692
1589284780620461745,11966,1589284780620391316,,-0.0932714436592,-0.0927425844364,1.13404673871
1589284780626622195,11967,1589284780626542626,,-0.0932672821623,-0.0926998608887,1.13389873663
1589284780629612057,11968,1589284780629529623,,-0.0933777940085,-0.092636579031,1.13361143382
1589284780635582043,11969,1589284780635422104,,-0.0933746832632,-0.0925492606777,1.13351820125
1589284780638516790,11970,1589284780638418892,,-0.0934679025904,-0.0924379204763,1.13315792825
1589284780641899857,11971,1589284780641775481,,-0.0934763596952,-0.0923237357951,1.1329314856
1589284780647586935,11972,1589284780647489346,,-0.093440722411,-0.0923957169144,1.13266519731
1589284780653621890,11973,1589284780653506156,,-0.0934393597201,-0.0922643409613,1.13225933262
1589284780656588170,11974,1589284780656471400,,-0.0933550457536,-0.0923389627048,1.13137732757
1589284780659545342,11975,1589284780659454735,,-0.0930466063173,-0.092696846078,1.12923417367
1589284780662512730,11976,1589284780662451198,,-0.0929577163742,-0.0926336605187,1.12900176301
1589284780665526268,11977,1589284780665433639,,-0.0928764517,-0.0924320892548,1.1286517451
1589284780671524279,11978,1589284780671444846,,-0.0927318625167,-0.0922349130162,1.1284247436
1589284780674449671,11979,1589284780674391195,,-0.0926918223458,-0.092228670655,1.12804371971
1589284780680510194,11980,1589284780680433412,,-0.0925538144139,-0.0920945114801,1.12778235564
1589284780683523155,11981,1589284780683429854,,-0.0925099806268,-0.0920298556926,1.12715433954
1589284780686453522,11982,1589284780686352095,,-0.0922921488731,-0.0918342772276,1.12663267791
1589284780689447878,11983,1589284780689376150,,-0.0922218582372,-0.0917203659245,1.12612222625
1589284780695622691,11984,1589284780695496055,,-0.092048745537,-0.0915120248352,1.12592369991
1589284780698486964,11985,1589284780698363591,,-0.0919078359045,-0.0913655710408,1.12575509915
1589284780704725908,11986,1589284780704656903,,-0.0917573172865,-0.09108568566,1.12549905968
1589284780707936217,11987,1589284780707812367,,-0.0916407220969,-0.0909251526826,1.12540289208
1589284780710436633,11988,1589284780710355059,,-0.0915041839871,-0.0906433159393,1.12519532977
1589284780713508482,11989,1589284780713420878,,-0.0913661341114,-0.0903493099675,1.12500392869
1589284780719521155,11990,1589284780719432739,,-0.0912032426522,-0.0900740268516,1.12482354851
1589284780722497197,11991,1589284780722418350,,-0.0910860845117,-0.0897231235994,1.12473503125
1589284780728514212,11992,1589284780728403205,,-0.0908387935885,-0.0891805507348,1.12460691774
1589284780731448535,11993,1589284780731375530,,-0.0906102918142,-0.088631729687,1.12435625811
1589284780734455432,11994,1589284780734367091,,-0.0904124741844,-0.0880747978139,1.12423209207
1589284780737441653,11995,1589284780737353645,,-0.0901829758978,-0.0876159891877,1.12420159443
1589284780743555573,11996,1589284780743421934,,-0.0899384912068,-0.0869055994149,1.12405149678
1589284780746395672,11997,1589284780746317687,,-0.0897743866965,-0.0863792248667,1.12401813063
1589284780755440537,11998,1589284780755338402,,-0.0895731740957,-0.0858148023223,1.12393201621
1589284780758403694,11999,1589284780758326874,,-0.0894299776566,-0.0854350317657,1.1239760255
1589284780761376781,12000,1589284780761317990,,-0.0893241015703,-0.085213451262,1.12396031862
1589284780764418189,12001,1589284780764345956,,-0.0891690589802,-0.0847826098317,1.12399837857
1589284780767468705,12002,1589284780767396220,,-0.0891145475149,-0.0848038256617,1.1239230503
1589284780770424271,12003,1589284780770303949,,-0.0889823995518,-0.084273761992,1.12382485217
1589284780776449873,12004,1589284780776332759,,-0.0888817024827,-0.0843407669029,1.12384095634
1589284780779443383,12005,1589284780779333088,,-0.0888165828923,-0.0836430378022,1.12370325589
1589284780782376798,12006,1589284780782305374,,-0.0887866515029,-0.0850490394398,1.12389341816
1589284780788505793,12007,1589284780788411748,,-0.0888111497809,-0.087116775852,1.12423801155
1589284780791558115,12008,1589284780791442515,,-0.0887479286448,-0.0869761778824,1.12433813781
1589284780794410430,12009,1589284780794313816,,-0.0887637764776,-0.089506057492,1.12475805727
1589284780800643404,12010,1589284780800573881,,-0.0887685237639,-0.092696728685,1.12545464083
1589284780803943368,12011,1589284780803841597,,-0.0887077185822,-0.0925493084458,1.1255304719
1589284780806898200,12012,1589284780806825721,,-0.0886403021742,-0.0960140101756,1.12628914906
1589284780812410654,12013,1589284780812329287,,-0.0886996089101,-0.0961051632194,1.12617570908
1589284780815508524,12014,1589284780815370264,,-0.0887412314946,-0.100260594945,1.12700268368
1589284780818402784,12015,1589284780818333210,,-0.0887330109267,-0.100386286933,1.12705639259
1589284780824386953,12016,1589284780824300898,,-0.0887721051821,-0.104924329603,1.12791623295
1589284780827444586,12017,1589284780827362708,,-0.0887713370832,-0.10998685025,1.12891530583
1589284780830325290,12018,1589284780830270175,,-0.0887346907312,-0.109975825231,1.12906158827
1589284780836383436,12019,1589284780836307103,,-0.0887782847872,-0.115423100281,1.13008695079
1589284780839447245,12020,1589284780839317210,,-0.0888046991068,-0.115435782772,1.1300783125
1589284780842365251,12021,1589284780842280126,,-0.0888291201199,-0.121546198202,1.13128272838
1589284780848399185,12022,1589284780848320818,,-0.0888253181447,-0.12775197664,1.13250356045
1589284780851427565,12023,1589284780851336023,,-0.0888245505109,-0.127742937948,1.13255803921
1589284780857439825,12024,1589284780857332523,,-0.0888358199126,-0.134545494214,1.13398273502
1589284780860768209,12025,1589284780860651306,,-0.0888966269491,-0.141794178064,1.1352806501
1589284780863757980,12026,1589284780863649218,,-0.0888619311243,-0.141778475551,1.13544949223
1589284780866745438,12027,1589284780866596732,,-0.0888889262073,-0.141911115354,1.13545554391
1589284780872390768,12028,1589284780872321860,,-0.0889218872848,-0.149533123242,1.13691733459
1589284780875396190,12029,1589284780875300797,,-0.0889971080353,-0.157691266053,1.13850719488
1589284780881317498,12030,1589284780881241421,,-0.0890352208024,-0.166321951142,1.14019425452
1589284780884316977,12031,1589284780884263335,,-0.0891013966657,-0.166443589966,1.14005616792
1589284780887432697,12032,1589284780887369700,,-0.0891419444185,-0.175500227971,1.14181245988
1589284780890437148,12033,1589284780890358742,,-0.0891825145699,-0.175470074666,1.14179202527
1589284780896551536,12034,1589284780896493254,,-0.0893554085319,-0.184989624252,1.14352619764
1589284780899679986,12035,1589284780899580407,,-0.0894914025128,-0.184906942631,1.14327921
1589284780905724218,12036,1589284780905665728,,-0.0895702791413,-0.194869757867,1.14515553948
1589284780908827852,12037,1589284780908732631,,-0.089707351878,-0.205232047346,1.14706419038
1589284780911477095,12038,1589284780911394414,,-0.0898215247234,-0.205129868898,1.14689886568
1589284780917453324,12039,1589284780917381695,,-0.0899866077385,-0.2158543947,1.14879888747
1589284780920481668,12040,1589284780920390724,,-0.0901429226462,-0.227049427928,1.15072784833
1589284780923548684,12041,1589284780923406721,,-0.0903113166807,-0.227027842488,1.15053058137
1589284780929641191,12042,1589284780929570798,,-0.0905095416174,-0.238611288278,1.15253796506
1589284780932640315,12043,1589284780932555963,,-0.0907207657731,-0.238528150163,1.15211122741
1589284780935494496,12044,1589284780935422974,,-0.0908677440586,-0.250451631696,1.15427055272
1589284780941471192,12045,1589284780941345344,,-0.0910394568598,-0.262775561771,1.15654245605
1589284780944373729,12046,1589284780944295737,,-0.09120212354,-0.262893368821,1.15627784723
1589284780947668711,12047,1589284780947582889,,-0.0912930252137,-0.275578285442,1.15858792183
1589284780953691685,12048,1589284780953597158,,-0.0913942621617,-0.288738808619,1.1610194178
1589284780956691043,12049,1589284780956585623,,-0.0914586148873,-0.288717106106,1.16091134504
1589284780959658540,12050,1589284780959580025,,-0.091514854464,-0.288731827439,1.16070243481
1589284780965722272,12051,1589284780965605394,,-0.0915756418873,-0.302198667933,1.16324355401
1589284780968701434,12052,1589284780968632881,,-0.0916664161944,-0.316128824517,1.16577487644
1589284780971688239,12053,1589284780971571506,,-0.0916572717911,-0.316075352302,1.16572300852
1589284780977675824,12054,1589284780977606869,,-0.0917211712205,-0.330451026244,1.16838225066
1589284780980602263,12055,1589284780980520485,,-0.0917226184171,-0.345121082294,1.17101992773
1589284780983562473,12056,1589284780983496879,,-0.0917721326994,-0.345111110621,1.17066402924
1589284780989699694,12057,1589284780989579537,,-0.0917949829971,-0.360091748209,1.17327756764
1589284780992695256,12058,1589284780992599586,,-0.0918386234236,-0.360208233791,1.17296713392
1589284780995688475,12059,1589284780995609958,,-0.0918919763913,-0.375621967808,1.17567415507
1589284781001655599,12060,1589284781001554567,,-0.0919925180849,-0.391420338573,1.17821768233
1589284781004976609,12061,1589284781004915515,,-0.0919670334281,-0.391404289989,1.17795606611
1589284781008160159,12062,1589284781008072397,,-0.0920411497972,-0.407395178027,1.18069698652
1589284781013846595,12063,1589284781013765777,,-0.0920758254943,-0.423880861727,1.18369049032
1589284781016820900,12064,1589284781016736065,,-0.0921835769353,-0.423848956482,1.18311197487
1589284781022628166,12065,1589284781022556218,,-0.0922859811817,-0.440583567404,1.18603129578
1589284781025665303,12066,1589284781025571405,,-0.0923042955566,-0.440590127331,1.18574438953
1589284781028777243,12067,1589284781028668530,,-0.0923778536585,-0.457458215078,1.18884295215
1589284781034666536,12068,1589284781034594374,,-0.0925164618777,-0.47483091092,1.19183623335
1589284781037566822,12069,1589284781037482965,,-0.0926727245448,-0.474806092823,1.19144537458
1589284781043891253,12070,1589284781043747424,,-0.092750286214,-0.492385521939,1.19456502725
1589284781046912668,12071,1589284781046770664,,-0.0929147810736,-0.492119915267,1.19414454789
1589284781049782275,12072,1589284781049689938,,-0.0931242266969,-0.510157551164,1.19717530359
1589284781055678872,12073,1589284781055587736,,-0.0933469346422,-0.528450370634,1.20038324016
1589284781058393727,12074,1589284781058306420,,-0.0935030578852,-0.528117378819,1.19985051059
1589284781061402477,12075,1589284781061309346,,-0.093746156531,-0.546535930244,1.2029998462
1589284781067882655,12076,1589284781067793541,,-0.0939651650685,-0.565312131884,1.20619127641
1589284781070655791,12077,1589284781070560967,,-0.0940845377885,-0.564788510797,1.20567856785
1589284781073687619,12078,1589284781073600074,,-0.0942835650944,-0.580789358539,1.20830992559
1589284781076598724,12079,1589284781076468242,,-0.0944006534094,-0.5829275057,1.20820652567
1589284781082679076,12080,1589284781082597066,,-0.0944792759375,-0.601895218493,1.21156523586
1589284781085570884,12081,1589284781085487907,,-0.0944970346086,-0.600730711546,1.21095382236
1589284781091718563,12082,1589284781091618431,,-0.0944744719802,-0.619627841442,1.21420869384
1589284781094574733,12083,1589284781094495877,,-0.0944343392931,-0.639036030548,1.21774285978
1589284781097710437,12084,1589284781097556477,,-0.0943917561055,-0.637545392904,1.21715045621
1589284781100724213,12085,1589284781100647130,,-0.0943963042538,-0.657149047886,1.2207809674
1589284781106918421,12086,1589284781106777324,,-0.0943701265501,-0.65568779985,1.22019803337
1589284781109569018,12087,1589284781109468040,,-0.0944002585355,-0.675426717903,1.22376749318
1589284781115713799,12088,1589284781115618027,,-0.0944043487614,-0.695376342711,1.2274457861
1589284781118717313,12089,1589284781118606177,,-0.0945364343535,-0.693928297762,1.22666582115
1589284781121801797,12090,1589284781121676935,,-0.0946238216973,-0.714218769489,1.23035037514
1589284781124598603,12091,1589284781124519317,,-0.0947353102467,-0.712753956549,1.22986582061
1589284781130670012,12092,1589284781130547599,,-0.0948604615097,-0.733081456045,1.23392081831
1589284781133940359,12093,1589284781133831702,,-0.0950338523868,-0.7534687163,1.23857371103
1589284781139788594,12094,1589284781139618315,,-0.0952430433138,-0.751723264377,1.23907740279
1589284781142693000,12095,1589284781142628750,,-0.0953943292391,-0.772833660214,1.24297299863
1589284781145759608,12096,1589284781145671660,,-0.0955524414646,-0.771291348026,1.24283257503
1589284781148656585,12097,1589284781148577595,,-0.0955874399909,-0.792692715219,1.2468958192
1589284781157560738,12098,1589284781157473380,,-0.0955717128695,-0.814280326162,1.25113238587
1589284781160511413,12099,1589284781160444849,,-0.0954602356151,-0.836078256535,1.25551669374
1589284781163555423,12100,1589284781163427035,,-0.0954794423564,-0.834524955095,1.25515133814
1589284781166395031,12101,1589284781166312104,,-0.0955480425753,-0.832679832454,1.25580620234
1589284781169496397,12102,1589284781169422083,,-0.095852349302,-0.854269089486,1.26179156617
1589284781175384629,12103,1589284781175291266,,-0.0960498332042,-0.876809778636,1.26574017469
1589284781178392885,12104,1589284781178311177,,-0.0962661573848,-0.874957474188,1.26560885925
1589284781181404149,12105,1589284781181279866,,-0.0962919071066,-0.897679459442,1.27030581745
1589284781187950351,12106,1589284781187833717,,-0.0963707492319,-0.920437058853,1.27490308825
1589284781190830405,12107,1589284781190715492,,-0.0964397394878,-0.918651691423,1.27488837622
1589284781193861355,12108,1589284781193741354,,-0.0964543258162,-0.941417333409,1.27987992064
1589284781199824058,12109,1589284781199699341,,-0.0965836582915,-0.939668690576,1.27945405937
1589284781202850910,12110,1589284781202752466,,-0.0966517804116,-0.962899459785,1.28389060611
1589284781206046959,12111,1589284781205942843,,-0.0967921986303,-0.960993819612,1.28330915781
1589284781211563744,12112,1589284781211430769,,-0.0968667319229,-0.984222171156,1.28794870624
1589284781214908635,12113,1589284781214798434,,-0.0969342632438,-1.00744694415,1.29256924828
1589284781220536033,12114,1589284781220406939,,-0.0970232357707,-1.03104753196,1.29731562875
1589284781223484220,12115,1589284781223404576,,-0.0971655768995,-1.02893616611,1.29706734848
1589284781226736645,12116,1589284781226643822,,-0.0972699719254,-1.02702179558,1.29665257536
1589284781229720391,12117,1589284781229601238,,-0.0973307258399,-1.05085968854,1.30133970877
1589284781235824529,12118,1589284781235710356,,-0.0973901660653,-1.07504585795,1.30630576028
1589284781238724836,12119,1589284781238636302,,-0.0975288315274,-1.07310123252,1.30569672388
1589284781241790878,12120,1589284781241690640,,-0.097545052763,-1.09758907292,1.31039786161
1589284781247776065,12121,1589284781247689366,,-0.0976203785668,-1.1223267232,1.31507269856
1589284781250827953,12122,1589284781250725612,,-0.0977059264698,-1.12058282187,1.31447863184
1589284781256683179,12123,1589284781256588237,,-0.0978120925723,-1.14578968939,1.31924183795
1589284781259684108,12124,1589284781259595341,,-0.0978818326403,-1.14380523671,1.31872517671
1589284781262660042,12125,1589284781262578380,,-0.0979886943556,-1.16890986324,1.3235840323
1589284781265688002,12126,1589284781265601329,,-0.0981106563819,-1.16695370751,1.32301545765
1589284781271772869,12127,1589284781271701087,,-0.0984179144024,-1.19250611147,1.32790039161
1589284781274710786,12128,1589284781274636588,,-0.0986202763212,-1.21816469471,1.33287263667
1589284781277831448,12129,1589284781277751562,,-0.0988066278385,-1.21627062445,1.33236705783
1589284781283803237,12130,1589284781283710500,,-0.0990412709297,-1.24224212686,1.33728363292
1589284781286921923,12131,1589284781286792494,,-0.0992086316657,-1.24046537663,1.33667758948
1589284781292796895,12132,1589284781292717528,,-0.0994178926393,-1.26648602074,1.34155908901
1589284781295848769,12133,1589284781295755271,,-0.099621690386,-1.29288565558,1.3466533017
1589284781298782877,12134,1589284781298639859,,-0.0998411249018,-1.29091669028,1.34615881433
1589284781301806440,12135,1589284781301709291,,-0.100084502992,-1.3175532399,1.35136248528
1589284781308173436,12136,1589284781308093701,,-0.100400414991,-1.34407333254,1.3567097363
1589284781310879681,12137,1589284781310782256,,-0.100709902085,-1.34197833626,1.35642016689
1589284781316919220,12138,1589284781316811287,,-0.10104533671,-1.36857244101,1.36178343741
1589284781319905334,12139,1589284781319781971,,-0.101354240803,-1.36651595035,1.36131833288
1589284781322806716,12140,1589284781322705751,,-0.101698467685,-1.39337819821,1.36656426692
1589284781328871014,12141,1589284781328755167,,-0.101920655174,-1.42050874865,1.37192251492
1589284781331987615,12142,1589284781331860118,,-0.102218886711,-1.41845649355,1.3713478809
1589284781334793811,12143,1589284781334687434,,-0.102520412621,-1.44559992679,1.37659285044
1589284781340614482,12144,1589284781340529199,,-0.10276151244,-1.47283087987,1.38206639957
1589284781343778485,12145,1589284781343688299,,-0.102996471779,-1.47073466273,1.38143311704
1589284781346656655,12146,1589284781346579797,,-0.103297652299,-1.46848253065,1.38084286323
1589284781355771147,12147,1589284781355684726,,-0.103583027703,-1.52570736804,1.3920144296
1589284781358806783,12148,1589284781358678105,,-0.103793061284,-1.52361358998,1.39128521665
1589284781361754792,12149,1589284781361669220,,-0.103988836499,-1.55151412241,1.39674521211
1589284781364963104,12150,1589284781364857822,,-0.104360676892,-1.54930781261,1.39610093412
1589284781367973646,12151,1589284781367837273,,-0.104607090802,-1.57715067753,1.40138547716
1589284781370681113,12152,1589284781370593019,,-0.104909625214,-1.5749666455,1.40082564187
1589284781376948678,12153,1589284781376844620,,-0.105132498052,-1.6029059167,1.40630882431
1589284781382969063,12154,1589284781382845811,,-0.105412882567,-1.63108841676,1.41174310482
1589284781385884526,12155,1589284781385801647,,-0.105718703282,-1.62889661135,1.41095110469
1589284781388715611,12156,1589284781388620763,,-0.10595901102,-1.65704014289,1.4162684065
1589284781391852614,12157,1589284781391770683,,-0.106204212848,-1.65462218787,1.41560464754
1589284781394874582,12158,1589284781394757882,,-0.106515753718,-1.68301389412,1.4209011723
1589284781400814494,12159,1589284781400702937,,-0.106689000532,-1.71158795284,1.42642996683
1589284781403804693,12160,1589284781403677657,,-0.10701240651,-1.70927276152,1.42558190602
1589284781412860515,12161,1589284781412758584,,-0.107227402714,-1.73775106849,1.43124486069
1589284781415832175,12162,1589284781415697830,,-0.107528451617,-1.7664221336,1.43665064084
1589284781418787644,12163,1589284781418699930,,-0.107715184394,-1.76366572204,1.43589354598
1589284781421831892,12164,1589284781421743577,,-0.108025855424,-1.7919499447,1.44112060917
1589284781424776864,12165,1589284781424677852,,-0.108237347957,-1.78940212796,1.44075190337
1589284781430801504,12166,1589284781430702960,,-0.108499682849,-1.81797439178,1.44635756307
1589284781434043191,12167,1589284781433970703,,-0.108598240441,-1.83652286654,1.44995809521
1589284781436766551,12168,1589284781436654856,,-0.108828143489,-1.84385484276,1.45105410961
1589284781439866541,12169,1589284781439730676,,-0.109047082076,-1.8412303965,1.45022313771
1589284781448854676,12170,1589284781448753893,,-0.10905099719,-1.90144346961,1.46214558285
1589284781454792142,12171,1589284781454651168,,-0.109106744885,-1.9304756571,1.46790033967
1589284781457806657,12172,1589284781457681293,,-0.109155331333,-1.92742471096,1.46688721546
1589284781463970776,12173,1589284781463832975,,-0.109448692011,-1.95393214403,1.4714956859
1589284781467001553,12174,1589284781466862996,,-0.109535101383,-1.95078727041,1.47057909877
1589284781469916680,12175,1589284781469787923,,-0.109623054534,-1.97968099003,1.4761171046
1589284781472896723,12176,1589284781472789563,,-0.109680040563,-1.97681681866,1.47553924537
1589284781478948091,12177,1589284781478835618,,-0.10972346172,-2.00564421749,1.4813095952
1589284781481901172,12178,1589284781481785905,,-0.109691268725,-2.03488178486,1.48689408416
1589284781484911159,12179,1589284781484797096,,-0.109708283289,-2.0321116714,1.48599962418
1589284781487851197,12180,1589284781487729400,,-0.109753063985,-2.06220881477,1.49167151939
1589284781493887985,12181,1589284781493764322,,-0.109772367235,-2.09188254121,1.49744901559
1589284781496800529,12182,1589284781496670418,,-0.109888153726,-2.08931384855,1.49638190444
1589284781502881757,12183,1589284781502765274,,-0.109896412279,-2.1190904949,1.50236140109
1589284781506121261,12184,1589284781505971278,,-0.109825470166,-2.11617479624,1.50185224206
1589284781509231699,12185,1589284781509105085,,-0.109901685734,-2.14608866025,1.50750433514
1589284781511880150,12186,1589284781511764223,,-0.109986802037,-2.14336646593,1.50660434952
1589284781517891504,12187,1589284781517788014,,-0.110163340958,-2.17344051006,1.51215813674
1589284781520884345,12188,1589284781520788493,,-0.110240232057,-2.20367696064,1.51783285654
1589284781526825005,12189,1589284781526749129,,-0.110342068037,-2.20108297575,1.51696199246
1589284781529728734,12190,1589284781529591482,,-0.110360800787,-2.23133217862,1.52265953815
1589284781532687443,12191,1589284781532588863,,-0.110478119526,-2.22885727266,1.52173169851
1589284781535746649,12192,1589284781535666656,,-0.110621321481,-2.25931398202,1.52731595219
1589284781544783603,12193,1589284781544693340,,-0.110816853305,-2.28967757292,1.53278737989
1589284781547726227,12194,1589284781547621558,,-0.110998452538,-2.32006735021,1.53827757109
1589284781553928381,12195,1589284781553833473,,-0.111054256515,-2.33721980825,1.54141344742
1589284781556801632,12196,1589284781556712207,,-0.111230440479,-2.34732195306,1.54293108358
1589284781559723192,12197,1589284781559633554,,-0.111381489221,-2.34436144199,1.5419458493
1589284781562728393,12198,1589284781562638946,,-0.111537262507,-2.37455946363,1.54765836609
1589284781566021668,12199,1589284781565916356,,-0.111717231578,-2.3716618669,1.54658668453
1589284781571777532,12200,1589284781571685894,,-0.112029559405,-2.40179987842,1.55203792401
1589284781574585698,12201,1589284781574512300,,-0.112156888166,-2.43170658143,1.55789129421
1589284781577640243,12202,1589284781577529763,,-0.112382293236,-2.42866508952,1.55723048498
1589284781580904805,12203,1589284781580779808,,-0.11256974605,-2.45852968398,1.56260666955
1589284781586718442,12204,1589284781586603015,,-0.112807079995,-2.45526786214,1.56158878615
1589284781589686789,12205,1589284781589584846,,-0.113101278193,-2.48527299855,1.56734177201
1589284781592730431,12206,1589284781592636649,,-0.11337968538,-2.48235398518,1.56642309789
1589284781598752120,12207,1589284781598598566,,-0.113547811869,-2.51252318218,1.572158532
1589284781601626924,12208,1589284781601540603,,-0.113737630794,-2.54289821623,1.57766819953
1589284781605122773,12209,1589284781605042013,,-0.113939218567,-2.53949494277,1.57657820506
1589284781610633938,12210,1589284781610514475,,-0.114203795162,-2.57006865571,1.58241163025
1589284781613801078,12211,1589284781613714582,,-0.114424766221,-2.58643160343,1.5854193194
1589284781616595924,12212,1589284781616509237,,-0.114667611418,-2.59737483592,1.58733388938
1589284781622653054,12213,1589284781622560798,,-0.11489287172,-2.62746008696,1.59317155365
1589284781625803101,12214,1589284781625687272,,-0.11510277974,-2.62431216835,1.59232600259
1589284781628743890,12215,1589284781628638289,,-0.115411965142,-2.65487845439,1.59802780297
1589284781637804600,12216,1589284781637707326,,-0.11546173215,-2.68509652646,1.60397443278
1589284781643702507,12217,1589284781643584377,,-0.115999489479,-2.71245776069,1.60854792632
1589284781646940858,12218,1589284781646823598,,-0.116058611672,-2.7092686198,1.60788560139
1589284781649927951,12219,1589284781649805486,,-0.116092700081,-2.73943938291,1.61364710812
1589284781656152528,12220,1589284781656019119,,-0.116282894501,-2.7696353733,1.61943584544
1589284781658966691,12221,1589284781658863159,,-0.116473894084,-2.76621492873,1.61837220155
1589284781661811605,12222,1589284781661708106,,-0.116584968757,-2.79595973302,1.62399767933
1589284781664838250,12223,1589284781664749898,,-0.116619028721,-2.79286995167,1.62316866804
1589284781670874120,12224,1589284781670732885,,-0.116744088618,-2.82342568232,1.62906296414
1589284781673963579,12225,1589284781673865948,,-0.116803052864,-2.8384848312,1.63165165927
1589284781679858382,12226,1589284781679766601,,-0.116759100697,-2.85000095861,1.63370909851
1589284781685834410,12227,1589284781685746354,,-0.116670965475,-2.87993155088,1.63959957065
1589284781688911066,12228,1589284781688750114,,-0.11681185913,-2.90988785067,1.64528865824
1589284781694913043,12229,1589284781694815839,,-0.116790399385,-2.93978510905,1.65098023263
1589284781697891179,12230,1589284781697784634,,-0.116643870061,-2.93607176599,1.65018277722
1589284781704057494,12231,1589284781703930960,,-0.116640776887,-2.96279633268,1.65506325825
1589284781707132347,12232,1589284781707031473,,-0.116687028679,-2.95950592763,1.65396916728
1589284781712964104,12233,1589284781712819313,,-0.116595944221,-2.98956143543,1.6597289021
1589284781719005833,12234,1589284781718898960,,-0.116613246049,-3.01937276149,1.66548319958
1589284781721980076,12235,1589284781721851454,,-0.116646454928,-3.04895110664,1.67116315824
1589284781724919454,12236,1589284781724788737,,-0.116486068384,-3.04506006552,1.67023249293
1589284781727878702,12237,1589284781727811073,,-0.116454912067,-3.074613533,1.6759316426
1589284781730788498,12238,1589284781730721569,,-0.116439747977,-3.07174011191,1.67518733326
1589284781736798975,12239,1589284781736701908,,-0.11637902666,-3.10079180586,1.68078077421
1589284781739803480,12240,1589284781739713814,,-0.116325605903,-3.09641481797,1.679713667
1589284781742763395,12241,1589284781742662776,,-0.116157860446,-3.12591673529,1.68542559864
1589284781748840648,12242,1589284781748751853,,-0.116188490357,-3.15479728184,1.69115800066
1589284781754844312,12243,1589284781754743385,,-0.116114140159,-3.18328014382,1.69687441401
1589284781757782471,12244,1589284781757680246,,-0.115940560679,-3.17917392255,1.69614582507
1589284781763801482,12245,1589284781763718788,,-0.115852360276,-3.20746820424,1.70136029233
1589284781769851349,12246,1589284781769740631,,-0.115717419109,-3.23589717757,1.7070070896
1589284781775898712,12247,1589284781775803375,,-0.115634708982,-3.26486561634,1.71270036927
1589284781781934726,12248,1589284781781781258,,-0.115530190318,-3.29327103504,1.7181922943
1589284781784790064,12249,1589284781784695399,,-0.115274337301,-3.28855222637,1.71715959804
1589284781788046762,12250,1589284781787939255,,-0.115210326285,-3.31671612886,1.72253960756
1589284781790955961,12251,1589284781790834149,,-0.115116428332,-3.31232444096,1.72160278742
1589284781794162006,12252,1589284781794068522,,-0.115031705787,-3.34032065557,1.72700251467
1589284781796746815,12253,1589284781796646688,,-0.115025353082,-3.33564838478,1.7256827056
1589284781799854812,12254,1589284781799733004,,-0.114843880637,-3.33115033872,1.72485578264
1589284781802754754,12255,1589284781802663083,,-0.114772664025,-3.35897665921,1.73041815206
1589284781806005157,12256,1589284781805916306,,-0.114756149319,-3.3545202574,1.7290815472
1589284781809056047,12257,1589284781808966250,,-0.114756767533,-3.38236134525,1.73446384717
1589284781811889331,12258,1589284781811696247,,-0.114584897238,-3.37773673328,1.73354710563
1589284781814698231,12259,1589284781814629523,,-0.114558625542,-3.40504552337,1.73874926355
1589284781827004622,12260,1589284781826860486,,-0.114517401641,-3.42780244275,1.74275523383
1589284781829937533,12261,1589284781829784174,,-0.114582003948,-3.45481050575,1.74787574148
1589284781835944505,12262,1589284781835835019,,-0.114571567628,-3.48155595557,1.7531666261
1589284781841706469,12263,1589284781841608188,,-0.114500483742,-3.50834057445,1.75829078985
1589284781847738311,12264,1589284781847662493,,-0.114551944285,-3.53521542464,1.76344284754
1589284781853879956,12265,1589284781853776830,,-0.114473076523,-3.54351294166,1.764721679
1589284781856804412,12266,1589284781856735521,,-0.114412685481,-3.55603542083,1.76738499471
1589284781862843489,12267,1589284781862722821,,-0.114371332853,-3.5833337147,1.7728852124
1589284781868846031,12268,1589284781868683067,,-0.114261248297,-3.61064681083,1.77841865458
1589284781871838590,12269,1589284781871742185,,-0.114202301202,-3.60441752759,1.77688619332
1589284781875070923,12270,1589284781874944100,,-0.114151237594,-3.63107163296,1.78232180197
1589284781877943161,12271,1589284781877848423,,-0.114123044314,-3.62663567098,1.78150295584
1589284781887014287,12272,1589284781886917490,,-0.114140280162,-3.66000362926,1.78808394972
1589284781890144033,12273,1589284781889970326,,-0.114283473865,-3.67359687306,1.79089184581
1589284781893050858,12274,1589284781892897115,,-0.114371678561,-3.66903539093,1.79018645733
1589284781895923088,12275,1589284781895783660,,-0.114251553586,-3.69574867738,1.7953343244
1589284781898875285,12276,1589284781898770385,,-0.114434251969,-3.69148783212,1.79442577995
1589284781901857825,12277,1589284781901739835,,-0.114741625251,-3.71838070305,1.79907083265
1589284781905429437,12278,1589284781905328901,,-0.114711564107,-3.71390924501,1.79835308176
1589284781908205487,12279,1589284781908045457,,-0.114746595997,-3.74004572301,1.80371116679
1589284781911293439,12280,1589284781911202084,,-0.1148808668,-3.73564885697,1.80256545728
1589284781916940455,12281,1589284781916840386,,-0.114913880152,-3.76265301595,1.80794736115
1589284781922954646,12282,1589284781922776096,,-0.115119184424,-3.78857094354,1.8132322964
1589284781926007320,12283,1589284781925875665,,-0.115215812946,-3.78310188461,1.81192820117
1589284781928869427,12284,1589284781928771805,,-0.115253996634,-3.80923905977,1.81723828366
1589284781931976895,12285,1589284781931885920,,-0.115603741252,-3.80416260418,1.81651499084
1589284781934891925,12286,1589284781934799948,,-0.115704901472,-3.82876416615,1.82128399737
1589284781937860542,12287,1589284781937772435,,-0.115553577212,-3.82255479164,1.82063822965
1589284781943926563,12288,1589284781943835490,,-0.115604571316,-3.84193235218,1.82350828037
1589284781949733706,12289,1589284781949626330,,-0.115436210405,-3.86623148434,1.82805885911
1589284781955567765,12290,1589284781955488608,,-0.115480670307,-3.89080527843,1.83261053658
1589284781958701411,12291,1589284781958629582,,-0.115596016422,-3.88522851363,1.83113567624
1589284781961760718,12292,1589284781961650678,,-0.115972995569,-3.90924938363,1.83592219655
1589284781967849269,12293,1589284781967743665,,-0.116245058752,-3.93316276394,1.84070997836
1589284781973670381,12294,1589284781973482967,,-0.116574851063,-3.92783063961,1.83965243873
1589284781979507552,12295,1589284781979416975,,-0.116739059184,-3.95195442504,1.8447688606
1589284781985750784,12296,1589284781985627792,,-0.11682964201,-3.97593658521,1.84972020972
1589284781988528546,12297,1589284781988458072,,-0.116818907263,-3.9997602764,1.85475752361
1589284781994758663,12298,1589284781994651266,,-0.116874389907,-4.02366544991,1.85945616347
1589284781997987222,12299,1589284781997893376,,-0.116793267098,-4.01851965358,1.85853799305
1589284782007828853,12300,1589284782007728025,,-0.116900283677,-4.06472779497,1.86753696514
1589284782010575084,12301,1589284782010443873,,-0.116999577612,-4.05878106474,1.86630276194
1589284782016032503,12302,1589284782015935582,,-0.117005112839,-4.08117983869,1.87031106892
1589284782022014499,12303,1589284782021906127,,-0.117258421167,-4.10335192033,1.87408764982
1589284782027988623,12304,1589284782027903687,,-0.11732222753,-4.12473129707,1.8778517927
1589284782034034163,12305,1589284782033633804,,-0.117244135413,-4.11839080488,1.87607594213
1589284782036933930,12306,1589284782036821812,,-0.117252692248,-4.13954171206,1.8797073968
1589284782039904799,12307,1589284782039801654,,-0.117023460858,-4.13275318806,1.87775035251
1589284782042800735,12308,1589284782042717334,,-0.116904296127,-4.15508046223,1.88148288791
1589284782045932728,12309,1589284782045845485,,-0.116733059125,-4.14928051135,1.88018141825
1589284782051948025,12310,1589284782051827280,,-0.116372996428,-4.16931202974,1.88384280873
1589284782057884604,12311,1589284782057782275,,-0.116254075691,-4.19031305445,1.88788104121
1589284782063735770,12312,1589284782063648298,,-0.116018798029,-4.21170284587,1.89215615368
1589284782069840870,12313,1589284782069747433,,-0.115948097738,-4.23178127439,1.89583433872
1589284782075554721,12314,1589284782075442663,,-0.115997872274,-4.25227564561,1.89948154706
1589284782078857380,12315,1589284782078692041,,-0.115814640693,-4.24616774173,1.89826226543
1589284782081890966,12316,1589284782081809414,,-0.116078791172,-4.26779463801,1.90208410589
1589284782087787623,12317,1589284782087709578,,-0.116100152732,-4.28924758896,1.90612072861
1589284782094058974,12318,1589284782093968556,,-0.115945924581,-4.31049053424,1.91016468417
1589284782099619486,12319,1589284782099487237,,-0.115853358325,-4.30535403818,1.90872185989
1589284782105588330,12320,1589284782105510640,,-0.115876012591,-4.32647655725,1.91243458288
1589284782108740932,12321,1589284782108556192,,-0.115874935463,-4.34728559187,1.91613014584
1589284782111580002,12322,1589284782111468528,,-0.115662584889,-4.34134533567,1.9151035072
1589284782114552785,12323,1589284782114469511,,-0.11535924636,-4.3612353519,1.91904812653
1589284782127084171,12324,1589284782126901541,,-0.114947448147,-4.3737599531,1.92115601953
1589284782132544016,12325,1589284782132460464,,-0.11461300909,-4.39218389436,1.9244252843
1589284782138512256,12326,1589284782138439123,,-0.114339150015,-4.40937815238,1.92760264833
1589284782144713455,12327,1589284782144638422,,-0.113911765962,-4.4261374892,1.93052525274
1589284782150831613,12328,1589284782150733327,,-0.113539053653,-4.44221192036,1.93327418856
1589284782156975170,12329,1589284782156884315,,-0.112919858428,-4.45716575039,1.93579798201
1589284782160091295,12330,1589284782159983783,,-0.112450111732,-4.44786266061,1.93316993589
1589284782163115863,12331,1589284782162929035,,-0.112083119931,-4.46270522773,1.9352339535
1589284782168842855,12332,1589284782168773607,,-0.111443025067,-4.47721876312,1.93743729438
1589284782174931595,12333,1589284782174768046,,-0.110945571044,-4.49152570092,1.93962852702
1589284782187126264,12334,1589284782186976922,,-0.110211036381,-4.49704827547,1.93940813715
1589284782193087005,12335,1589284782192966602,,-0.109904627641,-4.51209640537,1.9420317085
1589284782199148536,12336,1589284782199008216,,-0.109614039565,-4.52854038347,1.94510812426
1589284782205088135,12337,1589284782204962361,,-0.109296200407,-4.54522262922,1.94821729351
1589284782208281280,12338,1589284782208120823,,-0.108916967772,-4.55959671513,1.95085846389
1589284782211444349,12339,1589284782211287367,,-0.108527081077,-4.55316096543,1.94959435574
1589284782216931661,12340,1589284782216850942,,-0.108361725,-4.57071340146,1.9530617503
1589284782223123836,12341,1589284782222941207,,-0.108178544656,-4.58550729224,1.95619986706
1589284782228974350,12342,1589284782228837016,,-0.107893453882,-4.60048974352,1.959060267
1589284782234749634,12343,1589284782234602294,,-0.107771467981,-4.61612608595,1.96189893536
1589284782247039151,12344,1589284782246909997,,-0.107309155114,-4.62559300614,1.96297867406
1589284782253072895,12345,1589284782252938553,,-0.10705433916,-4.64025119126,1.96514590148
1589284782259058375,12346,1589284782258950989,,-0.106743506904,-4.65405303448,1.96694103449
1589284782264944011,12347,1589284782264844921,,-0.106447718425,-4.66737942121,1.9686855437
1589284782271133606,12348,1589284782270993869,,-0.105973880253,-4.67963850245,1.9702026339
1589284782276856269,12349,1589284782276747250,,-0.105421328606,-4.69108175219,1.97213127598
1589284782282915097,12350,1589284782282833069,,-0.1048151772,-4.70385911995,1.97456118003
1589284782288948468,12351,1589284782288860270,,-0.104199806264,-4.71515703788,1.9764624008
1589284782294882476,12352,1589284782294752708,,-0.103491036215,-4.72332781928,1.97759183176
1589284782307554774,12353,1589284782307439138,,-0.102022618912,-4.74326287435,1.98199596105
1589284782310229631,12354,1589284782310146306,,-0.101410855227,-4.7322743921,1.97951567963
1589284782315933705,12355,1589284782315805935,,-0.100785504287,-4.74026787597,1.98121035416
1589284782321920051,12356,1589284782321825458,,-0.100319592887,-4.74977009779,1.98313485308
1589284782327680551,12357,1589284782327591683,,-0.100006467164,-4.76004536121,1.9849145095
1589284782334094100,12358,1589284782334001483,,-0.0997162002765,-4.77023548453,1.9868100663
1589284782339666128,12359,1589284782339566753,,-0.099630643167,-4.7633675677,1.98499441252
1589284782346123391,12360,1589284782345995163,,-0.0994296710155,-4.77386429959,1.98648656612
1589284782352032973,12361,1589284782351928350,,-0.0992226908547,-4.78497824258,1.98834892044
1589284782358095034,12362,1589284782357965395,,-0.0991343814253,-4.79604368535,1.99024023433
1589284782364019976,12363,1589284782363918614,,-0.0991116791969,-4.80663441434,1.9918483807
1589284782369922134,12364,1589284782369828698,,-0.099112984233,-4.81939838068,1.99420819178
1589284782375710853,12365,1589284782375581816,,-0.0989614820439,-4.83144019429,1.99671400869
1589284782381802328,12366,1589284782381680340,,-0.098817695127,-4.84053349399,1.99816979814
1589284782387920850,12367,1589284782387802787,,-0.0987590442462,-4.85052594697,1.99996603248
1589284782393981035,12368,1589284782393861043,,-0.098484245865,-4.84541913393,1.99935854875
1589284782399681496,12369,1589284782399600653,,-0.0983622415616,-4.85288167252,2.00086741222
1589284782405847250,12370,1589284782405753422,,-0.0980920272329,-4.85933464558,2.00226001285
1589284782409078661,12371,1589284782408984630,,-0.0978264594427,-4.86688906314,2.00375650786
1589284782414958340,12372,1589284782414866031,,-0.0975862659892,-4.87371984548,2.00488335992
1589284782426899411,12373,1589284782426805137,,-0.0969526672322,-4.87146709925,2.00393530952
1589284782432961344,12374,1589284782432858685,,-0.0963049529545,-4.87675868265,2.00472493996
1589284782438865970,12375,1589284782438772087,,-0.0957334750536,-4.88121480093,2.00555316324
1589284782444900040,12376,1589284782444802799,,-0.0953975851467,-4.88561384921,2.00614884732
1589284782450860111,12377,1589284782450763329,,-0.0949412200307,-4.88951468459,2.00692469216
1589284782456894356,12378,1589284782456734423,,-0.0944399328263,-4.89511790787,2.00843462579
1589284782462766379,12379,1589284782462686324,,-0.0940003944771,-4.90057447767,2.00982582066
1589284782468884140,12380,1589284782468780873,,-0.0934414886303,-4.90339704946,2.01038552102
1589284782475013006,12381,1589284782474846918,,-0.0931240073038,-4.9079256025,2.01172748544
1589284782487286456,12382,1589284782487029077,,-0.0928131090809,-4.90576567075,2.01166421297
1589284782493201620,12383,1589284782493060043,,-0.0928690870161,-4.91008743794,2.01267126155
1589284782499270719,12384,1589284782499127200,,-0.0928735642734,-4.91536232921,2.01406610647
1589284782505193262,12385,1589284782505029125,,-0.0929056355548,-4.92125401467,2.01508864079
1589284782508267220,12386,1589284782508162541,,-0.0930017023649,-4.92661099964,2.01582467825
1589284782511349253,12387,1589284782511234416,,-0.0931526283051,-4.921830009,2.01467159513
1589284782517180602,12388,1589284782516989683,,-0.0933107784011,-4.92717436417,2.01512717337
1589284782522973909,12389,1589284782522835101,,-0.0934102574515,-4.9316667782,2.0154999962
1589284782528991170,12390,1589284782528878993,,-0.093431537229,-4.93575617972,2.01624992548
1589284782534902081,12391,1589284782534816130,,-0.0935138811032,-4.93935970114,2.01682196197
1589284782547094437,12392,1589284782547020068,,-0.0933267840044,-4.93523773033,2.01608742007
1589284782553104020,12393,1589284782552953561,,-0.0932179932467,-4.93669433978,2.01638355
1589284782559005744,12394,1589284782558906894,,-0.0930608664941,-4.93721628869,2.01685235477
1589284782565002785,12395,1589284782564890985,,-0.0929098308975,-4.93721064374,2.01760122373
1589284782571098981,12396,1589284782570956610,,-0.0927677147811,-4.9365093983,2.01800667244
1589284782576999228,12397,1589284782576901301,,-0.0925955807157,-4.93513234469,2.01833200753
