%time,field.header.seq,field.header.stamp,field.header.frame_id,field.wrench.force.x,field.wrench.force.y,field.wrench.force.z,field.wrench.torque.x,field.wrench.torque.y,field.wrench.torque.z
1589284779774129839,11756,1589284779774040309,,-0.198265519525,-0.126916410881,1.04390465267,0.270890539231,0.00460074447345,0.0473672623814
1589284779780112501,11757,1589284779780024340,,-0.198265937893,-0.126915767975,1.04390465137,0.272717392067,0.00459727179676,0.0482989122819
1589284779783049834,11758,1589284779782956772,,-0.198265717228,-0.126915639363,1.04390470892,0.272717429007,0.00459655802195,0.0482987716414
1589284779786054646,11759,1589284779785976528,,-0.176445759538,-0.127073152138,1.06740587182,0.273474858692,0.00525085389036,0.0493561291744
1589284779792084419,11760,1589284779791995366,,-0.198844749404,-0.127043996481,1.06715674611,0.274374505996,0.00525035058106,0.050123951839
1589284779795162877,11761,1589284779795018915,,-0.198256641619,-0.12691487511,1.0439065255,0.274503803939,0.00524961178166,0.0519050901029
1589284779798031271,11762,1589284779797948555,,-0.221250122655,-0.127010757061,1.06692784816,0.27525019824,0.00459206323398,0.053558102406
1589284779804246246,11763,1589284779804158115,,-0.22124753937,-0.127009609118,1.06692852051,0.275261010393,0.00459194025686,0.0526681770383
1589284779807064409,11764,1589284779806981168,,-0.19941675832,-0.127164313903,1.09041184984,0.276018405459,0.00524739771896,0.0537281479965
1589284779813325094,11765,1589284779813233716,,-0.222436574414,-0.127250808954,1.11352430298,0.276770123097,0.00524683854175,0.0553824724212
1589284779816067232,11766,1589284779815977192,,-0.222430796122,-0.127249887922,1.11352556248,0.2767704838,0.00524506116975,0.0553808381664
1589284779819052368,11767,1589284779818954672,,-0.19941487766,-0.12716217994,1.09041244264,0.276007932789,0.00524669171889,0.0546169417478
1589284779822073945,11768,1589284779821994091,,-0.199411843416,-0.127161213487,1.09041311025,0.276008188076,0.00524419628896,0.054615891299
1589284779828132266,11769,1589284779827998778,,-0.221834197674,-0.127128330384,1.09017759176,0.276897892145,0.00524212232879,0.0562726426169
1589284779831081858,11770,1589284779830977347,,-0.199395683377,-0.127159375313,1.09041627979,0.276907371648,0.00523976011096,0.055522718106
1589284779834092804,11771,1589284779833997894,,-0.244343404671,-0.127102550943,1.08996263881,0.277807326019,0.00457979640838,0.057037786429
1589284779840118191,11772,1589284779840024797,,-0.221798492941,-0.127130224579,1.09018463563,0.276889487446,0.00523684960645,0.0571622989365
1589284779843054203,11773,1589284779842977428,,-0.221785245864,-0.127136419768,1.09018660821,0.278717579719,0.00523291509312,0.0572029694338
1589284779846082751,11774,1589284779845943536,,-0.221180605997,-0.127017188035,1.06694149598,0.277950295467,0.00523185568491,0.057182168939
1589284779855124865,11775,1589284779855047634,,-0.221169581358,-0.127017560334,1.06694373704,0.277950874411,0.00523212218137,0.0571793303563
1589284779858054913,11776,1589284779857960559,,-0.221645526885,-0.25425637482,1.06783390851,0.279768366126,0.0052272743483,0.0581112665538
1589284779861045782,11777,1589284779860946233,,-0.221634302237,-0.254253385836,1.06783694999,0.280687762745,0.00522419063015,0.0581300346255
1589284779864062062,11778,1589284779863961660,,-0.221629169165,-0.254257453404,1.06783704686,0.279769409541,0.00522486916871,0.0581064592738
1589284779867149557,11779,1589284779867068028,,-0.266716784962,-0.127084705391,1.08977842528,0.280528695013,0.00456499167174,0.0587298661472
1589284779873167179,11780,1589284779873065052,,-0.266078609119,-0.126964179161,1.06654977207,0.27976145483,0.00456467921319,0.0587089381929
1589284779876130403,11781,1589284779875987184,,-0.266707174928,-0.127083025862,1.08978097309,0.279641325629,0.00456441550017,0.0569156915059
1589284779882066166,11782,1589284779881970125,,-0.26634252753,8.53307374126e-05,1.08953266142,0.279631017947,0.00456401591839,0.0578055124545
1589284779885134795,11783,1589284779885001092,,-0.244264971346,-0.127105893399,1.08997982894,0.278752106636,0.00456562378938,0.0543594776942
1589284779888034798,11784,1589284779887951820,,-0.243038642804,-0.126852354806,1.04350463311,0.277237216807,0.00456825058489,0.052545911619
1589284779891046270,11785,1589284779890924306,,-0.243045763083,-0.126851757631,1.04350304732,0.277236864418,0.00456811788474,0.0525477823611
1589284779897263484,11786,1589284779897127500,,-0.221151984145,-0.127005693704,1.06694879729,0.278024684174,0.00456740526218,0.050927141029
1589284779901923663,11787,1589284779901810777,,-0.22116298776,-0.126996830132,1.06694757151,0.278035297622,0.00456632422038,0.0500307835229
1589284779906656602,11788,1589284779906491766,,-0.221756278383,-0.127125446884,1.09019378047,0.27789441258,0.00456818145598,0.0500270475928
1589284779909172791,11789,1589284779909108152,,-0.175792202836,-0.126937346797,1.04416394711,0.276412386022,0.00522765232516,0.0458329347164
1589284779912167180,11790,1589284779912069012,,-0.175802729811,-0.126939459499,1.04416191792,0.276411912199,0.005227868256,0.0458357675578
1589284779915319456,11791,1589284779915204280,,-0.198190456023,-0.126907884625,1.04391994301,0.27640195928,0.00522868933449,0.0465843566577
1589284779921163039,11792,1589284779921092060,,-0.19878389282,-0.127030894874,1.06716964344,0.278076809382,0.00456986424379,0.0466247934764
1589284779924154417,11793,1589284779924069348,,-0.198791548751,-0.127036042705,1.06716760454,0.27807637892,0.00457235822575,0.0466271162405
1589284779930288708,11794,1589284779930186897,,-0.198797283237,-0.127038263205,1.06716627197,0.277178523546,0.00457550041869,0.0457092100386
1589284779933271512,11795,1589284779933189117,,-0.198810949476,-0.127033476676,1.06716429585,0.277177902122,0.0045767333487,0.0457128547367
1589284779936113804,11796,1589284779936043176,,-0.199276831531,-0.25425661597,1.06806422692,0.277189412953,0.00457676291297,0.0448238767859
1589284779939268639,11797,1589284779939173694,,-0.198814844157,-0.127036288629,1.06716323554,0.277200873532,0.00457627484476,0.0439358950042
1589284779945393439,11798,1589284779945153219,,-0.176987811925,-0.127193747313,1.09066899011,0.277988503297,0.00391950549165,0.0423109863319
1589284779951294112,11799,1589284779951198735,,-0.177431288427,-0.254496812042,1.09154228395,0.278002123719,0.00457627929732,0.0414235803736
1589284779954334211,11800,1589284779954240554,,-0.176991301276,-0.127194231316,1.09066836743,0.27801413426,0.00457706588624,0.0405345658722
1589284779957262915,11801,1589284779957179143,,-0.177005787289,-0.127186225232,1.09066695022,0.278023821537,0.00392052960852,0.0396490126192
1589284779960272689,11802,1589284779960176254,,-0.177001130334,-0.127189682628,1.09066730281,0.278024000414,0.00392008480121,0.0396478022749
1589284779963277688,11803,1589284779963179291,,-0.15450259487,-0.127226131802,1.09094099151,0.278968248042,0.00391849485021,0.0371327323026
1589284779969302346,11804,1589284779969155836,,-0.154500616984,-0.127225347029,1.09094136314,0.27896831102,0.00391867120903,0.0371322405488
1589284779972234051,11805,1589284779972158237,,-0.132107012175,-0.12726586429,1.09123274819,0.27992508843,0.00457539256045,0.0346309060357
1589284779978254228,11806,1589284779978151479,,-0.132106727434,-0.127260806674,1.0912333725,0.279925105644,0.00457528335419,0.0346307813229
1589284779981215161,11807,1589284779981136957,,-0.154509887556,-0.127225072737,1.09094008218,0.27994920879,0.00327182765923,0.032700887524
1589284779984209164,11808,1589284779984115656,,-0.15451065827,-0.127224554341,1.09094003348,0.279949146494,0.0032734171846,0.0327012617506
1589284779990290125,11809,1589284779990202433,,-0.109124046049,-0.127171672692,1.06827218561,0.278296136493,0.00327746583533,0.0302738618272
1589284779993255679,11810,1589284779993143502,,-0.109631527149,-0.1272964337,1.09154598362,0.279066302854,0.0039238456533,0.0302917300807
1589284779996287046,11811,1589284779996158283,,-0.10964030437,-0.127292700558,1.09154553738,0.279066039044,0.00392471428229,0.0302940478416
1589284780002078196,11812,1589284780002003252,,-0.109642099413,-0.127290127263,1.09154565716,0.279079216089,0.00392592349439,0.0294060862684
1589284780005456040,11813,1589284780005349843,,-0.109646012686,-0.127287097907,1.09154561734,0.278182857566,0.0039289181521,0.0284996815525
1589284780008254941,11814,1589284780008163515,,-0.109143786122,-0.127155869377,1.06827205015,0.277399157424,0.00328393872025,0.0293718613889
1589284780014233206,11815,1589284780014138391,,-0.110149443113,-0.127401168655,1.11492163739,0.27709895253,0.0039320534022,0.0302545976422
1589284780017259608,11816,1589284780017126092,,-0.109647962746,-0.127281895969,1.09154602805,0.278169393962,0.00393181670437,0.0293888906148
1589284780020250819,11817,1589284780020143389,,-0.154535854175,-0.127201498796,1.09093915315,0.278145439937,0.00328471264661,0.0308826456329
1589284780026232738,11818,1589284780026145494,,-0.132136381216,-0.127241344631,1.09123205167,0.277223776687,0.0032869274835,0.0310061453396
1589284780029333908,11819,1589284780029246152,,-0.154204151837,-0.000134867847868,1.09066871488,0.278130635364,0.0026290993301,0.0317703966942
1589284780035171005,11820,1589284780035104431,,-0.154203370005,-0.000132072431138,1.09066882576,0.278130656413,0.00262936598729,0.0317701903597
1589284780038260035,11821,1589284780038148123,,-0.109136472147,-0.127152408286,1.06827320935,0.278308830553,0.00328591315986,0.0293895017914
1589284780041202242,11822,1589284780041121755,,-0.10913361563,-0.127156558849,1.06827300714,0.278308897297,0.00328628997831,0.0293888276065
1589284780044143475,11823,1589284780044071506,,-0.131607127038,-0.127116996033,1.06796269108,0.278297611607,0.00328655547706,0.0301388266608
1589284780053204200,11824,1589284780053052937,,-0.131607607975,-0.12711841543,1.06796246287,0.279217138445,0.00328478526755,0.030158365087
1589284780056230338,11825,1589284780056116514,,-0.109641616427,-0.127285797927,1.09154621053,0.278182826041,0.00393461969455,0.0284992026832
1589284780059330320,11826,1589284780059189406,,-0.109639589515,-0.12729101683,1.09154580553,0.278182818051,0.00393684167321,0.0284989738209
1589284780062330800,11827,1589284780062211047,,-0.109646182348,-0.127290298065,1.09154522712,0.277263093589,0.00393780111858,0.0284813176993
1589284780065282106,11828,1589284780065183913,,-0.10965148343,-0.127292188781,1.09154447412,0.277262945065,0.00393814543074,0.0284827159274
1589284780068260792,11829,1589284780068189736,,-0.13162333873,-0.127124545049,1.06795979459,0.27648119575,0.00329443217949,0.0292166688579
1589284780074067741,11830,1589284780073982178,,-0.131621505256,-0.12712878957,1.0679595153,0.276481238825,0.00329460901798,0.0292162412884
1589284780077098497,11831,1589284780076998968,,-0.109658804143,-0.127295249251,1.09154338179,0.277262688996,0.00394057455328,0.0284848725648
1589284780080190502,11832,1589284780080114935,,-0.132669998601,-0.127374321407,1.11460063109,0.278023262741,0.00393970753762,0.0292498913987
1589284780086214702,11833,1589284780086121409,,-0.13267019465,-0.127376426805,1.11460036715,0.278021484085,0.00329261022509,0.0292496024986
1589284780089226742,11834,1589284780089137608,,-0.132672594934,-0.127374832121,1.11460026368,0.278021419536,0.0032927182569,0.0292502038826
1589284780092282572,11835,1589284780092185245,,-0.132673058219,-0.127376458937,1.11460002262,0.278021392409,0.00329331058941,0.0292503950373
1589284780098334654,11836,1589284780098214544,,-0.110536158998,-0.254786027648,1.11577871079,0.278938878813,0.00329055877046,0.0294091967972
1589284780101225108,11837,1589284780101151389,,-0.109539656049,-0.254330376006,1.06920353423,0.278323244008,0.00393851542738,0.0285075989618
1589284780107406031,11838,1589284780107279426,,-0.110040493389,-0.254563521967,1.09243894704,0.278182142658,0.00393870986828,0.0285053075893
1589284780109995103,11839,1589284780109938575,,-0.110542348051,-0.254782765329,1.11577884259,0.278047807006,0.00393786406921,0.0276145636639
1589284780113144773,11840,1589284780113073862,,-0.132157282603,-0.127255397349,1.09122788184,0.277293609602,0.00459601163883,0.0265616391402
1589284780116245026,11841,1589284780116160862,,-0.110045459355,-0.254560396439,1.09243917512,0.278222863146,0.00393820648122,0.0258315674725
1589284780122100843,11842,1589284780122009499,,-0.110051074977,-0.25455843487,1.09243906651,0.278222736741,0.00393807279943,0.0258329492743
1589284780125085079,11843,1589284780124962915,,-0.109556347378,-0.254330236564,1.06920185725,0.278363673972,0.00393813352538,0.0258369441101
1589284780131093206,11844,1589284780131032269,,-0.10955504984,-0.254326778666,1.06920281272,0.277454091134,0.00393943374188,0.0258177387598
1589284780134202831,11845,1589284780134136017,,-0.0872841948958,-0.127330839487,1.09187597786,0.278248128312,0.00393824873602,0.024198906677
1589284780137095598,11846,1589284780137033691,,-0.0868064614986,-0.127199702241,1.06859869011,0.277479366623,0.00394063229777,0.0241847736666
1589284780143131504,11847,1589284780143030748,,-0.0868060269814,-0.12719964262,1.0685987325,0.27747939007,0.00394007580683,0.0241845953209
1589284780146005592,11848,1589284780145926183,,-0.109681748901,-0.127282042616,1.09154261654,0.279159939311,0.00393818780656,0.0240675648375
1589284780149057660,11849,1589284780148984982,,-0.0872943462115,-0.127321655287,1.09187623731,0.279185675989,0.00393946964772,0.0224339772126
1589284780155049925,11850,1589284780154979089,,-0.109686232593,-0.127280020909,1.09154240174,0.279173833234,0.00393778733825,0.0231802880544
1589284780158249984,11851,1589284780158163824,,-0.109689981938,-0.12727745775,1.09154232384,0.279171947812,0.00329199181712,0.0231810504448
1589284780161531512,11852,1589284780161043528,,-0.109695970586,-0.127273675136,1.09154216308,0.279171769864,0.00329445524032,0.0231828434544
1589284780167298210,11853,1589284780167219820,,-0.10919550512,-0.127147977702,1.06826770415,0.278417112532,0.00329712987338,0.0222801140232
1589284780170274525,11854,1589284780170181789,,-0.0868310305872,-0.127185315875,1.06859840635,0.278414718817,0.00329945690142,0.0224240230251
1589284780173270721,11855,1589284780173180169,,-0.0868349373642,-0.127187623435,1.06859781424,0.277519083004,0.00330217297838,0.0215186081185
1589284780179273379,11856,1589284780179197657,,-0.0868417379422,-0.127190343664,1.06859693783,0.277518919145,0.00330339961854,0.0215205329969
1589284780182304726,11857,1589284780182200428,,-0.0868456075025,-0.127191088778,1.06859653467,0.277502876983,0.00265012648257,0.0224097510478
1589284780185284690,11858,1589284780185176769,,-0.0868473909026,-0.127191694235,1.06859631766,0.277502848518,0.00264964436973,0.0224101605321
1589284780191330177,11859,1589284780191251088,,-0.0643961002233,-0.127238543004,1.068948923,0.276610861831,0.00330977347929,0.0207575633453
1589284780194203443,11860,1589284780194133237,,-0.0644017945535,-0.1272394106,1.06894847667,0.276596531383,0.00330822561307,0.0216468871235
1589284780197252422,11861,1589284780197164303,,-0.0644059633247,-0.127240292562,1.06894812052,0.276596468963,0.00330716868298,0.0216478461884
1589284780203635798,11862,1589284780203548535,,-0.0644077641869,-0.127237832273,1.06894830487,0.276610740635,0.00330472286901,0.0207599829411
1589284780206622889,11863,1589284780206542757,,-0.109240428921,-0.127156240335,1.06826212773,0.276572682061,0.0033017174121,0.0231429795891
1589284780209248596,11864,1589284780209175394,,-0.109229152444,-0.127156305034,1.0682632731,0.276585309137,0.00264278115706,0.0222513852687
1589284780215248737,11865,1589284780215179992,,-0.086366741836,-0.12706939679,1.04531853148,0.275844752106,0.00329798045491,0.0206007458286
1589284780218312366,11866,1589284780218179806,,-0.0868276341119,-0.127208351766,1.06859594034,0.276599749812,0.00329312608219,0.021497033451
1589284780221250670,11867,1589284780221155484,,-0.13164592076,-0.127129881181,1.06795637597,0.277482242768,0.0032873527546,0.0238923987823
1589284780227410663,11868,1589284780227255106,,-0.1316478961,-0.127136752134,1.06795531452,0.277482227229,0.00328588840881,0.0238927806818
1589284780230094750,11869,1589284780230024626,,-0.109673651192,-0.127304564517,1.09154080373,0.28007820407,0.00327947460097,0.024082905864
1589284780236067908,11870,1589284780235991303,,-0.109672041344,-0.127302444995,1.09154121268,0.280078263426,0.00327841516595,0.024082359809
1589284780239114574,11871,1589284780239024631,,-0.109172199776,-0.127179364485,1.06826634991,0.281140691001,0.00392332732843,0.0241053081079
1589284780242169799,11872,1589284780242095002,,-0.109173091767,-0.127178764432,1.06826633019,0.282032443977,0.00392136297828,0.0259113094069
1589284780248267241,11873,1589284780248171479,,-0.0868019003444,-0.127222178186,1.06859638497,0.282044064072,0.00392331494985,0.0251647966379
1589284780254237411,11874,1589284780254168416,,-0.131639441175,-0.127139215626,1.06795606346,0.282915072489,0.00327406915951,0.0275671376445
1589284780257292875,11875,1589284780257131623,,-0.109172549879,-0.127181483147,1.0682660619,0.281071790933,0.0039246396873,0.0285681298476
1589284780260240578,11876,1589284780260127964,,-0.109178939819,-0.127177010112,1.06826594137,0.281991203328,0.00392295390731,0.0285889934097
1589284780263137201,11877,1589284780263074733,,-0.109183032201,-0.127178139857,1.06826538862,0.281991100902,0.00392264770128,0.028590045699
1589284780269213049,11878,1589284780269125582,,-0.109688314379,-0.127302876535,1.0915395272,0.281826581977,0.00392325317737,0.0294760446068
1589284780272243983,11879,1589284780272168822,,-0.132171533237,-0.127265864441,1.09122493518,0.281813690626,0.00327657261354,0.0302233821238
1589284780275052755,11880,1589284780274954554,,-0.132179235422,-0.127265859078,1.09122400287,0.281815249725,0.0039243931892,0.0302257795655
1589284780278210338,11881,1589284780278109711,,-0.132172680303,-0.127262903066,1.09122514162,0.281815461696,0.00392330974832,0.0302239438146
1589284780284247000,11882,1589284780284136257,,-0.132170371502,-0.127265636942,1.09122510242,0.282721783813,0.00392172984923,0.0311316991118
1589284780287213414,11883,1589284780287119834,,-0.154778237844,-0.000170435414805,1.11404366753,0.285296600618,0.0032701821729,0.0328302772456
1589284780293207781,11884,1589284780293102644,,-0.155096634103,-0.127353466402,1.1142994894,0.287125908585,0.00326645054779,0.0328666950519
1589284780296215442,11885,1589284780296089627,,-0.155093394287,-0.127355217525,1.1142997402,0.288009347865,0.00326567420311,0.034664449151
1589284780299207876,11886,1589284780299135968,,-0.154766105148,-0.000170364765549,1.11404535311,0.287099865898,0.00326747388075,0.0346449858604
1589284780302323250,11887,1589284780302210975,,-0.154765982972,-0.000172655610038,1.11404536974,0.28710161734,0.00391682349746,0.0346452985683
1589284780308246144,11888,1589284780308153251,,-0.177612779598,-0.127320002352,1.11401909335,0.287985490703,0.00326718119107,0.0363130548611
1589284780311193093,11889,1589284780311112562,,-0.133191680089,-0.127510176576,1.13787065083,0.286961361802,0.00392016384602,0.0338964180893
1589284780317529199,11890,1589284780317412105,,-0.132673058544,-0.127388724595,1.1145986208,0.284364052086,0.00392337554865,0.0338399833607
1589284780320454838,11891,1589284780320362897,,-0.133194475675,-0.127508471892,1.13787051462,0.285132359486,0.0039216302305,0.0338577918883
1589284780323310746,11892,1589284780323224022,,-0.13319497977,-0.127512392143,1.13787001631,0.285132336687,0.00392180578943,0.0338579635499
1589284780326298470,11893,1589284780326170287,,-0.133190659311,-0.127507752279,1.13787104198,0.285132476038,0.00392153937826,0.0338568208582
1589284780332347047,11894,1589284780332252709,,-0.133192569213,-0.127511979631,1.13787034471,0.284209886819,0.00392215869158,0.0347366236583
1589284780335296263,11895,1589284780335158120,,-0.133185173826,-0.127512524181,1.13787114932,0.285147557248,0.00457752379631,0.0329664239352
1589284780341359008,11896,1589284780341257969,,-0.132661040341,-0.127394614976,1.11459937805,0.284379387256,0.00457668714314,0.0329476878812
1589284780344351156,11897,1589284780344236363,,-0.132338407516,-0.000221486953828,1.11434314376,0.284390650696,0.00392054568841,0.0320579327984
1589284780347382693,11898,1589284780347236576,,-0.132655045131,-0.12739466395,1.114600086,0.285310350399,0.00391710677912,0.0320760213872
1589284780353412646,11899,1589284780353278864,,-0.132646074846,-0.127394642697,1.11460115599,0.287139660138,0.00391370975117,0.0321124094133
1589284780356269071,11900,1589284780356176008,,-0.110131260055,-0.127434942788,1.11491957379,0.287151018402,0.00391240253154,0.031361022079
1589284780359459145,11901,1589284780359261109,,-0.110124730487,-0.127434490821,1.11492027042,0.28715122686,0.00391145518951,0.031359231498
1589284780365250445,11902,1589284780365160986,,-0.110115828291,-0.127433319897,1.11492128352,0.287151503977,0.00391045275579,0.0313568189018
1589284780368374396,11903,1589284780368166875,,-0.11010826152,-0.127437278169,1.1149215784,0.287151737659,0.00390953292594,0.0313547935861
1589284780371241387,11904,1589284780371149193,,-0.110101242312,-0.127437722027,1.11492222086,0.287151946526,0.00390907602988,0.031352937658
1589284780377240987,11905,1589284780377119331,,-0.110097539326,-0.12743954657,1.11492237798,0.287152063458,0.00390852880488,0.0313519349173
1589284780380315640,11906,1589284780380174484,,-0.132079190328,-0.127277364301,1.09123477475,0.286367586808,0.00326059267545,0.0320830211387
1589284780383316271,11907,1589284780383224482,,-0.133102134844,-0.127518233211,1.13788022599,0.28791000576,0.00390557370459,0.032112959132
1589284780389515175,11908,1589284780389218250,,-0.133096800092,-0.127516849947,1.13788100502,0.287910172728,0.00390497472386,0.0321115349891
1589284780392333621,11909,1589284780392211362,,-0.155529175592,-0.127470609774,1.1375818208,0.286979843505,0.00390497751817,0.032837175236
1589284780395394930,11910,1589284780395278237,,-0.132567945761,-0.127391973447,1.11461075626,0.286222617107,0.00390658797766,0.0320719075299
1589284780401393264,11911,1589284780401208605,,-0.133078212536,-0.127511650121,1.13788376174,0.286991213389,0.00390513073796,0.0320872707591
1589284780404580646,11912,1589284780404494809,,-0.154981277924,-0.127354677294,1.11431540107,0.28622323049,0.00325945595184,0.0319175346361
1589284780407723740,11913,1589284780407628295,,-0.133069072675,-0.12750968885,1.13788505041,0.287004814519,0.00390391525985,0.0311857431846
1589284780413396064,11914,1589284780413127292,,-0.133063959732,-0.127508976609,1.13788572814,0.287018202607,0.0039042335828,0.0302951012364
1589284780416381451,11915,1589284780416205520,,-0.133062726884,-0.127505028367,1.13788631473,0.287018255144,0.00390355389156,0.0302946910821
1589284780419273157,11916,1589284780419177423,,-0.133055590626,-0.127498308069,1.13788790223,0.287031764355,0.00390458264757,0.0294036051533
1589284780425327089,11917,1589284780425224554,,-0.133053435519,-0.127499078014,1.13788806796,0.287031808479,0.0039050293414,0.0294031150992
1589284780428286126,11918,1589284780428197875,,-0.133053833956,-0.127497164926,1.13788823573,0.287031820711,0.00390416983573,0.0294031098293
1589284780431200928,11919,1589284780431107273,,-0.133053441316,-0.127498560605,1.13788812526,0.286122240707,0.00390603885148,0.0293841692888
1589284780437270149,11920,1589284780437128704,,-0.133052120076,-0.127498035368,1.1378883386,0.286122298766,0.0039050893846,0.0293837301534
1589284780440265146,11921,1589284780440182884,,-0.155487853153,-0.127451310675,1.13758963197,0.286122696345,0.00325733953065,0.0292400150921
1589284780443241568,11922,1589284780443154183,,-0.110026995527,-0.127420807151,1.11493148367,0.285378552934,0.00390823463906,0.0277284996746
1589284780449258066,11923,1589284780449161908,,-0.11052051533,-0.127531800219,1.13820886025,0.286160884373,0.00390657628309,0.0268451862409
1589284780452240646,11924,1589284780452137076,,-0.132535926654,-0.127376128755,1.11461637484,0.284486627004,0.00326298283342,0.0257819444545
1589284780455346236,11925,1589284780455206672,,-0.132541708957,-0.127372064601,1.11461615171,0.284486504385,0.0032625612187,0.025783350791
1589284780461221619,11926,1589284780461137325,,-0.109529884156,-0.127294218985,1.09155644582,0.282830519931,0.00326773765109,0.0241008202064
1589284780464353088,11927,1589284780464213044,,-0.109536656397,-0.127292717469,1.09155594136,0.282830370244,0.00326777809347,0.0241025712846
1589284780467315855,11928,1589284780467228054,,-0.109216651386,-0.00024688667124,1.09128287274,0.282844225086,0.0032688365889,0.0232143685486
1589284780473301584,11929,1589284780473164089,,-0.10954317417,-0.127296383036,1.09155485982,0.282872217393,0.00327023012371,0.0214383475629
1589284780476352804,11930,1589284780476219715,,-0.0876453671691,-0.12746064881,1.11526308392,0.283641686535,0.00326921366816,0.0215992146078
1589284780479282173,11931,1589284780479194147,,-0.0871811927829,-0.127337367954,1.09188344558,0.282883569526,0.00327344471427,0.020699653397
1589284780485254113,11932,1589284780485105291,,-0.0872025830956,-0.127331887439,1.0918823766,0.282883125549,0.00327546971187,0.0207053996993
1589284780488261941,11933,1589284780488167911,,-0.0875908972248,-0.254592932104,1.09278092434,0.281977397315,0.00327802274598,0.0197956240572
1589284780494243565,11934,1589284780494138999,,-0.0867513795681,-0.127202997492,1.06860277095,0.281221227876,0.00262600553031,0.018893359601
1589284780497265582,11935,1589284780497149042,,-0.0872363725056,-0.127331964115,1.09187966856,0.280160365106,0.00262884341806,0.0188732438944
1589284780500219764,11936,1589284780500137805,,-0.087240747473,-0.127335356329,1.09187892342,0.279240510639,0.00263276591291,0.0188564894233
1589284780503636284,11937,1589284780503540511,,-0.0867573355707,-0.127209170858,1.06860155253,0.27845572695,0.00197815426256,0.0197290111036
1589284780509409003,11938,1589284780509285727,,-0.0643011205645,-0.127255840381,1.06895258151,0.278515015862,0.00329271725863,0.0163174853774
1589284780512244307,11939,1589284780512161196,,-0.0643017762128,-0.127256687891,1.06895244118,0.27850029702,0.00329360884883,0.0172059121459
1589284780518458809,11940,1589284780518238563,,-0.0642991806661,-0.127258019369,1.06895243879,0.278500333402,0.00329386972712,0.0172052732999
1589284780521326156,11941,1589284780521231578,,-0.0869363327385,-0.00030748807172,1.09160362554,0.280174646175,0.00263531889383,0.0179876520356
1589284780524305603,11942,1589284780524156015,,-0.0869381215973,-0.000307566951914,1.09160348305,0.281057142785,0.00329027106536,0.0197831265598
1589284780530276081,11943,1589284780530193574,,-0.109128623151,-0.127183722001,1.06827028357,0.282981146868,0.00263067300242,0.0232433172787
1589284780533323763,11944,1589284780533213278,,-0.109131961921,-0.127188138727,1.06826941665,0.282981053987,0.00263164648386,0.0232443378611
1589284780536225073,11945,1589284780536131302,,-0.108817278201,-0.000258220870546,1.06798463331,0.282071359405,0.00263537950413,0.0232258379315
1589284780542426409,11946,1589284780542264576,,-0.109328649698,-0.0002701355162,1.09127165253,0.283735515987,0.00263265496524,0.0241503159596
1589284780545380931,11947,1589284780545265861,,-0.131817770903,-0.000222029728468,1.09095871922,0.28372536069,0.00328971889689,0.0249014884577
1589284780548398814,11948,1589284780548293695,,-0.131826677447,-0.000224855761382,1.09095764245,0.284615287334,0.00263200774272,0.0267098223981
1589284780557383340,11949,1589284780557266815,,-0.131835447467,-0.000223076269541,1.09095658304,0.283724930976,0.00329197456732,0.024906086054
1589284780560252251,11950,1589284780560148048,,-0.13184490415,-0.000224855953267,1.09095543985,0.28372470549,0.00329276725363,0.0249085498364
1589284780563167577,11951,1589284780563088343,,-0.109879097805,-0.000279981994478,1.11465514853,0.284506382936,0.00263561062044,0.0241779322496
1589284780566348380,11952,1589284780566248799,,-0.131873443026,-0.000221786197199,1.0909519911,0.280134462752,0.0026450492153,0.020389010447
1589284780569304955,11953,1589284780569207911,,-0.108896650573,-0.000261362017209,1.06797654229,0.27850190206,0.00264927371648,0.0169357569654
1589284780572306059,11954,1589284780572205780,,-0.108906219043,-0.000259209964992,1.06797556711,0.278501751481,0.00264918465372,0.0169382469371
1589284780578283981,11955,1589284780578163480,,-0.0860573864872,-0.000297099266932,1.04501418679,0.277788862844,0.00199451028625,0.013504092327
1589284780581366293,11956,1589284780581252119,,-0.0193898693714,-0.000454002205729,1.06942413796,0.279595975232,0.00265009107394,0.00684729283717
1589284780584382660,11957,1589284780584216264,,0.00335770843678,-0.000496683256759,1.04654419823,0.279766451897,0.00265019207184,0.00521738211074
1589284780590198655,11958,1589284780590081079,,0.00308178130257,-0.127285096372,1.04684760227,0.278838894014,0.0019943648418,0.00608857268702
1589284780593285688,11959,1589284780593157304,,-0.0189717777225,-0.000447721587409,1.0461278895,0.278839851824,0.00134892563673,0.00594570615556
1589284780596208760,11960,1589284780596129151,,-0.0417487809854,-0.000410931447384,1.06902953173,0.278676966821,0.00199532599687,0.0066893390912
1589284780602379766,11961,1589284780602261402,,-0.0636346632086,-0.000348024266425,1.04536337779,0.277893278962,0.00134991664957,0.0074199937989
1589284780605591992,11962,1589284780605486055,,-0.0636351144195,-0.000344849693792,1.04536335137,0.277015302594,0.00135122741512,0.0056277143383
1589284780608388374,11963,1589284780608266615,,-0.0420373521518,-0.12731841965,1.06931815464,0.278691353698,0.00134793325444,0.00580041272533
1589284780614405554,11964,1589284780614236381,,0.00227695903744,-0.127549079989,1.09341077051,0.277659065177,0.00199713427548,0.00429128593407
1589284780617303804,11965,1589284780617196306,,0.00268218962751,-0.12741514427,1.07012925465,0.277826406685,0.00199551983104,0.00340497891019
1589284780620276497,11966,1589284780620117408,,-0.0193904600833,-0.000459117233982,1.06942412506,0.279608655835,0.00134456275419,0.0059587393611
1589284780626424542,11967,1589284780626219966,,-0.0193897677664,-0.000452775210136,1.06942414032,0.279608664113,0.0013436798681,0.00595855006743
1589284780629375303,11968,1589284780629186708,,-0.0417329689251,-0.000406595045315,1.06903015078,0.280505161465,0.00134233692194,0.00671843003904
1589284780635206621,11969,1589284780635131744,,-0.041736471727,-0.000407179022877,1.06903001381,0.280489280029,0.00134071681935,0.00760755015781
1589284780638335188,11970,1589284780638140829,,-0.0426153488748,-0.000425882306167,1.1157210802,0.28293424132,0.00133566618934,0.00853902196439
1589284780641447279,11971,1589284780641344197,,-0.0645475011084,-0.000371561465803,1.09195162565,0.283978675353,0.00133234281483,0.00930495891997
1589284780647233953,11972,1589284780647131160,,-0.064544956291,-0.000368779963969,1.09195177702,0.283978705024,0.00133066393004,0.0093042936046
1589284780653291382,11973,1589284780653188223,,-0.0640765030011,-0.000356345081,1.06865836635,0.283195838053,0.00197886071049,0.010187417555
1589284780656233787,11974,1589284780656157335,,-0.0640508094623,-0.000365053251063,1.06865990368,0.282270808848,0.00197842379013,0.0110520350619
1589284780659218711,11975,1589284780659131402,,-0.0869210843977,-0.000335848674204,1.09160483147,0.282105918935,0.00132526254152,0.0117804974291
1589284780662253076,11976,1589284780662174585,,-0.0649165990538,-0.00039369881399,1.11535095418,0.284693227662,0.0026246253471,0.0128599546232
1589284780665241952,11977,1589284780665166231,,-0.0649160559171,-0.000392566557856,1.11535098619,0.284693245762,0.00262335292848,0.0128598135597
1589284780671250345,11978,1589284780671159356,,-0.0644550697471,-0.000369020746102,1.0919570864,0.285749105047,0.00196357657453,0.0128799902479
1589284780674277182,11979,1589284780674136736,,-0.0649178853421,-0.000363634820464,1.11535088952,0.285582715817,0.00261745949267,0.0146649315834
1589284780680205529,11980,1589284780680113581,,-0.0649184785498,-0.000350778903512,1.11535085911,0.285582714096,0.00261696437577,0.014665053447
1589284780683243563,11981,1589284780683169051,,-0.109619260268,-0.127271501912,1.09155012286,0.286613625666,0.0019559227881,0.0161775692053
1589284780686180197,11982,1589284780686105497,,-0.0872257612413,-0.127296734152,1.09188462415,0.287507895839,0.0026097892151,0.0172354612055
1589284780689181452,11983,1589284780689115523,,-0.109600072455,-0.127243595718,1.09155530304,0.287495823567,0.00260815194649,0.0179777618865
1589284780695311154,11984,1589284780695228496,,-0.0869036241279,-0.000230623936017,1.09160624894,0.28658362633,0.00260825325696,0.018104429269
1589284780698206617,11985,1589284780698128022,,-0.0869004935684,-0.000224352826566,1.09160649946,0.286583698535,0.00260611946089,0.0181035935618
1589284780704500570,11986,1589284780704418664,,-0.0876963638872,-0.127377461924,1.11526857917,0.287341164326,0.00260323481376,0.0190071736321
1589284780707621456,11987,1589284780707541556,,-0.0877008370716,-0.12737136353,1.11526892392,0.287341096139,0.00260285165671,0.0190082568852
1589284780710179521,11988,1589284780710117143,,-0.0873810223419,-0.000219120840237,1.11499803164,0.286423214433,0.00326126101365,0.0189893781513
1589284780713255845,11989,1589284780713179749,,-0.0881742183155,-0.1274877822,1.13854865785,0.286282156068,0.0032610770355,0.0189866475687
1589284780719281159,11990,1589284780719146185,,-0.0876941586985,-0.127370002795,1.11526960447,0.286408813225,0.00325980511358,0.0198775580921
1589284780722265457,11991,1589284780722163201,,-0.109783857658,-0.000170234949589,1.11466455505,0.286368015201,0.00325851700156,0.0224125536156
1589284780728204461,11992,1589284780728118938,,-0.110602514866,-0.127454364321,1.13820956886,0.288070602447,0.00325491994573,0.0215570762743
1589284780731237400,11993,1589284780731132715,,-0.109780530285,-0.00018839395149,1.11466487984,0.288197498834,0.00325356851289,0.0224483596401
1589284780734212572,11994,1589284780734127014,,-0.109778476319,-0.000203340327618,1.1146650795,0.288195736227,0.00259741987778,0.0224475807102
1589284780737187992,11995,1589284780737114305,,-0.132614091929,-0.127325917102,1.11461281464,0.289103437981,0.00259478921545,0.0232166052497
1589284780743247481,11996,1589284780743147942,,-0.132616164634,-0.127340729308,1.11461087588,0.289103376785,0.00259548308257,0.0232172897164
1589284780746185949,11997,1589284780746073871,,-0.110601877117,-0.12750789495,1.13820363531,0.288950145355,0.0025951194905,0.0233535886405
1589284780755203033,11998,1589284780755104159,,-0.110107100673,-0.127397733811,1.11492621232,0.289101141666,0.0025962902688,0.0233571156582
1589284780758165525,11999,1589284780758095199,,-0.110117632395,-0.127406085953,1.11492421779,0.287287455962,0.0032571414386,0.0224342296048
1589284780761198679,12000,1589284780761089123,,-0.110116789591,-0.127410290533,1.11492382055,0.287285664306,0.00260113162426,0.0224338505711
1589284780764173630,12001,1589284780764102542,,-0.110117944434,-0.127410364346,1.11492369805,0.286351791358,0.00260424208538,0.0233049775981
1589284780767232380,12002,1589284780767142251,,-0.109610376384,-0.127298939181,1.09154781554,0.285581681396,0.0032667683377,0.023288638864
1589284780770204757,12003,1589284780770078411,,-0.109606103157,-0.127304783259,1.09154756307,0.285581724256,0.00326896810971,0.023287804594
1589284780776178544,12004,1589284780776095637,,-0.109283224517,-0.000264869835201,1.09127620377,0.286485622079,0.00261846129899,0.024194169512
1589284780779230423,12005,1589284780779103062,,-0.109278448084,-0.000267855649033,1.09127668135,0.286501431354,0.00328080370828,0.0233041537624
1589284780782182465,12006,1589284780782087819,,-0.10927382999,-0.000268824773927,1.09127714355,0.286501512658,0.00328230422057,0.0233029428928
1589284780788336040,12007,1589284780788187774,,-0.109273165049,-0.000270643058624,1.09127720969,0.286501525206,0.00328241043678,0.0233027736602
1589284780791300220,12008,1589284780791211969,,-0.132078433799,-0.127278115327,1.09123477872,0.286475686583,0.00328270208978,0.024942274016
1589284780794179299,12009,1589284780794095955,,-0.132074660037,-0.127283548774,1.09123460172,0.28647574061,0.00328408452184,0.0249414714907
1589284780800428927,12010,1589284780800357129,,-0.110088853994,-0.12744486901,1.11492262723,0.286327368264,0.00393108757838,0.0250887645367
1589284780803746955,12011,1589284780803615208,,-0.110090069256,-0.12744703137,1.11492226005,0.285417643282,0.00393424568868,0.0250707731913
1589284780806647571,12012,1589284780806493764,,-0.110092089877,-0.1274450795,1.11492228365,0.285417606167,0.00393393725344,0.025071244126
1589284780812194827,12013,1589284780812100616,,-0.10958918991,-0.127326466525,1.09154673217,0.283740106384,0.00393740556201,0.0241378877166
1589284780815191836,12014,1589284780815101801,,-0.109088620754,-0.127199683789,1.06827246879,0.281143998329,0.00459710717152,0.024085774861
1589284780818223831,12015,1589284780818084447,,-0.109591826342,-0.127320695264,1.09154714066,0.281910749394,0.00393921218568,0.0241012938785
1589284780824196921,12016,1589284780824091174,,-0.109590654132,-0.127324721884,1.09154678867,0.281912620892,0.0045957028411,0.0241013262431
1589284780827195732,12017,1589284780827105725,,-0.109593816954,-0.127321524616,1.09154684406,0.281896727906,0.00393792807505,0.0250000100655
1589284780830170891,12018,1589284780830063070,,-0.1095986748,-0.127320205993,1.09154651012,0.28189662195,0.00393773806914,0.0250012347155
1589284780836147120,12019,1589284780836075069,,-0.154486629934,-0.127245674392,1.09094097316,0.280952191934,0.00329199036862,0.0264765070759
1589284780839164571,12020,1589284780839081415,,-0.132085328275,-0.12728339309,1.09123332863,0.280965436212,0.0039397507836,0.0257308217168
1589284780842200907,12021,1589284780842070003,,-0.131566168043,-0.127154825455,1.06796323434,0.2801831712,0.0039388806033,0.0266041597241
1589284780848169869,12022,1589284780848084757,,-0.132087683822,-0.127285740629,1.09123276968,0.280949980987,0.00329135163137,0.0266195829681
1589284780851242180,12023,1589284780851126141,,-0.132092193417,-0.127285546943,1.0912322464,0.280040260252,0.00329253028093,0.0266019309747
1589284780857244924,12024,1589284780857091025,,-0.109603925813,-0.127321616142,1.09154581839,0.279132075531,0.00329546633442,0.0258345116587
1589284780860369697,12025,1589284780860254242,,-0.132095645781,-0.127284270215,1.09123197741,0.278197397818,0.00329682932904,0.0274535111534
1589284780863346874,12026,1589284780863268308,,-0.132101456512,-0.127282904173,1.09123143334,0.278197261448,0.00329643823688,0.02745493997
1589284780866327222,12027,1589284780866243097,,-0.109112576851,-0.12719261148,1.06827086427,0.276535763518,0.00394598238867,0.0257841213881
1589284780872204268,12028,1589284780872097754,,-0.0867464452073,-0.127234174409,1.06859945986,0.276547176465,0.00394666551827,0.0250392776921
1589284780875179938,12029,1589284780875103405,,-0.0871105231369,-0.254392972928,1.06953437085,0.27654706695,0.00394685341728,0.0250404575883
1589284780881110015,12030,1589284780881045677,,-0.0871133815407,-0.254394046825,1.0695338826,0.275623740006,0.00394726821418,0.0259103450576
1589284780884145362,12031,1589284780884059035,,-0.0867535377,-0.127234605372,1.06859883277,0.277480454844,0.0039443179322,0.024171683792
1589284780887165472,12032,1589284780887096989,,-0.086759622256,-0.127233466398,1.0685984744,0.277480331097,0.00394377475837,0.0241731929362
1589284780890189198,12033,1589284780890101029,,-0.0867633345505,-0.127236008744,1.06859787028,0.277480254825,0.00394340152916,0.0241741293154
1589284780896329493,12034,1589284780896226871,,-0.0862813053989,-0.127104333473,1.04532133945,0.275776390012,0.00329881172723,0.0250280870201
1589284780899664486,12035,1589284780899307338,,-0.0867687159537,-0.127240341455,1.06859691743,0.275635288844,0.0032993396779,0.0250257821102
1589284780905498849,12036,1589284780905414933,,-0.0871299160375,-0.254398462349,1.06953148548,0.275649085338,0.0032982540378,0.0241376082223
1589284780908570894,12037,1589284780908491848,,-0.0871364756718,-0.254401291928,1.06953027802,0.275648932809,0.00329832784667,0.0241393399369
1589284780911217997,12038,1589284780911138879,,-0.0646598743716,-0.254443780251,1.06988449222,0.274740879329,0.00330008989594,0.0233730122512
1589284780917238283,12039,1589284780917123894,,-0.0646619126249,-0.254443256921,1.0698844935,0.274754930698,0.00330041454709,0.0224760392999
1589284780920209491,12040,1589284780920139569,,-0.0867805707555,-0.127250846932,1.0685947038,0.275676845955,0.00329718310821,0.0223550124996
1589284780923240150,12041,1589284780923152496,,-0.0867851509782,-0.12725149702,1.06859425442,0.27566454377,0.00394415906113,0.0232445557743
1589284780929362786,12042,1589284780929272904,,-0.064208224856,-0.254208872718,1.04664413046,0.275829634536,0.00329667395189,0.021611043736
1589284780932353046,12043,1589284780932261241,,-0.0642050146305,-0.254214066312,1.04664306595,0.275829683555,0.0032971266458,0.0216103490194
1589284780935209246,12044,1589284780935140428,,-0.0646706777579,-0.254458528751,1.0698803316,0.276600024091,0.00394229655819,0.0216273589196
1589284780941183262,12045,1589284780941114235,,-0.0867931259801,-0.127262779518,1.06859226309,0.276572265726,0.00329508368042,0.0232647525293
1589284780944159026,12046,1589284780944077348,,-0.08679753685,-0.127266208255,1.06859149647,0.276572183182,0.0032943897417,0.0232658320605
1589284780947368325,12047,1589284780947228210,,-0.0872815889436,-0.127395374289,1.09186865842,0.279171919633,0.00393646883164,0.0233191654286
1589284780953350405,12048,1589284780953238685,,-0.0872846740118,-0.127393711829,1.09186860577,0.279171853472,0.00393651580169,0.0233199495493
1589284780956347976,12049,1589284780956257372,,-0.109684716057,-0.127355179035,1.09153378764,0.27915809721,0.00328944970833,0.0240682077795
1589284780959304034,12050,1589284780959208081,,-0.109690947829,-0.127357189675,1.09153292682,0.279157957151,0.00328952748682,0.0240698215873
1589284780965333243,12051,1589284780965264863,,-0.109695456019,-0.127358637763,1.09153230481,0.277328532689,0.00329316299414,0.024033628831
1589284780968351554,12052,1589284780968257791,,-0.109697636897,-0.127356447796,1.09153234116,0.277328502853,0.00329237689364,0.0240340808068
1589284780971294806,12053,1589284780971208270,,-0.131673191415,-0.127195313005,1.0679452229,0.27656007817,0.00263753204667,0.0238812520354
1589284780977368395,12054,1589284780977260041,,-0.0868364843415,-0.127271246568,1.06858773214,0.276599510776,0.00329476043033,0.0214998584807
1589284780980318449,12055,1589284780980239368,,-0.086838055517,-0.127271099105,1.06858762203,0.276599483194,0.0032945718013,0.0215002422264
1589284780983278345,12056,1589284780983202516,,-0.110089986929,-0.25463190187,1.09241802403,0.27734217419,0.00329166455535,0.0231494875427
1589284780989297940,12057,1589284780989193178,,-0.0871980186882,-0.254438031469,1.06951652255,0.276585404129,0.00329390783933,0.0223875837536
1589284780992362778,12058,1589284780992303240,,-0.109586557002,-0.254402885066,1.06918147787,0.276547495404,0.00393850890881,0.024918833131
1589284780995272585,12059,1589284780995215722,,-0.109584861575,-0.254406456987,1.06918080173,0.276547562737,0.00393763879413,0.0249182233804
1589284781001321839,12060,1589284781001233771,,-0.110074064029,-0.25463887628,1.09241800288,0.279130135226,0.0032847419246,0.0258568319883
1589284781004716567,12061,1589284781004621233,,-0.109574096431,-0.254405386067,1.06918215986,0.277451950355,0.00328761199646,0.0258218710206
1589284781007749970,12062,1589284781007656668,,-0.109565808183,-0.254402395949,1.06918372071,0.277452188418,0.00328655847806,0.0258194470601
1589284781013425395,12063,1589284781013324599,,-0.109564174193,-0.254397819769,1.06918497701,0.278377441364,0.00393135804855,0.0249496441738
1589284781016388487,12064,1589284781016328973,,-0.109170945822,-0.127215869988,1.06826213137,0.279283536574,0.00392819682505,0.0258546091986
1589284781022263898,12065,1589284781022202960,,-0.109162297511,-0.127194430794,1.06826556805,0.280193398597,0.00392621366187,0.0258709029029
1589284781025389457,12066,1589284781025274939,,-0.132554986853,-0.254540897716,1.09211641749,0.281868358339,0.00327386698939,0.0266536152119
1589284781028359261,12067,1589284781028278537,,-0.154970300567,-0.254497641345,1.09182064733,0.282749441191,0.00327170433978,0.0292049726192
1589284781034391471,12068,1589284781034266759,,-0.154960015618,-0.254479093247,1.0918264304,0.282749739153,0.00327154957729,0.0292021050818
1589284781037334161,12069,1589284781037179181,,-0.110526024301,-0.254749195137,1.11578812474,0.284455854743,0.00391483523925,0.0277405860073
1589284781043452738,12070,1589284781043334358,,-0.109640669142,-0.127247961028,1.0915507172,0.28458838772,0.00326625290014,0.0286309939775
1589284781046420659,12071,1589284781046275932,,-0.132649898298,-0.127320285029,1.11460919725,0.285348930252,0.0032647300659,0.0293960733825
1589284781049456973,12072,1589284781049331340,,-0.133041730228,-0.254695444635,1.11547129648,0.286272212871,0.00326126359312,0.028524019896
1589284781055344068,12073,1589284781055237496,,-0.133034337228,-0.25469074978,1.11547325018,0.286272426196,0.00326066392567,0.028521947413
1589284781058187326,12074,1589284781058111178,,-0.133029592358,-0.254682226556,1.11547576209,0.289019600998,0.00259750424801,0.0285771537226
1589284781061223615,12075,1589284781061111249,,-0.133023508076,-0.254683794189,1.11547612976,0.289033534561,0.00259735965641,0.0276763595062
1589284781067584184,12076,1589284781067452914,,-0.133013622412,-0.254681005204,1.11547794538,0.289033787557,0.0025971753519,0.0276737345602
1589284781070356611,12077,1589284781070233891,,-0.110484457265,-0.254710312693,1.11580111807,0.289951208373,0.00259417936996,0.0278411584405
1589284781073390573,12078,1589284781073294226,,-0.133513105573,-0.254889991531,1.13871927879,0.291633680605,0.00324821223315,0.027724595821
1589284781076336486,12079,1589284781076187527,,-0.133500025267,-0.254889032604,1.138721027,0.291633974144,0.00324901258089,0.0277214141339
1589284781082393958,12080,1589284781082316553,,-0.133496945606,-0.254886586525,1.13872193557,0.291634077602,0.0032481835299,0.0277204228731
1589284781085279518,12081,1589284781085206599,,-0.133490001578,-0.254884911884,1.13872312447,0.293463495689,0.00324504410581,0.0277561665348
1589284781091420763,12082,1589284781091260375,,-0.155931498305,-0.254851509396,1.1384194186,0.29347986345,0.00324208244967,0.026719319338
1589284781094295439,12083,1589284781094202784,,-0.133473903217,-0.254881236421,1.13872583421,0.295307157052,0.00323430747566,0.0268976581237
1589284781097393446,12084,1589284781097280197,,-0.133473829109,-0.254893041604,1.13872320048,0.295293446314,0.00323220496014,0.0277873879095
1589284781100479824,12085,1589284781100341569,,-0.11140921634,-0.255151594059,1.16229000905,0.296073832378,0.00323029349619,0.0270507678736
1589284781106615277,12086,1589284781106485459,,-0.133460961173,-0.254928228545,1.13871683186,0.29529377997,0.0032307251218,0.0277840140759
1589284781109274941,12087,1589284781109193140,,-0.0893313725508,-0.383122187355,1.16390266233,0.295177937118,0.00387928512071,0.0262818800426
1589284781115399983,12088,1589284781115248798,,-0.112291389533,-0.383370028154,1.18675692111,0.295013647652,0.00323018426753,0.0270239347452
1589284781118345196,12089,1589284781118241175,,-0.111798027203,-0.383110891518,1.16354930029,0.294257435029,0.00257215501643,0.0261138476309
1589284781121340984,12090,1589284781121246801,,-0.111788338676,-0.383120803657,1.16354696743,0.297006686076,0.00256528682541,0.0261665391215
1589284781124361333,12091,1589284781124274011,,-0.111784407525,-0.383119996657,1.16354761083,0.297006758583,0.00256573083194,0.0261656725724
1589284781130342645,12092,1589284781130265143,,-0.111361348925,-0.255227124402,1.16227801301,0.297022371953,0.00322561976701,0.0252766453907
1589284781133582521,12093,1589284781133443413,,-0.111379904937,-0.25522506884,1.16227668633,0.297021840937,0.00323001082509,0.0252823239161
1589284781139367442,12094,1589284781139262607,,-0.111413424976,-0.255211092005,1.16227654275,0.297021048945,0.00323245305508,0.0252913146457
1589284781142401225,12095,1589284781142276127,,-0.13346052424,-0.254962376097,1.13870923781,0.294425717513,0.00323463588888,0.0250863529553
1589284781145468756,12096,1589284781145266945,,-0.133469111778,-0.254960754452,1.13870859438,0.29350582152,0.0032375433492,0.0250702880893
1589284781148480949,12097,1589284781148409908,,-0.133959139931,-0.255170754669,1.16195203999,0.293350931156,0.0032411168558,0.0259640485719
1589284781157368001,12098,1589284781157240102,,-0.133954295502,-0.255176602275,1.16195131431,0.293350965565,0.0032434326898,0.0259633706029
1589284781160331475,12099,1589284781160173996,,-0.0888571423769,-0.382866819948,1.14069250821,0.291702058544,0.00389669033222,0.0235332723634
1589284781163235863,12100,1589284781163163477,,-0.111325787324,-0.382837549612,1.14034598053,0.291690399164,0.00389464555891,0.0242788800004
1589284781166200650,12101,1589284781166096907,,-0.089355013565,-0.38314700771,1.16389267717,0.292455809309,0.00389558681773,0.0244563799614
1589284781169260561,12102,1589284781169164990,,-0.0889487356246,-0.38285115748,1.14069062655,0.291685723796,0.00390152406792,0.0244575448105
1589284781175201372,12103,1589284781175116698,,-0.111404977507,-0.382817176542,1.14034508635,0.291672590329,0.00325100093749,0.0251994312256
1589284781178245858,12104,1589284781178121516,,-0.111890590726,-0.383108613824,1.16354115269,0.289692006701,0.00325807857629,0.0251612238629
1589284781181160652,12105,1589284781181099309,,-0.133979154979,-0.382811631287,1.14000488625,0.288911533385,0.00326239625705,0.0258966105289
1589284781187426939,12106,1589284781187331291,,-0.133977122984,-0.382814875857,1.14000403553,0.289832886225,0.00391129504927,0.0259161370522
1589284781190440862,12107,1589284781190330122,,-0.133989970701,-0.382809751957,1.14000424615,0.291634264637,0.00390761604492,0.027736057777
1589284781193482048,12108,1589284781193382449,,-0.111420293715,-0.510787452091,1.11887941554,0.290888975047,0.00325871153917,0.0260847945104
1589284781199397621,12109,1589284781199299564,,-0.111427718542,-0.510786386622,1.11887916254,0.29088904711,0.00325399165532,0.0260845801038
1589284781202392396,12110,1589284781202278277,,-0.111900393769,-0.511141997902,1.14201385172,0.290748199565,0.0032523028744,0.0260797302005
1589284781205656852,12111,1589284781205585732,,-0.13449541506,-0.511127257305,1.14166981036,0.290722920436,0.00325291157522,0.0277174559397
1589284781211342102,12112,1589284781211252079,,-0.112830871272,-0.640340094141,1.16702307323,0.291504919218,0.00390356901122,0.0269828243065
1589284781214474061,12113,1589284781214382349,,-0.112352641341,-0.639975313181,1.14392909707,0.291645979818,0.00390687147689,0.0269850183239
1589284781220286756,12114,1589284781220210676,,-0.135474734181,-0.640321547984,1.16667110601,0.293308648582,0.00390478347476,0.0286698979558
1589284781223259148,12115,1589284781223139041,,-0.135476070346,-0.640324804291,1.16666916363,0.294204501242,0.00390414933505,0.0295797489307
1589284781226399625,12116,1589284781226260809,,-0.135459970168,-0.511795180907,1.1879632879,0.294959510711,0.00390039589855,0.0304859207185
1589284781229390602,12117,1589284781229296908,,-0.157492689219,-0.511458182274,1.16448193769,0.296020617551,0.00325173476711,0.0303637375819
1589284781235500396,12118,1589284781235397193,,-0.157496035412,-0.511464321178,1.1644787888,0.296020467167,0.00325271686038,0.0303650984801
1589284781238422164,12119,1589284781238329934,,-0.180691927246,-0.64031600052,1.16599778655,0.296915422576,0.00325145255007,0.032022724729
1589284781241393558,12120,1589284781241300761,,-0.180681699839,-0.640304181726,1.16600586171,0.296915644926,0.00325262498976,0.0320205439515
1589284781247397899,12121,1589284781247308648,,-0.158009455004,-0.640309854368,1.16633537045,0.297819826536,0.00325085702939,0.0330776093944
1589284781250477200,12122,1589284781250385067,,-0.158003883581,-0.640305221798,1.16633866846,0.297820072507,0.00324974625952,0.0330755038331
1589284781256373795,12123,1589284781256271413,,-0.181159505708,-0.64065106252,1.1891098754,0.298577656761,0.00324811678297,0.0338399576702
1589284781259344931,12124,1589284781259258619,,-0.181149168267,-0.640650903069,1.18911153616,0.300420385034,0.00324642418561,0.0329760980372
1589284781262328519,12125,1589284781262245888,,-0.181140410033,-0.640658126396,1.18910897866,0.300420530628,0.00324763794615,0.0329746520912
1589284781265420850,12126,1589284781265250434,,-0.181634316219,-0.641008271531,1.21231265195,0.30024622602,0.00324881037219,0.03476168196
1589284781271432129,12127,1589284781271323697,,-0.158455437994,-0.64066930566,1.18943799819,0.301314669126,0.0032475895066,0.0340326387904
1589284781274357661,12128,1589284781274279963,,-0.158458819137,-0.640671913776,1.18943614293,0.30131460007,0.00324712243789,0.034033294746
1589284781277499484,12129,1589284781277393732,,-0.181635583655,-0.641008677667,1.21231224731,0.301178910306,0.00324796619923,0.0338908327586
1589284781283514485,12130,1589284781283320885,,-0.181131296127,-0.640668471775,1.18910479312,0.300407252917,0.00324819595371,0.0338733954724
1589284781286512813,12131,1589284781286332887,,-0.159002853761,-0.770056838574,1.19135843393,0.301314735992,0.00324692359308,0.0340321103101
1589284781292404925,12132,1589284781292321225,,-0.158998855982,-0.770063468282,1.19135468222,0.303130661896,0.00324319246926,0.0349605302403
1589284781295425097,12133,1589284781295313346,,-0.159008843037,-0.770053479605,1.19135980569,0.303130436211,0.00324268284145,0.0349625342878
1589284781298390205,12134,1589284781298287258,,-0.158535371405,-0.769687660832,1.16830292744,0.302361759496,0.00324411624654,0.0349478886355
1589284781301444754,12135,1589284781301350129,,-0.181738058441,-0.770041107204,1.19102084567,0.303132188517,0.00324056713485,0.0348256230895
1589284781307800859,12136,1589284781307705961,,-0.181754427598,-0.770038323163,1.19102014777,0.303131762285,0.00324002069199,0.0348293837729
1589284781310484967,12137,1589284781310401007,,-0.136451308326,-0.770068177856,1.19170137909,0.302259266131,0.00389081245503,0.0324257874641
1589284781316427833,12138,1589284781316353373,,-0.136455913935,-0.770067514525,1.19170128037,0.302258983927,0.00389276248009,0.0324281839124
1589284781319463051,12139,1589284781319341237,,-0.159627699004,-0.899893105756,1.19332162707,0.302232446395,0.00324378089496,0.0340677329289
1589284781322413836,12140,1589284781322323095,,-0.15962747233,-0.899889286836,1.19332453726,0.302232399154,0.00324445941748,0.0340680874129
1589284781328469967,12141,1589284781328372498,,-0.159636009927,-0.899893470667,1.19332024012,0.302232299741,0.00324280968465,0.0340691264081
1589284781331634635,12142,1589284781331497994,,-0.18238458162,-0.899879966812,1.1929740646,0.302221045701,0.00324320222375,0.0348204062646
1589284781334415600,12143,1589284781334336431,,-0.182387390827,-0.899883871615,1.19297068965,0.302221180244,0.00324083135906,0.0348194592329
1589284781340271121,12144,1589284781340116341,,-0.181800808405,-0.770050473245,1.19100521334,0.302232434665,0.00258377480083,0.0339310734353
1589284781343475240,12145,1589284781343369753,,-0.181802017047,-0.770046217284,1.19100778055,0.302247876735,0.00323991834338,0.0330294572551
1589284781346335322,12146,1589284781346255278,,-0.204921177362,-0.770414583792,1.21383120936,0.302088845093,0.00324073933125,0.0337745509613
1589284781355511214,12147,1589284781355339644,,-0.204917974204,-0.770421519904,1.21382734776,0.302088892541,0.00324106617103,0.0337740952052
1589284781358416049,12148,1589284781358290985,,-0.182381390033,-0.899897616393,1.19296123896,0.302219539125,0.00258308246348,0.034818374099
1589284781361452152,12149,1589284781361353559,,-0.159640839492,-0.8999011808,1.19331377972,0.303167150112,0.00258163429703,0.0322963749512
1589284781364492497,12150,1589284781364372073,,-0.159632672322,-0.899892506576,1.19332141363,0.303167170813,0.00258415583936,0.0322959789659
1589284781367494377,12151,1589284781367397544,,-0.136980118903,-0.899904583787,1.1936813258,0.303166656753,0.00324273377618,0.0324482909747
1589284781370424617,12152,1589284781370259919,,-0.15963772938,-0.899890456642,1.193322283,0.303167194337,0.00258238053809,0.0322959001425
1589284781376499368,12153,1589284781376399056,,-0.136995396831,-0.899906259381,1.19367830928,0.303180192042,0.00324020295627,0.03154946574
1589284781382557663,12154,1589284781382449102,,-0.137000355904,-0.899902002096,1.19368094966,0.304097961731,0.00257976614434,0.0315691571113
1589284781385520540,12155,1589284781385375652,,-0.137465517725,-0.90026672446,1.21680748688,0.303950232909,0.00257946139193,0.0315660916967
1589284781388376534,12156,1589284781388295970,,-0.137460432284,-0.900268502295,1.21680674604,0.303951989789,0.00323899535446,0.0315659873824
1589284781391616693,12157,1589284781391416906,,-0.114250657859,-0.899928501782,1.19404609979,0.303191641628,0.00324145563361,0.0307987377878
1589284781394479353,12158,1589284781394385664,,-0.137916826447,-0.900640367371,1.23983383742,0.304720670354,0.00323706862704,0.0315807717901
1589284781400413467,12159,1589284781400297578,,-0.115193033798,-1.03055895957,1.21909678447,0.303067633383,0.00323795369955,0.0299051387452
1589284781403289670,12160,1589284781403171134,,-0.115639193872,-1.03089598876,1.24211693109,0.304745954076,0.00323399427137,0.0299385147035
1589284781412473525,12161,1589284781412377937,,-0.115206330766,-1.03053557006,1.21911529983,0.303991019144,0.00323402853501,0.0290335402938
1589284781415424226,12162,1589284781415301918,,-0.0925151098224,-1.03055780313,1.21950335851,0.304936392877,0.0032321855459,0.027412318023
1589284781418480593,12163,1589284781418305359,,-0.115199351461,-1.03053151592,1.21911938636,0.304926473107,0.00388142521701,0.0281598357533
1589284781421439125,12164,1589284781421339243,,-0.115662901088,-1.16116180911,1.22098620497,0.303993077648,0.00388346655067,0.0290305894751
1589284781424422633,12165,1589284781424325166,,-0.115209333065,-1.03053673321,1.21911403288,0.304924461625,0.0032328137669,0.0281622860729
1589284781430489594,12166,1589284781430341490,,-0.138003753772,-1.03050798523,1.21874218169,0.304912500581,0.00323371606102,0.0289157254445
1589284781433502359,12167,1589284781433407624,,-0.138457221495,-1.03085820866,1.24174959796,0.304761465805,0.00323418763892,0.0289125584896
1589284781436402909,12168,1589284781436293549,,-0.1156535195,-1.03089534386,1.24211613255,0.304773298692,0.00323499217495,0.0281602994445
1589284781439432939,12169,1589284781439323923,,-0.116128982032,-1.1614981354,1.24397076528,0.305707105117,0.00323169290018,0.0272784264966
1589284781448472976,12170,1589284781448377684,,-0.116129205862,-1.16149181711,1.24397664376,0.305721069649,0.00323339170351,0.0263885745333
1589284781454411632,12171,1589284781454322457,,-0.116134580481,-1.1614912615,1.24397666078,0.305720922718,0.00323376742379,0.0263902306903
1589284781457443916,12172,1589284781457346254,,-0.138944609483,-1.16147477912,1.24358873164,0.306600832824,0.00323308870992,0.0289489094514
1589284781463572065,12173,1589284781463463820,,-0.117475134912,-1.42391566605,1.27037515937,0.307367338735,0.00322780621106,0.0291040398139
1589284781466539072,12174,1589284781466437068,,-0.117466768271,-1.42390409165,1.27038890622,0.30736729685,0.00323009138833,0.0291042286318
1589284781469467832,12175,1589284781469367007,,-0.117457562605,-1.42389538304,1.27039951828,0.307367322173,0.00323189579988,0.0291037608747
1589284781472545103,12176,1589284781472438994,,-0.1403706755,-1.42387068132,1.27000295709,0.307339887644,0.00257183047585,0.0307484058882
1589284781478585841,12177,1589284781478489873,,-0.139439161334,-1.29238562496,1.24536369754,0.30842970911,0.00323338265957,0.0289901790171
1589284781481453964,12178,1589284781481337620,,-0.139431422656,-1.29239254836,1.24535737914,0.308429763994,0.00323439321959,0.0289894823597
1589284781484575759,12179,1589284781484423475,,-0.138983642015,-1.29206305184,1.22239883508,0.307661247387,0.00323612698446,0.0289728709638
