%time,field.header.seq,field.header.stamp,field.header.frame_id,field.vector.x,field.vector.y,field.vector.z
1588764048912895844,799,1588764048912732767,,0.499696407279,-0.201146579791,0.231598437218
1588764048915856207,800,1588764048915715683,,0.499695743662,-0.201135484538,0.231581073303
1588764048921975336,801,1588764048921776057,,0.499695726012,-0.201121659968,0.231565934059
1588764048924999807,802,1588764048924807271,,0.499695120392,-0.201109562758,0.231549634797
1588764048927913093,803,1588764048927754018,,0.49969552687,-0.201096213497,0.231531756497
1588764048934037193,804,1588764048933859029,,0.499695449414,-0.201080489348,0.231511597919
1588764048937008822,805,1588764048936780517,,0.499695532846,-0.201065671884,0.231494105306
1588764048939876634,806,1588764048939763360,,0.499696338433,-0.201048312558,0.231475157463
1588764048946075135,807,1588764048945833140,,0.49969764516,-0.201029488431,0.231456570898
1588764048949018707,808,1588764048948817099,,0.49969873502,-0.201011767719,0.231436267871
1588764048951897338,809,1588764048951758896,,0.499699128739,-0.200996526474,0.231416861854
1588764048958263591,810,1588764048958122630,,0.499698937258,-0.200978763155,0.231396958257
1588764048961199243,811,1588764048961081071,,0.49969954214,-0.200960908221,0.23137974539
1588764048963926688,812,1588764048963744037,,0.499699604202,-0.200941455194,0.231361216856
1588764048969982777,813,1588764048969807873,,0.499700620908,-0.200921547096,0.231342544658
1588764048972880385,814,1588764048972728227,,0.499701807429,-0.200899554133,0.231322651252
1588764048975865510,815,1588764048975740685,,0.499702879288,-0.200879426357,0.231304033354
1588764048981992977,816,1588764048981783971,,0.499703204167,-0.200858822123,0.231284301406
1588764048984952942,817,1588764048984784958,,0.499704444159,-0.200837676303,0.231264987747
1588764048987905468,818,1588764048987771669,,0.499704690084,-0.200815283297,0.231242231976
1588764048993940646,819,1588764048993796392,,0.499704799672,-0.200793767681,0.231217563735
1588764048996943244,820,1588764048996776000,,0.499705275013,-0.200770430583,0.231195010592
1588764048999932813,821,1588764048999791050,,0.499705339329,-0.20074757161,0.231172229658
1588764049005915747,822,1588764049005808390,,0.499705911728,-0.200724518624,0.231148259816
1588764049008890391,823,1588764049008819799,,0.499706260536,-0.200699253504,0.231124873587
1588764049011861469,824,1588764049011776074,,0.499705436484,-0.20067323803,0.231100064066
1588764049017929756,825,1588764049017780280,,0.499705481643,-0.200648847814,0.231075284344
1588764049021002833,826,1588764049020860948,,0.499705880651,-0.200623396377,0.23105060309
1588764049026999071,827,1588764049026812593,,0.499705801554,-0.200597693417,0.231026753194
1588764049030009807,828,1588764049029879980,,0.499706531619,-0.200569045347,0.23100176663
1588764049033040206,829,1588764049032892789,,0.499707221511,-0.200544027418,0.230977469553
1588764049039011651,830,1588764049038813294,,0.499706823796,-0.200517790857,0.230951900896
1588764049042028815,831,1588764049041812939,,0.499706575818,-0.200490084332,0.230928395759
1588764049044965152,832,1588764049044832571,,0.499707627608,-0.20046247782,0.230905035878
1588764049051028932,833,1588764049050803352,,0.499708372936,-0.200432044453,0.230879836954
1588764049053932472,834,1588764049053804884,,0.499706614371,-0.200401789132,0.230851088127
1588764049056882786,835,1588764049056747206,,0.499707170843,-0.200375767666,0.230827666269
1588764049063065451,836,1588764049062853319,,0.49970749582,-0.200344826499,0.230802698339
1588764049065892872,837,1588764049065792577,,0.49970581073,-0.200318473024,0.230774321841
1588764049068990725,838,1588764049068827489,,0.499706425719,-0.200286422743,0.230747281351
1588764049074997943,839,1588764049074836068,,0.499707345787,-0.200257455834,0.230722306423
1588764049077964235,840,1588764049077852803,,0.499705641599,-0.200227874547,0.230692215676
1588764049081016779,841,1588764049080832759,,0.499705006925,-0.200199781032,0.230664249478
1588764049086925916,842,1588764049086826889,,0.499705514614,-0.200169328913,0.230639744115
1588764049090017153,843,1588764049089889762,,0.49970419977,-0.200139082633,0.230609789226
1588764049092945888,844,1588764049092797186,,0.499702864993,-0.200105835897,0.230578901624
1588764049098940015,845,1588764049098805393,,0.499702386942,-0.200075808327,0.230553005336
1588764049101975707,846,1588764049101856740,,0.499700701118,-0.20004551482,0.230524343803
1588764049104935809,847,1588764049104813464,,0.499700326963,-0.200013859979,0.230498383305
1588764049110910768,848,1588764049110797982,,0.499699520305,-0.199979728848,0.230473010844
1588764049113974087,849,1588764049113856415,,0.49969889415,-0.19994700132,0.230443201624
1588764049116967787,850,1588764049116778334,,0.499697316764,-0.199916029058,0.230413690148
1588764049123061642,851,1588764049122882942,,0.499696582989,-0.199881703104,0.230387402547
1588764049126014020,852,1588764049125877861,,0.499694682756,-0.199850143923,0.230359917588
1588764049131980169,853,1588764049131860121,,0.499693123948,-0.199815154735,0.230331258357
1588764049134986847,854,1588764049134849462,,0.499692312126,-0.199779421204,0.230304185329
1588764049137982716,855,1588764049137852616,,0.499690723783,-0.199748795106,0.230274953737
1588764049144092846,856,1588764049143877420,,0.499692476898,-0.199712399247,0.230249416492
1588764049146979110,857,1588764049146860173,,0.49969206285,-0.199677225922,0.230219466692
1588764049150065725,858,1588764049149852496,,0.49969044292,-0.199642203588,0.23018535915
1588764049155991253,859,1588764049155847407,,0.499691106665,-0.199610326614,0.230155826836
1588764049159223443,860,1588764049159089109,,0.499690991436,-0.199574757635,0.230125131502
1588764049164968045,861,1588764049164828084,,0.4996902269,-0.199541227157,0.230095491641
1588764049167941076,862,1588764049167831647,,0.499690788404,-0.199504232988,0.23006491643
1588764049171041865,863,1588764049170824657,,0.499689343906,-0.199468639308,0.230032827186
1588764049177067931,864,1588764049176875093,,0.499689990486,-0.199432960088,0.230003170134
1588764049180146597,865,1588764049179854515,,0.499689737786,-0.199395746124,0.229970319374
1588764049183060315,866,1588764049182887735,,0.499689784191,-0.199359654165,0.229938388151
1588764049186016561,867,1588764049185829234,,0.499688193447,-0.199322543246,0.229901806415
1588764049192046087,868,1588764049191862972,,0.499689681744,-0.199283218799,0.229873154213
1588764049194984112,869,1588764049194872650,,0.499691195893,-0.199241644719,0.229841844511
1588764049197919096,870,1588764049197769180,,0.499691751109,-0.199202080416,0.229807067033
1588764049204097742,871,1588764049203840851,,0.499692279379,-0.199161274483,0.229769324235
1588764049206944362,872,1588764049206816516,,0.499693492508,-0.199119759409,0.229735525675
1588764049213044564,873,1588764049212862479,,0.499694584059,-0.199078485342,0.229699178609
1588764049215942948,874,1588764049215828314,,0.499697181562,-0.199032130538,0.229666287954
1588764049219010272,875,1588764049218850518,,0.499698670818,-0.198987763765,0.229631351419
1588764049224921305,876,1588764049224784206,,0.499700060392,-0.198940877397,0.229595461243
1588764049227913674,877,1588764049227782584,,0.49970127672,-0.198898868227,0.229562077201
1588764049230923370,878,1588764049230824008,,0.49970371756,-0.198849337263,0.229526377698
1588764049234065398,879,1588764049233915955,,0.499705860967,-0.198799351207,0.229490003815
1588764049239964202,880,1588764049239825296,,0.499708681298,-0.198755323949,0.229457735375
1588764049243054662,881,1588764049242889180,,0.499711804189,-0.198705813843,0.22942282906
1588764049248930871,882,1588764049248808297,,0.49971279036,-0.198660995165,0.229383074498
1588764049251994966,883,1588764049251849774,,0.499715956695,-0.198615758485,0.229347947203
1588764049254918791,884,1588764049254805545,,0.499718439647,-0.198567858667,0.229311293604
1588764049261268040,885,1588764049261125611,,0.499721169557,-0.198519792853,0.229274026065
1588764049263999179,886,1588764049263825998,,0.499724200455,-0.198471853276,0.229235781736
1588764049267032755,887,1588764049266842040,,0.499726531748,-0.198426333764,0.22919977205
1588764049273077003,888,1588764049272885478,,0.49973141073,-0.198373179064,0.229162428471
1588764049276004413,889,1588764049275832979,,0.499733298416,-0.198326365556,0.229124572332
1588764049278981316,890,1588764049278838105,,0.499736609046,-0.198275634141,0.229085398326
1588764049284958753,891,1588764049284862975,,0.49974146195,-0.198223933746,0.229046375913
1588764049287940018,892,1588764049287802911,,0.499743822305,-0.198172287364,0.229006651287
1588764049290988778,893,1588764049290860382,,0.499747934423,-0.198119455877,0.228968224262
1588764049297000432,894,1588764049296887335,,0.499752842626,-0.198067023469,0.228928771518
1588764049299929360,895,1588764049299814216,,0.499756092626,-0.198013156855,0.228887043497
1588764049303017636,896,1588764049302867547,,0.499761464788,-0.197959511653,0.228847563138
1588764049308973906,897,1588764049308841699,,0.49976560658,-0.197904450857,0.228806269922
1588764049312034103,898,1588764049311866361,,0.49976986004,-0.197851121525,0.22876720514
1588764049314972741,899,1588764049314872743,,0.499775146782,-0.197794409829,0.228726083694
1588764049321001265,900,1588764049320876629,,0.499780421247,-0.197739187396,0.22868933121
1588764049326999905,901,1588764049326820970,,0.499789485385,-0.197628698529,0.228606380572
1588764049333050152,902,1588764049332881024,,0.499794625785,-0.197576098577,0.228561824583
1588764049335905899,903,1588764049335790320,,0.499798536219,-0.197522844788,0.228518169477
1588764049339030471,904,1588764049338883444,,0.499805414141,-0.197467527791,0.228477629724
1588764049344997061,905,1588764049344886367,,0.499810297499,-0.197412996431,0.228433309355
1588764049348038918,906,1588764049347886943,,0.499816818524,-0.197358378897,0.228386991885
1588764049351042472,907,1588764049350914067,,0.499822094343,-0.197304815503,0.228346974363
1588764049357039913,908,1588764049356869700,,0.499825620075,-0.197261085399,0.228306591303
1588764049360075937,909,1588764049359960796,,0.49983193308,-0.197207830646,0.228263906482
1588764049362984507,910,1588764049362839487,,0.499836859463,-0.197145390944,0.228217420246
1588764049369044051,911,1588764049368855959,,0.499841275852,-0.197101882701,0.228181067945
1588764049371916732,912,1588764049371821312,,0.499847986692,-0.197048765699,0.228138979514
1588764049374975274,913,1588764049374857416,,0.499854819854,-0.196985035885,0.228096548324
1588764049380908832,914,1588764049380806407,,0.499859592313,-0.196935723381,0.228056134234
1588764049384008460,915,1588764049383857611,,0.4998671319,-0.196881051754,0.22801840014
1588764049387017944,916,1588764049386892332,,0.499872512351,-0.19682936035,0.227977225395
1588764049393011016,917,1588764049392873420,,0.499879003202,-0.196776932945,0.227938485763
1588764049395992006,918,1588764049395859349,,0.499884557144,-0.196724532848,0.227896507526
1588764049402013338,919,1588764049401890272,,0.499890772028,-0.196669636014,0.227856729228
1588764049404966443,920,1588764049404858797,,0.499898405604,-0.196612155224,0.227816048567
1588764049407995503,921,1588764049407888372,,0.499906759257,-0.196558370558,0.227773614726
1588764049414019010,922,1588764049413900530,,0.499913257757,-0.196498506696,0.22772908346
1588764049417037847,923,1588764049416899730,,0.499920904801,-0.196440860391,0.227684155211
1588764049420068424,924,1588764049419899662,,0.499929638553,-0.196381171613,0.227637368282
1588764049426098631,925,1588764049425945605,,0.499938625174,-0.196316758162,0.227594792519
1588764049428992700,926,1588764049428876294,,0.499945352059,-0.196256204776,0.227547233457
1588764049432106987,927,1588764049431932653,,0.499954064926,-0.196191791506,0.227501853107
1588764049438087950,928,1588764049437935481,,0.49996190282,-0.196126971104,0.227453486801
1588764049440974060,929,1588764049440836289,,0.499970941127,-0.196060020564,0.22740992741
1588764049450037606,930,1588764049449842451,,0.499989739598,-0.195927725428,0.227312905479
1588764049452928935,931,1588764049452826303,,0.499998247913,-0.195862798455,0.227268061733
1588764049455970170,932,1588764049455822234,,0.500007251235,-0.195799783629,0.227221868185
1588764049462379656,933,1588764049462202374,,0.500017024579,-0.195731743101,0.227175789644
1588764049464990542,934,1588764049464819948,,0.500025859221,-0.195664056045,0.227128601084
1588764049467975758,935,1588764049467842595,,0.500033532906,-0.195602209651,0.227084482317
1588764049473994826,936,1588764049473839619,,0.500040821261,-0.195550860954,0.227045764528
1588764049477009632,937,1588764049476820065,,0.500048380302,-0.19550226755,0.227006517209
1588764049479991103,938,1588764049479828278,,0.500056166802,-0.195429349565,0.226956226921
1588764049485987215,939,1588764049485857007,,0.500064556917,-0.195373420947,0.22691377241
1588764049488944132,940,1588764049488834479,,0.500071930103,-0.195326773694,0.226878784054
1588764049492004279,941,1588764049491860670,,0.500081766692,-0.195258957786,0.226831725335
1588764049497989788,942,1588764049497841061,,0.500088385567,-0.195193012547,0.226783670754
1588764049500921266,943,1588764049500822416,,0.500096682348,-0.195137065797,0.226743179332
1588764049510068700,944,1588764049509827230,,0.500111257777,-0.195025218405,0.226661323006
1588764049512941737,945,1588764049512834782,,0.500120314012,-0.194966792878,0.226619642343
1588764049516024483,946,1588764049515873346,,0.500128181356,-0.194906689041,0.226575954277
1588764049521990421,947,1588764049521842258,,0.500137447651,-0.194845093645,0.226529801829
1588764049525015823,948,1588764049524883064,,0.500148407271,-0.19477854091,0.226484424365
1588764049528065410,949,1588764049527896769,,0.500158705864,-0.194715462078,0.226438406152
1588764049533991197,950,1588764049533885209,,0.500167431398,-0.194661323955,0.226397162275
1588764049537108134,951,1588764049536971516,,0.500175253771,-0.194605424054,0.226356546597
1588764049543037172,952,1588764049542908789,,0.500186171492,-0.194524371612,0.226306078342
1588764049545973036,953,1588764049545865049,,0.500196014583,-0.194452542447,0.22625854461
1588764049549043203,954,1588764049548925922,,0.500204893411,-0.194405458479,0.226206731053
1588764049554911829,955,1588764049554825759,,0.500214470974,-0.194331976185,0.226155583035
1588764049558324661,956,1588764049558238114,,0.500220300241,-0.194255930757,0.226107122267
1588764049561452480,957,1588764049561283846,,0.500229379308,-0.194200388844,0.226062933488
1588764049567111752,958,1588764049566888596,,0.500237903901,-0.194136854384,0.226021298727
1588764049569993211,959,1588764049569851826,,0.500246002868,-0.194077777507,0.22597959124
1588764049573061883,960,1588764049572936054,,0.500256860243,-0.19402197144,0.225937964137
1588764049579069627,961,1588764049578918588,,0.500268166381,-0.193958712799,0.225897926611
1588764049581997111,962,1588764049581866628,,0.50028055379,-0.193896376852,0.225862286171
1588764049585024419,963,1588764049584885773,,0.500292238711,-0.193834579281,0.225822412216
1588764049590995318,964,1588764049590889472,,0.500303399328,-0.193771473307,0.225784965367
1588764049594040328,965,1588764049593894060,,0.500315114088,-0.193706081211,0.225744333919
1588764049597003533,966,1588764049596899214,,0.50032605417,-0.193640859049,0.225697535728
1588764049603175146,967,1588764049602988198,,0.500336474306,-0.193571107701,0.225644875164
1588764049605989730,968,1588764049605874856,,0.500348061575,-0.193502243854,0.2255906806
1588764049609073229,969,1588764049608922513,,0.500358641023,-0.193430407148,0.225534286569
1588764049615026485,970,1588764049614903549,,0.500368980297,-0.193362179301,0.225473270133
1588764049618050240,971,1588764049617919623,,0.50037807272,-0.193291778399,0.225409872369
1588764049627037787,972,1588764049626886971,,0.500395895683,-0.193143924891,0.225281528145
1588764049630018785,973,1588764049629901480,,0.500406522663,-0.193066819165,0.225219930604
1588764049636106056,974,1588764049635943934,,0.500416814768,-0.192987250907,0.225160433159
1588764049639050516,975,1588764049638901990,,0.500426314533,-0.192911638393,0.225101651615
1588764049642090553,976,1588764049641928609,,0.500436981037,-0.192834162871,0.225047140088
1588764049648019915,977,1588764049647919576,,0.500448157627,-0.192756767083,0.224990932768
1588764049650978481,978,1588764049650862656,,0.500459214103,-0.192683566919,0.224942201017
1588764049654051521,979,1588764049653860875,,0.500469657935,-0.192623697445,0.224896135964
1588764049660178983,980,1588764049660027694,,0.500481760634,-0.192548431644,0.224846215557
1588764049663103254,981,1588764049662950659,,0.500493345717,-0.192463494601,0.224794431267
1588764049666043720,982,1588764049665877481,,0.500503678113,-0.192411684951,0.224748499326
1588764049672096758,983,1588764049671916070,,0.500514521299,-0.192340755626,0.224692339958
1588764049675154061,984,1588764049674958194,,0.500525182488,-0.192266726118,0.224637214048
1588764049678104918,985,1588764049677935595,,0.500537053006,-0.192203655355,0.224580861569
1588764049687133906,986,1588764049686919498,,0.500557728957,-0.192083993417,0.224466905761
1588764049689969227,987,1588764049689866860,,0.50056847555,-0.192027042853,0.224411691253
1588764049696064099,988,1588764049695907449,,0.500579156469,-0.191968750411,0.224354790821
1588764049699089864,989,1588764049698957648,,0.50058977638,-0.191905948504,0.224295007416
1588764049702142834,990,1588764049701957974,,0.500600858937,-0.19184217425,0.224241497668
1588764049708094778,991,1588764049707991654,,0.50061380771,-0.19177858602,0.224189437449
1588764049711114306,992,1588764049710984340,,0.500625889733,-0.191713856686,0.224137572372
1588764049714081543,993,1588764049713971677,,0.50063526163,-0.191664083736,0.224093575996
1588764049720070873,994,1588764049719900775,,0.500646840301,-0.191600602212,0.224043093774
1588764049723016055,995,1588764049722901847,,0.500661534744,-0.191518831507,0.223987827041
1588764049726044604,996,1588764049725933826,,0.500672293314,-0.191461620231,0.223937861555
1588764049732051989,997,1588764049731932671,,0.500686866859,-0.191390716735,0.223884056826
1588764049735098189,998,1588764049734934846,,0.50070173785,-0.19131598348,0.223829754399
1588764049737976936,999,1588764049737851718,,0.500714516655,-0.191254592256,0.223779555136
1588764049744031572,1000,1588764049743957053,,0.500728090758,-0.191189981996,0.223725586238
1588764049746954370,1001,1588764049746854193,,0.500741939982,-0.191128094996,0.223673091217
1588764049750034715,1002,1588764049749881237,,0.500757818991,-0.191066628262,0.22362454552
1588764049756013252,1003,1588764049755908034,,0.500772357277,-0.191001733154,0.22357377358
1588764049759335206,1004,1588764049759173136,,0.500785765658,-0.190938859065,0.223524610014
1588764049762415682,1005,1588764049762269160,,0.500800670588,-0.190873756506,0.223481618684
1588764049768014960,1006,1588764049767910477,,0.500814011317,-0.190817346231,0.223435603149
1588764049770996098,1007,1588764049770911880,,0.500827850728,-0.190760168589,0.223393790422
1588764049774005274,1008,1588764049773922738,,0.500842028094,-0.190705004327,0.223345708097
1588764049780108644,1009,1588764049779985317,,0.500857354864,-0.190650111034,0.223293898444
1588764049783054372,1010,1588764049782969781,,0.500870996294,-0.190593513898,0.223244197838
1588764049786089088,1011,1588764049785975892,,0.500884690762,-0.190540409707,0.223188195683
1588764049792010636,1012,1588764049791873260,,0.500897075807,-0.190483130908,0.223132316321
1588764049794946566,1013,1588764049794842696,,0.500909020959,-0.190429322203,0.22307477946
1588764049797997624,1014,1588764049797862046,,0.500919381445,-0.190372246538,0.22301809806
1588764049807007793,1015,1588764049806871902,,0.50094234329,-0.190255303242,0.22290429789
1588764049813025652,1016,1588764049812881732,,0.500951549685,-0.190197924832,0.222844403103
1588764049816018232,1017,1588764049815881398,,0.500961943871,-0.190138055974,0.222788631306
1588764049819194850,1018,1588764049819010685,,0.500973494937,-0.190077302592,0.22273292453
1588764049825034032,1019,1588764049824899912,,0.500984988636,-0.190013871091,0.222676712352
1588764049828075313,1020,1588764049827889871,,0.5009945005,-0.189952528777,0.222622765392
1588764049831010514,1021,1588764049830901795,,0.50100658603,-0.189893183623,0.222575138531
1588764049837006225,1022,1588764049836934287,,0.501015908253,-0.189841636219,0.222529844934
1588764049840155445,1023,1588764049839961999,,0.501025966878,-0.189781478073,0.222480038204
1588764049843066711,1024,1588764049842946187,,0.501039963571,-0.189716124115,0.222429401299
1588764049849176061,1025,1588764049849028076,,0.501049074031,-0.189668953512,0.222388690167
1588764049852065678,1026,1588764049851941488,,0.501061808159,-0.189611633699,0.222340156269
1588764049855143907,1027,1588764049854971449,,0.501072822703,-0.189549653105,0.222290284767
1588764049861469561,1028,1588764049861279232,,0.501083326412,-0.189499046976,0.222245240269
1588764049864091429,1029,1588764049863984522,,0.501093053192,-0.189447790082,0.222193187702
1588764049867053406,1030,1588764049866916380,,0.501102035171,-0.189398349791,0.222146483948
1588764049873164764,1031,1588764049872997868,,0.50111262691,-0.189350031456,0.222095876407
1588764049876046871,1032,1588764049875930897,,0.501121421349,-0.189304442691,0.222044365356
1588764049879042711,1033,1588764049878948638,,0.501130127039,-0.189255885338,0.221992863649
1588764049885090502,1034,1588764049884983955,,0.501139579519,-0.189202484859,0.221937216752
1588764049888152883,1035,1588764049887964698,,0.50115053996,-0.189154215068,0.221886867063
1588764049890948312,1036,1588764049890841636,,0.501160594047,-0.1891042776,0.221835247873
1588764049897129324,1037,1588764049896906021,,0.501170034918,-0.189053986972,0.22178312502
1588764049899957726,1038,1588764049899860508,,0.501179850658,-0.18900689225,0.221731697067
1588764049903045253,1039,1588764049902911424,,0.501191556263,-0.188951353423,0.221684541584
1588764049909087918,1040,1588764049908898532,,0.501200882041,-0.188901855414,0.221632877407
1588764049911974447,1041,1588764049911887519,,0.501212469785,-0.188847275305,0.221584642674
1588764049915007575,1042,1588764049914897078,,0.501223118493,-0.188795690258,0.221533848939
1588764049921194816,1043,1588764049921021508,,0.501235361249,-0.18874161081,0.221485840159
1588764049927015150,1044,1588764049926892178,,0.5012575883,-0.188636755259,0.221386938908
1588764049933003433,1045,1588764049932891792,,0.501269125442,-0.188584179157,0.221336077002
1588764049936021639,1046,1588764049935912967,,0.501279530553,-0.188532962125,0.221286035277
1588764049942055624,1047,1588764049941904469,,0.501289972389,-0.188484351266,0.221238720027
1588764049945058729,1048,1588764049944966185,,0.501299900851,-0.18842991549,0.221186669397
1588764049948100115,1049,1588764049947967751,,0.501309669297,-0.188380842885,0.221137052834
1588764049954129875,1050,1588764049953944992,,0.501320332215,-0.188329406426,0.221088883155
1588764049957042425,1051,1588764049956937098,,0.50133172415,-0.188282211505,0.221042511777
1588764049960267281,1052,1588764049960122524,,0.501342022809,-0.188236888073,0.220993867068
1588764049966135288,1053,1588764049965969230,,0.501353777548,-0.188184379449,0.220950376265
1588764049969070910,1054,1588764049968909370,,0.501364139028,-0.188141168133,0.220904204408
1588764049972111519,1055,1588764049971958128,,0.50137593655,-0.188096279689,0.22086193906
1588764049978080681,1056,1588764049977956076,,0.501387481519,-0.188047864001,0.220820072825
1588764049981071213,1057,1588764049980955068,,0.501397750249,-0.188004234049,0.220777249487
1588764049987008797,1058,1588764049986897278,,0.501420473467,-0.18791443422,0.220694626235
1588764049993130232,1059,1588764049992978838,,0.501430820338,-0.187868205224,0.220653750017
1588764049996088587,1060,1588764049995980230,,0.501441208758,-0.187826307264,0.220611099761
1588764050002148984,1061,1588764050001972278,,0.501449894453,-0.187782524686,0.220567404788
1588764050005114340,1062,1588764050005007505,,0.501460338796,-0.187735587222,0.220525945852
1588764050008044896,1063,1588764050007914700,,0.50146984413,-0.187692771761,0.220486253642
1588764050014089149,1064,1588764050013964939,,0.501478452787,-0.18765819282,0.220449107386
1588764050017134150,1065,1588764050016982332,,0.501485839558,-0.187617709551,0.220410125788
1588764050023142307,1066,1588764050022991887,,0.501494387286,-0.187569974379,0.220369475448
1588764050026036765,1067,1588764050025968308,,0.501500716101,-0.187533499616,0.220339057036
1588764050029196124,1068,1588764050029017819,,0.501507457321,-0.187493298315,0.220307588482
1588764050035080926,1069,1588764050034960843,,0.501515949201,-0.187448758448,0.220269638673
1588764050038079399,1070,1588764050037941962,,0.501522101945,-0.187412321298,0.22023883971
1588764050041095967,1071,1588764050040918797,,0.501529223437,-0.187374139398,0.220210504219
1588764050047116413,1072,1588764050046965512,,0.501536088366,-0.187336062757,0.220182414352
1588764050050152396,1073,1588764050049976607,,0.501540972639,-0.187303724699,0.22015345604
1588764050053096475,1074,1588764050052947067,,0.501544873623,-0.187271471664,0.220124680163
1588764050059377577,1075,1588764050059174503,,0.501550064414,-0.187237494084,0.220096532982
1588764050062384867,1076,1588764050062258812,,0.501555554153,-0.187201132502,0.220069108172
1588764050065030732,1077,1588764050064938703,,0.501559464147,-0.187167913416,0.220039212559
1588764050071082951,1078,1588764050070940398,,0.501562696046,-0.187135696119,0.220007489274
1588764050074084390,1079,1588764050073958330,,0.501566433091,-0.187105172836,0.219978598162
1588764050077086900,1080,1588764050076936814,,0.50156964,-0.187071811856,0.219951753497
1588764050083199841,1081,1588764050082988416,,0.501572439877,-0.187036777581,0.219922452638
1588764050085988926,1082,1588764050085924878,,0.501575074265,-0.187004900281,0.219895059265
1588764050089033599,1083,1588764050088952677,,0.50157898199,-0.186971871193,0.219870669679
1588764050095097708,1084,1588764050094992235,,0.501581943945,-0.186937719165,0.219846158641
1588764050097993786,1085,1588764050097887529,,0.501584005753,-0.18690357727,0.219819807142
1588764050101061535,1086,1588764050100930587,,0.501586590704,-0.186872047092,0.219794124421
1588764050107012712,1087,1588764050106912333,,0.501588477272,-0.186841247376,0.219767624086
1588764050109978244,1088,1588764050109895835,,0.501591052537,-0.186809751161,0.219744374854
1588764050113094905,1089,1588764050112961095,,0.5015950541,-0.186776419618,0.219723548858
1588764050119086860,1090,1588764050118981359,,0.501598150605,-0.186742795786,0.21970101596
1588764050122033528,1091,1588764050121949788,,0.501599013568,-0.186713312192,0.219677870558
1588764050125013845,1092,1588764050124941801,,0.501599465163,-0.186685393734,0.219656909491
1588764050131321123,1093,1588764050131227029,,0.501601820657,-0.186656084005,0.219635621028
1588764050134101535,1094,1588764050134009330,,0.501603088531,-0.186624033655,0.219614995182
1588764050137047720,1095,1588764050136970892,,0.501604821567,-0.186595090561,0.219595752099
1588764050143107852,1096,1588764050142986615,,0.501606101432,-0.186569823915,0.219574766605
1588764050146093984,1097,1588764050145955269,,0.50160630806,-0.186541257319,0.219554307925
1588764050149047472,1098,1588764050148945581,,0.50160710881,-0.186515904879,0.219537973301
1588764050155088762,1099,1588764050154995225,,0.501607996399,-0.186487463327,0.219521491732
1588764050158384175,1100,1588764050158285125,,0.50160843969,-0.186462906986,0.219506223847
1588764050161499737,1101,1588764050161335497,,0.501608633356,-0.186438055008,0.219490797192
1588764050167203635,1102,1588764050167011126,,0.50160887637,-0.186414234815,0.219477238721
1588764050169977758,1103,1588764050169865739,,0.5016088043,-0.186390864991,0.219462459898
1588764050172963474,1104,1588764050172885848,,0.501608817496,-0.186367824283,0.219449763471
1588764050179007170,1105,1588764050178903946,,0.501609111382,-0.186343093546,0.219437474316
1588764050182004958,1106,1588764050181930342,,0.5016096539,-0.186321275117,0.219424390859
1588764050184969388,1107,1588764050184905066,,0.501609451117,-0.186301039371,0.219413229645
1588764050190973107,1108,1588764050190909264,,0.501607995341,-0.186281224206,0.219400709567
1588764050194008984,1109,1588764050193912825,,0.501606841146,-0.186263824372,0.219389083302
1588764050197101841,1110,1588764050196897464,,0.501606377222,-0.186246027031,0.21937718788
1588764050203190580,1111,1588764050203044367,,0.501605004219,-0.186229128159,0.219366211518
1588764050206148159,1112,1588764050205984235,,0.501604454528,-0.186213402163,0.219356650401
1588764050209121996,1113,1588764050209002821,,0.501603195046,-0.186196623246,0.219346268196
1588764050215003455,1114,1588764050214939203,,0.501602111079,-0.186181154183,0.219335202862
1588764050217989723,1115,1588764050217909545,,0.501600540863,-0.18616495048,0.219323790055
1588764050221056179,1116,1588764050220911197,,0.501599362086,-0.186149171326,0.219314969245
1588764050227126140,1117,1588764050226983825,,0.501598457703,-0.186136226057,0.219305847601
1588764050230029109,1118,1588764050229936918,,0.501598044326,-0.186123126776,0.219297307675
1588764050236022870,1119,1588764050235945091,,0.501597627548,-0.1861084733,0.219289611384
1588764050239050247,1120,1588764050238953567,,0.501597382521,-0.186095410461,0.219281839213
1588764050242107208,1121,1588764050242010037,,0.501596633232,-0.186083114135,0.21927383128
1588764050248087759,1122,1588764050247955881,,0.50159534982,-0.186071103883,0.219265616832
1588764050251064340,1123,1588764050250953321,,0.501594634198,-0.186058751711,0.219257564664
1588764050254048719,1124,1588764050253933521,,0.501593872789,-0.186046711689,0.219252507948
1588764050260122307,1125,1588764050260052755,,0.501592900313,-0.186036111073,0.219244874101
1588764050263076521,1126,1588764050262978361,,0.501592165657,-0.186025314062,0.21923843447
1588764050266095413,1127,1588764050266003816,,0.501591597301,-0.186014256191,0.219232952316
1588764050272059506,1128,1588764050271989014,,0.50159045208,-0.186004779248,0.219227068092
1588764050275138044,1129,1588764050275030356,,0.501589894019,-0.185994681356,0.219221680221
1588764050278066846,1130,1588764050277994634,,0.50158859136,-0.185982581044,0.219215659069
1588764050287197724,1131,1588764050287027880,,0.501587670242,-0.185963871843,0.21920661138
1588764050290031459,1132,1588764050289913404,,0.501586778058,-0.18595317412,0.219203194794
1588764050296007077,1133,1588764050295932720,,0.501586524321,-0.185944393858,0.219201210086
1588764050299052916,1134,1588764050298960120,,0.50158591529,-0.185936478116,0.219200144988
1588764050302061335,1135,1588764050301970566,,0.501585260838,-0.18592769169,0.219199294362
1588764050308063942,1136,1588764050307939656,,0.501584116672,-0.185918675233,0.219199321726
1588764050311115411,1137,1588764050310980639,,0.501583211124,-0.1859131117,0.219200107831
1588764050314031707,1138,1588764050313964911,,0.501582497862,-0.185903896181,0.219201002614
1588764050320112141,1139,1588764050319987578,,0.501581036455,-0.185898580433,0.219202651208
1588764050323115434,1140,1588764050322984055,,0.501580329766,-0.185891800903,0.2192030849
1588764050326065937,1141,1588764050325967840,,0.501579341812,-0.185885561333,0.219203316703
1588764050332107286,1142,1588764050332017029,,0.501578688393,-0.185879299433,0.219204066896
1588764050335127606,1143,1588764050335032192,,0.501577481615,-0.185875377253,0.219204461012
1588764050341020719,1144,1588764050340912667,,0.501577193713,-0.185868441637,0.219204129938
1588764050347070128,1145,1588764050346973403,,0.501574627898,-0.185861349644,0.219206376535
1588764050353057150,1146,1588764050352966649,,0.501573786984,-0.185856273305,0.219207798301
1588764050356098390,1147,1588764050355980003,,0.501573239885,-0.185853711532,0.219208597413
1588764050359289294,1148,1588764050359210626,,0.501572270821,-0.185849852993,0.219211190042
1588764050365115577,1149,1588764050365020463,,0.501571576619,-0.185846814841,0.219214044149
1588764050368091689,1150,1588764050368016659,,0.50157084707,-0.185844325263,0.21921747204
1588764050371137108,1151,1588764050371013768,,0.501570281165,-0.185839983362,0.219219536767
1588764050377057722,1152,1588764050376963640,,0.501569663662,-0.185837843059,0.219221567554
1588764050380042313,1153,1588764050379954167,,0.501569173731,-0.185835450733,0.219225893525
1588764050383114785,1154,1588764050383017461,,0.501568435121,-0.185834237913,0.219227105787
1588764050389175045,1155,1588764050389016827,,0.501568502564,-0.185831995559,0.219229700222
1588764050392105739,1156,1588764050392002283,,0.501568504809,-0.185831034967,0.219231290112
1588764050398103250,1157,1588764050397979187,,0.501568041879,-0.185829739737,0.21923314201
1588764050401107839,1158,1588764050400973689,,0.50156803783,-0.185828151821,0.219236651346
1588764050407097302,1159,1588764050406958336,,0.501568424869,-0.185825464459,0.219241816453
1588764050413163456,1160,1588764050413048584,,0.50156826441,-0.185823597524,0.219244216955
1588764050416137239,1161,1588764050415983599,,0.501568278784,-0.185823616044,0.219247409741
1588764050419060620,1162,1588764050418957006,,0.501568214525,-0.185822241188,0.219249885009
1588764050425151377,1163,1588764050425031879,,0.501568594936,-0.185820657416,0.219253106708
1588764050428139220,1164,1588764050428012358,,0.501567861969,-0.18582087733,0.219256089123
1588764050434087775,1165,1588764050433996481,,0.50156813518,-0.185820143342,0.219260258987
1588764050437085706,1166,1588764050436989096,,0.50156847216,-0.185818558224,0.219263548787
1588764050440185500,1167,1588764050440011070,,0.501568085411,-0.185818917673,0.21926637711
1588764050446077478,1168,1588764050445959355,,0.501567940599,-0.185817797721,0.2192683889
1588764050449162681,1169,1588764050449037652,,0.501568338738,-0.185816776186,0.219272146663
1588764050452097846,1170,1588764050451972093,,0.501568264266,-0.185817506664,0.21927411485
1588764050458424448,1171,1588764050458298567,,0.501568788501,-0.185817074386,0.219277704372
1588764050461433446,1172,1588764050461304495,,0.501569498646,-0.185816918193,0.219280490922
1588764050464130905,1173,1588764050464032224,,0.501569426185,-0.185817174816,0.2192825637
1588764050470198050,1174,1588764050470065097,,0.501569809941,-0.185819350743,0.219285713701
1588764050473300202,1175,1588764050473097985,,0.501570760352,-0.185819808702,0.219289404455
1588764050476244937,1176,1588764050476078721,,0.501571843608,-0.185820353197,0.219293637891
1588764050482252755,1177,1588764050482070681,,0.501572200946,-0.18582182896,0.219297107779
1588764050485196078,1178,1588764050485044436,,0.501573678276,-0.185824069951,0.21930161757
1588764050488260675,1179,1588764050488092413,,0.501575233115,-0.185826115573,0.219306829521
1588764050494275804,1180,1588764050494097460,,0.501577132945,-0.185827280521,0.219312113666
1588764050497479312,1181,1588764050497131749,,0.501578543045,-0.185830510288,0.219319137941
1588764050500163650,1182,1588764050500076976,,0.501580652456,-0.185834190522,0.21932676162
1588764050506180675,1183,1588764050506069960,,0.501584026917,-0.185837497706,0.219337243174
1588764050509199397,1184,1588764050509113707,,0.501587588056,-0.185842610066,0.219346800192
1588764050512184451,1185,1588764050512061521,,0.501591937318,-0.185846695619,0.219357984371
1588764050518276900,1186,1588764050518110178,,0.501596381476,-0.185851333801,0.219368582033
1588764050521273503,1187,1588764050521106177,,0.501600081759,-0.185859216866,0.219379581469
1588764050524472558,1188,1588764050524339033,,0.50160380887,-0.185865822211,0.219389135932
1588764050530268933,1189,1588764050530071085,,0.501607754974,-0.185872966631,0.219401472282
1588764050533135114,1190,1588764050533049620,,0.50161177574,-0.185880287168,0.219413271112
1588764050536266658,1191,1588764050536125894,,0.501614774843,-0.185888070972,0.219423256934
1588764050542260905,1192,1588764050542138818,,0.501617875403,-0.185893764148,0.219434027649
1588764050545224618,1193,1588764050545038030,,0.501620483018,-0.185902839193,0.219444182867
1588764050548140871,1194,1588764050548043062,,0.501623857065,-0.185911802448,0.219455464636
1588764050554138764,1195,1588764050554061590,,0.501626252351,-0.185920894259,0.219464377071
1588764050557140595,1196,1588764050557031559,,0.501628297675,-0.185931616536,0.219474302258
1588764050560380118,1197,1588764050560257958,,0.50162913797,-0.185943923475,0.219482910295
1588764050566119902,1198,1588764050566015381,,0.501629760756,-0.185957162355,0.219491072617
1588764050569100035,1199,1588764050569025920,,0.501630346847,-0.185971257278,0.219498918088
1588764050572150202,1200,1588764050571974883,,0.501630687607,-0.18598451211,0.219508409715
1588764050578267303,1201,1588764050578169600,,0.501631836088,-0.185997532201,0.219517223948
1588764050581223911,1202,1588764050581106624,,0.501633205703,-0.186009927727,0.219527505366
1588764050590230013,1203,1588764050590043336,,0.50163663049,-0.186031342616,0.219544883772
1588764050593150428,1204,1588764050593004683,,0.501638640994,-0.186039177902,0.219555538541
1588764050596200986,1205,1588764050596039840,,0.501640483172,-0.186049569705,0.219563717011
1588764050602269636,1206,1588764050602139812,,0.501641662336,-0.186058862935,0.219570653243
1588764050605165900,1207,1588764050605009773,,0.501644105371,-0.186066994605,0.219581215537
1588764050608166412,1208,1588764050608062354,,0.501645830013,-0.186072562883,0.219587579989
1588764050614209011,1209,1588764050614044306,,0.501647494382,-0.186079926538,0.219594090867
1588764050617121720,1210,1588764050617034849,,0.501648828708,-0.186085246566,0.219600343858
1588764050623212569,1211,1588764050623075132,,0.50165032218,-0.18609156394,0.219606926974
1588764050626191147,1212,1588764050626066991,,0.501651648567,-0.186096254721,0.219612092187
1588764050629178484,1213,1588764050629043694,,0.501654314938,-0.186100616605,0.219619779315
1588764050635262406,1214,1588764050635097234,,0.501655857682,-0.186105327113,0.219624876023
1588764050638198670,1215,1588764050638025198,,0.501657836086,-0.186108378727,0.219630937123
1588764050641399793,1216,1588764050641095872,,0.501659743439,-0.186112556827,0.219637074482
1588764050647286291,1217,1588764050647098026,,0.501661436275,-0.186115493435,0.21964170228
1588764050650212418,1218,1588764050650072685,,0.501663434183,-0.186118082279,0.219648634496
1588764050653168132,1219,1588764050653052657,,0.501665585204,-0.186119902531,0.21965316931
1588764050659595558,1220,1588764050659298573,,0.501666951891,-0.186122423029,0.219659404026
1588764050662540207,1221,1588764050662375655,,0.50166866736,-0.186122776547,0.219664942028
1588764050665170669,1222,1588764050665042100,,0.501669911739,-0.186122021106,0.219670772343
1588764050671187620,1223,1588764050671052515,,0.501671033656,-0.186122599257,0.219675376249
1588764050674219475,1224,1588764050674073066,,0.501672198053,-0.186122102972,0.21968086817
1588764050677202832,1225,1588764050677073875,,0.501673382529,-0.186121932665,0.219687530427
1588764050683266498,1226,1588764050683155424,,0.501674873302,-0.186120687186,0.219693849883
1588764050686164362,1227,1588764050686060242,,0.501675890716,-0.186120291523,0.219698335288
1588764050689314084,1228,1588764050689109963,,0.501677175449,-0.186117834106,0.219704381738
1588764050695165805,1229,1588764050695013878,,0.501679099833,-0.186116638225,0.219710304898
1588764050698229478,1230,1588764050698075807,,0.501680472183,-0.186114469159,0.219714475685
1588764050701225832,1231,1588764050701068293,,0.501681771817,-0.186112471372,0.21971992571
1588764050707128372,1232,1588764050706995394,,0.501683221218,-0.1861105847,0.219724774393
1588764050710197743,1233,1588764050710001471,,0.501684496675,-0.186108508119,0.219728386058
1588764050713170555,1234,1588764050713001784,,0.501685685393,-0.186105332129,0.219731982569
1588764050719193016,1235,1588764050719028416,,0.501687250081,-0.186102456584,0.219736573409
1588764050722167063,1236,1588764050722051324,,0.501688907255,-0.186098897219,0.219739848687
1588764050725200626,1237,1588764050725101704,,0.501690689701,-0.186095429564,0.219744362448
1588764050731173416,1238,1588764050731106738,,0.501692508195,-0.186092020625,0.21974678686
1588764050734248297,1239,1588764050734092957,,0.501694880142,-0.186087240026,0.219750706847
1588764050737431154,1240,1588764050737096379,,0.501697697569,-0.186080308822,0.219753913241
1588764050743267498,1241,1588764050743121689,,0.501699665668,-0.186075719435,0.219755918979
1588764050746270659,1242,1588764050746121284,,0.501702929826,-0.186067740805,0.219759007357
1588764050752205490,1243,1588764050752085181,,0.501706121314,-0.186059162201,0.219761412399
1588764050755164273,1244,1588764050755041827,,0.501709444861,-0.186050330277,0.219762975632
1588764050758556263,1245,1588764050758447918,,0.501713517941,-0.186041131265,0.219766088137
1588764050767249621,1246,1588764050767066517,,0.501720823392,-0.18601974087,0.219772655457
1588764050770101946,1247,1588764050769995498,,0.501724207327,-0.186009178406,0.219775734471
1588764050776270254,1248,1588764050776068898,,0.501727284067,-0.185999519439,0.219778273707
1588764050779177570,1249,1588764050779009994,,0.501730046652,-0.185990262763,0.219781521375
1588764050782197142,1250,1588764050782035070,,0.501732039768,-0.185983463684,0.21978279763
1588764050788186864,1251,1588764050788032601,,0.501734595828,-0.185975155802,0.219785098383
1588764050791243130,1252,1588764050791088564,,0.501737099005,-0.185965802816,0.219787435728
1588764050794204141,1253,1588764050794086323,,0.501738810867,-0.185956737877,0.219789006795
1588764050800300959,1254,1588764050800113147,,0.501741247664,-0.185945882712,0.219790462083
1588764050803276442,1255,1588764050803076480,,0.501743954366,-0.185932603223,0.219789517153
1588764050806246092,1256,1588764050806095609,,0.501745646659,-0.185919340893,0.219790371155
1588764050812395832,1257,1588764050812135646,,0.501748071252,-0.185907832637,0.219790441473
1588764050815200787,1258,1588764050815087900,,0.501749129775,-0.185900634184,0.219791137202
1588764050821302575,1259,1588764050821140279,,0.501750451427,-0.185894468167,0.219790951073
1588764050824514341,1260,1588764050824353749,,0.501751406031,-0.18588898396,0.219791802534
1588764050827225634,1261,1588764050827074385,,0.50175260367,-0.185884700639,0.219791365532
1588764050833192008,1262,1588764050833093602,,0.501754421014,-0.18587920343,0.219793269064
1588764050836254614,1263,1588764050836103453,,0.501754818922,-0.185875330123,0.219792151424
1588764050839205903,1264,1588764050839086047,,0.501755650467,-0.185873125822,0.219791328932
1588764050845270667,1265,1588764050845110647,,0.501756045322,-0.185870052786,0.219792031601
1588764050848294888,1266,1588764050848114024,,0.501756135914,-0.185868693514,0.219791608736
1588764050851379932,1267,1588764050851278164,,0.501756187048,-0.185868898659,0.219790916173
1588764050857283268,1268,1588764050857154380,,0.501756584703,-0.185867597684,0.219791167486
1588764050860365541,1269,1588764050860233759,,0.501756190097,-0.185868277908,0.219790770098
1588764050863257579,1270,1588764050863114891,,0.501756318869,-0.185868389859,0.219790672698
1588764050869224812,1271,1588764050869100045,,0.501756278944,-0.18586870783,0.219789052587
1588764050872231542,1272,1588764050872058580,,0.501756076353,-0.18587043076,0.219787474255
1588764050875380109,1273,1588764050875135899,,0.501756073755,-0.185870026443,0.219785960014
1588764050881201291,1274,1588764050881072275,,0.501756028193,-0.185870797473,0.219785566143
1588764050887253361,1275,1588764050887150408,,0.501755948209,-0.185873458388,0.219781826751
1588764050893215628,1276,1588764050893078616,,0.501755022805,-0.185877020889,0.219779211213
1588764050896250801,1277,1588764050896080006,,0.501754818621,-0.185879975102,0.219775670661
1588764050899254295,1278,1588764050899114935,,0.50175496627,-0.185883996729,0.219770461452
1588764050905308286,1279,1588764050905148017,,0.501755292921,-0.185889795927,0.219757939435
1588764050908254886,1280,1588764050908130749,,0.501756072503,-0.185897702102,0.219742116
1588764050911194490,1281,1588764050911106391,,0.501756669717,-0.185900505734,0.219738646639
1588764050917372976,1282,1588764050917123116,,0.501756814185,-0.185906225877,0.219731838419
1588764050920155163,1283,1588764050920061220,,0.501756001468,-0.185913134564,0.219721705357
1588764050923176957,1284,1588764050923049522,,0.501755991443,-0.185920357319,0.219710836197
1588764050929216891,1285,1588764050929094215,,0.501756622437,-0.185927566214,0.219701808299
1588764050932223113,1286,1588764050932146203,,0.501755697366,-0.185939221519,0.219692070612
1588764050935269914,1287,1588764050935066724,,0.501756843534,-0.185951187685,0.219683255464
1588764050941198284,1288,1588764050941089438,,0.50175568968,-0.185967330566,0.219673807242
1588764050947188890,1289,1588764050947075401,,0.501753039447,-0.186011040256,0.219660212057
1588764050953287098,1290,1588764050953079620,,0.501752812179,-0.186041360956,0.219655323065
1588764050956208371,1291,1588764050956058475,,0.501752101373,-0.186055150258,0.219647607112
1588764050959455138,1292,1588764050959299498,,0.501752239957,-0.186076055204,0.21963747266
1588764050965271972,1293,1588764050965112663,,0.50175221889,-0.186096646827,0.219622541599
1588764050968305179,1294,1588764050968139990,,0.501751935878,-0.186117274831,0.219614883367
1588764050971289849,1295,1588764050971143885,,0.501751600346,-0.186142118671,0.21960170117
1588764050977154789,1296,1588764050977031546,,0.501750042603,-0.186166813639,0.219585501671
1588764050980187244,1297,1588764050980081888,,0.501748651153,-0.186188401791,0.219577420066
1588764050983188456,1298,1588764050983041258,,0.501748445225,-0.186212041113,0.219560329292
1588764050989264802,1299,1588764050989134372,,0.501749137302,-0.186231404978,0.219546722513
1588764050992215065,1300,1588764050992069474,,0.501749747147,-0.186254133334,0.21953172261
1588764050995230384,1301,1588764050995100810,,0.501750590251,-0.18627617255,0.219517448124
1588764051001339678,1302,1588764051001202016,,0.501751058272,-0.186300762623,0.219503572676
1588764051007246546,1303,1588764051007149364,,0.501752116763,-0.186345170593,0.219477977773
1588764051013243178,1304,1588764051013126426,,0.501752319796,-0.186367440263,0.219463101412
1588764051016166582,1305,1588764051016084813,,0.501752988454,-0.186390357333,0.219448483387
1588764051019231066,1306,1588764051019138606,,0.501753990729,-0.186409999276,0.219433364387
1588764051025165969,1307,1588764051025047711,,0.501755407003,-0.186430964394,0.219416993023
1588764051028204180,1308,1588764051028053756,,0.501755604609,-0.186454415085,0.219399741118
1588764051034274775,1309,1588764051034133348,,0.501756164468,-0.186471360364,0.219385772982
1588764051037290944,1310,1588764051037132059,,0.50175709871,-0.1864914067,0.219368964259
1588764051040201519,1311,1588764051040081575,,0.50175793818,-0.186513501056,0.219349544658
1588764051046214983,1312,1588764051046104866,,0.501758545581,-0.186530631171,0.219333402135
1588764051049246213,1313,1588764051049072863,,0.501759889175,-0.186547664922,0.219318555497
1588764051052199615,1314,1588764051052070710,,0.501760793672,-0.18656833913,0.219298123195
1588764051058608262,1315,1588764051058469350,,0.501761794241,-0.186585460859,0.219284520113
1588764051061506973,1316,1588764051061397598,,0.501761673074,-0.186603876342,0.219266298613
1588764051064147275,1317,1588764051064077681,,0.501763140772,-0.18661860629,0.219251048192
1588764051070178160,1318,1588764051070092354,,0.501764301068,-0.186636342967,0.219233981976
1588764051073146703,1319,1588764051073068895,,0.501765465381,-0.18665332572,0.219215579248
1588764051076216490,1320,1588764051076076923,,0.5017662282,-0.186671723984,0.219197016892
1588764051082296203,1321,1588764051082151037,,0.501767076206,-0.186690598823,0.219177421479
1588764051085243374,1322,1588764051085097340,,0.50176773935,-0.186711107069,0.219156622025
1588764051088254773,1323,1588764051088138131,,0.501768183587,-0.18673068972,0.219133676076
1588764051094305119,1324,1588764051094206907,,0.50176826638,-0.186752217599,0.219109195252
1588764051097167958,1325,1588764051097095831,,0.501769043552,-0.186770472076,0.219087377369
1588764051100198008,1326,1588764051100100192,,0.5017693866,-0.186791361177,0.21905944422
1588764051106263604,1327,1588764051106148866,,0.501769504244,-0.18681031907,0.219038031233
1588764051109265404,1328,1588764051109130540,,0.501770484484,-0.18683037028,0.219012675778
1588764051112252146,1329,1588764051112135659,,0.501769752972,-0.186851237705,0.218987598173
1588764051118213913,1330,1588764051118075413,,0.501769276216,-0.186874526281,0.218962846604
1588764051121383304,1331,1588764051121195241,,0.501767937699,-0.186896132453,0.218938098373
1588764051124530046,1332,1588764051124426562,,0.501768630847,-0.186918362109,0.218911549819
1588764051130289368,1333,1588764051130149378,,0.501768601906,-0.186943237287,0.21888420586
1588764051133184713,1334,1588764051133104138,,0.501767967195,-0.186967700243,0.218859086757
1588764051136287865,1335,1588764051136137848,,0.501768206225,-0.186991977056,0.218836407889
1588764051142137514,1336,1588764051142055236,,0.501768696917,-0.187017836333,0.21880817802
1588764051145266951,1337,1588764051145152376,,0.501770522637,-0.187041991112,0.218781556956
1588764051151173031,1338,1588764051151074105,,0.501770503711,-0.187065638291,0.21875954431
1588764051154182685,1339,1588764051154061199,,0.501770872421,-0.187089302872,0.218736041585
1588764051157144936,1340,1588764051157048009,,0.50177087716,-0.187116031727,0.218709930624
1588764051163335675,1341,1588764051163151359,,0.501770350932,-0.187141470638,0.21869028574
1588764051166309939,1342,1588764051166119173,,0.501770319445,-0.18716565806,0.218665024071
1588764051169298463,1343,1588764051169120798,,0.501768773376,-0.187192413328,0.218637775482
1588764051175252013,1344,1588764051175136148,,0.501767236375,-0.187219767966,0.218611504933
1588764051178439446,1345,1588764051178296605,,0.501764942026,-0.187250393721,0.218580005974
1588764051181201407,1346,1588764051181073194,,0.501761812023,-0.187280950465,0.218548751013
1588764051187301943,1347,1588764051187133874,,0.501757894499,-0.187313654139,0.218518787075
1588764051190348204,1348,1588764051190108190,,0.501754009349,-0.187344044042,0.218489638122
1588764051193226733,1349,1588764051193100770,,0.501750390056,-0.187373258449,0.218456988821
1588764051199325189,1350,1588764051199160968,,0.501745182211,-0.187406023793,0.218427292552
1588764051202318916,1351,1588764051202138768,,0.501740749111,-0.187437959723,0.218398359507
1588764051205133980,1352,1588764051205055722,,0.501735423898,-0.187470765263,0.218367013152
1588764051211636390,1353,1588764051211374914,,0.501730820551,-0.187502832811,0.218336951129
1588764051214251167,1354,1588764051214109211,,0.501726135548,-0.187535233578,0.218306095296
1588764051217694546,1355,1588764051217599080,,0.501721232208,-0.187566804422,0.218276386766
1588764051223239246,1356,1588764051223117277,,0.501715284448,-0.187599151949,0.218245976042
1588764051226263948,1357,1588764051226161247,,0.501711081671,-0.187630379001,0.218213905338
1588764051232377505,1358,1588764051232221158,,0.501707162486,-0.187659318799,0.218182722494
1588764051235312503,1359,1588764051235223430,,0.501701303212,-0.187691078747,0.218149826183
1588764051238223032,1360,1588764051238117552,,0.501697241609,-0.187722914588,0.218115451978
1588764051244392732,1361,1588764051244294088,,0.501692874382,-0.187754007793,0.218082829881
1588764051247205611,1362,1588764051247112428,,0.50168936134,-0.187784760155,0.218046852324
1588764051250200668,1363,1588764051250097622,,0.501684388512,-0.187814623507,0.218012814726
1588764051256284509,1364,1588764051256140901,,0.501680126854,-0.187845687333,0.217975882091
1588764051259465945,1365,1588764051259344144,,0.50167577837,-0.187877853616,0.217941247565
1588764051262640598,1366,1588764051262505342,,0.501671006397,-0.187908735179,0.217904658397
1588764051268246275,1367,1588764051268141352,,0.501667968103,-0.187936583527,0.217870883624
1588764051271340440,1368,1588764051271191802,,0.501663520445,-0.187966953541,0.217837696048
1588764051274380316,1369,1588764051274198993,,0.501660362489,-0.18799684606,0.217800096215
1588764051280397137,1370,1588764051280216170,,0.501656285779,-0.188027725312,0.217768845349
1588764051283330322,1371,1588764051283129921,,0.501652463565,-0.188058405599,0.21773320092
1588764051286246502,1372,1588764051286104043,,0.501648197557,-0.188087668904,0.217697599753
1588764051292299554,1373,1588764051292165920,,0.501642511726,-0.188121132478,0.217661721051
1588764051295247409,1374,1588764051295135697,,0.501638475694,-0.188149802679,0.21762847057
1588764051298253771,1375,1588764051298165836,,0.501634431411,-0.188180570895,0.217591048373
1588764051304302471,1376,1588764051304189166,,0.501631116283,-0.188208694757,0.217553923217
1588764051307380075,1377,1588764051307175240,,0.50162678898,-0.188240780855,0.217515456186
1588764051310241016,1378,1588764051310141472,,0.501622451859,-0.188273585582,0.217474724426
1588764051316206303,1379,1588764051316068996,,0.501617590744,-0.188304956106,0.217438053594
1588764051319234678,1380,1588764051319094989,,0.501613496318,-0.188333848699,0.217395220475
1588764051322312042,1381,1588764051322111370,,0.501609422711,-0.18836439356,0.217359496814
1588764051328261383,1382,1588764051328125882,,0.501606268656,-0.188394016078,0.217322555849
1588764051331268112,1383,1588764051331111325,,0.501601979664,-0.188424031952,0.217286550915
1588764051334215042,1384,1588764051334123653,,0.501600057667,-0.188450720026,0.217251489425
1588764051340410976,1385,1588764051340179371,,0.501597602276,-0.188477521067,0.217214303205
1588764051343250395,1386,1588764051343163598,,0.501595133696,-0.188504011441,0.217178571857
1588764051346215088,1387,1588764051346109243,,0.501591949926,-0.188528740953,0.217144895408
1588764051352346764,1388,1588764051352191580,,0.501588742734,-0.188554366347,0.217109431306
1588764051355260744,1389,1588764051355145937,,0.501586034226,-0.188580073515,0.217074437468
1588764051358625649,1390,1588764051358507149,,0.501582916413,-0.188604347571,0.217039494668
1588764051364282046,1391,1588764051364163156,,0.501579455022,-0.18863071253,0.216999199266
1588764051367298785,1392,1588764051367144062,,0.501576148758,-0.188657696645,0.216959166707
1588764051370327434,1393,1588764051370168700,,0.50157338228,-0.188683942216,0.216919505043
1588764051376273095,1394,1588764051376129870,,0.501569942763,-0.18871103684,0.216879257342
1588764051379300023,1395,1588764051379169386,,0.501565489452,-0.18873603921,0.216841693228
1588764051382218940,1396,1588764051382128912,,0.501561057685,-0.188763511807,0.216800483348
1588764051388244494,1397,1588764051388140212,,0.501555335902,-0.188792275297,0.216760711789
1588764051391288159,1398,1588764051391132826,,0.50155034005,-0.188815233214,0.216721900976
1588764051394306533,1399,1588764051394166142,,0.501543456101,-0.18884154018,0.216676669665
1588764051400264301,1400,1588764051400154629,,0.50153523565,-0.188866867283,0.216635332326
1588764051403341258,1401,1588764051403153791,,0.501526604477,-0.188893979434,0.216592462073
1588764051406277287,1402,1588764051406145113,,0.50152029869,-0.188918287597,0.216554126958
1588764051412251110,1403,1588764051412102258,,0.501514655992,-0.188942724125,0.216511835354
1588764051415240508,1404,1588764051415126728,,0.501509099859,-0.188967112144,0.216472273358
1588764051418222762,1405,1588764051418135896,,0.501504797546,-0.188992807573,0.216426091119
1588764051427269250,1406,1588764051427140015,,0.501495012269,-0.189042298249,0.216343975427
1588764051433212762,1407,1588764051433093714,,0.501489817303,-0.189066824558,0.2163027213
1588764051436276460,1408,1588764051436108827,,0.501484663153,-0.189088354522,0.216263346995
1588764051439220271,1409,1588764051439112551,,0.501480065625,-0.189110783838,0.216227996776
1588764051445251900,1410,1588764051445135700,,0.50147373832,-0.189134509705,0.216187544415
1588764051448417598,1411,1588764051448126137,,0.501468428105,-0.189157421227,0.216149492856
1588764051451631514,1412,1588764051451513005,,0.501464149359,-0.189177706946,0.216114695621
1588764051460490354,1413,1588764051460294572,,0.50145406085,-0.18922089315,0.216039182717
1588764051463328641,1414,1588764051463131008,,0.50144858639,-0.189241786782,0.21600298154
1588764051469322013,1415,1588764051469226685,,0.501443346644,-0.189264885528,0.215964148321
1588764051472231451,1416,1588764051472146017,,0.501438981507,-0.189285330389,0.215925629679
1588764051475297137,1417,1588764051475173565,,0.501433762176,-0.189307199958,0.215884393434
1588764051481407860,1418,1588764051481193784,,0.501428850832,-0.189329008015,0.215844444806
1588764051487371969,1419,1588764051487134343,,0.501420584155,-0.189368870782,0.21576885429
1588764051493379099,1420,1588764051493154839,,0.501416285892,-0.189390455682,0.215730866788
1588764051496320334,1421,1588764051496195550,,0.501412019229,-0.189411460405,0.215694478547
1588764051502389841,1422,1588764051502239135,,0.501407640705,-0.18942811517,0.215663869695
1588764051505292579,1423,1588764051505187636,,0.501403910071,-0.18944804366,0.215628907039
1588764051508299693,1424,1588764051508183458,,0.501399599929,-0.189468543086,0.215595832605
1588764051511463026,1425,1588764051511312150,,0.501395027302,-0.189487107679,0.215560942725
1588764051520290157,1426,1588764051520176218,,0.501387517767,-0.18952320856,0.215497524534
1588764051523366731,1427,1588764051523173085,,0.501383800655,-0.18954142576,0.215464919251
1588764051529302386,1428,1588764051529156886,,0.501380826091,-0.189558301197,0.215433189785
1588764051532305082,1429,1588764051532120738,,0.501377074985,-0.189575791997,0.215401601703
1588764051535247469,1430,1588764051535141165,,0.501373337056,-0.189595493323,0.215367668898
1588764051541315148,1431,1588764051541158615,,0.501370416893,-0.189615426559,0.215333514498
1588764051547275936,1432,1588764051547116348,,0.501363972001,-0.189653711349,0.215273417294
1588764051553283145,1433,1588764051553163594,,0.501360950696,-0.189674494392,0.215239068288
1588764051556238537,1434,1588764051556125059,,0.501357977847,-0.189695020278,0.215207645104
1588764051562648764,1435,1588764051562525101,,0.501355283136,-0.189714285731,0.215179526714
1588764051565268444,1436,1588764051565116369,,0.501352606336,-0.18973699345,0.215147290687
1588764051568303098,1437,1588764051568142914,,0.501349423835,-0.189759112837,0.21511457962
1588764051574292289,1438,1588764051574172831,,0.50134713625,-0.189777943568,0.215085635107
1588764051580231529,1439,1588764051580121189,,0.501343756575,-0.189823367024,0.215021665242
1588764051586292504,1440,1588764051586134047,,0.501341831321,-0.189841848188,0.214992905464
1588764051589344057,1441,1588764051589194709,,0.501338957183,-0.189865253928,0.214963554275
1588764051592280869,1442,1588764051592174012,,0.50133621595,-0.189892426014,0.214927250739
1588764051598700610,1443,1588764051598552897,,0.501333280965,-0.189916787712,0.214898011146
1588764051601320103,1444,1588764051601174854,,0.501330653821,-0.189941705787,0.21486549738
1588764051610402248,1445,1588764051610236040,,0.501324645324,-0.189992820159,0.214804489866
1588764051613307887,1446,1588764051613191682,,0.501322408911,-0.190019150623,0.214772537539
1588764051616332578,1447,1588764051616188798,,0.501319516116,-0.190045370113,0.2147420046
1588764051622349086,1448,1588764051622197645,,0.501317771451,-0.190074387966,0.214709081804
1588764051625301426,1449,1588764051625180979,,0.501314638989,-0.190102420648,0.214676050693
1588764051631415947,1450,1588764051631271150,,0.501313173659,-0.190131907489,0.21464466762
1588764051634234791,1451,1588764051634135670,,0.501311079004,-0.190156040064,0.214615989316
1588764051638238648,1452,1588764051638094650,,0.501309054243,-0.190179396588,0.214590534529
1588764051643441389,1453,1588764051643155777,,0.501306910296,-0.190211098465,0.214557452944
