%time,field.header.seq,field.header.stamp,field.header.frame_id,field.vector.x,field.vector.y,field.vector.z
1588764616380068706,3623,1588764616379882463,,-0.0343823429379,-22.4721077605,16.0878224552
1588764616382715355,3624,1588764616382614460,,-0.0368280376163,-22.7713307816,16.2824004887
1588764616385506953,3625,1588764616385433256,,-0.0386469365847,-22.6824964649,16.2201716826
1588764616391407034,3626,1588764616391313152,,-0.0395372558459,-22.9819484787,16.4145078257
1588764616397384916,3627,1588764616397281828,,-0.0421136877258,-23.1956554075,16.5478636919
1588764616403234981,3628,1588764616403106582,,-0.0419047140701,-23.4933241421,16.7435770434
1588764616406255417,3629,1588764616406188174,,-0.0421984134427,-23.4141195398,16.6848446471
1588764616409285715,3630,1588764616409184394,,-0.0420432152259,-23.7017020501,16.8716353786
1588764616415543174,3631,1588764616415392907,,-0.0408264639714,-23.9878401658,17.0599374746
1588764616421394065,3632,1588764616421319310,,-0.0417100418242,-24.2712152922,17.2419594983
1588764616427624397,3633,1588764616427542107,,-0.0404456563143,-24.551731181,17.4271265905
1588764616430771390,3634,1588764616430569829,,-0.0402821800907,-24.4871337676,17.3791384734
1588764616433673036,3635,1588764616433533110,,-0.0403969883438,-24.4020809332,17.3165865618
1588764616436550380,3636,1588764616436430450,,-0.0412048791176,-24.6667032113,17.4895028034
1588764616439657548,3637,1588764616439572339,,-0.041168342076,-24.6008157709,17.4409326906
1588764616442479422,3638,1588764616442364369,,-0.0413518161495,-24.8737383941,17.619095122
1588764616448489491,3639,1588764616448411135,,-0.0420221919879,-25.1296980606,17.788027863
1588764616451562665,3640,1588764616451419201,,-0.0418488100927,-25.0480004534,17.7304276836
1588764616454499046,3641,1588764616454391521,,-0.0428663707013,-25.3174092499,17.9055306483
1588764616460482975,3642,1588764616460381049,,-0.044517216297,-25.2333220747,17.8423072199
1588764616463501177,3643,1588764616463392323,,-0.0436425711774,-25.5002339134,18.0196095502
1588764616466573188,3644,1588764616466426285,,-0.0445968785833,-25.4144405178,17.9570099875
1588764616472561182,3645,1588764616472449755,,-0.0436522220015,-25.6698471538,18.1255538185
1588764616475514285,3646,1588764616475405366,,-0.0428468145811,-25.9261903786,18.295865705
1588764616478489543,3647,1588764616478292515,,-0.0424798203986,-25.8316636184,18.2284775695
1588764616484420602,3648,1588764616484336742,,-0.0396321976236,-26.0741807882,18.3930274465
1588764616487538887,3649,1588764616487436072,,-0.0401547047568,-26.1577173433,18.443817966
1588764616493455425,3650,1588764616493349420,,-0.0401575242274,-26.2243869943,18.4867163976
1588764616496448548,3651,1588764616496345880,,-0.0399497762546,-26.4639292726,18.6430085563
1588764616499418424,3652,1588764616499319606,,-0.0410593100586,-26.3679354665,18.5723817783
1588764616502435791,3653,1588764616502375893,,-0.0409435090893,-26.6041922912,18.7251203242
1588764616508303834,3654,1588764616508227629,,-0.0420780430052,-26.8349482063,18.8710376434
1588764616511446908,3655,1588764616511334527,,-0.0423104269118,-26.7365718459,18.7977378453
1588764616517264118,3656,1588764616517144877,,-0.0417159914004,-26.9656340487,18.9443819774
1588764616523302250,3657,1588764616523184239,,-0.0408027674965,-27.1905244042,19.0853521367
1588764616526204176,3658,1588764616526124298,,-0.0406110165719,-27.0896672079,19.0104873243
1588764616529274823,3659,1588764616529179308,,-0.0407884342928,-27.3142915737,19.151758263
1588764616532200301,3660,1588764616532114052,,-0.0391253886675,-27.2112705992,19.0813180007
1588764616535633291,3661,1588764616535478846,,-0.0409582874774,-27.4313891846,19.2212002628
1588764616541193213,3662,1588764616541114509,,-0.0409686446484,-27.6498296751,19.361045082
1588764616544154054,3663,1588764616544089168,,-0.0427288183247,-27.5490721272,19.2926893917
1588764616547450006,3664,1588764616547340576,,-0.0439744626114,-27.5860594238,19.3173265115
1588764616553249517,3665,1588764616553175892,,-0.0444768526511,-27.6591798032,19.3669941694
1588764616556589419,3666,1588764616556442247,,-0.0447237499956,-27.868531153,19.5081662656
1588764616559485159,3667,1588764616559399705,,-0.0427043966224,-27.7640888116,19.4433061309
1588764616565580327,3668,1588764616565437135,,-0.04112648256,-27.9694023041,19.5827537494
1588764616568532968,3669,1588764616568405188,,-0.0411508510181,-28.1640857959,19.7138096731
1588764616571455822,3670,1588764616571371748,,-0.0395228904226,-28.0588234412,19.6467182952
1588764616577536974,3671,1588764616577443522,,-0.0387696651155,-28.248052457,19.7751916065
1588764616580584309,3672,1588764616580493730,,-0.0412813726855,-28.1395762511,19.6989995653
1588764616583743848,3673,1588764616583634870,,-0.0402496053691,-28.3214555207,19.8192003033
1588764616589223568,3674,1588764616589148217,,-0.0398382075902,-28.5000652743,19.9348749838
1588764616592181755,3675,1588764616592127338,,-0.0435221406536,-28.3909747298,19.8502676147
1588764616595638993,3676,1588764616595543777,,-0.0437234234192,-28.5683014631,19.9596181535
1588764616601531721,3677,1588764616601460737,,-0.0451655840118,-28.7411455578,20.0651791284
1588764616604640043,3678,1588764616604515715,,-0.0463692424598,-28.6369911046,19.9862428686
1588764616607553603,3679,1588764616607456570,,-0.0477769530762,-28.8059902457,20.0926487987
1588764616613603157,3680,1588764616613505503,,-0.0488400682913,-28.7016330239,20.0124400905
1588764616616458422,3681,1588764616616376138,,-0.0483408320465,-28.8685590023,20.1205494145
1588764616619581658,3682,1588764616619484608,,-0.0498301197951,-28.7677368568,20.043337769
1588764616625556120,3683,1588764616625449312,,-0.0492777302682,-28.9283328393,20.1466277562
1588764616628504592,3684,1588764616628409530,,-0.0482687243211,-29.0877009572,20.2508564251
1588764616637583027,3685,1588764616637442009,,-0.0470087633798,-29.1307720814,20.2772070956
1588764616640494545,3686,1588764616640433189,,-0.0467873711617,-29.0190229178,20.2006903735
1588764616643598895,3687,1588764616643512378,,-0.0463531180576,-29.1626809209,20.29349214
1588764616649535358,3688,1588764616649416914,,-0.047681474808,-29.3027012331,20.3815471302
1588764616652564684,3689,1588764616652480895,,-0.0489029457779,-29.1841118446,20.2969050811
1588764616658529129,3690,1588764616658402381,,-0.0490779343402,-29.3170266762,20.3782846504
1588764616661524477,3691,1588764616661443055,,-0.0519749897683,-29.4497866502,20.4559775139
1588764616664447848,3692,1588764616664360356,,-0.0486646300379,-29.3524567103,20.3892102134
1588764616667649731,3693,1588764616667557302,,-0.0493391558849,-29.289331118,20.3407519946
1588764616673554502,3694,1588764616673472189,,-0.0498028276543,-29.3507405372,20.3755423736
1588764616676522951,3695,1588764616676385344,,-0.0467566793818,-29.4973167285,20.4713224112
1588764616682897166,3696,1588764616682754287,,-0.0476818783566,-29.6206918954,20.5521084429
1588764616685373146,3697,1588764616685297415,,-0.0498939669253,-29.5056140474,20.4775056497
1588764616688431621,3698,1588764616688343536,,-0.0501649008562,-29.6330098817,20.5620657762
1588764616694628609,3699,1588764616694532868,,-0.0525977804503,-29.7582023937,20.6455032029
1588764616697420677,3700,1588764616697319644,,-0.0554582894804,-29.6639168484,20.5810831876
1588764616700400464,3701,1588764616700306066,,-0.0571480073271,-29.5768317731,20.5174825005
1588764616706517755,3702,1588764616706410560,,-0.0566059055326,-29.6969097809,20.5962918941
1588764616709402398,3703,1588764616709311197,,-0.0571655230844,-29.81329256,20.6665178988
1588764616712462731,3704,1588764616712360837,,-0.0552562862068,-29.7163012063,20.598000539
1588764616718462244,3705,1588764616718380178,,-0.0556940724628,-29.8227004989,20.661275324
1588764616724490157,3706,1588764616724402988,,-0.0555836234039,-29.9218828544,20.7180568974
1588764616727756417,3707,1588764616727634405,,-0.0564499160627,-29.8237835415,20.6428508306
1588764616730440822,3708,1588764616730338099,,-0.0556674632718,-29.9027735112,20.6882693234
1588764616733347572,3709,1588764616733264409,,-0.0566968789276,-29.7949865734,20.6065583772
1588764616736390496,3710,1588764616736292409,,-0.0553551844164,-29.8713680995,20.6516810087
1588764616742582883,3711,1588764616742507788,,-0.0526393034119,-29.9403365425,20.6952189108
1588764616745454720,3712,1588764616745375115,,-0.0507860004227,-29.8260504498,20.6159421513
1588764616748426694,3713,1588764616748340983,,-0.0471222580891,-29.8867438342,20.6580817769
1588764616757459091,3714,1588764616757350501,,-0.0417132360642,-29.829310563,20.6246319188
1588764616760455578,3715,1588764616760361566,,-0.0392483268195,-29.7115701214,20.5519315558
1588764616766408452,3716,1588764616766327030,,-0.0364858558526,-29.7644552643,20.5932338624
1588764616769466292,3717,1588764616769347160,,-0.0340928584134,-29.8161498764,20.6338792877
1588764616772406986,3718,1588764616772299443,,-0.0316199929364,-29.7024743411,20.5630677073
1588764616778460945,3719,1588764616778370767,,-0.0292870152085,-29.7519855729,20.5989613062
1588764616781640023,3720,1588764616781522380,,-0.0287280884453,-29.8022852458,20.6305822819
1588764616784519547,3721,1588764616784395174,,-0.0258711617546,-29.7195025167,20.5695609414
1588764616790613863,3722,1588764616790495937,,-0.025467420226,-29.7653212287,20.594896167
1588764616793617363,3723,1588764616793479483,,-0.0260595588917,-29.6525623957,20.5098457039
1588764616796520995,3724,1588764616796378573,,-0.0243788497933,-29.7210031701,20.5436135269
1588764616802480677,3725,1588764616802391849,,-0.024667064272,-29.7551284167,20.56097766
1588764616805401124,3726,1588764616805320761,,-0.0285345933269,-29.6497170651,20.4782329221
1588764616808645031,3727,1588764616808552621,,-0.0281496463619,-29.6885245194,20.4973550818
1588764616817706166,3728,1588764616817588418,,-0.03237059759,-29.624756933,20.439430011
1588764616826794529,3729,1588764616826659382,,-0.0316895569567,-29.651273112,20.4516674998
1588764616829799296,3730,1588764616829663550,,-0.0290396513065,-29.6674968655,20.4603058407
1588764616832402107,3731,1588764616832284190,,-0.0267171125488,-29.5613240194,20.3862293691
1588764616835726471,3732,1588764616835629695,,-0.0222026730351,-29.5708704401,20.3924897156
1588764616838696067,3733,1588764616838595702,,-0.0190507137685,-29.4617228193,20.3215793138
1588764616841562814,3734,1588764616841479580,,-0.0162398935147,-29.4642004522,20.3238474862
1588764616847655546,3735,1588764616847561628,,-0.0107114791258,-29.2981955431,20.2168581902
1588764616850618899,3736,1588764616850530318,,-0.00951993092796,-29.3695522706,20.2659620293
1588764616853535093,3737,1588764616853423174,,-0.00625107707702,-29.2498303339,20.1917976823
1588764616859896982,3738,1588764616859775226,,-0.00355655852263,-29.2642786212,20.1974457435
1588764616862428903,3739,1588764616862365415,,6.25687269773e-05,-29.2506340086,20.1896263655
1588764616865691786,3740,1588764616865588561,,0.000901957119437,-29.1342879125,20.1106049745
1588764616871615758,3741,1588764616871513019,,0.00253789252369,-29.1285735255,20.0980778252
1588764616880974730,3742,1588764616880895400,,0.00402098506358,-28.9158597146,19.9415613199
1588764616884043639,3743,1588764616883885897,,0.00555624331833,-29.0072985814,19.9934661869
1588764616886793705,3744,1588764616886667413,,0.00818451752571,-28.9081719916,19.9211165309
1588764616889544930,3745,1588764616889445652,,0.00915639001076,-28.8886608071,19.8961095381
1588764616895743280,3746,1588764616895596238,,0.013020795423,-28.8541825312,19.8687029038
1588764616898545121,3747,1588764616898460540,,0.0159010951573,-28.7578512217,19.7998925468
1588764616904427589,3748,1588764616904305525,,0.0175711390006,-28.7212228303,19.7704653798
1588764616907688377,3749,1588764616907599420,,0.0235774959408,-28.5181721873,19.633725148
1588764616910608730,3750,1588764616910481971,,0.02586736812,-28.5947180714,19.6832014713
1588764616913608623,3751,1588764616913487107,,0.0255017491392,-28.4816709637,19.6076837238
1588764616919445927,3752,1588764616919338952,,0.0302304167349,-28.4471854096,19.5858216044
1588764616925685110,3753,1588764616925582965,,0.0307609235837,-28.3930171389,19.5484717895
1588764616928755378,3754,1588764616928654062,,0.03040137442,-28.3181524234,19.4946842518
1588764616931663604,3755,1588764616931490359,,0.0324184996432,-28.2224445443,19.4296062971
1588764616937630038,3756,1588764616937524334,,0.035500068142,-28.0664509248,19.3167157248
1588764616943798244,3757,1588764616943586935,,0.0381012805701,-27.9961907814,19.2643514056
1588764616949562585,3758,1588764616949475803,,0.0403788764671,-27.9234084151,19.2096085455
1588764616952603569,3759,1588764616952484477,,0.04442255207,-27.829946291,19.1401649295
1588764616955855323,3760,1588764616955632123,,0.0475573177302,-27.7517380689,19.082302455
1588764616958564182,3761,1588764616958466225,,0.0516296879226,-27.6580130584,19.0171366447
1588764616964658611,3762,1588764616964557308,,0.0568166552638,-27.5745390214,18.9602986842
1588764616967891642,3763,1588764616967771753,,0.061519203218,-27.5074387574,18.9157951453
1588764616973664259,3764,1588764616973510653,,0.0652914193312,-27.4196777731,18.8547412864
1588764616976612735,3765,1588764616976505224,,0.069073318844,-27.3132643056,18.7848046523
1588764616979843039,3766,1588764616979757963,,0.0756477834118,-27.2415564329,18.7394017816
1588764616982839764,3767,1588764616982757208,,0.079059726898,-27.1484981198,18.6790934173
1588764616988545631,3768,1588764616988391782,,0.0818941280148,-27.0336839166,18.6030100954
1588764616991822748,3769,1588764616991674222,,0.0888241787154,-26.94622197,18.5491470845
1588764617001085016,3770,1588764617000464231,,0.0940568789844,-26.7561019346,18.4185949818
1588764617006609828,3771,1588764617006529123,,0.0982695111805,-26.6490427199,18.3415441649
1588764617009590571,3772,1588764617009505994,,0.100854558768,-26.5362047301,18.2575259474
1588764617015603719,3773,1588764617015511920,,0.105665600299,-26.4122900317,18.1732206817
1588764617018714184,3774,1588764617018564043,,0.110240919513,-26.3237089596,18.1076793564
1588764617024528091,3775,1588764617024452905,,0.114170236745,-26.1978622712,18.0171884232
1588764617027763666,3776,1588764617027674087,,0.120083479148,-25.9135873512,17.8221244789
1588764617030598502,3777,1588764617030498306,,0.126930606393,-26.0040170616,17.8763905783
1588764617033622356,3778,1588764617033513029,,0.133047533767,-25.9148070901,17.8134452174
1588764617036565192,3779,1588764617036486706,,0.136147789381,-25.7703380138,17.717445064
1588764617042634602,3780,1588764617042515588,,0.1404122805,-25.6496274254,17.6336892552
1588764617048624352,3781,1588764617048532262,,0.142963657483,-25.5041530356,17.5356986144
1588764617051682120,3782,1588764617051589274,,0.144649435796,-25.4076572347,17.473205731
1588764617057695547,3783,1588764617057532805,,0.155364559096,-25.1858717644,17.3269456644
1588764617060507247,3784,1588764617060424374,,0.157741716019,-25.1013270719,17.272222502
1588764617063778887,3785,1588764617063650057,,0.158841379237,-24.9585456092,17.1710199286
1588764617066569906,3786,1588764617066466672,,0.164275656854,-24.8777838818,17.1153723315
1588764617075590527,3787,1588764617075507368,,0.166205003826,-24.6473795262,16.9566831966
1588764617078559058,3788,1588764617078452459,,0.172484235299,-24.5694105854,16.9015318987
1588764617081642973,3789,1588764617081553202,,0.181601038275,-24.4159267577,16.7876836758
1588764617084575455,3790,1588764617084481007,,0.185442705469,-24.3496479118,16.7391995078
1588764617087806343,3791,1588764617087714287,,0.188290912515,-24.0358556153,16.5264946776
1588764617093522834,3792,1588764617093438795,,0.19021145872,-24.0932362754,16.5564354746
1588764617096547529,3793,1588764617096459004,,0.191140677819,-23.9392568911,16.4486688589
1588764617099579571,3794,1588764617099483299,,0.193193402427,-23.8594215998,16.3894385004
1588764617108483285,3795,1588764617108390484,,0.195616965389,-23.5791444319,16.2001974255
1588764617111512137,3796,1588764617111425577,,0.197487884061,-23.5025960297,16.1472681021
1588764617117568854,3797,1588764617117410247,,0.206700962406,-23.2614357823,15.9753156245
1588764617123629318,3798,1588764617123527232,,0.209163812627,-23.0788224295,15.8519929877
1588764617129420790,3799,1588764617129339440,,0.21368609541,-22.8933177274,15.7288731962
1588764617132496022,3800,1588764617132355807,,0.216262490089,-22.8198792784,15.6766036062
1588764617135547649,3801,1588764617135457855,,0.220082171752,-22.6291145493,15.5513031798
1588764617138463636,3802,1588764617138379584,,0.223892220873,-22.552936167,15.501514797
1588764617141747897,3803,1588764617141679884,,0.235029468554,-22.3649533429,15.3756603707
1588764617144706651,3804,1588764617144603228,,0.240017422584,-22.3083584975,15.3372402311
1588764617147438671,3805,1588764617147300681,,0.241971762777,-22.2328616327,15.2890344004
1588764617156445278,3806,1588764617156335559,,0.246103389505,-21.8971732925,15.0654507596
1588764617159757490,3807,1588764617159619797,,0.247574965588,-21.8447050958,15.0252049632
1588764617165723217,3808,1588764617165617147,,0.250356206493,-21.6357520751,14.8879076466
1588764617171635991,3809,1588764617171548264,,0.252891303315,-21.4246798164,14.7425443817
1588764617177410822,3810,1588764617177322226,,0.257493707088,-21.1570632894,14.5589058273
1588764617180749990,3811,1588764617180669050,,0.261398235689,-20.8247438602,14.3320721902
1588764617183809505,3812,1588764617183662184,,0.27356493093,-20.8906981595,14.3683732494
1588764617189543089,3813,1588764617189448953,,0.27840053956,-20.6851963757,14.2248700704
1588764617195680705,3814,1588764617195582285,,0.283651468251,-20.4634337391,14.0758010239
1588764617201825544,3815,1588764617201725456,,0.287759126158,-20.2398306732,13.9217246304
1588764617204548328,3816,1588764617204486494,,0.289376745187,-20.1770284501,13.8772986838
1588764617207651853,3817,1588764617207572263,,0.293827000879,-19.9501896798,13.7259114724
1588764617213381790,3818,1588764617213299337,,0.297026814251,-19.8959779611,13.6885393073
1588764617219613941,3819,1588764617219505887,,0.300449961226,-19.669039279,13.5334532033
1588764617225530527,3820,1588764617225450375,,0.303576010477,-19.4312184304,13.3734215239
1588764617228625116,3821,1588764617228536365,,0.307598038372,-19.2088363515,13.2241967647
1588764617234482068,3822,1588764617234401783,,0.314146817308,-19.1478700554,13.183583102
1588764617240680509,3823,1588764617240442468,,0.317327719132,-18.9090690217,13.0174421139
1588764617243374308,3824,1588764617243261407,,0.331548264371,-18.6842482509,12.8599349168
1588764617249577685,3825,1588764617249497487,,0.336781760104,-18.4481390347,12.7030635865
1588764617255454825,3826,1588764617255319996,,0.338797386728,-18.2046139477,12.5360514039
1588764617261453983,3827,1588764617261384608,,0.342036850286,-17.9672864653,12.3688284618
1588764617267389415,3828,1588764617267271168,,0.345187571258,-17.913057684,12.3303154929
1588764617273348352,3829,1588764617273255632,,0.346589108004,-17.664677584,12.1622200783
1588764617279777754,3830,1588764617279683336,,0.350548206035,-17.414634519,11.9951606325
1588764617282694110,3831,1588764617282626300,,0.354270244699,-17.1659897309,11.8263315136
1588764617288425995,3832,1588764617288318623,,0.358014213829,-16.9132529339,11.6568628681
1588764617300559766,3833,1588764617300459605,,0.368204873393,-16.6048672831,11.4493893132
1588764617306680337,3834,1588764617306573170,,0.372162945188,-16.3493586271,11.275881021
1588764617309370930,3835,1588764617309301621,,0.391787187404,-16.1079242543,11.1094989091
1588764617315392145,3836,1588764617315314451,,0.398565854011,-15.8463849347,10.9341809442
1588764617319153244,3837,1588764617318993344,,0.400647913451,-15.7923785141,10.8941797475
1588764617324903157,3838,1588764617324783997,,0.404832432592,-15.5383954397,10.7147342353
1588764617330899073,3839,1588764617330751082,,0.407559800949,-15.2788643981,10.536148446
1588764617336762935,3840,1588764617336598863,,0.408713054866,-15.012635994,10.3533353683
1588764617342647642,3841,1588764617342560984,,0.40970378676,-14.7529287276,10.174156281
1588764617348703639,3842,1588764617348599721,,0.41308015332,-14.4918118694,9.99706766912
1588764617360891675,3843,1588764617360796093,,0.416654354759,-13.8956294529,9.59104368898
1588764617363803142,3844,1588764617363706002,,0.42123467006,-13.9206730474,9.60670005327
1588764617369895052,3845,1588764617369776884,,0.425947293038,-13.6607165522,9.43285105509
1588764617375763509,3846,1588764617375673716,,0.429669809461,-13.4048609276,9.26145708637
1588764617381965973,3847,1588764617381826066,,0.435757121881,-13.1467490808,9.09125585746
1588764617387817626,3848,1588764617387713737,,0.455876205148,-12.8358550684,8.87740318836
1588764617393799306,3849,1588764617393574238,,0.46162231947,-12.8647184425,8.8947010526
1588764617399704978,3850,1588764617399617710,,0.465485846947,-12.6029405814,8.72220372615
1588764617405599916,3851,1588764617405486575,,0.470871386015,-12.3459705949,8.54343618953
1588764617411699372,3852,1588764617411611455,,0.474274389006,-12.089206576,8.3668590121
1588764617417674095,3853,1588764617417541273,,0.475858338969,-11.8301639886,8.19324834597
1588764617423737694,3854,1588764617423603769,,0.47765731776,-11.5773158195,8.01583573879
1588764617429611460,3855,1588764617429545566,,0.480156351108,-11.3254236678,7.84190966054
1588764617435660106,3856,1588764617435579043,,0.482311403365,-11.0682158623,7.66724564516
1588764617441582940,3857,1588764617441501708,,0.486484414974,-10.8138892108,7.49766991029
1588764617447683645,3858,1588764617447610651,,0.490316064993,-10.5627251087,7.32558018391
1588764617453654913,3859,1588764617453582241,,0.495282927521,-10.5281442786,7.30208154014
1588764617459634308,3860,1588764617459535671,,0.500719803587,-10.2740687924,7.13519429899
1588764617465585141,3861,1588764617465519877,,0.505385204681,-10.0293883115,6.97335759396
1588764617471682420,3862,1588764617471597984,,0.511128278468,-9.78097892711,6.8106880668
1588764617477691769,3863,1588764617477579594,,0.515712408395,-9.5329471847,6.64598014315
1588764617480860141,3864,1588764617480780219,,0.518815786354,-9.5070521191,6.62968308524
1588764617484097361,3865,1588764617484010562,,0.524881884109,-9.26592394623,6.47199447929
1588764617489666497,3866,1588764617489573869,,0.545762548894,-9.04140324424,6.31308633444
1588764617495607342,3867,1588764617495537445,,0.552306839839,-8.80597850172,6.15546222431
1588764617501746184,3868,1588764617501588501,,0.554019230938,-8.57152267432,5.99203283142
1588764617507628141,3869,1588764617507492407,,0.558272252283,-8.54865035662,5.96622039024
1588764617513465571,3870,1588764617513369617,,0.561226655922,-8.32186436987,5.80929114906
1588764617519478405,3871,1588764617519387644,,0.562358817723,-8.09550646671,5.65003563627
1588764617525346519,3872,1588764617525271385,,0.565471546386,-7.8742669594,5.49554923267
1588764617531349170,3873,1588764617531234218,,0.568150527761,-7.65753512429,5.34609901431
1588764617537678769,3874,1588764617537577247,,0.572029672363,-7.437854751,5.19783180354
1588764617543746853,3875,1588764617543670248,,0.576324037375,-7.2235692595,5.05334669749
1588764617549790778,3876,1588764617549645939,,0.581149036449,-7.01574172969,4.91372350444
1588764617555769192,3877,1588764617555660241,,0.586021435351,-6.80914297142,4.77761205547
1588764617561658876,3878,1588764617561578106,,0.590309393823,-6.60684533402,4.64675185784
1588764617567828839,3879,1588764617567688920,,0.595591709575,-6.40945067428,4.51746472204
1588764617573259252,3880,1588764617573190346,,0.599575655987,-6.39148727449,4.50372794279
1588764617579767511,3881,1588764617579682786,,0.604817750486,-6.19740320662,4.3755606074
1588764617582550388,3882,1588764617582475832,,0.609553748298,-6.0099962879,4.24674944837
1588764617588271375,3883,1588764617588184704,,0.61371315808,-5.82795703812,4.12506070456
1588764617594726562,3884,1588764617594634071,,0.617861940945,-5.65093165693,4.00271539207
1588764617600753148,3885,1588764617600621078,,0.621356149854,-5.63264962667,3.98612432896
1588764617606802019,3886,1588764617606617345,,0.625076514747,-5.46365894417,3.86951695067
1588764617612808919,3887,1588764617612690660,,0.628276967127,-5.30055765142,3.75458652071
1588764617618684623,3888,1588764617618606746,,0.631332432442,-5.14187541798,3.64693989936
1588764617624665411,3889,1588764617624581940,,0.635689721023,-4.99042445542,3.54248578321
1588764617630328276,3890,1588764617630261872,,0.639706444017,-4.84494819063,3.44423179983
1588764617633715949,3891,1588764617633627600,,0.643254305503,-4.83214514427,3.43289523781
1588764617639828980,3892,1588764617639685068,,0.648232267915,-4.69225465603,3.33778746363
1588764617645789095,3893,1588764617645648542,,0.652759932744,-4.56165412972,3.24917048233
1588764617651913196,3894,1588764617651702903,,0.65661674936,-4.4396124667,3.16586598101
1588764617657758354,3895,1588764617657629954,,0.661451896495,-4.32448928126,3.08763964432
1588764617663749099,3896,1588764617663630736,,0.683938878413,-4.23361960205,3.01668703635
1588764617669770925,3897,1588764617669649857,,0.690733920861,-4.13377527152,2.94816793058
1588764617675725764,3898,1588764617675633449,,0.694731202099,-4.03897875894,2.8811929071
1588764617681876496,3899,1588764617681773373,,0.698601670597,-3.95508180708,2.81481910928
1588764617688058602,3900,1588764617687988957,,0.701891365315,-3.87718246301,2.75584992601
1588764617693837981,3901,1588764617693744191,,0.70424599138,-3.87222204391,2.7488941223
1588764617699740330,3902,1588764617699668753,,0.706708479772,-3.8052973626,2.69997597795
1588764617705734034,3903,1588764617705657813,,0.709362866475,-3.7464871606,2.65672862724
1588764617711257689,3904,1588764617711207096,,0.711983930385,-3.6974363133,2.62014405044
1588764617717770354,3905,1588764617717647070,,0.713916411471,-3.6568930856,2.58939430234
1588764617723678416,3906,1588764617723613527,,0.715786532914,-3.62289400967,2.5664317359
1588764617729717858,3907,1588764617729604765,,0.718107247499,-3.60212157684,2.55140195073
1588764617735583676,3908,1588764617735513123,,0.720969174228,-3.5906827903,2.54347158243
1588764617741697843,3909,1588764617741621793,,0.723469223865,-3.58424614042,2.53875733519
1588764617747747277,3910,1588764617747675520,,0.724947708997,-3.57390369865,2.53537126627
1588764617753468399,3911,1588764617753405719,,0.728224519048,-3.56797338939,2.52883459359
1588764617759571389,3912,1588764617759500304,,0.730924394196,-3.55061084363,2.53192569897
1588764617765688731,3913,1588764617765586418,,0.733520627502,-3.52193566254,2.54220884565
1588764617771623495,3914,1588764617771551132,,0.736243372973,-3.48514036819,2.56081669782
1588764617777431374,3915,1588764617777323039,,0.738482926635,-3.44017638772,2.58459321823
1588764617780924001,3916,1588764617780846845,,0.741677344268,-3.43864784175,2.57990763824
1588764617783704851,3917,1588764617783628492,,0.745148023111,-3.38383802608,2.61231109441
1588764617789392501,3918,1588764617789336866,,0.750109713844,-3.32145937183,2.65426142121
1588764617795368263,3919,1588764617795293391,,0.754860358263,-3.25194293484,2.70274680547
1588764617801494177,3920,1588764617801442450,,0.76137400464,-3.17142590174,2.75998227474
1588764617807977141,3921,1588764617807825996,,0.767472791777,-3.08418564816,2.82227739844
1588764617813843645,3922,1588764617813761929,,0.773110423774,-3.08623229494,2.82657298492
1588764617819717451,3923,1588764617819629305,,0.778859282991,-2.99068221674,2.89369188789
1588764617825758521,3924,1588764617825661094,,0.785447872519,-2.88619229857,2.96991505659
1588764617831748151,3925,1588764617831656635,,0.791197968246,-2.77363835033,3.04869400371
1588764617837745323,3926,1588764617837613319,,0.797170380485,-2.65302991512,3.13468391357
1588764617843710455,3927,1588764617843622329,,0.803631740059,-2.52280870465,3.22564777906
1588764617849662182,3928,1588764617849594689,,0.809195850271,-2.38596157186,3.32233200759
1588764617855810959,3929,1588764617855716028,,0.813912546395,-2.24266992558,3.42131343888
1588764617862070258,3930,1588764617861943197,,0.820146943773,-2.08926422428,3.52965663031
1588764617867908731,3931,1588764617867792962,,0.825867858832,-1.92935779742,3.63931224698
1588764617873593498,3932,1588764617873504815,,0.831584408737,-1.9316963398,3.64230507487
1588764617879611217,3933,1588764617879527153,,0.837369092452,-1.76498459988,3.75741692998
1588764617885606444,3934,1588764617885515743,,0.84362939045,-1.58954548698,3.87870605489
1588764617891635730,3935,1588764617891535443,,0.849125743534,-1.41122759157,4.00572405609
1588764617897481206,3936,1588764617897402116,,0.854633722248,-1.22220455009,4.13727175836
1588764617903569672,3937,1588764617903471595,,0.860979062966,-1.02637115235,4.27536926721
1588764617909825720,3938,1588764617909711772,,0.866282541113,-0.82620589131,4.41680937362
1588764617915874098,3939,1588764617915747148,,0.871937219516,-0.617872921363,4.56344107062
1588764617922130235,3940,1588764617921956449,,0.877714772345,-0.403415313031,4.71478550151
1588764617928312704,3941,1588764617928200517,,0.883551029463,-0.406340947051,4.71966446444
1588764617933752683,3942,1588764617933612947,,0.889444888715,-0.184501300643,4.87413606975
1588764617939872917,3943,1588764617939707501,,0.894977640358,0.0421464522725,5.03406936317
1588764617945778536,3944,1588764617945687443,,0.899830190905,0.274743256448,5.19652652775
1588764617951782260,3945,1588764617951682756,,0.904575741307,0.513340534324,5.36507672755
1588764617957866139,3946,1588764617957724351,,0.909861446861,0.757335833098,5.53518663069
1588764617963868440,3947,1588764617963747489,,0.913858781609,1.0077490099,5.7092173668
1588764617969769575,3948,1588764617969667202,,0.918650732667,1.26320591227,5.88743150304
1588764617975778935,3949,1588764617975660486,,0.923707004878,1.52248025214,6.07164314703
1588764617981896317,3950,1588764617981812111,,0.928849722907,1.78799454662,6.26059958419
1588764617985063354,3951,1588764617984904428,,0.932406388615,1.78200522694,6.26646334296
1588764617990945310,3952,1588764617990802714,,0.936448964924,2.05059802337,6.45772468893
1588764617996811085,3953,1588764617996703791,,0.940747877765,2.32539939753,6.65236379053
1588764618002804931,3954,1588764618002717505,,0.944952209547,2.60639825183,6.84974663132
1588764618008787403,3955,1588764618008693086,,0.948969245621,2.89059569866,7.0490436791
1588764618021132944,3956,1588764618020927218,,0.955767879974,3.17165438256,7.25795953995
1588764618026846802,3957,1588764618026744403,,0.959643319831,3.46728685461,7.46410408141
1588764618032934592,3958,1588764618032800978,,0.963050266547,3.76671454633,7.67333349633
1588764618038794292,3959,1588764618038676645,,0.966929108822,4.06872272594,7.8854800794
1588764618044480195,3960,1588764618044401083,,0.970592001736,4.37665829885,8.10092982239
1588764618050418153,3961,1588764618050250956,,0.973785198817,4.68715881503,8.31753305595
1588764618056324112,3962,1588764618056239392,,0.976786786896,5.00106468758,8.53730930074
1588764618062924170,3963,1588764618062739825,,0.980019081677,5.32036623063,8.76045120916
1588764618068890762,3964,1588764618068766831,,0.983585260471,5.64206377004,8.98481216657
1588764618081494332,3965,1588764618081410558,,0.988347247291,6.23539970798,9.40396633432
1588764618084119549,3966,1588764618084014093,,0.991646049426,6.28618057208,9.44928321773
1588764618089840640,3967,1588764618089763312,,0.993637709088,6.61652668361,9.68112981598
1588764618095776429,3968,1588764618095694204,,0.995754282451,6.95258935395,9.91331923534
1588764618101973602,3969,1588764618101895014,,0.997775377397,7.29212041716,10.1488441331
1588764618107977451,3970,1588764618107843167,,1.00009166485,7.28324930344,10.1526176684
1588764618113875506,3971,1588764618113791944,,1.00236965913,7.62744400507,10.3905305065
1588764618119866909,3972,1588764618119774395,,1.00460161193,7.97413451774,10.629261379
1588764618125881602,3973,1588764618125752528,,1.00776848674,8.32368267756,10.8713691347
1588764618131609346,3974,1588764618131531022,,1.01088479174,8.6767342431,11.113905482
1588764618137882041,3975,1588764618137735312,,1.0132185069,9.03187793057,11.3575759054
1588764618143868706,3976,1588764618143719717,,1.01576145437,9.39007578473,11.603185978
1588764618149656077,3977,1588764618149567687,,1.01824502891,9.75216808311,11.8505583975
1588764618155937767,3978,1588764618155823867,,1.01974983656,10.114519524,12.0968814841
1588764618161972512,3979,1588764618161894844,,1.0226081739,10.4807939068,12.3459533453
1588764618167958567,3980,1588764618167769172,,1.02522191825,10.4768072048,12.3471477295
1588764618173665229,3981,1588764618173544618,,1.02840043985,10.8444739059,12.5963823031
1588764618179861697,3982,1588764618179749734,,1.03062721721,11.214664881,12.8453558581
1588764618185817336,3983,1588764618185720004,,1.03395436094,11.585902973,13.0977045519
1588764618191875269,3984,1588764618191775140,,1.03675252811,11.9590971233,13.3502262541
1588764618197584704,3985,1588764618197500025,,1.03915964555,12.3337677135,13.6032683332
1588764618203642604,3986,1588764618203568089,,1.04149978762,12.7097402919,13.8563355748
1588764618209774131,3987,1588764618209678373,,1.04430600165,13.0878489892,14.111572463
1588764618215834820,3988,1588764618215715370,,1.04636593585,13.4663993491,14.3658700335
1588764618221920915,3989,1588764618221830813,,1.04912599082,13.8473962877,14.6214472185
1588764618228334485,3990,1588764618228152678,,1.05189601521,14.2287329682,14.8792971179
1588764618233826838,3991,1588764618233746899,,1.0547523528,14.2244878979,14.879794566
1588764618239837689,3992,1588764618239740814,,1.05715921097,14.6048777371,15.1356285546
1588764618245858621,3993,1588764618245777346,,1.05971191104,14.9878120111,15.3919717964
1588764618252026757,3994,1588764618251828229,,1.06307462665,15.3701060589,15.6477039336
1588764618257900428,3995,1588764618257800855,,1.06608135673,15.7544223075,15.9051911585
1588764618263760242,3996,1588764618263662021,,1.06945250141,16.1392277708,16.1620767886
1588764618269678080,3997,1588764618269596967,,1.07254259538,16.5230034895,16.4188486996
1588764618275692090,3998,1588764618275601613,,1.07556701669,16.9062432761,16.6757382642
1588764618282127916,3999,1588764618282029664,,1.07821869562,17.2913276148,16.9304439618
1588764618288062915,4000,1588764618287846860,,1.08169065212,17.2866047227,16.9270112661
1588764618293594993,4001,1588764618293525340,,1.0843260554,17.6703594559,17.1812883193
1588764618299718817,4002,1588764618299591387,,1.08788985734,18.0556505016,17.4356862744
1588764618305677801,4003,1588764618305564775,,1.0914470924,18.4386644061,17.6906852651
1588764618311741763,4004,1588764618311664255,,1.0940185733,18.8222248857,17.9412477317
1588764618317891935,4005,1588764618317737287,,1.09737724581,19.2043884478,18.1935482541
1588764618323997103,4006,1588764618323872320,,1.10035404619,19.584831903,18.4473995781
1588764618329789555,4007,1588764618329650779,,1.10364173987,19.9646089092,18.7001354062
1588764618336030568,4008,1588764618335882239,,1.10695787544,20.3425184589,18.9493833152
1588764618341657859,4009,1588764618341573504,,1.10933481637,20.7203615632,19.1988905193
1588764618348140138,4010,1588764618348018353,,1.11234422825,20.9625387754,19.3610620419
1588764618353849677,4011,1588764618353752174,,1.11498131141,21.0857581452,19.441513442
1588764618359837443,4012,1588764618359749561,,1.11883415249,21.4579345528,19.689411364
1588764618365891751,4013,1588764618365704957,,1.12073923123,21.8294624703,19.934451105
1588764618371934030,4014,1588764618371843629,,1.12310084345,22.2000330511,20.180286623
1588764618377955300,4015,1588764618377847859,,1.12676869128,22.5688624759,20.423015977
1588764618384119569,4016,1588764618384009496,,1.12836602351,22.9368998518,20.6653128911
1588764618389930654,4017,1588764618389781902,,1.13090568149,23.30190466,20.9065181456
1588764618395804515,4018,1588764618395700532,,1.13349286351,23.6664783431,21.1451994286
1588764618401915580,4019,1588764618401835472,,1.13615889055,24.0287059546,21.384973193
1588764618408148774,4020,1588764618408085694,,1.13931605851,24.2418411933,21.5252803884
1588764618413784645,4021,1588764618413657847,,1.14154788345,24.3784240987,21.611723549
1588764618419802785,4022,1588764618419712427,,1.14383099448,24.73863956,21.8466477867
1588764618425820419,4023,1588764618425749362,,1.14597596536,25.0962917709,22.0822278085
1588764618431839334,4024,1588764618431742012,,1.14848220377,25.4467382221,22.3137867923
1588764618437836251,4025,1588764618437746745,,1.14989560378,25.7959931562,22.5455892618
1588764618443867388,4026,1588764618443782850,,1.15140203439,26.1439284543,22.7770732825
1588764618449867178,4027,1588764618449769788,,1.1531700975,26.4873617524,23.0029428488
1588764618455865824,4028,1588764618455789137,,1.15419347993,26.8263946434,23.2287457844
1588764618461955858,4029,1588764618461817234,,1.1564608709,27.1635101196,23.4517176388
1588764618467788072,4030,1588764618467397980,,1.15724120108,27.1467543882,23.439388398
1588764618473523759,4031,1588764618473359765,,1.15874247881,27.483246584,23.6600124251
1588764618479524920,4032,1588764618479423809,,1.15973166322,27.8156030806,23.8786012999
1588764618485560350,4033,1588764618485424839,,1.16068184706,28.1453072462,24.0960795786
1588764618491432449,4034,1588764618491330064,,1.16237097681,28.4720335691,24.3092923916
1588764618497900559,4035,1588764618497794640,,1.16365647645,28.7947978485,24.5207850847
1588764618503878151,4036,1588764618503758221,,1.16666062976,29.1157454025,24.7280130732
1588764618509847016,4037,1588764618509768221,,1.16826473016,29.4360585017,24.9364824951
1588764618515955478,4038,1588764618515862271,,1.17039637049,29.7526949519,25.1429797152
1588764618521606792,4039,1588764618521522484,,1.17285266795,30.0630863114,25.3429334603
1588764618530593193,4040,1588764618530525364,,1.17439755149,30.3526444079,25.5289443209
1588764618536836667,4041,1588764618536721243,,1.17712463109,30.6542143097,25.722371218
1588764618542850403,4042,1588764618542738548,,1.17885772731,30.9486559754,25.9154351398
1588764618548760235,4043,1588764618548669076,,1.18010474585,31.2406220692,26.1116439666
1588764618557842868,4044,1588764618557767439,,1.18427683798,31.5087851346,26.2830331804
1588764618563991702,4045,1588764618563882938,,1.18671692328,31.7951067249,26.4715160035
1588764618570030515,4046,1588764618569911891,,1.18806962078,32.075743711,26.6523252611
1588764618576049443,4047,1588764618575964859,,1.18931253648,32.349103876,26.8329453244
1588764618582098288,4048,1588764618581962268,,1.19118727111,32.6212247071,27.0061600115
1588764618588282427,4049,1588764618588069081,,1.19321420902,32.5919997626,26.9801200794
1588764618593776589,4050,1588764618593703582,,1.19536259597,32.8565743375,27.1489008273
1588764618599782810,4051,1588764618599646445,,1.19724473158,33.1150047112,27.3153090652
1588764618605753237,4052,1588764618605668521,,1.19819896791,33.3674970695,27.4772248697
1588764618611778265,4053,1588764618611687041,,1.19919996749,33.6174672876,27.6362515144
1588764618617883992,4054,1588764618617780282,,1.20195805055,33.8653317864,27.7929721103
1588764618623803485,4055,1588764618623729009,,1.20360902548,34.1062398059,27.9483692332
1588764618629857595,4056,1588764618629775319,,1.20435466209,34.3393863222,28.0958832021
1588764618635827596,4057,1588764618635745162,,1.20740145206,34.5354043282,28.2148479995
1588764618641767232,4058,1588764618641696920,,1.21092532572,34.7626596157,28.3560989214
1588764618648015403,4059,1588764618647933930,,1.21368354683,34.6963736893,28.2911866479
1588764618653791738,4060,1588764618653705809,,1.21517278433,34.9177600577,28.4300826509
1588764618659987475,4061,1588764618659894023,,1.22232397149,35.099476805,28.5338037788
1588764618665817207,4062,1588764618665729649,,1.223664703,35.3095868646,28.6627321855
1588764618671854544,4063,1588764618671742288,,1.22981414418,35.4814446795,28.7599254745
1588764618677880913,4064,1588764618677732549,,1.23449538758,35.6469313559,28.8487786275
1588764618684120410,4065,1588764618684027720,,1.23750162419,35.8418691242,28.9719852905
1588764618689837163,4066,1588764618689771684,,1.23975639689,36.0284003539,29.0884338335
1588764618695828039,4067,1588764618695725716,,1.24495286372,36.1706818776,29.1639148161
1588764618702168540,4068,1588764618701998989,,1.2474078156,36.3461214473,29.270725786
1588764618708408307,4069,1588764618708148282,,1.2524877464,36.2649727255,29.1975872067
1588764618713731465,4070,1588764618713656863,,1.25399134452,36.4360185137,29.3045589131
1588764618719787810,4071,1588764618719684227,,1.25860995731,36.5570803302,29.3702292486
1588764618725785372,4072,1588764618725695610,,1.25975672295,36.7179613315,29.4700757928
1588764618731791245,4073,1588764618731698997,,1.26557520575,36.8303203673,29.5298143934
1588764618737805499,4074,1588764618737699748,,1.26840953303,36.9810283023,29.619865901
1588764618743762756,4075,1588764618743659767,,1.27585773862,37.0781384257,29.6706899211
1588764618749798168,4076,1588764618749686884,,1.27687148796,37.2166856032,29.7518347283
1588764618755866106,4077,1588764618755803909,,1.28216674551,37.3012609735,29.7931780973
1588764618762142762,4078,1588764618761968652,,1.28231258775,37.427414983,29.8693896329
1588764618768799845,4079,1588764618768656600,,1.28538089015,37.497720159,29.8988720646
1588764618773996840,4080,1588764618773802865,,1.28697072226,37.448580516,29.8514579155
1588764618779831965,4081,1588764618779754284,,1.29327277121,37.5100449485,29.8733495208
1588764618785845499,4082,1588764618785712770,,1.29525546758,37.6227834998,29.9325616309
1588764618791851674,4083,1588764618791749132,,1.30002187093,37.6715602949,29.9426175958
1588764618797989174,4084,1588764618797874900,,1.30211408634,37.7709795887,29.9939740585
1588764618803945092,4085,1588764618803806050,,1.30471657045,37.8021850101,29.9875156878
1588764618809913251,4086,1588764618809775088,,1.30602827327,37.8827531766,30.0274512955
1588764618815846479,4087,1588764618815780521,,1.30726923829,37.9517851638,30.0635125116
1588764618822176351,4088,1588764618822091763,,1.30686580371,37.9463206097,30.0401157262
1588764618828207880,4089,1588764618828110620,,1.30462159278,37.9359794501,30.0116452971
1588764618833862383,4090,1588764618833755346,,1.30565028817,37.8741431662,29.9585887525
1588764618840012940,4091,1588764618839892693,,1.30649766616,37.9299748158,29.9833187751
1588764618845897136,4092,1588764618845803408,,1.31072193043,37.9274286496,29.9478715456
1588764618852016955,4093,1588764618851850986,,1.32015697635,37.937159751,29.9218252023
1588764618857928887,4094,1588764618857795761,,1.32387541718,37.9898453894,29.9433462001
1588764618863918907,4095,1588764618863818984,,1.32836001387,38.0373877578,29.9608069116
1588764618869872012,4096,1588764618869735336,,1.33994616069,38.0345155341,29.9318257306
1588764618875863759,4097,1588764618875764263,,1.34370074371,38.0689142593,29.9393990661
1588764618882393343,4098,1588764618882212532,,1.35219384673,38.0421528127,29.899062578
1588764618888207968,4099,1588764618887953977,,1.35452724834,37.9870845856,29.8466619916
1588764618893811381,4100,1588764618893733657,,1.35849915097,37.9373983895,29.786168679
1588764618899866693,4101,1588764618899781804,,1.36031778913,37.9424504454,29.7755155772
1588764618905694066,4102,1588764618905618840,,1.3613433077,37.8710887373,29.6972189926
1588764618911734091,4103,1588764618911656168,,1.36159560823,37.8583346484,29.6786544326
1588764618917655082,4104,1588764618917571829,,1.35977942384,37.766379156,29.5889106039
1588764618923645146,4105,1588764618923565958,,1.36070650799,37.7391758081,29.561236668
1588764618926633724,4106,1588764618926569620,,1.36235006535,37.5935513731,29.4374326771
1588764618932632231,4107,1588764618932540118,,1.36303630789,37.5612301589,29.403525805
1588764618938759591,4108,1588764618938673630,,1.36406261898,37.4550615583,29.3082621415
1588764618944780478,4109,1588764618944697940,,1.36583229077,37.4190309667,29.2701881586
1588764618950711398,4110,1588764618950622049,,1.3704100185,37.3098867732,29.1662344319
1588764618956730976,4111,1588764618956619102,,1.37447632693,37.2640813741,29.1187860082
1588764618962786122,4112,1588764618962666992,,1.38011722667,37.1470022213,29.0021200425
1588764618968793488,4113,1588764618968688272,,1.38513751179,37.0931085721,28.9519949531
1588764618974871591,4114,1588764618974775977,,1.3870579056,37.0278243392,28.897349384
1588764618981372852,4115,1588764618981309243,,1.3911280238,36.7192445182,28.6714997149
1588764618986768476,4116,1588764618986712613,,1.39069342808,36.8133885833,28.7217712831
1588764618992793620,4117,1588764618992599956,,1.39262197292,36.7343566538,28.6598521725
1588764618998759704,4118,1588764618998677886,,1.39249241338,36.5834916792,28.5447828376
1588764619004683679,4119,1588764619004609496,,1.39203578816,36.4744514888,28.47061026
1588764619010677906,4120,1588764619010591887,,1.39030240913,36.3895852953,28.4081847712
1588764619016632728,4121,1588764619016557857,,1.39334931438,36.278642531,28.3204855263
1588764619022670298,4122,1588764619022534558,,1.39283585561,36.0773358437,28.1664226468
1588764619025618984,4123,1588764619025563721,,1.39392274986,35.9470947862,28.0541203348
1588764619031679795,4124,1588764619031614755,,1.39351788804,35.8312572873,27.9690127818
1588764619037841757,4125,1588764619037745860,,1.39228413756,35.6702187949,27.8387023006
1588764619043685311,4126,1588764619043614366,,1.39555051154,35.5530568659,27.7444810081
1588764619049566271,4127,1588764619049491056,,1.40637286263,35.3796491782,27.6017264671
1588764619055589704,4128,1588764619055522020,,1.41145923534,35.2613181686,27.5106417739
1588764619061737780,4129,1588764619061648338,,1.41709704821,35.1374794431,27.4201106072
1588764619068427817,4130,1588764619068363627,,1.42096906887,34.9415896451,27.2675087816
1588764619073612549,4131,1588764619073526352,,1.42548142519,34.7980036502,27.1453118558
1588764619079628457,4132,1588764619079530773,,1.4291828078,34.649247034,27.0328351996
1588764619085624953,4133,1588764619085532331,,1.43322803705,34.489896523,26.9205427268
1588764619091481861,4134,1588764619091411537,,1.43468541603,34.2366099382,26.7304295404
1588764619097524230,4135,1588764619097453903,,1.43094301199,33.8677001433,26.461891484
1588764619100553294,4136,1588764619100478008,,1.43016058998,33.7691458307,26.3887957753
1588764619106661024,4137,1588764619106569215,,1.42858289119,33.4775047719,26.1831648728
1588764619112556643,4138,1588764619112472113,,1.42727861185,33.285305078,26.0487735627
1588764619118580595,4139,1588764619118511632,,1.4291914039,32.9932256644,25.846236613
1588764619124557480,4140,1588764619124431210,,1.42932029285,32.8007194074,25.7078063373
1588764619128141762,4141,1588764619128081162,,1.43477926248,32.3822862388,25.4005057237
1588764619134011792,4142,1588764619133921501,,1.44378466274,32.3561161041,25.356095509
1588764619139568643,4143,1588764619139491135,,1.44596921776,32.1601252056,25.2101751607
1588764619142801483,4144,1588764619142704135,,1.45008196713,31.962327354,25.0686991778
1588764619148588902,4145,1588764619148498200,,1.45565753128,31.6822957039,24.8520433369
1588764619151593929,4146,1588764619151509459,,1.45741106159,31.5957270939,24.7852739831
1588764619157559705,4147,1588764619157474455,,1.46262570817,31.2988824343,24.5592839537
1588764619160594646,4148,1588764619160499884,,1.46404078945,31.2082381287,24.4917278928
1588764619166636622,4149,1588764619166534661,,1.46511106721,30.8907052623,24.25737558
1588764619172710280,4150,1588764619172623994,,1.46391243035,30.6621783079,24.1012900297
1588764619178836413,4151,1588764619178727685,,1.46531598974,30.3276940117,23.8634857005
1588764619185270257,4152,1588764619185166800,,1.46472309692,30.0868774915,23.6940589896
1588764619190992405,4153,1588764619190907993,,1.46418791881,29.7391061177,23.4525482326
1588764619196829319,4154,1588764619196750386,,1.46247106184,29.4928560304,23.2801050705
1588764619202910984,4155,1588764619202813899,,1.46144980542,29.1500089949,23.0446097418
1588764619208962524,4156,1588764619208834281,,1.46030728848,28.8976538861,22.8607142908
1588764619217659531,4157,1588764619217580200,,1.46689166198,28.4653315937,22.5474115219
1588764619223765798,4158,1588764619223691459,,1.47380723505,28.1270477164,22.3106566172
1588764619226677738,4159,1588764619226580960,,1.47858060524,28.0410838594,22.2469643154
1588764619232643066,4160,1588764619232565085,,1.48232848291,27.6955803343,21.997137143
1588764619238562262,4161,1588764619238503904,,1.48689971997,27.434978367,21.8137859745
1588764619241891952,4162,1588764619241467286,,1.48551819786,27.2440634932,21.6755358728
1588764619253677293,4163,1588764619253580264,,1.47816040776,26.6012125338,21.2279577966
1588764619259580650,4164,1588764619259516517,,1.47395665066,26.3202229708,21.0358593688
1588764619262957766,4165,1588764619262887942,,1.470205917,25.9367715494,20.7739222217
1588764619269108466,4166,1588764619268998529,,1.467263878,25.6466880947,20.5789107724
1588764619277584107,4167,1588764619277492636,,1.45946664824,25.1501111865,20.2487061571
1588764619286575665,4168,1588764619286487568,,1.46010272946,24.6756599443,19.9220052388
1588764619289488817,4169,1588764619289421036,,1.46098465526,24.3047046026,19.650256894
1588764619292668979,4170,1588764619292585994,,1.4631325145,24.2199187579,19.5818062716
1588764619298758764,4171,1588764619298685867,,1.46672997993,23.85425382,19.3122749418
1588764619304596389,4172,1588764619304485157,,1.46832884977,23.5750484572,19.1093805132
1588764619313761995,4173,1588764619313656592,,1.47401073319,23.1172466359,18.7835101918
1588764619319598833,4174,1588764619319518640,,1.47406941041,22.8278641412,18.5854408595
1588764619322544193,4175,1588764619322454290,,1.47541872993,22.5316566331,18.390402712
1588764619325621286,4176,1588764619325432798,,1.47485351337,22.4419641575,18.3274045552
1588764619328663082,4177,1588764619328568706,,1.47548025072,22.0451265068,18.0598030854
1588764619331806085,4178,1588764619331678324,,1.47602609426,21.8516167216,17.9311932286
1588764619337520240,4179,1588764619337440250,,1.47281804161,21.5464223328,17.7226830727
1588764619340497834,4180,1588764619340417488,,1.47183989478,21.4493063648,17.6567388053
1588764619346566203,4181,1588764619346476785,,1.46687525687,21.0449658037,17.3813908917
1588764619349509489,4182,1588764619349425120,,1.46485510166,20.6481671124,17.1030079735
1588764619352510838,4183,1588764619352438166,,1.46411616107,20.5538057797,17.0351547578
1588764619355681304,4184,1588764619355443409,,1.46329133783,20.1601507536,16.7605293188
1588764619358505501,4185,1588764619358403473,,1.46283535028,20.0718871602,16.6964547128
1588764619361946363,4186,1588764619361881662,,1.46312063666,19.6852901163,16.4262127656
1588764619368995330,4187,1588764619368908842,,1.4636539432,19.3823276366,16.2217790334
1588764619374087751,4188,1588764619373992516,,1.46336847878,19.2958999242,16.1592809875
1588764619380114597,4189,1588764619379965829,,1.46297889102,18.9099925225,15.8978503344
1588764619386045587,4190,1588764619385953478,,1.46187078841,18.6104383206,15.6923560929
1588764619392107691,4191,1588764619392003077,,1.46148169255,18.2197814967,15.4272548233
1588764619398043353,4192,1588764619397958379,,1.4602285563,17.9177705366,15.2172539184
1588764619404069011,4193,1588764619403974291,,1.46116233003,17.6106367101,15.0140756975
1588764619409996742,4194,1588764619409906518,,1.45923980639,17.2229631722,14.748769434
1588764619415985450,4195,1588764619415887257,,1.4571205491,16.9149250015,14.5419710701
1588764619421959446,4196,1588764619421822950,,1.45559024893,16.5261896841,14.278572627
1588764619428451648,4197,1588764619428356900,,1.45624853842,16.2199521388,14.0676692293
1588764619434140141,4198,1588764619433866970,,1.45489038307,16.0502292204,13.9398989847
1588764619439968841,4199,1588764619439885508,,1.45194541952,15.7482998262,13.727765466
1588764619445939333,4200,1588764619445855358,,1.45037187182,15.3684178336,13.4622934688
1588764619451930471,4201,1588764619451848029,,1.44864048312,15.0702601849,13.2538555827
1588764619458031690,4202,1588764619457927024,,1.4495224024,14.7012707121,12.9899911519
1588764619463909215,4203,1588764619463828957,,1.45181666257,14.4092079266,12.7860620831
1588764619469937563,4204,1588764619469840348,,1.4525437754,14.1188574796,12.5874582548
1588764619475738065,4205,1588764619475644752,,1.4524442377,13.8280867923,12.3900565354
1588764619481799592,4206,1588764619481713671,,1.45374936595,13.5409685157,12.1966177778
1588764619488355121,4207,1588764619488261045,,1.45588753073,13.2533406017,12.0073061697
1588764619493954463,4208,1588764619493852461,,1.45463574736,13.1774277637,11.9530007207
1588764619499969096,4209,1588764619499876706,,1.45580866837,12.8424166201,11.7234302812
1588764619505943818,4210,1588764619505855243,,1.45631719509,12.5544257995,11.5336276854
1588764619511927533,4211,1588764619511854376,,1.45536287244,12.2610393477,11.345456161
1588764619517927881,4212,1588764619517847470,,1.45097090733,11.9252210921,11.1120494686
1588764619524039421,4213,1588764619523926638,,1.44961364097,11.6409684589,10.926399775
1588764619529886270,4214,1588764619529808905,,1.44812542455,11.3730621646,10.7475424432
1588764619535953069,4215,1588764619535799303,,1.44584041159,11.1062808726,10.5605174202
1588764619542007701,4216,1588764619541921743,,1.44188909781,10.8400340553,10.3871905234
1588764619550788641,4217,1588764619550713362,,1.43314962007,10.4460843963,10.112222622
1588764619556904815,4218,1588764619556819884,,1.433685929,10.1878597228,9.93597391962
1588764619562782205,4219,1588764619562705031,,1.43261892591,9.93435398654,9.76304447267
1588764619569262054,4220,1588764619569169718,,1.4345414902,9.616573432,9.54070586474
1588764619578050821,4221,1588764619577949874,,1.43305390337,9.23664093462,9.27825231105
1588764619584293938,4222,1588764619584214818,,1.43275158241,9.00433420254,9.11361034119
1588764619590007312,4223,1588764619589923926,,1.43522886679,8.70658010007,8.90258719021
1588764619596068331,4224,1588764619595944052,,1.4366037428,8.48447362207,8.74449723449
1588764619602491524,4225,1588764619602401340,,1.43847928425,8.26355537459,8.59589959233
1588764619608441996,4226,1588764619608331223,,1.439146354,8.05118049718,8.44924849532
1588764619614216148,4227,1588764619614026411,,1.43843309453,7.92874540728,8.36312665447
1588764619620032775,4228,1588764619619937392,,1.43817623575,7.71950939665,8.22410351843
1588764619623018679,4229,1588764619622905992,,1.43738588446,7.51706475554,8.08249700957
1588764619625988558,4230,1588764619625908190,,1.43751776941,7.41222960944,8.00300210854
1588764619631989005,4231,1588764619631907764,,1.43712561981,7.21202293841,7.86953459175
1588764619637885838,4232,1588764619637793308,,1.43538392957,7.01139198883,7.73822493683
1588764619643747714,4233,1588764619643689939,,1.43218060649,6.84184065379,7.62518872675
1588764619646955488,4234,1588764619646884309,,1.42954152708,6.71864599705,7.53977542799
1588764619652950416,4235,1588764619652846220,,1.42814885582,6.54503564102,7.42761604395
1588764619658879008,4236,1588764619658725855,,1.42900126043,6.38356179485,7.3132626521
1588764619664660558,4237,1588764619664577323,,1.42860127102,6.24890915556,7.21312290081
1588764619670708457,4238,1588764619670624585,,1.42798876271,6.06878862894,7.08232456205
1588764619673812418,4239,1588764619673716420,,1.42676937982,6.02856286454,7.05950922747
1588764619679920847,4240,1588764619679821803,,1.42867275666,5.91185273867,6.97540719461
1588764619686008353,4241,1588764619685902036,,1.43156936199,5.78236396612,6.88612921584
1588764619691801262,4242,1588764619691689689,,1.43492626024,5.66109024084,6.80608515154
1588764619694869031,4243,1588764619694774798,,1.43756414933,5.55062545076,6.72454567242
1588764619700887843,4244,1588764619700579045,,1.43781658058,5.52892461987,6.7039054644
1588764619706748021,4245,1588764619706661492,,1.43716795127,5.44701638603,6.65310939933
1588764619709687300,4246,1588764619709603390,,1.43506988035,5.37330709557,6.60572383139
1588764619712782127,4247,1588764619712717594,,1.43442764111,5.35099955182,6.58611595992
1588764619715670082,4248,1588764619715612375,,1.43776958975,5.27455897958,6.53405089539
1588764619718931671,4249,1588764619718814337,,1.44051775339,5.23830561905,6.51220046398
1588764619724654132,4250,1588764619724578962,,1.44294833878,5.19064458533,6.47415835345
1588764619730847023,4251,1588764619730745208,,1.44461281978,5.13091140424,6.4301737888
1588764619734308275,4252,1588764619733982558,,1.44334949284,5.11587239782,6.42121883713
1588764619740076789,4253,1588764619739927157,,1.44135202348,5.08802617116,6.40358555486
1588764619745705589,4254,1588764619745616259,,1.44244610565,5.05409261667,6.37838249992
