%time,field.header.seq,field.header.stamp,field.header.frame_id,field.wrench.force.x,field.wrench.force.y,field.wrench.force.z,field.wrench.torque.x,field.wrench.torque.y,field.wrench.torque.z
1588764616379574626,3623,1588764616379479931,,-0.0212481129933,-0.348438986288,-0.000499814553646,0.0,0.0,0.0
1588764616382389056,3624,1588764616382289579,,-0.0212435056922,-0.348439270813,-0.000497299619811,0.0,0.0,0.0
1588764616385163263,3625,1588764616385078708,,-0.0212294376826,-0.348440112621,-0.000508112654158,0.0,0.0,0.0
1588764616391087035,3626,1588764616390988381,,-0.0212292631519,-0.348440122273,-0.000508784782291,0.0,0.0,0.0
1588764616397051146,3627,1588764616396962286,,-0.0194794683966,-0.2157507868,-0.000433291376251,0.0,0.0,0.0
1588764616402977310,3628,1588764616402867662,,-0.0194804950365,-0.215750686665,-0.000436980750397,0.0,0.0,0.0
1588764616406063841,3629,1588764616405906287,,-0.0198376597772,-0.21594740439,0.0185068236566,0.0,0.0,0.0
1588764616409029688,3630,1588764616408919355,,-0.0215939309552,-0.348533715905,0.0198580363241,0.0,0.0,0.0
1588764616415185240,3631,1588764616415096121,,-0.000808132425641,-0.21579842451,0.0188316781053,0.0,0.0,0.0
1588764616421114780,3632,1588764616421010443,,-0.0198362552496,-0.215947349534,0.0185089690905,0.0,0.0,0.0
1588764616427302839,3633,1588764616427076842,,-0.0194768846667,-0.215751016053,-0.000435283044398,0.0,0.0,0.0
1588764616430243577,3634,1588764616430133417,,-0.0198433434393,-0.21594663794,0.0185096735165,0.0,0.0,0.0
1588764616433221078,3635,1588764616433109191,,-0.0389716164567,-0.216463439362,0.0182113136689,0.0,0.0,0.0
1588764616436149471,3636,1588764616436028784,,-0.0198394538764,-0.215947576331,0.0185028937366,0.0,0.0,0.0
1588764616439187932,3637,1588764616439099975,,-0.0385944953538,-0.216273627241,-0.000784543005677,0.0,0.0,0.0
1588764616442046129,3638,1588764616441969646,,-0.0194857132047,-0.21575021645,-0.0004364836321,0.0,0.0,0.0
1588764616448105786,3639,1588764616448015549,,-0.021227213405,-0.348440214767,-0.000530499658485,0.0,0.0,0.0
1588764616451110899,3640,1588764616450997612,,-0.0212262363006,-0.348440267056,-0.000535230736684,0.0,0.0,0.0
1588764616454198192,3641,1588764616454103289,,-0.0212258021476,-0.348440287004,-0.000539445480278,0.0,0.0,0.0
1588764616460130173,3642,1588764616460018675,,-0.0212309896949,-0.348439964932,-0.000543323495351,0.0,0.0,0.0
1588764616463142741,3643,1588764616463003022,,-0.0194812092439,-0.215750587956,-0.000453561936973,0.0,0.0,0.0
1588764616466162229,3644,1588764616466065135,,-0.019481627341,-0.215750546745,-0.000455203958526,0.0,0.0,0.0
1588764616472266723,3645,1588764616472087753,,-0.0194790786206,-0.215750778312,-0.000454520827381,0.0,0.0,0.0
1588764616475149464,3646,1588764616475043670,,-0.0191526785891,-0.21593086436,-0.0193998311759,0.0,0.0,0.0
1588764616478088666,3647,1588764616477991713,,-0.0191522655446,-0.215931337985,-0.0193949666337,0.0,0.0,0.0
1588764616484163625,3648,1588764616484015676,,-0.0191483624332,-0.215931580991,-0.019396114997,0.0,0.0,0.0
1588764616487162567,3649,1588764616487024428,,-0.0215955214409,-0.348534833566,0.0198366788531,0.0,0.0,0.0
1588764616493149098,3650,1588764616493014745,,-0.000756046662279,-0.348399132737,-0.000180835041783,0.0,0.0,0.0
1588764616496103038,3651,1588764616496015825,,-0.021595714785,-0.348535222246,0.019829637912,0.0,0.0,0.0
1588764616499078704,3652,1588764616498993209,,-0.0202324612729,-0.216512133134,0.0375310674831,0.0,0.0,0.0
1588764616502212492,3653,1588764616502061207,,-0.020230691573,-0.216511381142,0.0375363592259,0.0,0.0,0.0
1588764616508075145,3654,1588764616507981217,,-0.0424956984501,-0.348999974972,0.0399222800964,0.0,0.0,0.0
1588764616511147775,3655,1588764616511065161,,-0.0389640917119,-0.21646488537,0.0182102271816,0.0,0.0,0.0
1588764616517001331,3656,1588764616516906558,,-0.0389652012787,-0.216464117455,0.0182169799652,0.0,0.0,0.0
1588764616523032724,3657,1588764616522962785,,-0.0385936325293,-0.216273829831,-0.000771023792141,0.0,0.0,0.0
1588764616526105103,3658,1588764616525893602,,-0.000136920803621,-0.215784105436,-0.0190117409238,0.0,0.0,0.0
1588764616529045808,3659,1588764616528953551,,-0.000407597975128,-0.348477322833,-0.0205125257195,0.0,0.0,0.0
1588764616532013840,3660,1588764616531894861,,-0.000410211067108,-0.348477210361,-0.0205143842708,0.0,0.0,0.0
1588764616535204753,3661,1588764616535067054,,-4.34445584386e-05,-0.348722629702,-0.0409272079986,0.000252166744074,0.000276709355932,-9.82190911302e-05
1588764616541011653,3662,1588764616540887894,,-0.0223977450088,-0.349211161595,0.0607441353633,0.0165740897985,0.00424854937423,-0.00212900615419
1588764616543938488,3663,1588764616543868674,,-0.0224008085527,-0.349218360279,0.0607016059556,0.0165741733913,0.00424875470298,-0.00212794537237
1588764616547198346,3664,1588764616546984513,,-0.0232344400018,-0.350497497863,0.101981498726,0.0244089359746,0.00478465258525,-0.00295678007673
1588764616553040646,3665,1588764616552953449,,-0.0267789670485,-0.486289625239,0.23405880994,0.0435655306199,0.00596862677239,-0.00383691267433
1588764616556155584,3666,1588764616556050404,,-0.0267917319347,-0.48629466929,0.234046869069,0.0435657307776,0.00596851452815,-0.00383481404416
1588764616559097276,3667,1588764616558993149,,-0.0283509766456,-0.618653219942,0.281612802858,0.0496322033244,0.00609040457696,-0.00305957231578
1588764616565182250,3668,1588764616565045781,,-0.0292185105351,-0.619920266852,0.325671437211,0.0566493126996,0.00620189197554,-0.0030128310424
1588764616568161459,3669,1588764616568076694,,-0.0101503072791,-0.885163962804,0.443454127465,0.0751350781394,0.00639867347502,-0.00350782935174
1588764616571083031,3670,1588764616571003747,,-0.0101737978868,-0.885156762786,0.443467960602,0.0751352574283,0.00639780951267,-0.00350556424041
1588764616577214658,3671,1588764616577117128,,-0.0328733631784,-0.885585404125,0.465473170437,0.0795138836998,0.00583317959623,-0.0019507916159
1588764616580371455,3672,1588764616580200679,,-0.0121817895972,-1.01846973736,0.53577475433,0.0928392183274,0.00590103861776,-0.00328930532024
1588764616583435506,3673,1588764616583342673,,-0.0130065889064,-1.01930056869,0.580899189346,0.100796332123,0.00531221167057,-0.00401846517978
1588764616588994428,3674,1588764616588888461,,-0.0137668563016,-1.15130738099,0.605685327282,0.107999016341,0.00595198299361,-0.00477355602808
1588764616592004607,3675,1588764616591908422,,-0.0379416522114,-1.28411480765,0.675053754234,0.129532418623,0.00536079440989,-0.0054698952874
1588764616595161874,3676,1588764616595042717,,-0.0379296549907,-1.28411440817,0.675055188351,0.129532324316,0.00536086604288,-0.00547205795236
1588764616601119304,3677,1588764616601046938,,-0.0160357182404,-1.41639896242,0.699907021022,0.135817785022,0.00536651492492,-0.00610643550652
1588764616604207477,3678,1588764616604072290,,-0.0399084233625,-1.54896061008,0.746448216037,0.15018869625,0.00473363439704,-0.00691701604124
1588764616607149807,3679,1588764616607051551,,-0.0184192036702,-1.54984286335,0.81527637388,0.163518816843,0.00473021892933,-0.00831880136688
1588764616613304305,3680,1588764616613127229,,-0.018420461022,-1.54982233876,0.815315361597,0.163518745326,0.00472876681115,-0.00832103240127
1588764616616123597,3681,1588764616616027836,,-0.0195522896124,-1.68238133733,0.862442256691,0.173314944398,0.00472455527989,-0.00905317990416
1588764616619169167,3682,1588764616619062294,,-0.0204781512937,-1.55117917979,0.929592999864,0.182066777615,0.00471405110413,-0.0106866846914
1588764616625208295,3683,1588764616625066146,,-0.0204823804772,-1.55112193086,0.929688429297,0.182066803342,0.004713075707,-0.0106866766125
1588764616628150499,3684,1588764616628058321,,0.000726156422157,-1.68384642155,1.00030062287,0.191788525604,0.00470443321245,-0.0147879483012
1588764616637190845,3685,1588764616637072202,,0.0231262526848,-1.68412198573,1.02367425479,0.196270571367,0.00405242822099,-0.017224449263
1588764616640157734,3686,1588764616640060860,,0.0227149927713,-1.68438489078,1.04665464696,0.202640600313,0.00340553083256,-0.0215408038997
1588764616643158280,3687,1588764616643077559,,0.0227410936629,-1.68436899489,1.04667966108,0.202640109401,0.00340550452728,-0.0215454257093
1588764616649173077,3688,1588764616649059131,,0.0223237001026,-1.68465826342,1.06952702762,0.205279937276,0.00340319003259,-0.023276415523
1588764616652198951,3689,1588764616652097308,,0.0671068214971,-1.8172405134,1.11750518638,0.216199314534,0.00274419951722,-0.032572241861
1588764616658174678,3690,1588764616658047061,,0.0671355137217,-1.81726657595,1.11746108002,0.21619854011,0.00274522834438,-0.0325772950274
1588764616661199081,3691,1588764616661089519,,0.135431956545,-1.94975816683,1.14299417211,0.227359106894,0.00208378161316,-0.0453146442054
1588764616664158417,3692,1588764616664034928,,0.135373860762,-1.94974927534,1.14301622149,0.227360607593,0.00208094641938,-0.0453072443413
1588764616667291588,3693,1588764616667030968,,0.157971174694,-1.95006941011,1.16634854276,0.229174295751,0.00144452726958,-0.0504805211558
1588764616673192072,3694,1588764616673089032,,0.158149653107,-1.95007594583,1.16631342795,0.233814139822,0.00144942765627,-0.0531193951626
1588764616676144360,3695,1588764616676027516,,0.1809650055,-1.95014811332,1.16678657825,0.240377532658,0.000779270306278,-0.0591252799969
1588764616682473782,3696,1588764616682378262,,0.203976982381,-1.95026858629,1.16717728742,0.242272175568,0.000125946076088,-0.0616407998238
1588764616685063477,3697,1588764616684989917,,0.249530174604,-2.08282577709,1.19198564376,0.249676462598,0.000131040776499,-0.0701923889003
1588764616688093789,3698,1588764616688007007,,0.249506181173,-2.08282009103,1.19200060177,0.249677242947,0.000129341103978,-0.0701896162717
1588764616694298878,3699,1588764616694141894,,0.271224083803,-2.08356502391,1.26137815353,0.254872293134,-0.000524173248927,-0.0753407322217
1588764616697117019,3700,1588764616696996554,,0.271190597668,-2.08357826434,1.26136348244,0.254875567139,-0.000520618787089,-0.0753296802632
1588764616700062963,3701,1588764616699995656,,0.224385975011,-2.08381738193,1.30650466619,0.259109433511,-0.00118281484905,-0.0737979531464
1588764616706172618,3702,1588764616706102178,,0.269446515044,-2.21647928124,1.35443549593,0.265404987959,-0.00185508779127,-0.0805986343866
1588764616709096427,3703,1588764616709007757,,0.269342753475,-2.21645351105,1.3544983041,0.265407037876,-0.00186529956758,-0.0805916481554
1588764616712114433,3704,1588764616712032755,,0.268470375449,-2.21684025864,1.40060477399,0.268845505402,-0.00188131436716,-0.0832424963759
1588764616718136043,3705,1588764616718048117,,0.268301949862,-2.34894520187,1.40164939024,0.270748466061,-0.00189090254159,-0.085905832041
1588764616724194718,3706,1588764616724077476,,0.29053498916,-2.34941283749,1.44810115732,0.27881549993,-0.00322329124382,-0.0910678161021
1588764616727227803,3707,1588764616727064597,,0.313406728466,-2.48167014231,1.44950981589,0.284460225662,-0.00389875017672,-0.0971534214894
1588764616730101303,3708,1588764616730013338,,0.335730012976,-2.48211319147,1.49607800744,0.287007716153,-0.00456674284591,-0.100585593435
1588764616733044293,3709,1588764616732960380,,0.357959021878,-2.48255158224,1.54257135621,0.296056194596,-0.00524314055741,-0.108449253543
1588764616736093189,3710,1588764616735998187,,0.35800989552,-2.48253611936,1.54258443517,0.296053095254,-0.00524337469106,-0.108457702759
1588764616742337786,3711,1588764616742125224,,0.357947854386,-2.6147039213,1.54351744769,0.299809308028,-0.00525537451753,-0.112026546276
1588764616745144548,3712,1588764616745038509,,0.38059656192,-2.61496237496,1.56698698148,0.308064447726,-0.00593763292221,-0.119011569112
1588764616748131259,3713,1588764616748038201,,0.403379916742,-2.61522134831,1.59055666016,0.312573871363,-0.00660752713824,-0.122437988129
1588764616757153322,3714,1588764616757056571,,0.44848634545,-2.74815311269,1.6613006171,0.321548230027,-0.00727383185575,-0.132884324081
1588764616760155472,3715,1588764616760041172,,0.471631895029,-2.748266116,1.66169527183,0.323477639589,-0.0079164758809,-0.136329398266
1588764616766127686,3716,1588764616766032565,,0.471300014661,-2.74843615622,1.68480103365,0.327052523978,-0.00791559645407,-0.13900472917
1588764616769165549,3717,1588764616769028148,,0.470881848146,-2.88083235271,1.70864075294,0.332481293481,-0.00792419628944,-0.142564658253
1588764616772108985,3718,1588764616771997289,,0.470119914109,-2.88114826527,1.75481522782,0.335915256074,-0.0085877679867,-0.145240408076
1588764616778107691,3719,1588764616778008344,,0.492855427296,-2.88141187126,1.77830004729,0.338604560087,-0.00859192994299,-0.148677213533
1588764616781334296,3720,1588764616781203924,,0.515872236834,-3.01376464692,1.77951627312,0.343283038286,-0.00992165266677,-0.153009744021
1588764616784155154,3721,1588764616784049361,,0.538371442562,-3.01399559407,1.80309166665,0.345067180302,-0.00994316344021,-0.156449939536
1588764616790276234,3722,1588764616790148708,,0.58379175315,-3.14676149231,1.85094563082,0.349444990987,-0.0106213455602,-0.160645037385
1588764616793290512,3723,1588764616793092308,,0.560453500475,-3.1468025165,1.87352564751,0.356714127782,-0.0112947869431,-0.1652590562
1588764616796183555,3724,1588764616796081628,,0.560268877195,-3.14681168798,1.87356546231,0.3604412599,-0.01132951439,-0.167943968455
1588764616802137928,3725,1588764616802042398,,0.583031285224,-3.14706579229,1.89702967014,0.363118821304,-0.0119882365109,-0.171404641024
1588764616805229749,3726,1588764616805065378,,0.628949659862,-3.27982317325,1.92146204063,0.369487170595,-0.0119911558572,-0.176495663754
1588764616808262876,3727,1588764616808159048,,0.651715328086,-3.28008444291,1.94505052402,0.373111042625,-0.0120082963748,-0.180851120246
1588764616817308036,3728,1588764616817189442,,0.651234350969,-3.41260649947,1.9686918461,0.381387705571,-0.0133522701612,-0.188930338958
1588764616826328188,3729,1588764616826195469,,0.673969515566,-3.41282375619,1.99222855319,0.385009472674,-0.0140256684011,-0.193280521472
1588764616829318839,3730,1588764616829206454,,0.69634296785,-3.54551986824,2.03957949135,0.39501432905,-0.0147043938766,-0.203007502663
1588764616832115295,3731,1588764616832027582,,0.696379466075,-3.5454708685,2.03965220719,0.398709059913,-0.0153750908209,-0.20478589851
1588764616835245972,3732,1588764616835135585,,0.742114436149,-3.67813534671,2.06429392124,0.403248966787,-0.0153899330277,-0.2089729599
1588764616838342226,3733,1588764616838163087,,0.742136612249,-3.67810159221,2.06434609126,0.403251307137,-0.0153876927142,-0.208968608714
1588764616841238769,3734,1588764616841140935,,0.76457486142,-3.67841144662,2.1110222928,0.405782923034,-0.0153970134168,-0.212430524062
1588764616847396383,3735,1588764616847109693,,0.787015008497,-3.81096681302,2.13541216142,0.409373309585,-0.0154223600155,-0.214936336188
1588764616850184654,3736,1588764616850079250,,0.763192606662,-3.81109878938,2.1811295437,0.414600067453,-0.0160864435658,-0.216850943896
1588764616853149765,3737,1588764616853066073,,0.78654023316,-3.81117524681,2.18153061224,0.417433390836,-0.0160679116926,-0.220307553608
1588764616859382526,3738,1588764616859263899,,0.786361788097,-3.81113669957,2.18166228089,0.41933275074,-0.0167488141839,-0.223004485258
1588764616862223986,3739,1588764616862113516,,0.832383791907,-3.81144687692,2.20573485059,0.423855607509,-0.0174251516767,-0.227215323274
1588764616865253763,3740,1588764616865157939,,0.83222161132,-3.81164811126,2.22860196832,0.427425193507,-0.017402884595,-0.229911131406
1588764616871195209,3741,1588764616871060114,,0.832184073103,-3.81165408674,2.22860576574,0.430278978463,-0.0174210856869,-0.234442064216
1588764616880530661,3742,1588764616880428843,,0.877343617578,-3.81227863297,2.29879377742,0.439162881067,-0.0181142935177,-0.242251667203
1588764616883576832,3743,1588764616883467262,,0.899675768152,-4.07740887585,2.34650119487,0.449073716377,-0.0188073362545,-0.249299815469
1588764616886272354,3744,1588764616886164234,,0.899760990962,-4.07738726737,2.34650606589,0.449070318288,-0.0188028161836,-0.249306277433
1588764616889175426,3745,1588764616889087431,,0.922482478232,-4.07756770892,2.37011964399,0.456392165048,-0.019510076464,-0.256380264014
1588764616895276402,3746,1588764616895177722,,0.922500182828,-4.07754089449,2.3701588843,0.456388511093,-0.0195150767104,-0.2563863879
1588764616898205812,3747,1588764616898085954,,0.968561773134,-4.07780101463,2.39431711716,0.464665710989,-0.0195472507364,-0.265120943408
1588764616904091243,3748,1588764616904005336,,0.968553490971,-4.07778450925,2.39434857781,0.464664847475,-0.0195512400777,-0.265122162682
1588764616907183036,3749,1588764616907084946,,1.01362217315,-4.07827893491,2.46470581418,0.471706489648,-0.0195919656875,-0.272023108231
1588764616910182246,3750,1588764616910098647,,1.01372704377,-4.07821243641,2.46477271478,0.471706278473,-0.019585186511,-0.272023962593
1588764616913205722,3751,1588764616913103538,,1.01399115448,-4.07822706065,2.46463987465,0.473567773113,-0.0202278595726,-0.273843987076
1588764616919131510,3752,1588764616919045518,,1.01337266524,-4.21067962954,2.48853792463,0.476219932151,-0.0195787459317,-0.275617861002
1588764616925344755,3753,1588764616925194901,,1.05910687092,-4.21106280799,2.5356682543,0.484328971735,-0.0202664007465,-0.2834379317
1588764616928330701,3754,1588764616928113357,,1.05894614057,-4.3436702887,2.55901860131,0.487843622342,-0.0209066467995,-0.284340379149
1588764616931208559,3755,1588764616931104482,,1.05899623655,-4.34372744727,2.5589008465,0.487843075021,-0.0208942601758,-0.284342228661
1588764616937180864,3756,1588764616937096082,,1.10464814528,-4.34416838185,2.60602490448,0.492295592596,-0.0215448438098,-0.29127907187
1588764616943365902,3757,1588764616943174934,,1.10436962779,-4.34425043604,2.62914184563,0.496786480524,-0.0215566268021,-0.294905076187
1588764616949207501,3758,1588764616949086910,,1.12762251758,-4.47676016376,2.63005660929,0.505103274501,-0.0222399239628,-0.299224066918
1588764616952224561,3759,1588764616952073636,,1.17251907849,-4.3449526728,2.72310439189,0.520204346256,-0.0222819534954,-0.306051426646
1588764616955257254,3760,1588764616955152932,,1.17248108715,-4.34497276739,2.72308868719,0.520207183513,-0.0222815242896,-0.306046635276
1588764616958232991,3761,1588764616958106826,,1.17238826219,-4.47741755037,2.72351603268,0.523850568686,-0.0222930622814,-0.306007666742
1588764616964284946,3762,1588764616964176439,,1.1710936566,-4.61009631769,2.79358226174,0.533488207703,-0.0223258129315,-0.307724298457
1588764616967310935,3763,1588764616967172444,,1.1707858875,-4.61009938036,2.79370620731,0.533504126968,-0.0223479448861,-0.307695091624
1588764616973261708,3764,1588764616973124530,,1.17073432593,-4.61001872813,2.79386089996,0.537162464165,-0.0223687560989,-0.307646935435
1588764616976233860,3765,1588764616976118584,,1.14679283203,-4.61012700219,2.83973092508,0.545082400807,-0.0230389517668,-0.307704147666
1588764616979585575,3766,1588764616979452460,,1.16984827793,-4.61015874908,2.8403688869,0.545093360784,-0.0223920922763,-0.307535510037
1588764616982562136,3767,1588764616982466709,,1.1690495899,-4.61031946736,2.88671005437,0.547553625568,-0.0224031812921,-0.308417270928
1588764616988274634,3768,1588764616988048735,,1.16910907752,-4.74287456945,2.88690889403,0.550313333804,-0.0223804614599,-0.309300869817
1588764616991347370,3769,1588764616991253549,,1.21383992793,-4.87588478759,2.98094307287,0.55976308764,-0.0224098694214,-0.308893604746
1588764617001054179,3770,1588764617000111118,,1.21346747393,-4.8760166685,3.00401931565,0.563300134452,-0.0223993787408,-0.309747113343
1588764617006285994,3771,1588764617006160957,,1.16605796119,-5.00848431382,3.04996205009,0.570303751088,-0.0237549799715,-0.30997565811
1588764617009246669,3772,1588764617009129211,,1.18884424937,-5.00868904483,3.07351969851,0.579366868875,-0.0231177881111,-0.313360423922
1588764617015224822,3773,1588764617015133259,,1.2114054444,-5.00892421342,3.12040667769,0.59104782333,-0.0237976464595,-0.317640446079
1588764617018203139,3774,1588764617018097270,,1.21132666582,-5.00895532731,3.12038731545,0.591042209564,-0.023812727242,-0.317649761467
1588764617024267237,3775,1588764617024113234,,1.21112845583,-5.00903933416,3.12032940137,0.591961466708,-0.0238302030199,-0.317632972837
1588764617027523378,3776,1588764617027177683,,1.21046133257,-5.00918157003,3.14350829679,0.598189271835,-0.0238905476631,-0.317572042617
1588764617030240805,3777,1588764617030141298,,1.18654103353,-5.00922910792,3.14307956095,0.599994975492,-0.0246329797627,-0.31677501044
1588764617033278807,3778,1588764617033166432,,1.20902241315,-5.1419858863,3.16701919006,0.603532987499,-0.0240154729824,-0.318425961862
1588764617036182127,3779,1588764617036098066,,1.23243715785,-5.14202740043,3.16746251454,0.60724239054,-0.0240044863944,-0.320967785751
1588764617042271506,3780,1588764617042152655,,1.23247944447,-5.14186493288,3.16770979523,0.607247192462,-0.0240087427407,-0.320958382417
1588764617048241019,3781,1588764617048112096,,1.23246354484,-5.14185142325,3.19098367024,0.608947116161,-0.0239830163911,-0.321876499713
1588764617051240724,3782,1588764617051110263,,1.25534006732,-5.27457731308,3.23797594066,0.612358128872,-0.0239378436823,-0.324441229542
1588764617057239604,3783,1588764617057113644,,1.25387021848,-5.14257151722,3.30700375478,0.619236628921,-0.0246745352189,-0.32529222369
1588764617060196226,3784,1588764617060079760,,1.25387958478,-5.14260920783,3.30694159172,0.619246728378,-0.0246554015194,-0.325274448194
1588764617063343692,3785,1588764617063239327,,1.25395162653,-5.14256574645,3.30698186121,0.621989699847,-0.0253230532992,-0.325235921684
1588764617066229895,3786,1588764617066139047,,1.23034737684,-5.27491486837,3.33019491215,0.625516225644,-0.0253053270174,-0.326240710564
1588764617075285828,3787,1588764617075140188,,1.23063734125,-5.27481043864,3.33025318254,0.625514653688,-0.0252786230202,-0.326245794745
1588764617078196725,3788,1588764617078114648,,1.27583573134,-5.27533110795,3.37749228465,0.629808512286,-0.0246751335719,-0.326808383738
1588764617081310700,3789,1588764617081204269,,1.27472731668,-5.27567067269,3.37738041479,0.629802444322,-0.024801754075,-0.326810492742
1588764617084189384,3790,1588764617084091655,,1.29729608226,-5.40824702496,3.40152490875,0.630608739174,-0.0248234238677,-0.328473737335
1588764617087322350,3791,1588764617087188175,,1.27525161187,-5.40785214642,3.35472335169,0.629049006032,-0.0247889628475,-0.327741323024
1588764617093153287,3792,1588764617093068170,,1.27586163778,-5.40768661117,3.35475824376,0.629042770103,-0.0247324212459,-0.327757563158
1588764617096216232,3793,1588764617096117530,,1.29916805542,-5.54005306398,3.35583857007,0.62912876398,-0.0247202997036,-0.331258047759
1588764617099266539,3794,1588764617099145703,,1.32268325344,-5.54003943684,3.35636944015,0.629221328218,-0.0247227570693,-0.335700001351
1588764617108240578,3795,1588764617108087191,,1.32298964303,-5.54002352809,3.35627494137,0.629212871811,-0.0246951553158,-0.335717882692
1588764617111199699,3796,1588764617111124917,,1.32318124061,-5.5400205861,3.35620426666,0.629328375184,-0.0246616091107,-0.340269040744
1588764617117252710,3797,1588764617117099959,,1.32266649531,-5.67279425297,3.33313077913,0.630398421386,-0.0247422724648,-0.341188191863
1588764617123314329,3798,1588764617123187394,,1.36842138821,-5.67316470479,3.38038280073,0.634795346992,-0.0247553690634,-0.346324914206
1588764617129148021,3799,1588764617129066445,,1.36852945973,-5.67315353135,3.38035780213,0.634798139395,-0.0247387819684,-0.346320981097
1588764617132156549,3800,1588764617132082717,,1.41497210353,-5.67327207971,3.40451415455,0.638449321895,-0.024713787405,-0.352358441437
1588764617135219832,3801,1588764617135104116,,1.41531652163,-5.67308476776,3.40468311802,0.638453536847,-0.0246820375453,-0.352353029613
1588764617138228066,3802,1588764617138089481,,1.36900823593,-5.80534473847,3.38101621902,0.637629882065,-0.0253506125715,-0.349916676854
1588764617141329788,3803,1588764617141242066,,1.45977288819,-5.80641939822,3.42874410136,0.638360107522,-0.0241336477174,-0.35385746055
1588764617144266409,3804,1588764617144171178,,1.4594449569,-5.80640520509,3.42890773247,0.638373731558,-0.0241607022513,-0.353831035295
1588764617147123233,3805,1588764617147041998,,1.48268816786,-5.80652702963,3.45246730062,0.640091875919,-0.0241235992867,-0.355482731614
1588764617156191046,3806,1588764617156076174,,1.43658427702,-5.80619588366,3.45164833168,0.641893907912,-0.024077177412,-0.353922804396
1588764617159302406,3807,1588764617159205703,,1.4592514523,-5.80631284049,3.49864419703,0.649034821465,-0.0254084320601,-0.359160504167
1588764617165275727,3808,1588764617165169916,,1.45944217825,-5.80624576742,3.4986759548,0.651823769594,-0.0253912373702,-0.360941045185
1588764617171218056,3809,1588764617171126534,,1.48201956002,-5.93903172346,3.54578299172,0.658003211221,-0.02538648843,-0.364385088662
1588764617177189693,3810,1588764617177079854,,1.43521913707,-6.07131643442,3.5685428546,0.666074065955,-0.0260398211908,-0.364580857883
1588764617180445497,3811,1588764617180290602,,1.38827764726,-6.07126085195,3.59077324882,0.665831434689,-0.026032023408,-0.360309716499
1588764617183488990,3812,1588764617183395318,,1.50221561406,-6.20500943803,3.61601338682,0.670353359579,-0.0248920291414,-0.364994584332
1588764617189250539,3813,1588764617189159954,,1.54805736941,-6.2052086608,3.6404061545,0.673894467529,-0.0242768501359,-0.36647475548
1588764617195253409,3814,1588764617195155835,,1.47853184912,-6.20481074834,3.63918439252,0.677514753416,-0.0249373316478,-0.365051334107
1588764617201422070,3815,1588764617201320664,,1.57174389012,-6.20513334895,3.66411228904,0.685846867925,-0.025579107897,-0.376239752281
1588764617204184529,3816,1588764617204109972,,1.57217787016,-6.20494220007,3.66424980581,0.685849241595,-0.0255387286618,-0.376238168374
1588764617207301625,3817,1588764617207125579,,1.52548281225,-6.20457411162,3.68688140851,0.687581899121,-0.0261928049943,-0.378338769313
1588764617213124186,3818,1588764617213060508,,1.54829223985,-6.2046788637,3.71059976673,0.689306389412,-0.0261921613484,-0.379972988503
1588764617219323735,3819,1588764617219241954,,1.59475109517,-6.33742872967,3.73512097381,0.69291659259,-0.0261617742276,-0.384210182497
1588764617225188076,3820,1588764617225107217,,1.61812327863,-6.33754825527,3.75861573449,0.695589476376,-0.0267863902434,-0.387691510205
1588764617228292283,3821,1588764617228160170,,1.47779039876,-6.33710127615,3.77928045825,0.6961645279,-0.0268071088417,-0.379421464299
1588764617234145488,3822,1588764617234048636,,1.59382479172,-6.47008784168,3.80496732324,0.698800655506,-0.0261311155209,-0.381392257875
1588764617240397035,3823,1588764617240206558,,1.61715182514,-6.33775238483,3.82817602658,0.704169274754,-0.0267853904199,-0.383025437993
1588764617243163955,3824,1588764617243047196,,1.56763121376,-6.47119470652,3.85010514801,0.706755287518,-0.0276831720729,-0.383285518724
1588764617249386990,3825,1588764617249193575,,1.63683806168,-6.47159602451,3.87459821697,0.711313239953,-0.0277285122548,-0.389191501578
1588764617255426318,3826,1588764617255068145,,1.65974221708,-6.47169679486,3.92153162761,0.72313016706,-0.0283975563012,-0.399883310274
1588764617261202215,3827,1588764617261100723,,1.66018811524,-6.47160070204,3.92150146162,0.72312467658,-0.0283555219586,-0.399896221598
1588764617267169119,3828,1588764617267036119,,1.72949528386,-6.60441253576,3.96956637855,0.730282929313,-0.0283280532336,-0.405743094971
1588764617273128798,3829,1588764617273005040,,1.73002530233,-6.60415301954,3.96976717969,0.730277850381,-0.0282912623333,-0.405754803152
1588764617279587039,3830,1588764617279431739,,1.5443380831,-6.6032317824,3.94326718202,0.723748342306,-0.0289095634811,-0.393297501104
1588764617282493839,3831,1588764617282396421,,1.73107436814,-6.73630316898,3.94708679259,0.724692670534,-0.0261954349993,-0.39486130305
1588764617288166584,3832,1588764617288089645,,1.63819404901,-6.73585436624,3.94541655513,0.725582283994,-0.0268357965129,-0.393613995847
1588764617300319785,3833,1588764617300181445,,1.75405768342,-6.73618031255,3.99433562417,0.729993069916,-0.0268404039671,-0.399211736
1588764617306408229,3834,1588764617306305057,,1.68435194458,-6.73593426054,3.99297419081,0.733720220574,-0.027493969775,-0.40234760167
1588764617309155056,3835,1588764617309056524,,1.77335238794,-6.87018976188,4.0407094596,0.739942584086,-0.0284908389186,-0.408078712335
1588764617315162323,3836,1588764617315091392,,1.79590286534,-6.73793252335,4.06404196022,0.743499693914,-0.0285534994078,-0.410620440031
1588764617318473958,3837,1588764617318372454,,1.77320003123,-6.73756793605,4.06381616262,0.745433124382,-0.0291864528736,-0.415340627215
1588764617324511151,3838,1588764617324345572,,1.77359282958,-6.73749234263,4.063770079,0.745433807006,-0.0291414670128,-0.415342560839
1588764617330443830,3839,1588764617330267728,,1.61114731592,-6.86930033036,4.03776129337,0.738889040246,-0.0284175100888,-0.40275127327
1588764617336294559,3840,1588764617336208797,,1.61179263654,-6.86908610185,4.03786819828,0.738878872919,-0.0283705454914,-0.402773236571
1588764617342248522,3841,1588764617342170855,,1.79784482399,-6.86969206062,4.08794231118,0.737676289976,-0.026315284881,-0.402529403508
1588764617348313183,3842,1588764617348215881,,1.72861548167,-7.0018557448,4.06360679786,0.738595565606,-0.0256128384923,-0.396561934435
1588764617360423848,3843,1588764617360320255,,1.7054239364,-6.86905395081,4.10951319475,0.747562551738,-0.0268873748689,-0.402077766155
1588764617363383944,3844,1588764617363238164,,1.70572977427,-6.86896167005,4.10954050865,0.747567555133,-0.0268507079109,-0.402070913796
1588764617369462487,3845,1588764617369356478,,1.72928053083,-7.00147151062,4.110347757,0.753156245695,-0.0268311606437,-0.406421637799
1588764617375295357,3846,1588764617375185816,,1.72936507656,-7.00135979803,4.11050247078,0.75316570321,-0.0268193082948,-0.406404893539
1588764617381550944,3847,1588764617381461642,,1.79856463467,-6.8691529748,4.15790452378,0.759458303058,-0.0275011070259,-0.415021095062
1588764617387576315,3848,1588764617387216471,,1.79510210555,-6.87056553197,4.15706688264,0.759443369637,-0.0278345802768,-0.415026190468
1588764617393305987,3849,1588764617393215640,,1.7949139277,-6.87060319575,4.13395560017,0.759661337073,-0.027895764855,-0.417747812926
1588764617399281531,3850,1588764617399199824,,1.84150493915,-6.87072658059,4.15806099766,0.761396628078,-0.0285405604752,-0.42019084973
1588764617405253424,3851,1588764617405149344,,1.7485530267,-6.87034612664,4.15623865349,0.75956055268,-0.0284921952463,-0.419884526879
1588764617411345421,3852,1588764617411225901,,1.77187021657,-6.87048132118,4.17984768753,0.756447126885,-0.0270991740906,-0.409714371191
1588764617417286830,3853,1588764617417194662,,1.67887983256,-7.00252839886,4.17849391716,0.758115178709,-0.0263994060849,-0.402974435246
1588764617423347744,3854,1588764617423224303,,1.67925574413,-7.00243011872,4.17850756408,0.758107765101,-0.0263710713622,-0.402990237326
1588764617429283610,3855,1588764617429202223,,1.7957679021,-6.87030448268,4.20357312175,0.76542533703,-0.0263518340381,-0.409461716053
1588764617435329760,3856,1588764617435234527,,1.79612025033,-6.8702169804,4.20356559618,0.770991363956,-0.0276715139199,-0.413049369581
1588764617441228790,3857,1588764617441155029,,1.79649090403,-6.87009933094,4.20359948705,0.770988480278,-0.0276378554257,-0.413057005647
1588764617447369093,3858,1588764617447207828,,1.75051305887,-6.86976296499,4.17961215212,0.771180999024,-0.027612178422,-0.415174265481
1588764617453362342,3859,1588764617453232378,,1.82000349509,-6.86997419456,4.22743622437,0.770941790886,-0.0275863398828,-0.417483539707
1588764617459263436,3860,1588764617459174882,,1.8203413639,-6.86986788702,4.22746350911,0.770948148047,-0.0275433472065,-0.417474638817
1588764617465345028,3861,1588764617465202806,,1.79715483762,-6.86965394884,4.22717442765,0.769155798762,-0.0275183335426,-0.418550323414
1588764617471373441,3862,1588764617471158553,,1.82071571548,-6.8695757564,4.22777700425,0.767380439095,-0.0268173267214,-0.420238587663
1588764617477342878,3863,1588764617477227384,,1.84397190491,-6.73700942444,4.25125532559,0.773682646053,-0.026807628723,-0.422754153817
1588764617480474338,3864,1588764617480352353,,1.84413714008,-6.73694881449,4.25127970075,0.773691688604,-0.0267786636039,-0.422739440426
1588764617483719035,3865,1588764617483641194,,1.84418083337,-6.73688641803,4.25135962473,0.774659821602,-0.0267685264993,-0.424535865916
1588764617489295172,3866,1588764617489219430,,1.8410039762,-6.73836267026,4.22726683979,0.776645594965,-0.027138580683,-0.426360396439
1588764617495279714,3867,1588764617495194657,,1.86287300508,-6.73882097753,4.27408108118,0.778218148846,-0.027873750914,-0.42801635794
1588764617501344061,3868,1588764617501256933,,1.86325641214,-6.73878023389,4.27397819258,0.781946226421,-0.0285257400082,-0.431653574176
1588764617507205141,3869,1588764617507118792,,1.88689489429,-6.7388733567,4.27428670365,0.78473636846,-0.0284958105638,-0.434225778576
1588764617513228940,3870,1588764617513133532,,1.88666992874,-6.73888282646,4.29749979132,0.785543979369,-0.0284802222968,-0.436042586264
1588764617519292980,3871,1588764617519109255,,1.91067382539,-6.73869886053,4.27490515561,0.782959136543,-0.0284605988646,-0.436862990658
1588764617525192130,3872,1588764617525078109,,1.88769304629,-6.73849392546,4.27453247318,0.782982361993,-0.0277644759375,-0.437937437416
1588764617531171275,3873,1588764617531053067,,1.81854320345,-6.60557856785,4.2496618742,0.773637064552,-0.0263758326318,-0.422026818219
1588764617537294863,3874,1588764617537198774,,1.72593325132,-6.60507139097,4.22478872218,0.771685905716,-0.0256900162383,-0.409830542447
1588764617543399624,3875,1588764617543272509,,1.72614755123,-6.60496017869,4.22487503771,0.771685749649,-0.0256717287591,-0.409831982244
1588764617549324324,3876,1588764617549234187,,1.84239715959,-6.60533672114,4.25034720091,0.776179539957,-0.0249853753337,-0.412679327164
1588764617555380490,3877,1588764617555279975,,1.81938626741,-6.60509312617,4.25005553475,0.776222469331,-0.0249692009317,-0.414654531283
1588764617561279106,3878,1588764617561207134,,1.81955356473,-6.60498873251,4.25014615188,0.776231471386,-0.024943302786,-0.414639237988
1588764617567413456,3879,1588764617567285299,,1.82061661431,-6.47216869596,4.20364265504,0.77296561968,-0.0255895243298,-0.418324138106
1588764617573111889,3880,1588764617573010390,,1.82077157606,-6.47207389588,4.20372149536,0.772968695087,-0.0255726036771,-0.418319490154
1588764617579642338,3881,1588764617579502993,,1.82055243035,-6.47207037837,4.226948277,0.771977200164,-0.0255460744784,-0.421074179374
1588764617582384775,3882,1588764617582280553,,1.84403888625,-6.47205337958,4.22743341415,0.771139679772,-0.0255214874505,-0.424600551512
1588764617588166319,3883,1588764617588024247,,1.86794997982,-6.33944593275,4.20445865453,0.770415068817,-0.0255039912519,-0.426282819733
1588764617594306868,3884,1588764617594199507,,1.93771945182,-6.33972856173,4.22891979658,0.771276266209,-0.0248083160001,-0.430414216284
1588764617600323422,3885,1588764617600221631,,1.91428115054,-6.20710802964,4.25127365805,0.773001259441,-0.0247870153488,-0.432378708719
1588764617606330138,3886,1588764617606239358,,1.91447133537,-6.2070559209,4.25126409805,0.77299576531,-0.0247718882904,-0.432389397817
1588764617612389068,3887,1588764617612301590,,1.89184751694,-6.20688115252,4.22756437352,0.772241955681,-0.0254251986421,-0.433477975126
1588764617618358382,3888,1588764617618223935,,1.89194158828,-6.20683736001,4.22758657084,0.772245745971,-0.0254100736071,-0.433472109539
1588764617624332680,3889,1588764617624205773,,1.89286430652,-6.20663779214,4.18122813124,0.76794768995,-0.0260513258771,-0.432618866443
1588764617630117133,3890,1588764617630026448,,1.89297908471,-6.20654966349,4.18130698594,0.767947683463,-0.0260433248048,-0.432619359691
1588764617633388074,3891,1588764617633275085,,1.89396270874,-6.07385397778,4.13453595697,0.761824415705,-0.0253579221228,-0.43178847499
1588764617639365438,3892,1588764617639222204,,1.89412725835,-6.07382105027,4.13450894828,0.761820330846,-0.0253423043902,-0.43179659891
1588764617645479098,3893,1588764617645298502,,1.91790368519,-5.94129447301,4.11146816587,0.754642996858,-0.0239747864602,-0.430817247005
1588764617651397375,3894,1588764617651294859,,1.917950964,-5.94122537079,4.11154596628,0.754644657863,-0.0239722495955,-0.430814478653
1588764617657342705,3895,1588764617657245690,,1.89499269018,-5.94109542767,4.08793484991,0.750213577356,-0.0239741846841,-0.430102533988
1588764617663326285,3896,1588764617663237424,,1.86833071549,-5.94273671356,4.06329130784,0.746584462532,-0.0243686256896,-0.425725730362
1588764617669420891,3897,1588764617669263196,,1.86785188197,-5.94292080206,4.063242209,0.746577334213,-0.0244327806417,-0.425734553886
1588764617675344538,3898,1588764617675230700,,1.86837183475,-5.94279067292,4.04007539186,0.743061431341,-0.0250909739637,-0.425791861816
1588764617681474010,3899,1588764617681402863,,1.86903907397,-5.94270938958,4.01676860886,0.740420841334,-0.0243842922661,-0.42401850989
1588764617687820459,3900,1588764617687259326,,1.86919305498,-5.94270847148,4.01669831484,0.740415733406,-0.0243683501822,-0.424028345696
1588764617693424235,3901,1588764617693259913,,1.84656939131,-5.81000856899,3.99279052391,0.736856188003,-0.0243545496384,-0.421477129039
1588764617699380501,3902,1588764617699259749,,1.84717703189,-5.80988392842,3.96947366193,0.731497733482,-0.0243152599588,-0.420638659055
1588764617705375452,3903,1588764617705293483,,1.82513229038,-5.67709119947,3.92231476998,0.723511321113,-0.0242648624094,-0.41814909863
1588764617711080013,3904,1588764617711020790,,1.82522610221,-5.67704770194,3.92233407361,0.723508686642,-0.0242587555162,-0.418154011275
1588764617717405629,3905,1588764617717310004,,1.80252276175,-5.67680033287,3.89860507967,0.720852355911,-0.0235658543471,-0.415602251611
1588764617723349236,3906,1588764617723237185,,1.80353200933,-5.5440379234,3.87517404827,0.717345662193,-0.0235013992237,-0.41564848544
1588764617729378164,3907,1588764617729287296,,1.80424537743,-5.41139227631,3.85171042337,0.713797298474,-0.0234684684276,-0.413857940049
1588764617735265032,3908,1588764617735179780,,1.80475546832,-5.41124516157,3.8285642263,0.711185167302,-0.0234506449455,-0.412980517846
1588764617741411354,3909,1588764617741319581,,1.78191362924,-5.14622651984,3.82740873303,0.705697050797,-0.0227389872819,-0.412284845538
1588764617747476362,3910,1588764617747263743,,1.78216208477,-5.1460901726,3.82747637803,0.705696811812,-0.0227124142745,-0.412286719338
1588764617753280962,3911,1588764617753118400,,1.7831091106,-5.14587751899,3.78099453848,0.698652822564,-0.0233500308759,-0.411471338137
1588764617759302606,3912,1588764617759203830,,1.80692566008,-5.01344211104,3.75787036464,0.692432194763,-0.0226493187939,-0.412318610848
1588764617765416134,3913,1588764617765273671,,1.76101494992,-4.88073279644,3.7333943984,0.688862861945,-0.0226211347345,-0.409916666692
1588764617771262307,3914,1588764617771177581,,1.7387517465,-4.74805142162,3.68608889399,0.683617258828,-0.0225930900931,-0.407396643959
1588764617777261005,3915,1588764617777162483,,1.73930294415,-4.61559085928,3.66247013689,0.675478877307,-0.0218913411452,-0.404759695389
1588764617780581405,3916,1588764617780502010,,1.73943046535,-4.61554591519,3.66246621504,0.675475097431,-0.0218794863426,-0.404766644308
1588764617783519399,3917,1588764617783393228,,1.71626498874,-4.48308695065,3.66159065537,0.672747842849,-0.0225264267716,-0.404943520904
1588764617789195904,3918,1588764617789098095,,1.74003426967,-4.48302719437,3.63890103831,0.672000733966,-0.0218466410996,-0.40572150343
1588764617795150986,3919,1588764617795089139,,1.71753707718,-4.21811042923,3.59117074478,0.663955877229,-0.0218254284994,-0.400477374789
1588764617801294465,3920,1588764617801231431,,1.71758178069,-4.21803501577,3.59123794188,0.663960591992,-0.0218169788992,-0.400470018437
1588764617807533226,3921,1588764617807433849,,1.69512803104,-3.95321798898,3.54355753076,0.656893885813,-0.0204660901276,-0.397949379593
1588764617813445602,3922,1588764617813324272,,1.69513735328,-3.95315191995,3.54362677706,0.656898157608,-0.0204638063573,-0.397942445515
1588764617819326840,3923,1588764617819239619,,1.67226354882,-3.95289722238,3.51993894645,0.65336022837,-0.0204498429607,-0.396303828004
1588764617825409268,3924,1588764617825307800,,1.67298523831,-3.82044498725,3.47316518144,0.64718507965,-0.019763607712,-0.392712858492
1588764617831367695,3925,1588764617831249669,,1.67297884616,-3.82041927416,3.47319654436,0.647187782947,-0.0197628482902,-0.392708441681
1588764617837365305,3926,1588764617837277228,,1.64977139971,-3.68810568001,3.47227899435,0.645349267875,-0.0197563405317,-0.391961066243
1588764617843397145,3927,1588764617843249834,,1.67295581512,-3.55603329359,3.47225072783,0.642588388637,-0.0190740874102,-0.390921311988
1588764617849341402,3928,1588764617849250250,,1.67325229474,-3.29171919705,3.44796378675,0.638220103673,-0.0190628851767,-0.392801779828
1588764617855440156,3929,1588764617855293752,,1.67324827456,-3.29171054425,3.44797399836,0.63821927144,-0.0190665846597,-0.392802952474
1588764617861669736,3930,1588764617861586922,,1.69612404916,-3.15985629706,3.47121843408,0.635430760162,-0.0197270879692,-0.396341978964
1588764617867449716,3931,1588764617867286337,,1.69613920222,-3.15983295113,3.47123228162,0.635430276346,-0.0197270379604,-0.396342757124
1588764617873289708,3932,1588764617873201396,,1.7196419954,-3.02782305488,3.44790074811,0.633809784893,-0.0190494795801,-0.398947334545
1588764617879366810,3933,1588764617879220708,,1.71959966481,-2.8958492588,3.4473763442,0.633852087088,-0.0197223442407,-0.400781282216
1588764617885301882,3934,1588764617885217721,,1.74288595294,-2.89592581616,3.44787583125,0.632093787681,-0.0197165047333,-0.403390965757
1588764617891435742,3935,1588764617891327417,,1.76627186132,-2.63212145516,3.42413574637,0.6314592231,-0.0203895898715,-0.40873668717
1588764617897229081,3936,1588764617897146206,,1.76625110511,-2.63211256298,3.42415328832,0.63146154037,-0.0203910550325,-0.408733034094
1588764617903252490,3937,1588764617903161824,,1.78985350309,-2.63206500799,3.40150791603,0.629824417915,-0.0210586209675,-0.410425117876
1588764617909421625,3938,1588764617909326199,,1.78947229274,-2.63214978501,3.42472336751,0.630615729107,-0.0210642443794,-0.411321738803
1588764617915376446,3939,1588764617915254038,,1.81292058586,-2.50029516492,3.40152519295,0.629011361043,-0.020388466043,-0.413933827588
1588764617921675333,3940,1588764617921571316,,1.81279919183,-2.36850525799,3.40103297046,0.629039897144,-0.0203909142457,-0.414835411783
1588764617927871805,3941,1588764617927500702,,1.81278950548,-2.36847914185,3.40105632071,0.62904276927,-0.0203894523978,-0.414831128427
1588764617933334383,3942,1588764617933248414,,1.78961173169,-2.36835724965,3.40057388264,0.627226007082,-0.0203819855269,-0.414996589904
1588764617939403378,3943,1588764617939288602,,1.76588857013,-2.23662960741,3.42275688874,0.625151574271,-0.0203787991041,-0.410587381175
1588764617945427456,3944,1588764617945320499,,1.76586666805,-2.2366077088,3.42278249818,0.625154139818,-0.0203816050637,-0.410583335621
1588764617951458198,3945,1588764617951298556,,1.74260536548,-2.10483768028,3.42176775789,0.62327361514,-0.0203753017734,-0.408010324859
1588764617957487646,3946,1588764617957356792,,1.74293678087,-2.10472743527,3.39858221472,0.623325926639,-0.0203759860348,-0.404352222778
1588764617963497788,3947,1588764617963348088,,1.6964338278,-1.97294244048,3.39703343354,0.621402678406,-0.0190280496523,-0.400094950656
1588764617969417379,3948,1588764617969309218,,1.69644671758,-1.97293378705,3.3970320223,0.621403342627,-0.0190219399254,-0.400094209552
1588764617975412781,3949,1588764617975251039,,1.6964242655,-1.97296625397,3.39702437823,0.621316783435,-0.019019354193,-0.396435884906
1588764617981528914,3950,1588764617981454920,,1.67344327608,-1.97282699937,3.37330962353,0.62049526165,-0.0183465680837,-0.393834718935
1588764617984691561,3951,1588764617984553746,,1.67306547583,-1.84146708456,3.3959347567,0.623064025868,-0.0183320342701,-0.392889321026
1588764617990551038,3952,1588764617990421542,,1.6730505158,-1.84151088525,3.39591837546,0.623938844503,-0.0176568266789,-0.391042823824
1588764617996389216,3953,1588764617996278036,,1.64987377045,-1.84145564757,3.3953945119,0.62478456195,-0.0176514195121,-0.388441815123
1588764618002401166,3954,1588764618002293770,,1.64984704319,-1.70994883827,3.39489283844,0.625702338657,-0.0169771688564,-0.388429962803
1588764618008360424,3955,1588764618008263427,,1.64987406205,-1.70997270581,3.39486768588,0.62567572803,-0.0176460644368,-0.387514687781
1588764618020450809,3956,1588764618020329627,,1.64961490964,-1.44724641283,3.41708432092,0.631941611263,-0.0183252530298,-0.389291163445
1588764618026543448,3957,1588764618026359106,,1.67282695489,-1.44736806655,3.41756283669,0.634717311392,-0.0176515624671,-0.390942150918
1588764618032477871,3958,1588764618032376019,,1.67252994734,-1.44747148357,3.44075847489,0.637370972611,-0.0176488968668,-0.393656697515
1588764618038455041,3959,1588764618038267163,,1.67253407802,-1.31611953265,3.4403418937,0.639214269085,-0.0183236852256,-0.3945471048
1588764618044366114,3960,1588764618044245729,,1.69552586417,-1.1849825411,3.46378643224,0.641844567676,-0.0183213230543,-0.396209307975
1588764618050192412,3961,1588764618050097960,,1.69585234628,-1.18492374808,3.44045452886,0.644751108897,-0.0183276049847,-0.397088746547
1588764618056216245,3962,1588764618056088229,,1.71870230661,-1.18509408923,3.46429319928,0.647404729259,-0.0183338548715,-0.399645822311
1588764618062461966,3963,1588764618062346066,,1.71875006831,-1.05380062287,3.46395490783,0.651049476968,-0.0183407685445,-0.399603515561
1588764618068403892,3964,1588764618068309000,,1.7184626626,-1.05388002518,3.48716397227,0.654572280267,-0.0190154900333,-0.400488348248
1588764618080958720,3965,1588764618080860673,,1.71850757842,-0.922652474628,3.48686860344,0.660935362009,-0.0190421570121,-0.399489948075
1588764618083750971,3966,1588764618083649769,,1.69541428795,-0.791354199955,3.48609096314,0.664522309333,-0.0183932554523,-0.396855323553
1588764618089425139,3967,1588764618089303504,,1.69542164794,-0.791344864744,3.48608950281,0.666343718524,-0.0184070804722,-0.396835714492
1588764618095407832,3968,1588764618095312586,,1.69523220967,-0.660214188009,3.50910006308,0.66982739234,-0.0177493080213,-0.39588388155
1588764618101620901,3969,1588764618101541686,,1.69474234381,-0.52912839102,3.555507476,0.677729378084,-0.0177699099476,-0.394863227848
1588764618107622224,3970,1588764618107288290,,1.67133048839,-0.397938982448,3.5780959427,0.681173581397,-0.0184591998088,-0.392229240843
1588764618113446773,3971,1588764618113349910,,1.67131209064,-0.397942639947,3.57810412947,0.681175133775,-0.0184652641233,-0.392226259409
1588764618119451803,3972,1588764618119326509,,1.64815460118,-0.397900437716,3.57757112806,0.682043146114,-0.0177992969523,-0.39053895227
1588764618125552403,3973,1588764618125400646,,1.6254639867,-0.266665181013,3.55373672469,0.687670046354,-0.0184897960645,-0.390610955708
1588764618131321082,3974,1588764618131233396,,1.62546536206,-0.266655694635,3.55373680743,0.687669503737,-0.018497932742,-0.390611525743
1588764618137492364,3975,1588764618137397476,,1.6482186585,-0.135617719383,3.60072972291,0.695608842952,-0.0185196429229,-0.391277131849
1588764618143509671,3976,1588764618143336668,,1.64821201625,-0.135628078342,3.60073237319,0.695609189123,-0.0185283951816,-0.391276102076
1588764618149360098,3977,1588764618149234893,,1.64874110004,-0.00447727071999,3.57751983757,0.696753808676,-0.0185317682123,-0.394915956873
1588764618155561530,3978,1588764618155450425,,1.64875893999,-0.00448299218322,3.57751160861,0.696751672967,-0.0185388196322,-0.394919393946
1588764618161725936,3979,1588764618161610469,,1.67216745343,0.126608888785,3.57812382402,0.696770370169,-0.0185413265494,-0.395682946512
1588764618167576008,3980,1588764618167332183,,1.71827599861,0.25769413209,3.62588952387,0.702074333275,-0.0185571593091,-0.400809417273
1588764618173409525,3981,1588764618173225918,,1.71828828038,0.257663021476,3.62588591454,0.702073052633,-0.0185606406787,-0.400811499291
1588764618179509086,3982,1588764618179347096,,1.71830400324,0.38884306813,3.64929039875,0.704713522533,-0.0192303839236,-0.402614790615
1588764618185463245,3983,1588764618185364244,,1.76506712994,0.519998470456,3.65056391925,0.707544308501,-0.0192413507189,-0.406848403586
1588764618191479244,3984,1588764618191338961,,1.76573107736,0.651162062029,3.62758923479,0.710521613754,-0.0192508326409,-0.410477973316
1588764618197360487,3985,1588764618197209690,,1.76579954643,0.782449475474,3.65112020935,0.713175712458,-0.0192609988026,-0.413180259743
1588764618203378334,3986,1588764618203226247,,1.81266347016,0.913662921296,3.65250461898,0.717838029303,-0.0192740127433,-0.417405431057
1588764618209341396,3987,1588764618209259595,,1.81276231886,1.04501703222,3.67610783104,0.722294647778,-0.0199588932598,-0.419181877122
1588764618215443192,3988,1588764618215331833,,1.81280061126,1.04499977719,3.67609385316,0.725961739657,-0.0193008941377,-0.42005239092
1588764618221651014,3989,1588764618221513268,,1.83621864279,1.17638370626,3.70023530212,0.732235583329,-0.0199879624173,-0.421658282107
1588764618227698749,3990,1588764618227570294,,1.81318657049,1.43935595348,3.74715707386,0.742021105442,-0.0206857516412,-0.422594930795
1588764618233515103,3991,1588764618233326251,,1.81320380429,1.43934159479,3.7471542501,0.742020141829,-0.020690681065,-0.422596381448
1588764618239532169,3992,1588764618239373961,,1.83665978872,1.57087041594,3.77135647059,0.748317085645,-0.0207108778126,-0.425112422636
1588764618245470629,3993,1588764618245372680,,1.83799977,1.83388354941,3.74914817475,0.752154945732,-0.0207225524782,-0.426903703432
1588764618251609631,3994,1588764618251453487,,1.86073235932,1.96570769434,3.81990232286,0.757297033454,-0.0207387348323,-0.431269158346
1588764618257506411,3995,1588764618257387955,,1.907744983,2.09735290493,3.82143494302,0.763731137861,-0.0207528535573,-0.433637468456
1588764618263414562,3996,1588764618263300038,,1.88466802942,2.22912496383,3.8446806241,0.769103994006,-0.021439836477,-0.435552952961
1588764618269421720,3997,1588764618269332916,,1.95624675941,2.75643555811,3.87159492775,0.781917765217,-0.0221335665016,-0.443192595513
1588764618275419328,3998,1588764618275273668,,1.95628648648,2.7563935597,3.87160475529,0.781916364694,-0.0221395481915,-0.443194767653
1588764618281843841,3999,1588764618281745013,,1.95687889349,2.88828447664,3.87215814901,0.788385100038,-0.0221559354788,-0.446780265472
1588764618287415470,4000,1588764618287295609,,1.98031514342,3.02027839701,3.89640363619,0.794681044926,-0.0221732407914,-0.449295016486
1588764618293331935,4001,1588764618293235367,,2.00474314762,3.28424582404,3.89801705144,0.799365096912,-0.0221856050762,-0.454593115972
1588764618299439514,4002,1588764618299292019,,2.05275952179,3.94500115981,3.97140243737,0.812800951009,-0.0235604663708,-0.462363613203
1588764618305386600,4003,1588764618305289368,,2.05281037466,3.94496866775,3.97140842787,0.812798532255,-0.0235651362673,-0.462367627184
1588764618311472831,4004,1588764618311385359,,2.14592322238,4.20952417663,4.04401065818,0.828092942425,-0.0242600108241,-0.471656039281
1588764618317483029,4005,1588764618317378483,,2.14596299142,4.20948854028,4.04402664954,0.828090635754,-0.0242612421016,-0.471660025778
1588764618323557233,4006,1588764618323451444,,2.16987377363,4.47404432866,4.06876577457,0.832678131093,-0.0256197591457,-0.478759289796
1588764618329437162,4007,1588764618329309036,,2.19312032156,4.60636286515,4.09311443307,0.840906569353,-0.0263065295844,-0.484870551089
1588764618335580438,4008,1588764618335454842,,2.19363903498,4.73862183638,4.0936615829,0.84643419559,-0.0269946834339,-0.486627603196
1588764618341315047,4009,1588764618341223289,,2.23996871527,4.87104532111,4.14146054825,0.853539617228,-0.0276850307154,-0.490814260754
1588764618347643351,4010,1588764618347545582,,2.26388493963,5.26821261032,4.18988554179,0.866183259981,-0.0290492703927,-0.496884149891
1588764618353473218,4011,1588764618353280681,,2.26387188698,5.26818572998,4.1899263925,0.866190875276,-0.0290576395744,-0.496870385077
1588764618359497025,4012,1588764618359401234,,2.24023690526,5.26822682293,4.21270161807,0.86970772362,-0.0290701138982,-0.496971988645
1588764618365509815,4013,1588764618365342142,,2.2398583544,5.26827458663,4.23590375958,0.870455401254,-0.028409668865,-0.496037590733
1588764618371613175,4014,1588764618371443727,,2.21611518881,5.13591828121,4.23497142552,0.870356493216,-0.0284120700504,-0.491608650969
1588764618377482912,4015,1588764618377381295,,2.21611730943,5.13587977907,4.23501700847,0.869318319541,-0.0277363097432,-0.486131300557
1588764618383732456,4016,1588764618383623766,,2.14651049553,5.13585197531,4.21049176582,0.867493547132,-0.0277306085088,-0.47925749016
1588764618389476481,4017,1588764618389385150,,2.12359472454,5.1357829837,4.18690023969,0.869366710067,-0.0277341011722,-0.474791742285
1588764618395475308,4018,1588764618395329972,,2.12356543981,5.13578277427,4.18691534967,0.869369737062,-0.0277334892637,-0.474786235413
1588764618401573553,4019,1588764618401495184,,2.12344120516,5.13579100481,4.18696826237,0.873906034467,-0.0290764325497,-0.47287813013
1588764618407688370,4020,1588764618407610638,,2.1233958264,5.13579719674,4.18698368104,0.873910748527,-0.0290763010881,-0.472869426254
1588764618413382270,4021,1588764618413300077,,2.12299130634,5.13585328196,4.21019000169,0.87928658411,-0.02908256654,-0.47462273617
1588764618419425404,4022,1588764618419279164,,2.1462718388,5.26826994569,4.23435831268,0.882860486763,-0.0290855577263,-0.477165963049
1588764618425437637,4023,1588764618425365406,,2.16880073458,5.26835455955,4.28134586177,0.889975660613,-0.0304455139001,-0.481491523684
1588764618431520728,4024,1588764618431348252,,2.16885430886,5.2683275402,4.28135197053,0.889975952141,-0.0304552187047,-0.481490371081
1588764618437513762,4025,1588764618437434462,,2.21426971977,5.26848207739,4.35184852711,0.901551563941,-0.0304776765504,-0.487440630532
1588764618443496800,4026,1588764618443343542,,2.21422330179,5.26848096856,4.35187348716,0.901556384957,-0.0304767756891,-0.487431769986
1588764618449471828,4027,1588764618449356248,,2.26048636642,5.40095455165,4.39971137674,0.911485630095,-0.031165636035,-0.495246506792
1588764618455480479,4028,1588764618455383677,,2.26055863122,5.40097702434,4.39964666055,0.911480355664,-0.0311739471026,-0.495255691022
1588764618461547225,4029,1588764618461459773,,2.23787139767,5.53336618852,4.39964081877,0.916994187483,-0.0318651104832,-0.497172499781
1588764618467317193,4030,1588764618467225243,,2.30659490714,5.53351095456,4.47064776188,0.931350872738,-0.0325763104706,-0.504777068502
1588764618473276215,4031,1588764618473197458,,2.30655741278,5.53350589596,4.4706733678,0.931355309493,-0.0325761485386,-0.504768892728
1588764618479368789,4032,1588764618479249576,,2.28379505137,5.66590923887,4.47069265807,0.935012222585,-0.0319143056104,-0.504861618765
1588764618485279434,4033,1588764618485200781,,2.28326514968,5.53350592203,4.47025802303,0.939543645577,-0.032596349117,-0.502953833761
1588764618491254307,4034,1588764618491169958,,2.28331516302,5.6659848835,4.49390949704,0.943023877248,-0.0325974827407,-0.501992284563
1588764618497553617,4035,1588764618497447006,,2.28284358538,5.66606667861,4.51711470902,0.949263731207,-0.0319320048826,-0.500982612955
1588764618503529100,4036,1588764618503390465,,2.28282181714,5.66606484533,4.5171280097,0.949262454148,-0.0319243602279,-0.500985519922
1588764618509489567,4037,1588764618509409585,,2.30600657259,5.7985392705,4.54138270891,0.9564543916,-0.0326031312715,-0.501631916189
1588764618515624937,4038,1588764618515448187,,2.30593076302,5.79854043935,4.54141971002,0.956459401054,-0.0325965574622,-0.501622791843
1588764618521440787,4039,1588764618521364062,,2.30561914396,5.79858298542,4.56459185427,0.963713266652,-0.0332750436336,-0.506113989857
1588764618530342255,4040,1588764618530255517,,2.35178794111,5.93109972192,4.61238848415,0.982871692992,-0.0339773384089,-0.517442626298
1588764618536462125,4041,1588764618536360647,,2.35195395859,5.93107427105,4.61233655841,0.982859604231,-0.0339873892473,-0.517464927953
1588764618542488546,4042,1588764618542375183,,2.37464947966,5.93113874909,4.65925798734,0.990851099123,-0.035362980292,-0.52088503415
1588764618548442430,4043,1588764618548322577,,2.42030947509,5.93120033206,4.70661521026,0.999864735181,-0.0347075339336,-0.527773359422
1588764618557450769,4044,1588764618557357329,,2.4659744893,5.93133315785,4.77710142626,1.01418453589,-0.0354382123043,-0.534618971607
1588764618563721702,4045,1588764618563542520,,2.4655360736,6.06389201426,4.82406862278,1.01767208699,-0.0361152431971,-0.539130361049
1588764618569675308,4046,1588764618569485959,,2.4655698951,6.06390364368,4.82403671842,1.01766959157,-0.0361191319155,-0.539134810921
1588764618575732930,4047,1588764618575642096,,2.48862389285,6.06396716553,4.84761343831,1.0275827442,-0.035493619061,-0.539765638247
1588764618581747586,4048,1588764618581650343,,2.48864228168,6.06396722085,4.84760392878,1.02758481012,-0.0355020146727,-0.539761153068
1588764618587821459,4049,1588764618587470289,,2.53421937441,6.06407141346,4.91817391908,1.040046963,-0.0348685157077,-0.544795085572
1588764618593594264,4050,1588764618593383524,,2.53417484717,6.06406763525,4.91820152115,1.04005209878,-0.0348685191899,-0.54478528071
1588764618599417998,4051,1588764618599320262,,2.53388135034,6.0641037861,4.94137471681,1.05002950176,-0.0355669518218,-0.548324346879
1588764618605470012,4052,1588764618605330872,,2.53396743906,6.06409557957,4.94134064174,1.0500262634,-0.0355792304991,-0.548329751644
1588764618611477555,4053,1588764618611368410,,2.53368388607,6.06409450259,4.96455514243,1.05812341701,-0.0356069077186,-0.549135115032
1588764618617548851,4054,1588764618617418261,,2.57961967958,6.06410874216,5.01198628961,1.06520700905,-0.035623229803,-0.552419961075
1588764618623471337,4055,1588764618623383600,,2.60282970624,6.06410150528,5.01245259525,1.07074845403,-0.0356360620616,-0.554922458017
1588764618629514999,4056,1588764618629425908,,2.64881332233,6.32924858441,5.10710950861,1.08132885371,-0.0356552595858,-0.563648193213
1588764618635568984,4057,1588764618635344405,,2.64892831414,6.32920378234,5.10710538964,1.08131746523,-0.0356530148118,-0.563670182853
1588764618641481694,4058,1588764618641372716,,2.67157097992,6.46172443345,5.17771128231,1.09925350466,-0.0350211757649,-0.567852102584
1588764618647703089,4059,1588764618647610195,,2.67147049148,6.46167881252,5.17782006395,1.09924711404,-0.0349801890068,-0.567866999676
1588764618653485689,4060,1588764618653364850,,2.6935473507,6.32926959502,5.22434715832,1.10810310423,-0.0356594658426,-0.568509079108
1588764618659646206,4061,1588764618659548218,,2.69355234359,6.46167258599,5.24811304023,1.11254893197,-0.0349803637472,-0.569349914075
1588764618665515007,4062,1588764618665393517,,2.66922868465,6.32927483834,5.27063079,1.12425398573,-0.0343079089236,-0.567494299898
1588764618671581200,4063,1588764618671421542,,2.6690601668,6.32923647822,5.27076219379,1.12425851408,-0.0342740794097,-0.567487372954
1588764618677523749,4064,1588764618677398480,,2.66909808582,6.4617666333,5.29435559085,1.12861533122,-0.0342735445835,-0.564680992377
1588764618683820455,4065,1588764618683718838,,2.64576166455,6.46180379519,5.2939178799,1.13311822506,-0.0336091596883,-0.561083792689
1588764618689533845,4066,1588764618689417387,,2.62235995823,6.32936463843,5.26978380498,1.13498302067,-0.0336281716816,-0.555700661589
