%time,field.header.seq,field.header.stamp,field.header.frame_id,field.vector.x,field.vector.y,field.vector.z
1588764616379312007,3623,1588764616379163389,,0.499965617657,-0.195448927985,0.228072369271
1588764616382246263,3624,1588764616382086597,,0.499963171962,-0.195371853726,0.228016082451
1588764616384945678,3625,1588764616384818813,,0.499961353063,-0.195283019409,0.227953853645
1588764616390943446,3626,1588764616390785671,,0.499960462744,-0.195207755296,0.227898379037
1588764616396918416,3627,1588764616396754897,,0.499957886312,-0.195048418334,0.227783038976
1588764616402831226,3628,1588764616402720432,,0.499958095286,-0.194974805624,0.227731231364
1588764616405848197,3629,1588764616405740406,,0.499957801587,-0.194895601021,0.227672498968
1588764616408901314,3630,1588764616408746738,,0.499957956785,-0.194813753865,0.227613003255
1588764616414928528,3631,1588764616414833154,,0.499959173536,-0.194732402534,0.227556312387
1588764616420928942,3632,1588764616420788377,,0.499958289958,-0.194650315978,0.227494693289
1588764616427104367,3633,1588764616426831745,,0.499959554344,-0.194567484587,0.227437628861
1588764616430084652,3634,1588764616429901680,,0.49995971782,-0.194502887173,0.227389640744
1588764616433058113,3635,1588764616432876091,,0.499959603012,-0.194417834339,0.227327088832
1588764616436091794,3636,1588764616435810496,,0.499958795121,-0.194321309461,0.227259240303
1588764616438974130,3637,1588764616438865531,,0.499958831658,-0.194255422021,0.227210670191
1588764616441857357,3638,1588764616441761649,,0.499958648184,-0.194169482411,0.227149591133
1588764616447881319,3639,1588764616447747675,,0.499957977808,-0.19406894863,0.227080861576
1588764616450875286,3640,1588764616450774396,,0.49995815119,-0.193987251023,0.227023261397
1588764616454169313,3641,1588764616453819443,,0.499957133629,-0.193902618082,0.226962336536
1588764616459903296,3642,1588764616459797324,,0.499955482784,-0.193818530907,0.226899113108
1588764616462937179,3643,1588764616462793153,,0.499956357429,-0.193733934688,0.226842076733
1588764616466000588,3644,1588764616465849384,,0.499955403121,-0.193648141292,0.22677947717
1588764616472017056,3645,1588764616471871479,,0.499956347778,-0.193554654561,0.226715425423
1588764616474951243,3646,1588764616474813616,,0.499957153185,-0.193464799153,0.226654938221
1588764616477966104,3647,1588764616477792049,,0.49995752018,-0.193370272392,0.226587550086
1588764616483907484,3648,1588764616483808176,,0.499960367802,-0.193269364727,0.226523150072
1588764616486943633,3649,1588764616486833646,,0.499959845295,-0.193177122115,0.22645675448
1588764616492979631,3650,1588764616492794814,,0.499959842476,-0.193078997973,0.226389790383
1588764616495925846,3651,1588764616495811197,,0.499960050224,-0.192980896249,0.22632098654
1588764616498941287,3652,1588764616498802609,,0.49995894069,-0.192884902443,0.226250359762
1588764616501931924,3653,1588764616501814884,,0.499959056491,-0.1927865203,0.226180005664
1588764616507921986,3654,1588764616507828642,,0.499957921957,-0.192685717349,0.226104883738
1588764616511039644,3655,1588764616510923844,,0.499957689573,-0.192587340988,0.22603158394
1588764616516954039,3656,1588764616516775836,,0.499958284009,-0.192487998467,0.225959291589
1588764616522992439,3657,1588764616522824407,,0.499959197233,-0.192387711251,0.225883476701
1588764616525863606,3658,1588764616525759331,,0.499959388983,-0.192286854055,0.225808611889
1588764616528929274,3659,1588764616528809667,,0.499959211566,-0.192189599974,0.225735297196
1588764616531860949,3660,1588764616531760310,,0.499960874611,-0.192086578999,0.225664856934
1588764616534969515,3661,1588764616534812589,,0.499959041713,-0.191988189185,0.225592400263
1588764616540925959,3662,1588764616540731340,,0.499959031355,-0.191891561186,0.225522199423
1588764616543823595,3663,1588764616543732111,,0.499957271182,-0.191790803638,0.225453843732
1588764616546910942,3664,1588764616546763642,,0.499956025537,-0.191690436768,0.225386911408
1588764616552899398,3665,1588764616552788492,,0.499955523147,-0.191589351534,0.22532044199
1588764616555972997,3666,1588764616555806844,,0.49995527625,-0.191490719535,0.225256291854
1588764616558876922,3667,1588764616558758420,,0.499957295603,-0.191386277194,0.225191431719
1588764616564990706,3668,1588764616564808428,,0.499958873517,-0.191287250406,0.225127985817
1588764616567960090,3669,1588764616567804072,,0.499958849149,-0.191181302231,0.22505862063
1588764616570896920,3670,1588764616570798980,,0.49996047711,-0.191076039876,0.224991529252
1588764616577027490,3671,1588764616576895820,,0.499961230335,-0.190968410281,0.224922096823
1588764616580182473,3672,1588764616580028526,,0.499958718627,-0.190859934075,0.224845904781
1588764616583209455,3673,1588764616583132420,,0.499959750395,-0.19074879112,0.22477075737
1588764616588863058,3674,1588764616588743810,,0.499960161792,-0.190638277247,0.224693682966
1588764616591824196,3675,1588764616591743515,,0.499956477859,-0.190529186703,0.224609075597
1588764616594897128,3676,1588764616594800161,,0.499956276577,-0.190421349489,0.224528316838
1588764616600915042,3677,1588764616600806121,,0.499954834416,-0.190313049261,0.224446448264
1588764616603979083,3678,1588764616603815627,,0.499953630758,-0.190208894808,0.224367512004
1588764616606893864,3679,1588764616606813471,,0.499952223047,-0.190100828049,0.224289207334
1588764616613083804,3680,1588764616612891679,,0.499951159932,-0.189996470828,0.224208998626
1588764616615896992,3681,1588764616615803905,,0.499951659168,-0.18989046697,0.224135154726
1588764616618935511,3682,1588764616618806009,,0.49995016988,-0.189789644825,0.224057943081
1588764616625035517,3683,1588764616624850100,,0.49995072227,-0.189681503514,0.223982074873
1588764616627962782,3684,1588764616627823196,,0.499951731276,-0.189576382185,0.223909977244
1588764616637017650,3685,1588764616636839158,,0.499952991237,-0.189359265831,0.223762869596
1588764616639954519,3686,1588764616639845420,,0.499953212629,-0.189247516668,0.223686352874
1588764616642913614,3687,1588764616642813223,,0.499953646882,-0.189135342093,0.223608599588
1588764616648967089,3688,1588764616648821881,,0.499952318525,-0.189023936458,0.22352903728
1588764616651963428,3689,1588764616651870776,,0.499951097054,-0.18890534707,0.223444395231
1588764616657962330,3690,1588764616657820248,,0.499950922066,-0.188791293108,0.223361128938
1588764616661045105,3691,1588764616660861365,,0.49994802501,-0.188681590747,0.223277180245
1588764616663946062,3692,1588764616663811556,,0.49995133537,-0.188584260807,0.223210412944
1588764616666942668,3693,1588764616666826696,,0.499950660844,-0.188468893048,0.223127126614
1588764616673047710,3694,1588764616672885404,,0.499950197172,-0.188344636833,0.223038139904
1588764616675925226,3695,1588764616675823227,,0.499953243321,-0.188257906602,0.222978382327
1588764616682314383,3696,1588764616682171162,,0.499952318122,-0.188152622323,0.222906728728
1588764616684878661,3697,1588764616684800018,,0.499950106033,-0.188037544475,0.222832125935
1588764616687919427,3698,1588764616687800240,,0.499949835099,-0.187940972182,0.222767373977
1588764616693950021,3699,1588764616693844659,,0.49994740222,-0.18784693097,0.222704655587
1588764616696901418,3700,1588764616696803565,,0.499944541711,-0.187752645424,0.222640235572
1588764616699893087,3701,1588764616699802663,,0.499942851993,-0.187665560349,0.222576634884
1588764616705979420,3702,1588764616705857640,,0.499943394094,-0.187571180846,0.222512472604
1588764616708978427,3703,1588764616708819567,,0.499942834477,-0.187477922858,0.222442938098
1588764616711972770,3704,1588764616711817998,,0.499944743714,-0.187380931504,0.222374420738
1588764616717970567,3705,1588764616717826779,,0.499944305928,-0.187282546017,0.222301172336
1588764616723974594,3706,1588764616723856951,,0.499944416377,-0.187181837523,0.222224693343
1588764616726998837,3707,1588764616726835248,,0.499943550084,-0.187076239044,0.222144487832
1588764616729906956,3708,1588764616729800209,,0.499944332537,-0.1869677679,0.222064932249
1588764616732928333,3709,1588764616732784414,,0.499943303121,-0.186859980962,0.221983221303
1588764616735962836,3710,1588764616735794587,,0.499944644816,-0.186746368099,0.221901681009
1588764616742037418,3711,1588764616741882989,,0.499947360697,-0.186630342042,0.221821889244
1588764616744924778,3712,1588764616744826757,,0.499949214,-0.18651605595,0.221742612485
1588764616747990023,3713,1588764616747853656,,0.499952877742,-0.186396787387,0.221664777479
1588764616757008133,3714,1588764616756845900,,0.499958286764,-0.186164456045,0.221514728907
1588764616759998101,3715,1588764616759839425,,0.499960751673,-0.186046715603,0.221442028544
1588764616765998060,3716,1588764616765818868,,0.499963514144,-0.185929796522,0.221370128034
1588764616768921449,3717,1588764616768820376,,0.499965907142,-0.185816809367,0.221300985615
1588764616771930027,3718,1588764616771802604,,0.499968380007,-0.185703133832,0.221230174034
1588764616778033927,3719,1588764616777826566,,0.499970712985,-0.185593112997,0.221159712922
1588764616781094777,3720,1588764616780972523,,0.499971271912,-0.185489056168,0.221088429563
1588764616783948472,3721,1588764616783832376,,0.499974128838,-0.185406273438,0.221027408222
1588764616790038381,3722,1588764616789867115,,0.49997453258,-0.18530293569,0.220953305808
1588764616793018844,3723,1588764616792869440,,0.499973940441,-0.185190176857,0.220868255345
1588764616795965195,3724,1588764616795841717,,0.49997562115,-0.185114684296,0.220806067611
1588764616801986598,3725,1588764616801832977,,0.499975332936,-0.185010121009,0.220730972722
1588764616804972313,3726,1588764616804829607,,0.499971465407,-0.184904709658,0.220648227984
1588764616808062481,3727,1588764616807852110,,0.499971850354,-0.184810093645,0.220578401166
1588764616817016439,3728,1588764616816854348,,0.499967629402,-0.184618186501,0.220435049723
1588764616826096068,3729,1588764616825910919,,0.499968310443,-0.184521864442,0.220365395053
1588764616829039407,3730,1588764616828897545,,0.499970960349,-0.184420567249,0.220295686096
1588764616831965599,3731,1588764616831863511,,0.499973282887,-0.184314394403,0.220221609625
1588764616835004261,3732,1588764616834882871,,0.499977797327,-0.18421175169,0.220153077216
1588764616838022319,3733,1588764616837888251,,0.499980949286,-0.184102604069,0.220082166814
1588764616841041212,3734,1588764616840935224,,0.499983760106,-0.183998237447,0.220013205482
1588764616846999547,3735,1588764616846858479,,0.499989288521,-0.183913733371,0.219960550075
1588764616849964340,3736,1588764616849849277,,0.499990480069,-0.183802101485,0.219887661506
1588764616852942984,3737,1588764616852850570,,0.499993748923,-0.183682379548,0.219813497158
1588764616859141516,3738,1588764616858958156,,0.499996443441,-0.183600706653,0.219755064432
1588764616862015607,3739,1588764616861875470,,0.500000062569,-0.183496316094,0.219686747756
1588764616865067953,3740,1588764616864921795,,0.500000901957,-0.183379969998,0.219607726365
1588764616871007374,3741,1588764616870827923,,0.500002537893,-0.183288892044,0.219538290171
1588764616880279651,3742,1588764616880154460,,0.500004020985,-0.183101492966,0.219398650154
1588764616883344276,3743,1588764616883201236,,0.500005556243,-0.183013058164,0.219330639242
1588764616885972997,3744,1588764616885861998,,0.500008184518,-0.182913931574,0.219258289586
1588764616889000121,3745,1588764616888866315,,0.50000915639,-0.182825231763,0.219187156842
1588764616895048977,3746,1588764616894908181,,0.500013020795,-0.182726960707,0.219117221688
1588764616897957541,3747,1588764616897835831,,0.500015901095,-0.182630629398,0.219048411331
1588764616903968009,3748,1588764616903814748,,0.500017571139,-0.182535603617,0.218980052571
1588764616907019413,3749,1588764616906840873,,0.500023577496,-0.182456366808,0.218925854895
1588764616910021411,3750,1588764616909860574,,0.500025867368,-0.182356094858,0.218857452663
1588764616913016346,3751,1588764616912869834,,0.500025501749,-0.182243047751,0.218781934915
1588764616918980328,3752,1588764616918864005,,0.500030230417,-0.182160948028,0.218728330016
1588764616925145448,3753,1588764616924947290,,0.500030760924,-0.182064550297,0.218662827228
1588764616927970235,3754,1588764616927861126,,0.500030401374,-0.181952834135,0.218584472059
1588764616931015788,3755,1588764616930892553,,0.5000324185,-0.181857126256,0.218519394105
1588764616936986186,3756,1588764616936860092,,0.500035500068,-0.181669650925,0.218385515725
1588764616942994509,3757,1588764616942866136,,0.500038101281,-0.181573268937,0.218315736843
1588764616949021012,3758,1588764616948863207,,0.500040378876,-0.181479713124,0.218247145018
1588764616951951942,3759,1588764616951852796,,0.500044422552,-0.181386251,0.218177701402
1588764616955006230,3760,1588764616954875776,,0.500047557318,-0.181292604651,0.218109546843
1588764616958017742,3761,1588764616957879059,,0.500051629688,-0.18119887964,0.218044381033
1588764616964013456,3762,1588764616963901493,,0.500056816655,-0.181105288101,0.217980798071
1588764616967079571,3763,1588764616966902556,,0.500061519203,-0.181033374637,0.217933085732
1588764616972999715,3764,1588764616972868384,,0.500065291419,-0.180945613653,0.217872031873
1588764616976014897,3765,1588764616975888724,,0.500069073319,-0.18083967333,0.217802410668
1588764616979398057,3766,1588764616979238466,,0.500075647783,-0.180767965457,0.217757007798
1588764616982317180,3767,1588764616982227625,,0.500079059727,-0.18068064703,0.217700526024
1588764616987985007,3768,1588764616987859438,,0.500081894128,-0.1805768182,0.217631766285
1588764616991109521,3769,1588764616990914451,,0.500088824179,-0.180489356254,0.217577903274
1588764617000049189,3770,1588764616999867183,,0.500094056879,-0.180315444161,0.217458156466
1588764617005996641,3771,1588764617005875884,,0.500098269511,-0.180229790868,0.217395376264
1588764617008992441,3772,1588764617008873837,,0.500100854559,-0.180143530511,0.217329076468
1588764617014979031,3773,1588764617014889589,,0.5001056656,-0.1800513372,0.217265918794
1588764617017967620,3774,1588764617017888384,,0.50011024092,-0.179962756128,0.217200377468
1588764617024051456,3775,1588764617023926463,,0.500114170237,-0.179873744924,0.217134443525
1588764617027020180,3776,1588764617026917587,,0.500120083479,-0.179788675837,0.217072183469
1588764617030030387,3777,1588764617029889562,,0.500126930606,-0.179721817934,0.21702159116
1588764617033009015,3778,1588764617032905841,,0.500133047534,-0.179632607962,0.216958645799
1588764617035963778,3779,1588764617035879075,,0.500136147789,-0.179535106764,0.216893957564
1588764617042038251,3780,1588764617041902164,,0.500140412281,-0.179466378909,0.216844856911
1588764617047992402,3781,1588764617047879045,,0.500142963657,-0.179377865572,0.216784840305
1588764617050977736,3782,1588764617050865653,,0.500144649436,-0.179281369771,0.216722347422
1588764617057018982,3783,1588764617056908937,,0.500155364559,-0.179121485396,0.216617354752
1588764617060007536,3784,1588764617059880254,,0.500157741716,-0.179036940704,0.21656263159
1588764617063111279,3785,1588764617062935002,,0.500158841379,-0.17896096035,0.216505963089
1588764617066064982,3786,1588764617065906396,,0.500164275657,-0.178880198623,0.216450315492
1588764617075037649,3787,1588764617074888342,,0.500166205004,-0.1787979276,0.216390381913
1588764617078001008,3788,1588764617077911907,,0.500172484235,-0.178719958659,0.216335230615
1588764617081075684,3789,1588764617080998314,,0.500181601038,-0.178647718163,0.216275544613
1588764617083977999,3790,1588764617083882095,,0.500185442705,-0.178581439317,0.216227060445
1588764617087116645,3791,1588764617086928767,,0.500188290913,-0.178497987854,0.21616791617
1588764617092996368,3792,1588764617092878204,,0.500190211459,-0.17841099322,0.216101606771
1588764617095967007,3793,1588764617095877353,,0.500191140678,-0.178347652667,0.216054266043
1588764617099010596,3794,1588764617098900227,,0.500193193402,-0.178267817376,0.215995035684
1588764617107999236,3795,1588764617107891956,,0.500195616965,-0.178182633041,0.215935856498
1588764617111064884,3796,1588764617110905405,,0.500197487884,-0.178106084639,0.215882927175
1588764617117091406,3797,1588764617116916190,,0.500206700962,-0.1779692715,0.215780539437
1588764617123082201,3798,1588764617122945122,,0.500209163813,-0.177895464743,0.21572975453
1588764617128983668,3799,1588764617128878695,,0.500213686095,-0.177823168094,0.215682106774
1588764617132023640,3800,1588764617131897864,,0.50021626249,-0.177749729645,0.215629837184
1588764617135034529,3801,1588764617134904253,,0.500220082172,-0.177676514549,0.21558290318
1588764617138057740,3802,1588764617137906866,,0.500223892221,-0.177600336167,0.215533114797
1588764617141106186,3803,1588764617140993348,,0.500235029469,-0.177534182821,0.215488480023
1588764617144048722,3804,1588764617143919228,,0.500240017423,-0.177477587975,0.215450059883
1588764617147028059,3805,1588764617146878138,,0.500241971763,-0.17740209111,0.215401854052
1588764617156081598,3806,1588764617155898363,,0.50024610339,-0.177322644975,0.215349098548
1588764617159061635,3807,1588764617158971907,,0.500247574966,-0.177270176778,0.215308852751
1588764617165076549,3808,1588764617164916976,,0.500250356206,-0.177195503644,0.215261075359
1588764617170985789,3809,1588764617170894161,,0.500252891303,-0.177122725418,0.215207908116
1588764617177034080,3810,1588764617176912570,,0.500257493707,-0.176997345913,0.215119094243
1588764617180295355,3811,1588764617180133914,,0.500261398236,-0.176932171762,0.215070357458
1588764617183317911,3812,1588764617183218246,,0.500273564931,-0.176877087726,0.215025966294
1588764617189164851,3813,1588764617188955347,,0.50027840054,-0.176821487815,0.214982397697
1588764617195020260,3814,1588764617194912728,,0.500283651468,-0.176753345065,0.214935741908
1588764617201157773,3815,1588764617201082355,,0.500287759126,-0.176687001044,0.214886504877
1588764617203962817,3816,1588764617203892282,,0.500289376745,-0.17662419882,0.214842078931
1588764617207029448,3817,1588764617206890512,,0.500293827001,-0.17655817745,0.214797903319
1588764617213016740,3818,1588764617212917505,,0.500297026814,-0.176503965731,0.214760531154
1588764617219155720,3819,1588764617218967778,,0.500300449961,-0.176441320047,0.214714973715
1588764617225035423,3820,1588764617224903947,,0.50030357601,-0.176371183072,0.214666731285
1588764617228028342,3821,1588764617227938272,,0.500307598038,-0.176319789046,0.214631498561
1588764617234081126,3822,1588764617233908282,,0.500314146817,-0.17625882275,0.214590884898
1588764617240224006,3823,1588764617239943621,,0.500317327719,-0.176194225272,0.214540879614
1588764617243075388,3824,1588764617242915059,,0.500331548264,-0.17614673289,0.214501591343
1588764617249154656,3825,1588764617248935552,,0.50033678176,-0.176090984227,0.214464960381
1588764617255021957,3826,1588764617254886668,,0.500338797387,-0.17603075718,0.214420146892
1588764617261008042,3827,1588764617260919513,,0.50034203685,-0.175979568528,0.214377016504
1588764617267029939,3828,1588764617266869002,,0.500345187571,-0.175925339747,0.214338503535
1588764617273059893,3829,1588764617272868094,,0.500346589108,-0.175865840547,0.21429632872
1588764617279500082,3830,1588764617279265047,,0.500350548206,-0.175807319693,0.214256950749
1588764617282360625,3831,1588764617282226749,,0.500354270245,-0.175752735625,0.214217495443
1588764617288059472,3832,1588764617287942065,,0.500358014214,-0.175696493201,0.214179023046
1588764617300137726,3833,1588764617299949143,,0.500368204873,-0.175586928659,0.214104096897
1588764617306107435,3834,1588764617305977597,,0.500372162945,-0.175532458859,0.214064614509
1588764617309024814,3835,1588764617308918073,,0.500391787187,-0.175494170019,0.214033662752
1588764617315074953,3836,1588764617314961529,,0.500398565854,-0.175437769753,0.213995104156
1588764617318138747,3837,1588764617318009927,,0.500400647913,-0.175383763332,0.21395510296
1588764617324109522,3838,1588764617323961596,,0.500404832433,-0.175336797575,0.213913668992
1588764617330116539,3839,1588764617330005432,,0.500407559801,-0.175286044754,0.213874268683
1588764617336108879,3840,1588764617335944707,,0.500408713055,-0.175230235994,0.213831735368
1588764617342057541,3841,1588764617341935574,,0.500409703787,-0.175182468194,0.213793849259
1588764617348113030,3842,1588764617347935775,,0.500413080153,-0.175134686889,0.213758984349
1588764617360155991,3843,1588764617360038963,,0.500416654355,-0.175038960513,0.213686597729
1588764617363090228,3844,1588764617362977508,,0.50042123467,-0.174993901772,0.213655519203
1588764617369282233,3845,1588764617369007731,,0.500425947293,-0.17495070521,0.213626176827
1588764617375066090,3846,1588764617374923800,,0.500429669809,-0.174912489152,0.213599875902
1588764617381352200,3847,1588764617381242076,,0.500435757122,-0.174872761969,0.21357526445
1588764617387082480,3848,1588764617386974737,,0.500455876205,-0.17484339379,0.213549095669
1588764617393094461,3849,1588764617392969531,,0.500461622319,-0.174809724371,0.213524705005
1588764617399121696,3850,1588764617398961497,,0.500465485847,-0.174767409007,0.21349851601
1588764617405084638,3851,1588764617404919375,,0.500470871386,-0.174730229854,0.213466275696
1588764617411100705,3852,1588764617410989468,,0.500474274389,-0.174693441669,0.213436349074
1588764617417101970,3853,1588764617416964751,,0.500475858339,-0.174654414357,0.213409415258
1588764617423101835,3854,1588764617422972472,,0.500477657318,-0.174621473116,0.21337860727
1588764617429095975,3855,1588764617428999609,,0.500480156351,-0.174589229518,0.213351113561
1588764617435184951,3856,1588764617434988909,,0.500482311403,-0.174551259612,0.213322608145
1588764617440991392,3857,1588764617440913436,,0.500486484415,-0.174515605672,0.213298814218
1588764617447035403,3858,1588764617446945046,,0.500490316065,-0.17448239229,0.213272024971
1588764617453205244,3859,1588764617453011667,,0.500495282928,-0.17444781146,0.213248526327
1588764617459037509,3860,1588764617458927919,,0.500500719804,-0.174410805624,0.213226352187
1588764617465049293,3861,1588764617464907818,,0.500505385205,-0.174382152363,0.213208533629
1588764617471035434,3862,1588764617470893271,,0.500511128278,-0.174348564112,0.21318907819
1588764617477118625,3863,1588764617476989670,,0.500515712408,-0.174313981459,0.213166669659
1588764617480258182,3864,1588764617480140421,,0.500518815786,-0.174288086393,0.213150372601
1588764617483520248,3865,1588764617483369515,,0.500524881884,-0.174258866996,0.213133956512
1588764617489079900,3866,1588764617488991553,,0.500545762549,-0.174244544167,0.213115180283
1588764617495032496,3867,1588764617494956964,,0.50055230684,-0.174217433478,0.213096432208
1588764617501164617,3868,1588764617501066048,,0.500554019231,-0.174189232628,0.213070506134
1588764617507080999,3869,1588764617506946949,,0.500558272252,-0.17416636031,0.213044693693
1588764617513065802,3870,1588764617512973781,,0.500561226656,-0.174143592623,0.213023776651
1588764617519047272,3871,1588764617518946015,,0.500562358818,-0.174118836385,0.212998922248
1588764617525037503,3872,1588764617524944586,,0.500565471546,-0.174096599584,0.212977104316
1588764617531092436,3873,1588764617530922544,,0.500568150528,-0.174076086802,0.2129584668
1588764617537035530,3874,1588764617536961540,,0.500572029672,-0.174049654751,0.212939031804
1588764617543193659,3875,1588764617543010066,,0.500576324037,-0.174025457382,0.212921272112
1588764617549080779,3876,1588764617548996491,,0.500581149036,-0.174004365905,0.212906139621
1588764617555166652,3877,1588764617555014524,,0.500586021435,-0.173980956853,0.212892154643
1588764617561038689,3878,1588764617560968001,,0.500590309394,-0.17395810588,0.212880925555
1588764617567053323,3879,1588764617566962532,,0.50059559171,-0.173936215721,0.21286864142
1588764617573027784,3880,1588764617572901338,,0.500599575656,-0.173918252321,0.21285490464
1588764617579513870,3881,1588764617579373999,,0.50060481775,-0.173895529031,0.212840977823
1588764617582265214,3882,1588764617582181341,,0.500609553748,-0.173875135165,0.2128235087
1588764617588035763,3883,1588764617587922104,,0.500613713158,-0.173855554789,0.212810125872
1588764617594091784,3884,1588764617594017695,,0.500617861941,-0.173836225183,0.212792911076
1588764617600125740,3885,1588764617599999377,,0.50062135615,-0.173817943153,0.212776320013
1588764617606159967,3886,1588764617605995831,,0.500625076515,-0.173801673759,0.212761526827
1588764617612118511,3887,1588764617612037539,,0.500628276967,-0.173786105399,0.212744951686
1588764617618069395,3888,1588764617617992698,,0.500631332432,-0.173769551386,0.212732057211
1588764617624053650,3889,1588764617623982562,,0.500635689721,-0.173754605074,0.212718606196
1588764617629990109,3890,1588764617629897225,,0.500639706444,-0.17373978853,0.212707458692
1588764617633218466,3891,1588764617633018668,,0.500643254306,-0.173726985483,0.21269612213
1588764617639157775,3892,1588764617639007063,,0.500648232268,-0.173711685906,0.212684074964
1588764617645139150,3893,1588764617645043362,,0.500652759933,-0.17369938108,0.212674321782
1588764617651163739,3894,1588764617651020799,,0.500656616749,-0.17368911097,0.21266553165
1588764617657162558,3895,1588764617657017237,,0.500661451896,-0.173679003713,0.212657315932
1588764617663085336,3896,1588764617662997747,,0.500683938878,-0.17368616031,0.212651714175
1588764617669228726,3897,1588764617669019528,,0.500690733921,-0.173677116012,0.212643728424
1588764617675077593,3898,1588764617674959633,,0.500694731202,-0.173665654133,0.212632309823
1588764617681250024,3899,1588764617681174603,,0.500698601671,-0.173657384679,0.212616354357
1588764617687110820,3900,1588764617687023812,,0.500701891365,-0.173648946168,0.212603692396
1588764617693355380,3901,1588764617692990443,,0.500704245991,-0.173642200956,0.21259554673
1588764617699159594,3902,1588764617699021770,,0.50070670848,-0.173634753939,0.212586280362
1588764617705156760,3903,1588764617705055918,,0.500709362866,-0.173626973503,0.212577052856
1588764617711019313,3904,1588764617710906249,,0.50071198393,-0.173620252389,0.212568688101
1588764617717185796,3905,1588764617717033545,,0.500713916411,-0.173613084104,0.212560188314
1588764617723178127,3906,1588764617723029727,,0.500715786533,-0.17360324779,0.212553334256
1588764617729128745,3907,1588764617729020834,,0.500718107247,-0.17359716591,0.212548098173
1588764617735078272,3908,1588764617734993238,,0.500720969174,-0.17359068279,0.212543471582
1588764617741279911,3909,1588764617741099884,,0.500723469224,-0.17358424614,0.212538757335
1588764617747115698,3910,1588764617746997157,,0.500724947709,-0.173578881476,0.212532052748
1588764617753048372,3911,1588764617752944974,,0.500728224519,-0.173572951167,0.212525516075
1588764617759103013,3912,1588764617759014966,,0.500730924394,-0.173570433068,0.212518710883
1588764617765316403,3913,1588764617765037130,,0.500733520628,-0.173566335681,0.212512608834
1588764617771122350,3914,1588764617771000384,,0.500736243373,-0.173563718222,0.212508431462
1588764617777146655,3915,1588764617777038311,,0.500738482927,-0.173562398841,0.212503111582
1588764617780492668,3916,1588764617780329799,,0.500741677344,-0.173560870295,0.212498426002
1588764617783334748,3917,1588764617783238923,,0.500745148023,-0.173559038602,0.21249551071
1588764617789106447,3918,1588764617788956089,,0.500750109714,-0.173558838395,0.212496008739
1588764617795054565,3919,1588764617794954210,,0.500754860358,-0.173560567584,0.212496997039
1588764617801172491,3920,1588764617801093972,,0.500761374005,-0.173560230276,0.212500779359
1588764617807123201,3921,1588764617807035413,,0.500767472792,-0.173561970833,0.212503753942
1588764617813205356,3922,1588764617813045667,,0.500773110424,-0.17356401748,0.212508049528
1588764617819145002,3923,1588764617819025816,,0.500778859283,-0.173566116369,0.21251006912
1588764617825229146,3924,1588764617825078652,,0.500785447873,-0.173567810731,0.212515502769
1588764617831210166,3925,1588764617831019411,,0.500791197968,-0.173569843631,0.212517890483
1588764617837172226,3926,1588764617837058159,,0.50079717038,-0.173572091976,0.212521975873
1588764617843136480,3927,1588764617843048811,,0.50080363174,-0.173572864955,0.212525610279
1588764617849141387,3928,1588764617849045875,,0.50080919585,-0.173575017022,0.212529628374
1588764617855198764,3929,1588764617855081823,,0.500813912546,-0.173578597322,0.212530695174
1588764617861470974,3930,1588764617861342175,,0.500820146944,-0.173579804192,0.212535963318
1588764617867201549,3931,1588764617867013128,,0.500825867859,-0.17358211899,0.212537471452
1588764617873127575,3932,1588764617872996444,,0.500831584409,-0.173584457532,0.21254046428
1588764617879145489,3933,1588764617879015528,,0.500837369092,-0.173587443859,0.21254244409
1588764617885155396,3934,1588764617885028231,,0.50084362939,-0.173589048013,0.212545704371
1588764617891247033,3935,1588764617891105530,,0.500849125744,-0.17359498712,0.212549884371
1588764617897105054,3936,1588764617896978713,,0.500854633722,-0.173597303538,0.212553872433
1588764617903106787,3937,1588764617902984906,,0.500860979063,-0.173599760976,0.212559776051
1588764617909187880,3938,1588764617909067082,,0.500866282541,-0.173604707049,0.212564475269
1588764617915157619,3939,1588764617915022144,,0.50087193722,-0.173608175246,0.212569906188
1588764617921451977,3940,1588764617921337292,,0.500877714772,-0.173612078195,0.212575676914
1588764617927252119,3941,1588764617927095966,,0.500883551029,-0.173615003829,0.212580555876
1588764617933129303,3942,1588764617933005289,,0.500889444889,-0.17361795392,0.212585167657
1588764617939214727,3943,1588764617939048532,,0.50089497764,-0.173622395114,0.212591041652
1588764617945221801,3944,1588764617945081485,,0.500899830191,-0.173627056744,0.212595326528
1588764617951196189,3945,1588764617951079621,,0.500904575741,-0.173631757921,0.212601677757
1588764617957185242,3946,1588764617957100777,,0.500909861447,-0.173636971903,0.21260564814
1588764617963228700,3947,1588764617963098002,,0.500913858782,-0.173641549908,0.212609684755
1588764617969179697,3948,1588764617969057950,,0.500918650733,-0.173646737452,0.212614135927
1588764617975242167,3949,1588764617975031954,,0.500923707005,-0.173653632479,0.212620901326
1588764617981324374,3950,1588764617981238706,,0.500928849723,-0.173659684429,0.2126288136
1588764617984430539,3951,1588764617984330824,,0.500932406389,-0.173665673749,0.212634677359
1588764617990323059,3952,1588764617990106750,,0.500936448965,-0.173673916344,0.212641381777
1588764617996135793,3953,1588764617996030779,,0.500940747878,-0.173681092096,0.212648036128
1588764618002251643,3954,1588764618002065085,,0.50094495221,-0.173687085022,0.212654091115
1588764618008131818,3955,1588764618008030523,,0.500948969246,-0.173694767264,0.212658801704
1588764618020330028,3956,1588764618020079143,,0.50095576788,-0.17371034978,0.212669956765
1588764618026242131,3957,1588764618026111866,,0.50095964332,-0.173715993977,0.212675250193
1588764618032235961,3958,1588764618032113003,,0.500963050267,-0.173722352746,0.212680621968
1588764618038179307,3959,1588764618038008243,,0.500966929109,-0.173730515513,0.21268598792
1588764618044220474,3960,1588764618044088751,,0.500970592002,-0.173737010451,0.212691817322
1588764618050125621,3961,1588764618049979922,,0.500973785199,-0.173745075479,0.212696043526
1588764618056118806,3962,1588764618055988573,,0.500976786787,-0.173753746054,0.212700768807
1588764618062293563,3963,1588764618062061293,,0.500980019082,-0.173760908137,0.212706268297
1588764618068151619,3964,1588764618068058724,,0.50098358526,-0.1737694381,0.212710477586
1588764618080514932,3965,1588764618080403828,,0.500988347247,-0.173788559607,0.212721326791
1588764618083514292,3966,1588764618083384866,,0.500991646049,-0.173796576854,0.212727444934
1588764618089225479,3967,1588764618089059171,,0.500993637709,-0.173807014356,0.212732102456
1588764618095197354,3968,1588764618095092414,,0.500995754282,-0.173815010312,0.212734919458
1588764618101408894,3969,1588764618101323177,,0.500997775377,-0.173822691807,0.212738969317
1588764618107156247,3970,1588764618107051092,,0.501000091665,-0.173831562921,0.212742742852
1588764618113253706,3971,1588764618113110224,,0.501002369659,-0.173837614097,0.212747158439
1588764618119216981,3972,1588764618119094903,,0.501004601612,-0.173844082651,0.212750449933
1588764618125217140,3973,1588764618125108250,,0.501007768487,-0.173850487104,0.212755255947
1588764618131214940,3974,1588764618131074629,,0.501010884792,-0.173856062555,0.212758707617
1588764618137206754,3975,1588764618137094847,,0.501013218507,-0.173862101647,0.21276158952
1588764618143263124,3976,1588764618143089274,,0.501015761454,-0.173867524215,0.212764785978
1588764618149158393,3977,1588764618149061823,,0.501018245029,-0.173871372384,0.212768198086
1588764618155221126,3978,1588764618155050492,,0.501019749837,-0.173877164389,0.212769092208
1588764618161604362,3979,1588764618161371674,,0.501022608174,-0.173881119911,0.212771344133
1588764618167273094,3980,1588764618167108401,,0.501025221918,-0.173885106613,0.212772538517
1588764618173196444,3981,1588764618173033873,,0.50102840044,-0.173889640303,0.212773639497
1588764618179238009,3982,1588764618179073630,,0.501030627217,-0.173893504795,0.212773242741
1588764618185296355,3983,1588764618185105643,,0.501033954361,-0.173898062403,0.212775060968
1588764618191162592,3984,1588764618191062985,,0.501036752528,-0.173902289922,0.212775968224
1588764618197155459,3985,1588764618197030433,,0.501039159646,-0.173906553292,0.212776387663
1588764618203198957,3986,1588764618203054562,,0.501041499788,-0.173910913882,0.212775899459
1588764618209148767,3987,1588764618209054915,,0.501044306002,-0.173914425085,0.21277672308
1588764618215205028,3988,1588764618215084232,,0.501046365936,-0.173918669492,0.21277582414
1588764618221411331,3989,1588764618221306099,,0.501049125991,-0.173921530944,0.21277549573
1588764618227342384,3990,1588764618227101915,,0.501051896015,-0.173925005668,0.212776804694
1588764618233206293,3991,1588764618233065480,,0.501054752353,-0.173929250739,0.212777302142
1588764618239206991,3992,1588764618239088138,,0.501057159211,-0.173934515346,0.212776033166
1588764618245289898,3993,1588764618245100501,,0.501059711911,-0.173937969239,0.212774784296
1588764618251258531,3994,1588764618251133374,,0.501063074627,-0.173942688413,0.212772507619
1588764618257271904,3995,1588764618257107258,,0.501066081357,-0.173945902445,0.212771641324
1588764618263284614,3996,1588764618263119374,,0.501069452501,-0.173949036997,0.212769900277
1588764618269225269,3997,1588764618269111349,,0.501072542595,-0.173953504392,0.212767843445
1588764618275218229,3998,1588764618275081761,,0.501075567017,-0.173958704872,0.212765772832
1588764618281595539,3999,1588764618281491742,,0.501078218696,-0.173962152711,0.212761457078
1588764618287198137,4000,1588764618287069179,,0.501081690652,-0.173966875603,0.212758024382
1588764618293212624,4001,1588764618293046964,,0.501084326055,-0.173971640428,0.212753288397
1588764618299284221,4002,1588764618299090116,,0.501087889857,-0.173974752509,0.212748750934
1588764618305246650,4003,1588764618305097896,,0.501091447092,-0.173979922218,0.212744960849
1588764618311255584,4004,1588764618311088369,,0.501094018573,-0.173984223494,0.212736948812
1588764618317348667,4005,1588764618317105376,,0.501097377246,-0.173989498232,0.212730957134
1588764618323330153,4006,1588764618323125033,,0.501100354046,-0.173995968779,0.21272686579
1588764618329228358,4007,1588764618329088487,,0.50110364174,-0.1740024814,0.2127220752
1588764618335242868,4008,1588764618335124936,,0.501106957875,-0.174010137797,0.212714279145
1588764618341164436,4009,1588764618341031145,,0.501109334816,-0.174017038437,0.212707290519
1588764618347219022,4010,1588764618347112174,,0.501112344228,-0.174025547947,0.21270233756
1588764618353183172,4011,1588764618353073926,,0.501114981311,-0.174035465666,0.212694030901
1588764618359228590,4012,1588764618359120942,,0.501118834152,-0.174046096205,0.212686724192
1588764618365289388,4013,1588764618365112623,,0.501120739231,-0.174056262248,0.212677301293
1588764618371344660,4014,1588764618371167887,,0.501123100843,-0.174066177336,0.212669479698
1588764618377279931,4015,1588764618377129299,,0.501126768691,-0.174076530811,0.212659420452
1588764618383516112,4016,1588764618383418559,,0.501128366024,-0.174086279924,0.212649859707
1588764618389203968,4017,1588764618389107680,,0.501130905681,-0.174097572396,0.212640200108
1588764618395212686,4018,1588764618395085258,,0.501133492864,-0.17410771484,0.21262907064
1588764618401367269,4019,1588764618401290957,,0.501136158891,-0.174118531119,0.212620148477
1588764618407210629,4020,1588764618407135262,,0.501139316059,-0.174129273603,0.212611203858
1588764618413172890,4021,1588764618413066157,,0.501141547883,-0.17414009442,0.21259937787
1588764618419249835,4022,1588764618419061853,,0.501143830994,-0.174149308625,0.212588015663
1588764618425288971,4023,1588764618425107053,,0.501145975965,-0.174159145861,0.212578602721
1588764618431276849,4024,1588764618431117328,,0.501148482204,-0.174174161092,0.212566520583
1588764618437396943,4025,1588764618437201318,,0.501149895604,-0.174188253438,0.212556091532
1588764618443204640,4026,1588764618443121681,,0.501151402034,-0.174201465296,0.212546810782
1588764618449303099,4027,1588764618449098988,,0.501153170097,-0.174216894231,0.21253343886
1588764618455258734,4028,1588764618455105145,,0.50115419348,-0.174234354787,0.212521579498
1588764618461299639,4029,1588764618461208546,,0.501156460871,-0.174251281048,0.212508523527
1588764618467239655,4030,1588764618467099378,,0.501157241201,-0.17426803678,0.212496194286
1588764618473223573,4031,1588764618473097858,,0.501158742479,-0.174283052642,0.212482479608
1588764618479344966,4032,1588764618479151808,,0.501159731663,-0.174299589512,0.212468472905
1588764618485278832,4033,1588764618485104392,,0.501160681847,-0.17431608398,0.212455152095
1588764618491154299,4034,1588764618491048726,,0.501162370977,-0.174332782493,0.212439415017
1588764618497311175,4035,1588764618497148322,,0.501163656476,-0.174350591173,0.21242385907
1588764618503233570,4036,1588764618503140384,,0.50116666063,-0.174367287621,0.212405991057
1588764618509274102,4037,1588764618509143282,,0.50116826473,-0.174381613489,0.212391367835
1588764618515250640,4038,1588764618515147131,,0.50117039637,-0.174396535906,0.21237682581
1588764618521347444,4039,1588764618521250275,,0.501172852668,-0.174414549271,0.212357843072
1588764618530147205,4040,1588764618530076822,,0.501174397551,-0.174450168745,0.212327068885
1588764618536243030,4041,1588764618536114594,,0.501177124631,-0.17447047729,0.212305910151
1588764618542267777,4042,1588764618542139297,,0.501178857727,-0.174494544025,0.21228663514
1588764618548209501,4043,1588764618548109680,,0.501180104746,-0.17451764642,0.212272798307
1588764618557225182,4044,1588764618557152460,,0.501184276838,-0.174561043134,0.212236481001
1588764618563478969,4045,1588764618563279101,,0.501186716923,-0.174582704893,0.212219641591
1588764618569308200,4046,1588764618569135801,,0.501188069621,-0.174606408187,0.212197557329
1588764618575529625,4047,1588764618575376686,,0.501189312536,-0.174633679689,0.212177756281
1588764618581690328,4048,1588764618581422613,,0.501191187271,-0.174658417469,0.212153065227
1588764618587269868,4049,1588764618587180094,,0.501193214209,-0.174687642413,0.212127025295
1588764618593297038,4050,1588764618593156154,,0.501195362596,-0.174716090063,0.212100457894
1588764618599336413,4051,1588764618599112529,,0.501197244732,-0.174746783316,0.212074117047
1588764618605238554,4052,1588764618605112048,,0.501198198968,-0.174779454904,0.212045923554
1588764618611337291,4053,1588764618611130298,,0.501199199967,-0.174810629009,0.21201752065
1588764618617320424,4054,1588764618617146828,,0.501201958051,-0.17483983041,0.211989530646
1588764618623337388,4055,1588764618623170106,,0.501203609025,-0.174871852226,0.211962974545
1588764618629330008,4056,1588764618629195846,,0.501204354662,-0.174907443003,0.211931330318
1588764618635207134,4057,1588764618635109459,,0.501207401452,-0.174975914444,0.211873968818
1588764618641237450,4058,1588764618641128103,,0.501210925326,-0.175008846634,0.211841761421
1588764618647178614,4059,1588764618647103564,,0.501213683547,-0.175075132561,0.211776849148
1588764618653274212,4060,1588764618653138546,,0.501215172784,-0.17510957877,0.211745190099
1588764618659435166,4061,1588764618659227458,,0.501222323971,-0.17517928797,0.211681293929
1588764618665321127,4062,1588764618665153862,,0.501223664703,-0.175216146703,0.211645576474
1588764618671394548,4063,1588764618671185223,,0.501229814144,-0.175286751224,0.211581128205
1588764618677325800,4064,1588764618677190006,,0.501234495388,-0.175359172348,0.211511376158
1588764618683608184,4065,1588764618683469634,,0.501237501624,-0.175397541002,0.211479045206
1588764618689284443,4066,1588764618689159793,,0.501239756397,-0.175439669219,0.211443054118
1588764618695279397,4067,1588764618695171331,,0.501244952864,-0.175521355822,0.211369223016
1588764618701576859,4068,1588764618701458598,,0.501247407816,-0.175565149977,0.21132987817
1588764618707280104,4069,1588764618707174537,,0.501252487746,-0.175646298699,0.211256739591
1588764618713239436,4070,1588764618713104312,,0.501253991345,-0.175689710422,0.211220739623
1588764618719299347,4071,1588764618719197288,,0.501258609957,-0.175778289372,0.211146649447
1588764618725299195,4072,1588764618725159307,,0.501259756723,-0.17582219315,0.211109972805
1588764618731318762,4073,1588764618731165875,,0.501265575206,-0.175909724964,0.211036450839
1588764618737321417,4074,1588764618737151038,,0.501268409533,-0.175953977309,0.210996528827
1588764618743257297,4075,1588764618743112964,,0.501275857739,-0.176046861574,0.210920689921
1588764618749310768,4076,1588764618749164949,,0.501276871488,-0.176093308897,0.210878505062
1588764618755281727,4077,1588764618755181359,,0.501282166746,-0.176188695473,0.210799873799
1588764618761512192,4078,1588764618761406164,,0.501282312588,-0.176237439535,0.210759486621
1588764618768162383,4079,1588764618768061280,,0.50128538089,-0.176336938584,0.210675766236
1588764618773376033,4080,1588764618773198694,,0.501286970722,-0.176386078226,0.210628352087
1588764618779422414,4081,1588764618779212496,,0.501293272771,-0.176489295561,0.210540455848
1588764618785328265,4082,1588764618785179212,,0.501295255468,-0.176536089076,0.210493313247
1588764618791298626,4083,1588764618791192744,,0.501300021871,-0.176641668783,0.210400464877
1588764618797328544,4084,1588764618797213832,,0.501302114086,-0.17669140595,0.2103523837
1588764618803321069,4085,1588764618803161501,,0.50130471657,-0.176804133864,0.210249969772
1588764618809326483,4086,1588764618809159797,,0.501306028273,-0.176862254231,0.210197446357
1588764618815329595,4087,1588764618815204996,,0.501307269238,-0.17692664571,0.210144558596
1588764618821684187,4088,1588764618821578480,,0.501306865804,-0.177060249822,0.210035735438
1588764618827386574,4089,1588764618827208044,,0.501304621593,-0.17719342922,0.209925372851
1588764618833290149,4090,1588764618833154957,,0.501305650288,-0.177255265504,0.209872316306
1588764618839440498,4091,1588764618839212394,,0.501306497666,-0.177316954801,0.209818699031
1588764618845351741,4092,1588764618845205211,,0.50131072193,-0.1774316901,0.209708459046
1588764618851496684,4093,1588764618851195009,,0.501320156976,-0.177528803255,0.209611183199
1588764618857365222,4094,1588764618857164581,,0.501323875417,-0.177577605396,0.209565045676
1588764618863339200,4095,1588764618863159326,,0.501328360014,-0.17762618421,0.2095184256
1588764618869305672,4096,1588764618869183534,,0.501339946161,-0.177719802381,0.209428947121
1588764618875326861,4097,1588764618875203288,,0.501343700744,-0.177770767222,0.209379611412
1588764618881934931,4098,1588764618881692523,,0.501352193847,-0.177877504213,0.209285957894
1588764618887299066,4099,1588764618887195899,,0.501354527248,-0.17793257244,0.209233557308
1588764618893358141,4100,1588764618893187368,,0.501358499151,-0.178056842028,0.209123341734
1588764618899335084,4101,1588764618899200842,,0.501360317789,-0.178120978598,0.209066562881
1588764618905296513,4102,1588764618905193386,,0.501361343308,-0.178256133087,0.208945737777
1588764618911314079,4103,1588764618911222565,,0.501361595608,-0.178327284565,0.208888241624
1588764618917291244,4104,1588764618917144466,,0.501359779424,-0.178472244057,0.208763161795
1588764618923244695,4105,1588764618923128207,,0.501360706508,-0.178547061574,0.20870374508
1588764618926241697,4106,1588764618926146185,,0.501362350065,-0.178692686009,0.208579941089
1588764618932223513,4107,1588764618932155403,,0.501363036308,-0.178767236683,0.208517881244
1588764618938343183,4108,1588764618938190642,,0.501364062619,-0.178910256731,0.208398049949
1588764618944411121,4109,1588764618944268181,,0.501365832291,-0.178977769033,0.208338988159
1588764618950291549,4110,1588764618950177949,,0.501370410019,-0.179113035071,0.208217619869
1588764618956261490,4111,1588764618956148756,,0.501374476327,-0.179179613917,0.208156322481
1588764618962297863,4112,1588764618962180182,,0.501380117227,-0.179312131197,0.20802936443
1588764618968284708,4113,1588764618968172958,,0.501385137512,-0.179376142348,0.20797249434
1588764618974489100,4114,1588764618974380101,,0.501387057906,-0.179446239781,0.20791463997
1588764618980874096,4115,1588764618980568818,,0.501391128024,-0.179587263547,0.207800494338
1588764618986405467,4116,1588764618986220264,,0.501390693428,-0.179660202393,0.207739377299
1588764618992314039,4117,1588764618992188809,,0.501392621973,-0.179733494436,0.20768128478
1588764618998369042,4118,1588764618998222241,,0.501392492413,-0.179873374037,0.207573539027
1588764619004258294,4119,1588764619004133451,,0.501392035788,-0.179966206285,0.207510171744
1588764619010267784,4120,1588764619010189890,,0.501390302409,-0.180029666557,0.20746201687
1588764619016292743,4121,1588764619016140088,,0.501393349314,-0.180114031688,0.207392036047
1588764619022286988,4122,1588764619022133550,,0.501392835856,-0.180283616988,0.207259120759
1588764619025245615,4123,1588764619025150868,,0.50139392275,-0.180413858046,0.207146818447
1588764619031297421,4124,1588764619031164676,,0.501393517888,-0.18049286006,0.207086267883
1588764619037295069,4125,1588764619037214371,,0.501392284138,-0.180611980333,0.206983902882
1588764619043374139,4126,1588764619043192665,,0.501395550512,-0.180682174384,0.206920993508
1588764619049262019,4127,1588764619049148757,,0.501406372863,-0.180803599339,0.206812894123
1588764619055269358,4128,1588764619055132703,,0.501411459235,-0.180864969295,0.206759783465
1588764619061342282,4129,1588764619061201808,,0.501417097048,-0.180926906925,0.206710519695
1588764619068073385,4130,1588764619067984400,,0.501420969069,-0.181055995614,0.206602451942
1588764619073339660,4131,1588764619073183358,,0.501425481425,-0.181199581609,0.206480255016
1588764619079270789,4132,1588764619079160948,,0.501429182808,-0.181276678892,0.206415551249
1588764619085237163,4133,1588764619085143437,,0.501433228037,-0.181359555403,0.206354241443
1588764619091289455,4134,1588764619091100758,,0.501434685416,-0.181531598657,0.206218290477
1588764619097232111,4135,1588764619097117626,,0.501430943012,-0.181814542912,0.206007062781
1588764619100320016,4136,1588764619100137428,,0.50143016059,-0.181913097224,0.205933967072
1588764619106433323,4137,1588764619106202222,,0.501428582891,-0.182114099452,0.205788762057
1588764619112282347,4138,1588764619112155279,,0.501427278612,-0.182211037746,0.205717878347
1588764619118291132,4139,1588764619118158403,,0.501429191404,-0.182403285726,0.205581895686
1588764619124274075,4140,1588764619124124244,,0.501429320293,-0.182491444875,0.205513030149
1588764619127301418,4141,1588764619127167096,,0.501434779262,-0.182664627765,0.205369229721
1588764619133441264,4142,1588764619133266979,,0.501443784663,-0.182827241582,0.205233857051
1588764619139262624,4143,1588764619139140773,,0.501445969218,-0.182910024428,0.205163408739
1588764619142375601,4144,1588764619142202334,,0.501450081967,-0.182990272646,0.205100299178
1588764619148265364,4145,1588764619148151617,,0.501455657531,-0.183148474818,0.204964862989
1588764619151253501,4146,1588764619151147333,,0.501457411062,-0.183235043428,0.204898093635
1588764619157278405,4147,1588764619157150414,,0.501462625708,-0.183405842368,0.204756134085
1588764619160253898,4148,1588764619160160309,,0.501464040789,-0.183496486674,0.204688578025
1588764619166369943,4149,1588764619166209068,,0.501465111067,-0.183683823056,0.204541023368
1588764619172438569,4150,1588764619172271662,,0.50146391243,-0.183778070124,0.204474457742
1588764619178286453,4151,1588764619178129554,,0.50146531599,-0.183974260386,0.204328849435
1588764619184695133,4152,1588764619184585878,,0.501464723097,-0.184072839885,0.204254247406
1588764619190461235,4153,1588764619190298919,,0.501464187919,-0.184274504316,0.204110141277
1588764619196453356,4154,1588764619196240021,,0.501462471062,-0.18437085253,0.204037632697
1588764619202410563,4155,1588764619202267246,,0.501461449805,-0.184560079679,0.203904550626
1588764619208331493,4156,1588764619208195646,,0.501460307288,-0.184655175744,0.203825494538
1588764619217299330,4157,1588764619217184378,,0.501466891662,-0.184926680636,0.203619403369
1588764619223310924,4158,1588764619223208816,,0.501473807235,-0.185100671516,0.203492177129
1588764619226290148,4159,1588764619226210565,,0.501478580605,-0.185186635373,0.203428484827
1588764619232332748,4160,1588764619232221723,,0.501482328483,-0.185364455024,0.203290446904
1588764619238224437,4161,1588764619238156531,,0.50148689972,-0.185454068938,0.203221087771
1588764619241238187,4162,1588764619241121788,,0.501485518198,-0.185644983812,0.203082837669
1588764619253349532,4163,1588764619253215755,,0.501478160408,-0.185936302827,0.202869614222
1588764619259368145,4164,1588764619259181470,,0.501473956651,-0.186036931837,0.202797756163
1588764619262396077,4165,1588764619262261022,,0.501470205917,-0.186237085219,0.20265801771
1588764619268467247,4166,1588764619268358559,,0.501467263878,-0.186341029842,0.202587098814
1588764619277368416,4167,1588764619277189434,,0.501459466648,-0.186648725851,0.202382814799
1588764619286344677,4168,1588764619286150959,,0.501460102729,-0.186931654882,0.202183795355
1588764619289243061,4169,1588764619289150919,,0.501460984655,-0.187108549503,0.202041420823
1588764619292367877,4170,1588764619292204820,,0.501463132514,-0.187193335348,0.201972970201
1588764619298369048,4171,1588764619298250916,,0.50146672998,-0.187362505913,0.20183443512
1588764619304412897,4172,1588764619304212698,,0.50146832885,-0.187442890167,0.201764088097
1588764619313318556,4173,1588764619313153009,,0.501474010733,-0.187699653133,0.201572243679
1588764619319413210,4174,1588764619319219284,,0.50147406941,-0.187785890094,0.201509604703
1588764619322285368,4175,1588764619322180836,,0.50147541873,-0.187876958549,0.201451325924
1588764619325300574,4176,1588764619325162087,,0.501474853513,-0.187966651024,0.201388327767
1588764619328341211,4177,1588764619328197002,,0.501475480251,-0.188156471357,0.201258737843
1588764619331386471,4178,1588764619331250579,,0.501476026094,-0.188349981143,0.201130127986
1588764619337296680,4179,1588764619337152961,,0.501472818042,-0.188446397312,0.20106080331
1588764619340309711,4180,1588764619340158951,,0.501471839895,-0.18854351328,0.200994859042
1588764619346283324,4181,1588764619346168962,,0.501466875257,-0.188737434196,0.200859790892
1588764619349316329,4182,1588764619349158789,,0.501464855102,-0.188922293421,0.200722700951
1588764619352298121,4183,1588764619352193664,,0.501464116161,-0.189016654754,0.200654847735
1588764619355313933,4184,1588764619355173596,,0.501463291338,-0.189196974227,0.200522445999
1588764619358258394,4185,1588764619358160060,,0.50146283535,-0.18928523782,0.200458371393
1588764619361336606,4186,1588764619361170216,,0.501463120637,-0.189457229102,0.200331199954
1588764619368395118,4187,1588764619368287295,,0.501463653943,-0.189544443639,0.200270598183
1588764619373432488,4188,1588764619373244373,,0.501463368479,-0.189630871352,0.200208100137
1588764619379442971,4189,1588764619379279356,,0.501462978891,-0.18980001882,0.200091176106
1588764619385415273,4190,1588764619385308568,,0.501461870788,-0.189881933455,0.200030774909
1588764619391460108,4191,1588764619391297209,,0.501461481693,-0.190054205615,0.199911263416
1588764619397441486,4192,1588764619397286043,,0.501460228556,-0.190137223535,0.199847257871
1588764619403523457,4193,1588764619403301983,,0.50146116233,-0.190224894864,0.199790387982
1588764619409453503,4194,1588764619409304266,,0.501459239806,-0.190392777569,0.19967160894
1588764619415409184,4195,1588764619415249813,,0.501457120549,-0.190480839906,0.199611461132
1588764619421352919,4196,1588764619421220886,,0.501455590249,-0.190649559948,0.199494739539
1588764619427910518,4197,1588764619427822135,,0.501456248538,-0.190735890564,0.19943044076
1588764619433466131,4198,1588764619433301277,,0.501454890383,-0.190905613483,0.199302670516
1588764619439409613,4199,1588764619439300321,,0.50145194542,-0.190987894324,0.199236969366
1588764619445391377,4200,1588764619445235335,,0.501450371872,-0.191148538416,0.199117655969
1588764619451449806,4201,1588764619451216153,,0.501448640483,-0.191228023354,0.19905499989
1588764619457410102,4202,1588764619457272500,,0.501449522402,-0.191379062107,0.198936435939
1588764619463457353,4203,1588764619463277425,,0.501451816663,-0.191454055241,0.198877219971
1588764619469528019,4204,1588764619469313807,,0.501452543775,-0.191528378468,0.198822634289
1588764619475336768,4205,1588764619475191989,,0.501452444238,-0.191604328022,0.198768446659
1588764619481568884,4206,1588764619481412189,,0.501453749366,-0.19167799721,0.198717307294
1588764619487836420,4207,1588764619487752821,,0.501455887531,-0.191753716349,0.198669268203
1588764619493418868,4208,1588764619493253847,,0.501454635747,-0.191829629187,0.198614962754
1588764619499379101,4209,1588764619499215392,,0.501455808668,-0.191954442457,0.19852552423
1588764619505410313,4210,1588764619505274090,,0.501456317195,-0.192034119224,0.198474597669
1588764619511329099,4211,1588764619511229681,,0.501455362872,-0.192121250699,0.198423929464
1588764619517326440,4212,1588764619517260668,,0.501450970907,-0.192253050654,0.198326534971
1588764619523405222,4213,1588764619523293702,,0.501449613641,-0.192335701623,0.198275286387
1588764619529339174,4214,1588764619529250847,,0.501448125425,-0.192404605211,0.198229097526
1588764619535370317,4215,1588764619535236022,,0.501445840412,-0.19247516745,0.198172885205
1588764619541326955,4216,1588764619541238894,,0.501441889098,-0.192548165945,0.198128390523
1588764619550317476,4217,1588764619550225820,,0.50143314962,-0.192752027482,0.197980148037
1588764619556496696,4218,1588764619556292140,,0.501433685929,-0.192823516102,0.197928390037
1588764619562273038,4219,1588764619562191602,,0.501432618926,-0.192893832131,0.197877587061
1588764619568644175,4220,1588764619568536485,,0.50143454149,-0.193032166022,0.197774879562
1588764619577389942,4221,1588764619577275563,,0.501433053903,-0.193236594019,0.197629429009
1588764619583669299,4222,1588764619583586797,,0.501432751582,-0.193297539973,0.197579027557
1588764619589435121,4223,1588764619589292502,,0.501435228867,-0.193428281023,0.197479346442
1588764619595409418,4224,1588764619595292770,,0.501436603743,-0.193487928627,0.197429562402
1588764619601888940,4225,1588764619601790124,,0.501438479284,-0.193551151099,0.197386095276
1588764619607815039,4226,1588764619607733893,,0.501439146354,-0.193610804688,0.197341258372
1588764619613512175,4227,1588764619613304446,,0.501438433095,-0.193733239778,0.197255136531
1588764619619460835,4228,1588764619619299591,,0.501438176236,-0.193794942855,0.197214468684
1588764619622410938,4229,1588764619622277470,,0.501437385884,-0.193855259276,0.197167614322
1588764619625357702,4230,1588764619625271265,,0.501437517769,-0.193960094423,0.197088119421
1588764619631432695,4231,1588764619631245016,,0.50143712562,-0.194023796443,0.197045655004
1588764619637369028,4232,1588764619637263477,,0.50143538393,-0.194093767672,0.197001451829
1588764619643441503,4233,1588764619643251434,,0.501432180606,-0.194138728096,0.196971476227
1588764619646493163,4234,1588764619646336049,,0.501429541527,-0.194261922753,0.196886062928
1588764619652484965,4235,1588764619652315623,,0.501428148856,-0.194317237409,0.196852767344
1588764619658434187,4236,1588764619658298632,,0.50142900126,-0.194366939702,0.196812928321
1588764619664328800,4237,1588764619664209324,,0.501428601271,-0.194396576412,0.196782799189
1588764619670368864,4238,1588764619670229495,,0.501427988763,-0.194478670664,0.1967173517
1588764619673352634,4239,1588764619673259048,,0.50142676938,-0.194518896428,0.196694536366
1588764619679400957,4240,1588764619679264706,,0.501428672757,-0.194544806521,0.196670967688
1588764619685456030,4241,1588764619685314355,,0.501431569362,-0.19459096066,0.196637246132
1588764619691412310,4242,1588764619691236880,,0.50143492626,-0.194636606887,0.196607620399
1588764619694569222,4243,1588764619694448560,,0.501437564149,-0.194679395638,0.19657119828
1588764619700297123,4244,1588764619700191731,,0.501437816581,-0.194701096468,0.196550558072
1588764619706372263,4245,1588764619706257231,,0.501437167951,-0.194723527038,0.196539413783
1588764619709374405,4246,1588764619709275514,,0.50143506988,-0.194746206562,0.19652604806
1588764619712494252,4247,1588764619712309780,,0.501434427641,-0.194768514106,0.196506440188
1588764619715333907,4248,1588764619715248966,,0.50143776959,-0.194802624945,0.196482594946
1588764619718438657,4249,1588764619718305430,,0.501440517753,-0.194838878305,0.196460744515
1588764619724428195,4250,1588764619724219383,,0.501442948339,-0.194853164397,0.196444952365
1588764619730426471,4251,1588764619730258086,,0.50144461282,-0.194888734816,0.196417076309
1588764619733413587,4252,1588764619733288212,,0.501443349493,-0.194903773822,0.196408121357
1588764619739418636,4253,1588764619739294496,,0.501441352023,-0.194916929495,0.196400281777
1588764619745411161,4254,1588764619745251743,,0.501442446106,-0.194945907383,0.1963783825
