%time,field.header.seq,field.header.stamp,field.header.frame_id,field.wrench.force.x,field.wrench.force.y,field.wrench.force.z,field.wrench.torque.x,field.wrench.torque.y,field.wrench.torque.z
1588764048913089702,799,1588764048912864817,,-0.0222280378184,-0.48120166926,-0.000594059008661,0.0,0.0,0.0
1588764048915929177,800,1588764048915833187,,-0.0212121444025,-0.348441142225,-0.000524042851694,0.0,0.0,0.0
1588764048921973662,801,1588764048921893437,,-0.0212095654054,-0.348441295818,-0.000526298134635,0.0,0.0,0.0
1588764048925178653,802,1588764048925034689,,-0.062729167262,-0.349117886429,0.0191510682247,0.0,0.0,0.0
1588764048927984688,803,1588764048927877243,,-0.062729091305,-0.349117903597,0.0191510040482,0.0,0.0,0.0
1588764048934239867,804,1588764048934136822,,-0.0579588722284,-0.217141236486,-0.0011344559726,0.0,0.0,0.0
1588764048937090140,805,1588764048936922216,,-0.0579580210185,-0.217141474657,-0.00113235449752,0.0,0.0,0.0
1588764048939952112,806,1588764048939871233,,-0.0382651384788,-0.21645237977,-0.0197738687197,0.0,0.0,0.0
1588764048946174779,807,1588764048946056098,,-0.0416961747649,-0.34865384245,-0.000888497121075,0.000206751989902,0.000330571241862,2.73487117274e-05
1588764048949065706,808,1588764048948974044,,-0.0627222265089,-0.349118875715,0.019155766372,0.00222461847136,0.00181808410888,0.000355169306842
1588764048952023067,809,1588764048951887972,,-0.0627273061972,-0.3491182622,0.0191503138328,0.00222464434436,0.00181804643006,0.000355200120873
1588764048958348085,810,1588764048958243460,,-0.062351373678,-0.349026994146,-0.00127501891537,0.0019108545818,0.00169922289989,0.000715062257355
1588764048961319034,811,1588764048961217149,,-0.0627382193865,-0.349116708392,0.0191428893833,0.00515440687235,0.00308033263539,0.00132829977218
1588764048964019762,812,1588764048963886690,,-0.0424894888713,-0.349001447885,0.0399160127695,0.00740943846426,0.0040104498886,0.000421206595637
1588764048970084946,813,1588764048969987842,,-0.0429133897281,-0.349416172683,0.0603919633082,0.0124072923182,0.00543736354381,0.00164889030788
1588764048972963442,814,1588764048972847034,,-0.0429139912695,-0.349416485174,0.060389727802,0.0124073076654,0.00543732620704,0.00164889794599
1588764048975950833,815,1588764048975869930,,-0.0450537078716,-0.482082767471,0.0836608079513,0.0148805321201,0.00581488511278,0.0023619467169
1588764048982051664,816,1588764048981942337,,-0.0454781522044,-0.482496524866,0.104892508612,0.0164489999683,0.00600313201437,0.00187228663923
1588764048985088048,817,1588764048984981457,,-0.0668559312262,-0.482672594885,0.104553383195,0.018319780736,0.00625363450019,0.00433055709106
1588764048988053683,818,1588764048987910199,,-0.0470477262572,-0.615153506003,0.128498790604,0.020776763416,0.00647436803416,0.00398422692993
1588764048993998021,819,1588764048993916919,,-0.0474766749748,-0.615530479106,0.150174957115,0.0232273427025,0.00618009554324,0.00347219394498
1588764048997013189,820,1588764048996897615,,-0.0468010925102,-0.484171240178,0.169040834181,0.0294060316277,0.0070632007806,0.00377647021961
1588764048999999808,821,1588764048999907138,,-0.048340877011,-0.616425164404,0.193731015887,0.0311219338858,0.00768892072163,0.00527316315439
1588764049006063138,822,1588764049005952673,,-0.0483459242898,-0.616424672033,0.193731323052,0.0347299363127,0.00786399954968,0.00544980451044
1588764049009039914,823,1588764049008967807,,-0.0933339146128,-0.618235658099,0.258704826763,0.0415709211392,0.00759432580987,0.00926273090034
1588764049011962922,824,1588764049011903121,,-0.0933313817732,-0.618237454082,0.258701448584,0.0415709161625,0.00759440602343,0.00926268746996
1588764049018100222,825,1588764049018021542,,-0.0719866578563,-0.61871467635,0.280972794406,0.0431998384338,0.00763426860433,0.00794904202272
1588764049021161906,826,1588764049021092145,,-0.0724557571049,-0.61932629672,0.302983681064,0.0494481976009,0.00837258271649,0.00978092785829
1588764049027166567,827,1588764049027038445,,-0.0734714803728,-0.75068225178,0.30596769912,0.0521676412716,0.00786665040795,0.011469766974
1588764049030288221,828,1588764049030161630,,-0.0959843970058,-0.75123957401,0.327769629296,0.0593265072796,0.00859111923945,0.0140539915681
1588764049033252526,829,1588764049033131932,,-0.0959862116701,-0.751236891562,0.327775245925,0.0593267173312,0.00859078666108,0.0140533081526
1588764049039026803,830,1588764049038943998,,-0.0964503253445,-0.751744789743,0.350058448449,0.0628171931812,0.0086470124862,0.0142122742955
1588764049042109422,831,1588764049041994033,,-0.0756299757631,-0.88375174181,0.375188594776,0.0690296034839,0.00873487247205,0.0146069899934
1588764049045125322,832,1588764049045007022,,-0.0760737893579,-0.884181915172,0.397522344301,0.0707128564919,0.00875818323117,0.0154981390524
1588764049051079304,833,1588764049050967946,,-0.120088640929,-0.753415960848,0.416615771325,0.0742213263434,0.00880234876984,0.0170144046603
1588764049054041472,834,1588764049053945282,,-0.143435397714,-0.884786196368,0.418915875048,0.0796847964258,0.00886179954232,0.0187481590635
1588764049056955092,835,1588764049056878413,,-0.143913644504,-0.885223714197,0.441316225024,0.0822772995179,0.0088885333859,0.0205068959601
1588764049063279744,836,1588764049063164802,,-0.122975301248,-1.01719050495,0.466327681268,0.0839552789718,0.00950998795947,0.0190514899407
1588764049066120194,837,1588764049066020451,,-0.100921470621,-1.01754860301,0.489184710799,0.0883564910152,0.0095442502433,0.0176838145114
1588764049069137649,838,1588764049069053021,,-0.0791175941769,-1.14939552812,0.491517025398,0.0901788259305,0.00955708733829,0.0162157720419
1588764049075180508,839,1588764049075043246,,-0.101625381228,-1.14939216365,0.491140480611,0.0920009180426,0.00957147459751,0.0169751198109
1588764049078181538,840,1588764049078047582,,-0.102061538874,-1.14972544612,0.513795862497,0.0955149856222,0.00959477999926,0.0154080838843
1588764049081126060,841,1588764049081028994,,-0.102072287806,-1.14972877171,0.513786285388,0.0982566242155,0.0096123800253,0.0154924759092
1588764049087175924,842,1588764049087038363,,-0.102073456708,-1.1497286311,0.51378636782,0.0982567129518,0.00961210053349,0.0154920865285
1588764049090166409,843,1588764049090076490,,-0.0799965302172,-1.1500722727,0.536738418834,0.102713220339,0.00901542281073,0.00985797101074
1588764049093124845,844,1588764049093016083,,-0.0799964010582,-1.15007555666,0.536731401483,0.102713276218,0.00901517753114,0.00985761309761
1588764049099203107,845,1588764049099084966,,-0.0804235822513,-1.15042147427,0.559323026885,0.105302075182,0.00840730660234,0.00992058354721
1588764049102329348,846,1588764049102158669,,-0.0804257745761,-1.15041735182,0.559331190673,0.105302154478,0.00840694193206,0.0099200508799
1588764049105211024,847,1588764049105043224,,-0.0583001791938,-1.28239510087,0.561454085528,0.107158945341,0.00841493890042,0.00757143208244
1588764049111131584,848,1588764049111025240,,-0.0587046184788,-1.28270823145,0.584075056011,0.109766781257,0.00842775275283,0.0067863113127
1588764049114143010,849,1588764049114051018,,-0.0591283749758,-1.28301996904,0.606822960345,0.112392275972,0.00843800647652,0.00514159900097
1588764049117079105,850,1588764049116904271,,-0.0587077330716,-1.28269776635,0.584097725211,0.114382322123,0.00844505213248,0.00433362813554
1588764049123264749,851,1588764049123148353,,-0.0591221017555,-1.28301500768,0.606834061374,0.117941083372,0.00784162521663,0.00185830067817
1588764049126324390,852,1588764049126144219,,-0.0591255540531,-1.2830139493,0.606835962712,0.117941070469,0.0078416518377,0.00185900717442
1588764049132222373,853,1588764049132123836,,-0.0373080065307,-1.41539644951,0.63146878188,0.122443751911,0.00722965056178,-0.00218747959082
1588764049135130403,854,1588764049135025313,,-0.0372949360778,-1.41540156665,0.63145808413,0.122443689641,0.00723056135745,-0.00218795465325
1588764049138174839,855,1588764049138036326,,-0.0147165089666,-1.28374588632,0.65295275345,0.124184375839,0.0072347828649,-0.00459001035512
1588764049144193433,856,1588764049144089617,,-0.0147190537021,-1.28374485004,0.65295473348,0.125093887391,0.00723775571981,-0.00457480833809
1588764049147154428,857,1588764049147053912,,-0.0147002427714,-1.28374163131,0.652961485406,0.128831064522,0.00724904175223,-0.00794925560297
1588764049150229881,858,1588764049150132738,,0.00750266857994,-1.28412515188,0.676057899584,0.131515823572,0.00662325413308,-0.0112117937311
1588764049156275645,859,1588764049156109710,,0.00750445765149,-1.28411688002,0.676073591311,0.131515707144,0.00662233869232,-0.0112137000393
1588764049159659727,860,1588764049159464484,,0.00749335604227,-1.28412523536,0.676057844302,0.133362366426,0.00600061848556,-0.0120508094968
1588764049165085116,861,1588764049164990733,,0.00709490351543,-1.28445637087,0.698854912354,0.135065244793,0.00600370467601,-0.0128900379488
1588764049168167073,862,1588764049168021057,,0.00709434910823,-1.28445204199,0.698862874156,0.138823668953,0.00601013300307,-0.0162960913695
1588764049171122129,863,1588764049171025889,,0.00639957049309,-1.41665346054,0.723248436239,0.141487989008,0.00537743807146,-0.0188629204271
1588764049177357990,864,1588764049177186884,,0.00638384186016,-1.41665308404,0.723249312706,0.141488202882,0.00537654730597,-0.0188615700632
1588764049180161483,865,1588764049180056516,,0.028667228704,-1.41702440863,0.746392189539,0.145086884352,0.00538046192012,-0.022152069321
1588764049183239593,866,1588764049183140303,,0.0510487646826,-1.41739619516,0.769574484727,0.147786816912,0.00474561902847,-0.0254608459134
1588764049186131221,867,1588764049186028736,,0.051045767861,-1.41739398703,0.76957875041,0.147786638584,0.00474456194717,-0.0254620779876
1588764049192204096,868,1588764049192110492,,0.0725572585438,-1.41839247448,0.838425631502,0.152018789945,0.00474578739592,-0.0287672644214
1588764049195225811,869,1588764049195123892,,0.0725675498314,-1.41838539563,0.838436716241,0.152018689021,0.00474643166437,-0.0287676914557
1588764049197958772,870,1588764049197885352,,0.0729656665826,-1.41807395167,0.815659286659,0.154038244297,0.00474708858774,-0.0304905459097
1588764049204220848,871,1588764049204114131,,0.0956668599036,-1.55007660389,0.817614257098,0.158734678706,0.00410772331666,-0.0346825379129
1588764049207092941,872,1588764049206995049,,0.0956604018644,-1.55006602493,0.817635068535,0.158734776515,0.00410680943905,-0.0346821984879
1588764049213150741,873,1588764049213061665,,0.0724251946684,-1.55024769812,0.840016097545,0.159503051991,0.0034740875466,-0.0348268380288
1588764049216091534,874,1588764049216000372,,0.0724071618379,-1.55025790918,0.839998807403,0.162328303038,0.00347333437497,-0.0374206011174
1588764049219024981,875,1588764049218962342,,0.0944748134893,-1.55090146388,0.886148489902,0.164823057275,0.00347190853592,-0.0390242952999
1588764049224977130,876,1588764049224889741,,0.0944979949539,-1.55089752914,0.886152904554,0.166712765603,0.00347323654793,-0.0407603543053
1588764049228020641,877,1588764049227896860,,0.116867492008,-1.55127082423,0.909407198334,0.169409305771,0.00282886211502,-0.0441105974232
1588764049231136880,878,1588764049231034127,,0.116764217089,-1.68322110091,0.910827015798,0.171290310604,0.00282894484907,-0.0458590434433
1588764049234314865,879,1588764049234170895,,0.139290824889,-1.6835806158,0.93408354854,0.17484792738,0.00282677523004,-0.0474581166956
1588764049240155431,880,1588764049240052569,,0.139296507376,-1.68357808145,0.934087269016,0.174847765891,0.00282692629559,-0.047458702661
1588764049243318320,881,1588764049243202794,,0.138900326266,-1.68383709631,0.957036537496,0.177553691241,0.00218159290348,-0.0509591762072
1588764049249124371,882,1588764049249027556,,0.161642252525,-1.81596968623,0.958765287193,0.181307197127,0.00153986388385,-0.0543255553634
1588764049252204817,883,1588764049252067339,,0.161610767892,-1.81596497602,0.958779516158,0.181307762807,0.00153730766549,-0.0543237398147
1588764049255135728,884,1588764049255053096,,0.161203843461,-1.81621659837,0.981621385003,0.183953534793,0.00153332520823,-0.0560698304905
1588764049261410136,885,1588764049261280462,,0.138351480886,-1.81612677215,0.981182444355,0.184874342322,0.00153146708306,-0.0562172017938
1588764049264325381,886,1588764049264108112,,0.160415307733,-1.81670182433,1.02736522983,0.190159474084,0.0015230173072,-0.0595757238184
1588764049267103757,887,1588764049266981522,,0.229374254287,-2.08105757559,1.00808868172,0.191289938139,0.00151983854975,-0.0617891331282
1588764049273279380,888,1588764049273161327,,0.229381479081,-2.08105667484,1.00808889728,0.192234945515,0.00151914631492,-0.0626765480442
1588764049276157364,889,1588764049276061465,,0.205658384762,-2.08135776874,1.05357237836,0.195710291238,0.000863844728696,-0.0663410381546
1588764049279083175,890,1588764049278983221,,0.22857864564,-2.08145365437,1.05401120236,0.196669243322,0.000862647077742,-0.0679623223813
1588764049285105276,891,1588764049285027989,,0.22816350614,-2.08165936335,1.07692354047,0.199314167968,0.000856581476937,-0.0697275605633
1588764049288182735,892,1588764049288090830,,0.250781911357,-2.08198083436,1.1002540463,0.202867344786,0.000201326465854,-0.0713427054374
1588764049291184996,893,1588764049291091199,,0.250790062027,-2.08197069568,1.10027137343,0.203812371207,0.000200348573571,-0.0722321992332
1588764049297275088,894,1588764049297166129,,0.250725149802,-2.21416525369,1.10133477586,0.205691241751,0.00019485728976,-0.0739942268998
1588764049300106491,895,1588764049300025629,,0.249960500017,-2.21454809073,1.14729282397,0.210949944034,-0.00045599021756,-0.0766425503336
1588764049303173908,896,1588764049303092209,,0.272526167754,-2.21483839738,1.17067131527,0.213647532373,-0.000458762021437,-0.0800419979852
1588764049309167683,897,1588764049309082050,,0.272555468181,-2.21482229043,1.17069496694,0.213646914565,-0.000457744452627,-0.0800436528376
1588764049312198262,898,1588764049312117187,,0.295236777932,-2.21512552546,1.19406103184,0.219107826459,-0.000464548932951,-0.0843269222615
1588764049315154251,899,1588764049315077949,,0.295230185682,-2.21511115892,1.19408931301,0.219108363272,-0.00046545451464,-0.0843255224468
1588764049321212794,900,1588764049321070936,,0.272137130995,-2.34724596693,1.19460499113,0.220026865158,-0.001107289218,-0.0844602571341
1588764049327074477,901,1588764049326974957,,0.294887371597,-2.21531253759,1.21701334195,0.225486089595,-0.00176631036988,-0.0887467908765
1588764049333219608,902,1588764049333107243,,0.317489092583,-2.21563044868,1.24046487973,0.227210600606,-0.00176641742425,-0.0903780520687
1588764049336005588,903,1588764049335886220,,0.317080564093,-2.34801618483,1.26439225598,0.229911185741,-0.00176982199092,-0.0939431066698
1588764049339208033,904,1588764049339132908,,0.34017358208,-2.21593424989,1.26386204242,0.231784733369,-0.0017715747428,-0.0955731361466
1588764049345234407,905,1588764049345110905,,0.340185673525,-2.21592830317,1.26386921427,0.234575278523,-0.00243027209492,-0.0973416695533
1588764049348232663,906,1588764049348128571,,0.339831650019,-2.21613122162,1.28681220267,0.237243629559,-0.00243472690901,-0.100016915615
1588764049351339583,907,1588764049351177912,,0.316771925574,-2.21603490532,1.28635159383,0.237277324583,-0.00307724917377,-0.1010551181
1588764049357246483,908,1588764049357113456,,0.362408513472,-2.21643231068,1.31033092889,0.239968997246,-0.00308510959144,-0.104328540574
1588764049360229476,909,1588764049360099928,,0.362413208823,-2.21643806045,1.31031990443,0.243700871126,-0.00374931433982,-0.107000937935
1588764049363134934,910,1588764049363048782,,0.362468053991,-2.2164581869,1.31027068853,0.245519379489,-0.00374598199095,-0.106993707241
1588764049369145513,911,1588764049369045936,,0.385454715815,-2.21654635606,1.31074848506,0.24742051276,-0.0030939500587,-0.109529918781
1588764049372061417,912,1588764049371977960,,0.385071474642,-2.21674952029,1.33371040648,0.248298211851,-0.00375122381455,-0.11310901319
1588764049375077054,913,1588764049374960447,,0.384788319091,-2.34911895587,1.35756522855,0.250878786621,-0.00374625533906,-0.113101933978
1588764049381010514,914,1588764049380907736,,0.384783535378,-2.34911699588,1.35756997599,0.251821432549,-0.00374921736928,-0.113991422817
1588764049384275043,915,1588764049384172036,,0.407898042557,-2.34921383839,1.35802627684,0.254595177248,-0.00375500211671,-0.11562923736
1588764049387200370,916,1588764049387112560,,0.407905915469,-2.34921769947,1.35801723288,0.256498878117,-0.00375803891832,-0.118313226173
1588764049393272878,917,1588764049393112744,,0.407909212338,-2.34922112265,1.35801032086,0.256498691204,-0.00375760012363,-0.118313645331
1588764049396246831,918,1588764049396164721,,0.407540370187,-2.34939080482,1.38101931638,0.259175724277,-0.00376425844829,-0.12099594999
1588764049402276253,919,1588764049402184765,,0.430139406686,-2.34967627831,1.404572744,0.262717545843,-0.00443016697423,-0.122623117952
1588764049405235704,920,1588764049405140127,,0.430126858441,-2.34967264896,1.40458265815,0.26271784719,-0.00443162170202,-0.122622419755
1588764049408197515,921,1588764049408109047,,0.406699186636,-2.34975234724,1.42714260239,0.265388794591,-0.00509208240954,-0.125448382149
1588764049414256378,922,1588764049414147669,,0.406694318666,-2.34974274715,1.4271597958,0.265389353043,-0.00509274050127,-0.125447174009
1588764049417394367,923,1588764049417275971,,0.429256892189,-2.48218145122,1.45155905421,0.269908970272,-0.00511027234075,-0.128871430254
1588764049420244813,924,1588764049420158619,,0.429208540018,-2.48217681858,1.45158127386,0.26990921268,-0.00511621650674,-0.128870686704
1588764049426285191,925,1588764049426183636,,0.451942973975,-2.48247285399,1.47500801728,0.274498717255,-0.00644291470666,-0.135003704435
1588764049429228419,926,1588764049429128770,,0.451928481008,-2.48245519488,1.47504217806,0.27449947304,-0.00644530246179,-0.135002053735
1588764049432402697,927,1588764049432183127,,0.474915861937,-2.35043671186,1.47455398018,0.275427430178,-0.00644627155358,-0.135749271429
1588764049438328133,928,1588764049438219683,,0.47453708058,-2.35064662596,1.49762034017,0.277164930685,-0.00644796458162,-0.137533491308
1588764049441089396,929,1588764049441003350,,0.474172103917,-2.48296168625,1.52153364969,0.280716503315,-0.00711496387614,-0.139318226896
1588764049450105838,930,1588764049449967740,,0.497308012971,-2.48309020199,1.52194864529,0.282666192319,-0.0071198320827,-0.143671409992
1588764049452998125,931,1588764049452924305,,0.496906523652,-2.6154540711,1.54581755694,0.288092983373,-0.00778262136093,-0.147238694001
1588764049455990116,932,1588764049455918286,,0.542191348721,-2.61600274617,1.59287128633,0.289671989166,-0.00713872518524,-0.148736361455
1588764049462473657,933,1588764049462386223,,0.542178753471,-2.61600469908,1.59287236623,0.291573600123,-0.00714400996266,-0.151430381411
1588764049465089773,934,1588764049464989326,,0.541777369939,-2.61617767659,1.61589760321,0.297929232708,-0.00781130414071,-0.155896971908
1588764049468130928,935,1588764049468022272,,0.541754787393,-2.61617603827,1.61590782698,0.297929866418,-0.00781354144855,-0.155895648723
1588764049474010900,936,1588764049473937234,,0.540901702128,-2.61650389337,1.66201419951,0.299487123338,-0.00848671313896,-0.156790090956
1588764049477030763,937,1588764049476923825,,0.563906400192,-2.61659145882,1.66254993711,0.303260592351,-0.00851023872181,-0.161124735361
1588764049480029566,938,1588764049479944832,,0.56438618423,-2.61640302197,1.6395170535,0.303433422004,-0.00916513087121,-0.16203107905
1588764049486063729,939,1588764049485982399,,0.564356526348,-2.61639849682,1.63953448395,0.304402132577,-0.00917224781744,-0.163835138671
1588764049489018934,940,1588764049488937175,,0.586983716788,-2.7488126758,1.66393917042,0.307938367661,-0.0091925782957,-0.16546786392
1588764049492032844,941,1588764049491955887,,0.586664537669,-2.74899918023,1.68700776444,0.309671597354,-0.00918897274223,-0.167262458319
1588764049498131837,942,1588764049498049414,,0.586391105246,-2.74918322195,1.70997057361,0.311360396089,-0.00983574640233,-0.16817324074
1588764049501024478,943,1588764049500939230,,0.632590400479,-2.74938392772,1.71091350233,0.314218836819,-0.00919767687263,-0.172384743673
1588764049510081094,944,1588764049509972920,,0.632576145743,-2.88160847732,1.71169317159,0.315157735129,-0.00920565798523,-0.17328320832
1588764049513020575,945,1588764049512941385,,0.632194993349,-2.88174138399,1.7347682199,0.318725023175,-0.00986701199242,-0.175971517947
1588764049516041030,946,1588764049515977272,,0.655383039616,-2.88180670337,1.7352875981,0.319659957424,-0.00987396602945,-0.176728029506
1588764049522084990,947,1588764049522009858,,0.631403013266,-3.01422173574,1.78184257541,0.32403372149,-0.0105544067832,-0.180456865287
1588764049525240306,948,1588764049525139337,,0.631364829404,-3.01421249493,1.78187173738,0.324034803199,-0.0105587643543,-0.180454668008
1588764049528237375,949,1588764049528145282,,0.631700825109,-3.14637617252,1.75953829447,0.324200687342,-0.0105632454527,-0.181357024922
1588764049534210895,950,1588764049534138916,,0.585809839949,-2.88142454845,1.73408940701,0.315987133267,-0.0105456058929,-0.175367122206
1588764049537361715,951,1588764049537256401,,0.609834989773,-3.14570774995,1.69011477081,0.294013452438,-0.00653350526228,-0.160893978704
1588764049543269151,952,1588764049543178561,,0.60999891474,-3.14546074958,1.69051527595,0.29401521336,-0.00653703418835,-0.160890617457
1588764049546141591,953,1588764049546060522,,0.565406378543,-2.88005953973,1.59584358566,0.286214295748,-0.00586112160781,-0.154933037438
1588764049549182275,954,1588764049549093466,,0.473830496702,-2.8794610894,1.54770930507,0.281838800149,-0.00715063924415,-0.151034949519
1588764049555079391,955,1588764049555012975,,0.47411602712,-2.87951645257,1.5475188497,0.281832621952,-0.00712054211294,-0.151047899592
1588764049558517947,956,1588764049558421205,,0.566294204865,-2.88012360676,1.57215468496,0.283620798349,-0.00644620691452,-0.154965662178
1588764049561595701,957,1588764049561523435,,0.565596474126,-2.88044462084,1.59508102926,0.284383339841,-0.00713034967231,-0.154966741426
1588764049567175642,958,1588764049567085470,,0.565319760869,-2.88064260922,1.61798926012,0.28699229174,-0.00646073517254,-0.155853265433
1588764049570081649,959,1588764049570001008,,0.542247566783,-3.01285404903,1.6182407423,0.290722889821,-0.00776754410845,-0.158682647662
1588764049573266451,960,1588764049573185584,,0.542624867149,-2.88033715917,1.59457845516,0.291861515392,-0.00777593975094,-0.161381889447
1588764049579244839,961,1588764049579162175,,0.542176506503,-2.88046397362,1.61767375175,0.292654783055,-0.00844422412846,-0.162271860398
1588764049582263297,962,1588764049582101992,,0.588291266725,-3.01301868107,1.6192623285,0.293611390977,-0.00778911380665,-0.163770112734
1588764049585207304,963,1588764049585123863,,0.588197185979,-3.14538157069,1.61996332532,0.292687927233,-0.00713697959273,-0.162862750354
1588764049591170696,964,1588764049591057224,,0.565032800146,-3.14529671729,1.6195235724,0.290857077064,-0.00712965279292,-0.162100924199
1588764049594251334,965,1588764049594154236,,0.563835123693,-3.14568544865,1.68880293922,0.293127810438,-0.00713382163635,-0.161179367679
1588764049597253521,966,1588764049597135166,,0.563740070854,-3.1457122806,1.68878469211,0.293128995882,-0.00714016258998,-0.16117693098
1588764049603421159,967,1588764049603295261,,0.609515083471,-3.41078886586,1.71407651583,0.29865452248,-0.0071584617859,-0.168067824965
1588764049606078684,968,1588764049606002820,,0.609432259251,-3.41078079611,1.71412202275,0.298654806503,-0.00716747587782,-0.16806693608
1588764049609306832,969,1588764049609168840,,0.609431883434,-3.27839896157,1.71346768211,0.301428666008,-0.00782971925155,-0.169863820244
1588764049615262025,970,1588764049615151369,,0.632045395675,-3.41105651572,1.7375486245,0.303182101998,-0.0078381061387,-0.172424255291
1588764049618281713,971,1588764049618150630,,0.654784336843,-3.41134561961,1.76105212642,0.309550677319,-0.00918652132521,-0.177674573417
1588764049627161588,972,1588764049627089892,,0.723766940755,-3.54421344917,1.78598674915,0.321530610901,-0.0098789424386,-0.188024368393
1588764049630199904,973,1588764049630099184,,0.72337588743,-3.54435828,1.80900499893,0.326975078649,-0.0105544600329,-0.192523278697
1588764049636217425,974,1588764049636134403,,0.723472295447,-3.41193611916,1.80842619235,0.328870878302,-0.0112188687841,-0.195231291628
1588764049639310387,975,1588764049639161352,,0.74615901125,-3.54458608035,1.83248316358,0.335267952941,-0.0118872488742,-0.201375400508
1588764049642328380,976,1588764049642205324,,0.769037127746,-3.54478529483,1.8561247103,0.337930552805,-0.0118887350901,-0.203931395876
1588764049648221470,977,1588764049648088399,,0.768213781605,-3.67744317887,1.902833587,0.341337093737,-0.0125607163024,-0.205715256723
1588764049651069739,978,1588764049650995183,,0.76780159779,-3.67755934038,1.92592268891,0.343979493898,-0.0125617868359,-0.207500829695
1588764049654151812,979,1588764049654054945,,0.813708461514,-3.67784686553,1.95007363155,0.346718422639,-0.0125748228308,-0.212620471203
1588764049660317104,980,1588764049660210964,,0.813795954353,-3.67780013625,1.95012525175,0.346718992584,-0.012569273681,-0.212619869913
1588764049663325378,981,1588764049663234832,,0.813542332877,-3.67789310531,1.97319525608,0.349355242843,-0.013223324474,-0.214415254671
1588764049666124199,982,1588764049666033839,,0.836515371813,-3.81034766334,1.97436883389,0.352138221577,-0.0132494034654,-0.216051554994
1588764049672370163,983,1588764049672227341,,0.813494509653,-3.67779363078,1.97340037302,0.351224345042,-0.013908690502,-0.216209676429
1588764049675379956,984,1588764049675277179,,0.859540948566,-3.81055340437,1.99783394787,0.354841414878,-0.013242330983,-0.2204314583
1588764049678238668,985,1588764049678153735,,0.859150474178,-3.67827955616,2.0203358011,0.359312875962,-0.013924347209,-0.223130147444
1588764049687285705,986,1588764049687162868,,0.904669417728,-3.81113464095,2.06804362257,0.36555235311,-0.0146140833053,-0.229160637386
1588764049690143468,987,1588764049690044910,,0.927728253308,-3.94366269612,2.06903521553,0.371200986708,-0.0153071529733,-0.236244272317
1588764049696184772,988,1588764049696100126,,0.927690876577,-3.94368042163,2.06901818876,0.371198514067,-0.0153120362179,-0.236247840982
1588764049699372445,989,1588764049699249217,,0.927325004421,-3.94377749425,2.09212269188,0.37847478897,-0.0166585779199,-0.241656461008
1588764049702409689,990,1588764049702316604,,0.950100637317,-3.94398927815,2.1156498581,0.381152142549,-0.0166670525445,-0.245127436002
1588764049708433305,991,1588764049708310762,,0.950017383832,-4.07643575057,2.11616518964,0.383006969036,-0.0166742868009,-0.246016172403
1588764049711390666,992,1588764049711295991,,0.811189225041,-4.20822216371,2.09093888816,0.369098596503,-0.0159777789627,-0.231563002575
1588764049714395657,993,1588764049714299308,,0.858835472292,-4.2079822448,2.02266419765,0.354594348237,-0.0113052750623,-0.217740316853
1588764049720314966,994,1588764049720228201,,0.859080610317,-4.2077159102,2.02311411479,0.354592236424,-0.0113105671044,-0.217743481115
1588764049723223602,995,1588764049723124690,,0.814144677608,-4.20710193624,1.95314238546,0.343759033532,-0.0106023354536,-0.2054209777
1588764049726295108,996,1588764049726195385,,0.69921373385,-4.07392851483,1.90417160479,0.338434641564,-0.0112312501258,-0.199833399443
1588764049732285374,997,1588764049732189584,,0.699556081932,-4.07398227389,1.90393083127,0.338422964715,-0.0112028436246,-0.199854768197
1588764049735290800,998,1588764049735200332,,0.768154083946,-4.20710106397,1.95172058955,0.339942934398,-0.0105362856216,-0.199410643882
1588764049738052337,999,1588764049737963090,,0.767813736114,-4.20737548134,1.95126291014,0.339939214502,-0.0105448161859,-0.199416534296
1588764049744217094,1000,1588764049744118385,,0.744573555109,-4.20737346114,1.9506360642,0.339916897726,-0.00987254996789,-0.198657267538
1588764049747035764,1001,1588764049746958899,,0.72181815159,-4.33972106781,1.92742794399,0.341026538961,-0.00986493305908,-0.200598427318
1588764049750049867,1002,1588764049749982580,,0.721958531169,-4.20716994159,1.92699350829,0.342842238589,-0.0105303917701,-0.20058818509
1588764049756110289,1003,1588764049756031090,,0.745253733124,-4.20719355748,1.92750881867,0.34377137862,-0.0105319649241,-0.201351563189
1588764049759582002,1004,1588764049759472938,,0.745347663048,-4.20716321423,1.9275387293,0.343768159114,-0.0105289580099,-0.201357217065
1588764049762594544,1005,1588764049762511836,,0.722139964018,-4.20709280387,1.92709393418,0.343757515765,-0.00985954269942,-0.200581220861
1588764049768179363,1006,1588764049768122862,,0.698605091781,-4.20711637408,1.94983059745,0.342662369779,-0.0098505209439,-0.198920851413
1588764049771241212,1007,1588764049771161555,,0.698090059896,-4.20725380932,1.97288751787,0.343382080326,-0.0098520854656,-0.197094879927
1588764049774190218,1008,1588764049774125665,,0.721089088605,-4.20737451477,1.97329961685,0.343405977682,-0.00986162472687,-0.197849142082
1588764049780332243,1009,1588764049780254687,,0.720919456699,-4.33989510003,1.97379989236,0.344304205177,-0.010540394254,-0.19785091253
1588764049783244331,1010,1588764049783174736,,0.720859510633,-4.33987496783,1.97386605091,0.344308978301,-0.0105435673791,-0.197842436932
1588764049786302763,1011,1588764049786212000,,0.720761550476,-4.33984751354,1.97396218403,0.34618077119,-0.0105592159354,-0.199633026029
1588764049792087229,1012,1588764049792008036,,0.743400457442,-4.34004372324,1.99750748723,0.347881207847,-0.0105733436053,-0.200377724524
1588764049795020750,1013,1588764049794953833,,0.7661287632,-4.34028987517,2.02095884769,0.351525762986,-0.00993072070668,-0.205649515852
1588764049798018954,1014,1588764049797954764,,0.765652575577,-4.34041331246,2.04413242565,0.353171638976,-0.0106020700654,-0.204731050944
1588764049807107570,1015,1588764049807010852,,0.742227406721,-4.47288894887,2.04409579506,0.354112318623,-0.0106101314474,-0.205785953466
1588764049813105291,1016,1588764049813005224,,0.742301110053,-4.47283264616,2.04419222998,0.353146813571,-0.0106056451522,-0.203974230494
1588764049816117854,1017,1588764049815980544,,0.76568989795,-4.47283513907,2.04476466873,0.352212985128,-0.00993713694206,-0.202936269046
1588764049819346422,1018,1588764049819238859,,0.743195715595,-4.4725525466,1.99806089491,0.350657489555,-0.0106016821455,-0.202188127898
1588764049825167064,1019,1588764049825084105,,0.743223304627,-4.4725634883,1.99802614,0.350656767505,-0.0105986719421,-0.20218953797
1588764049828182364,1020,1588764049828082319,,0.742929687598,-4.47266258668,2.02107455889,0.351449691006,-0.0105873906631,-0.203083082955
1588764049831215583,1021,1588764049831132589,,0.74238981686,-4.47284242922,2.04413860949,0.353151748707,-0.0105917782085,-0.203966406475
1588764049837348022,1022,1588764049837210179,,0.742221135695,-4.47285351063,2.04417561617,0.353159361427,-0.0105992918614,-0.203952834741
1588764049840353171,1023,1588764049840239359,,0.742272459753,-4.47287212041,2.0441162593,0.35316034389,-0.0105917279693,-0.203951526477
1588764049843233757,1024,1588764049843131029,,0.741994851318,-4.47292582599,2.06726510788,0.353923591259,-0.0105869259588,-0.203947526277
1588764049849405141,1025,1588764049849310715,,0.742252750639,-4.60533572772,2.04470344791,0.354082905191,-0.00992410553325,-0.203931907145
1588764049852276457,1026,1588764049852176023,,0.742284946484,-4.60531004025,2.04474961599,0.354083759718,-0.00992295818882,-0.20393047927
1588764049855324274,1027,1588764049855226242,,0.765223551222,-4.6054449236,2.06835329582,0.354867716978,-0.0105870147836,-0.204688571364
1588764049861605427,1028,1588764049861507169,,0.741955189944,-4.60539538271,2.06784156184,0.354844659275,-0.0105843478491,-0.20392898054
1588764049864303717,1029,1588764049864208273,,0.764870337811,-4.60556306392,2.09138222257,0.356583439925,-0.0105885276934,-0.206501725497
1588764049867209892,1030,1588764049867105090,,0.765243185606,-4.60547933201,2.06826941505,0.357661523548,-0.00993259032119,-0.207402639526
1588764049873292796,1031,1588764049873229005,,0.764751675423,-4.60558507943,2.09137713515,0.358422492815,-0.00994412901319,-0.207401732181
1588764049876189242,1032,1588764049876112860,,0.764368662665,-4.47309449388,2.11417195811,0.361038054236,-0.0099663989719,-0.208290126853
1588764049879226742,1033,1588764049879137265,,0.787473878737,-4.60569405167,2.115082591,0.361989308892,-0.00996804380158,-0.209957178216
1588764049885302386,1034,1588764049885210131,,0.787525191677,-4.60564774606,2.11516431647,0.361984429798,-0.00997243823504,-0.209965381415
1588764049888181102,1035,1588764049888108811,,0.787031598906,-4.6057660846,2.1383472607,0.368293984317,-0.0106590412519,-0.212629444596
1588764049891008683,1036,1588764049890939264,,0.787031066832,-4.60578904892,2.13829799322,0.368291443264,-0.0106592293704,-0.212633836445
1588764049897202668,1037,1588764049897072727,,0.80987040775,-4.6060044592,2.16177454062,0.370005290692,-0.010665384706,-0.214300895066
1588764049900051418,1038,1588764049899956255,,0.809235243613,-4.73870938529,2.18520752672,0.373501469272,-0.0113439267053,-0.214274001029
1588764049903055321,1039,1588764049903004246,,0.808815733205,-4.73880520345,2.20841506536,0.375231146214,-0.0113430131739,-0.21605822274
1588764049909097830,1040,1588764049908993512,,0.808770211155,-4.7388028647,2.20843675538,0.377050578331,-0.011352211162,-0.216042803086
1588764049912072682,1041,1588764049912004477,,0.809204383731,-4.73872883826,2.18517676983,0.378993303079,-0.0113514694126,-0.215119349913
1588764049915101836,1042,1588764049915026088,,0.808889693823,-4.7388095548,2.20837863918,0.381631619814,-0.0106865339606,-0.216908111508
1588764049921352513,1043,1588764049921271789,,0.808557219834,-4.73890461222,2.23145927335,0.382370095789,-0.011345938149,-0.215997303154
1588764049927188447,1044,1588764049927058986,,0.807977013601,-4.87157875961,2.25493650885,0.387693167018,-0.0106940392657,-0.215946737401
1588764049933135269,1045,1588764049933035357,,0.807690974888,-4.73911383138,2.27765992512,0.391171997966,-0.0107002341457,-0.215004671928
1588764049936153148,1046,1588764049936077817,,0.806991777703,-4.73933172368,2.32389280909,0.396317112773,-0.010703823004,-0.214061835665
1588764049942172449,1047,1588764049942086745,,0.806576818228,-4.73946842912,2.34693014978,0.400702024212,-0.0107084864256,-0.213101509116
1588764049945275283,1048,1588764049945151575,,0.783275505621,-4.87192740204,2.34686693862,0.405137293543,-0.0107129537617,-0.208675055862
1588764049948212311,1049,1588764049948137703,,0.759708044224,-4.87196056627,2.36950616847,0.407679087981,-0.010715236056,-0.206987351914
1588764049954189584,1050,1588764049954112585,,0.759480190044,-4.7395036643,2.39232931388,0.411111648791,-0.0107213293956,-0.20423185247
1588764049957305865,1051,1588764049957171913,,0.689055442675,-4.73946758591,2.43725266475,0.421580931549,-0.010082152125,-0.197321989201
1588764049960402872,1052,1588764049960319795,,0.689020448254,-4.7394568503,2.43728343425,0.421582248491,-0.0100848592671,-0.197319037171
1588764049966433640,1053,1588764049966307188,,0.687904805417,-4.73975214219,2.50672671913,0.432881731869,-0.00878058280864,-0.192661727114
1588764049969259504,1054,1588764049969107636,,0.68786092088,-4.73974263946,2.50675672939,0.432881041755,-0.00878660331412,-0.19266300321
1588764049972377498,1055,1588764049972281490,,0.664556655321,-4.73965783488,2.50634421353,0.433732611461,-0.00878957641024,-0.190078752687
1588764049978313294,1056,1588764049978172845,,0.617730025938,-4.73960384837,2.52859933768,0.437130469992,-0.00945690958803,-0.185794072513
1588764049981280132,1057,1588764049981199215,,0.64059018783,-4.73978142404,2.55215705215,0.441496429182,-0.00813715512679,-0.183786466228
1588764049987165703,1058,1588764049987080196,,0.616249980176,-4.872407308,2.59855746578,0.448419902886,-0.0081576785238,-0.180217069443
1588764049993345526,1059,1588764049993220791,,0.593139201631,-4.87234096058,2.59809722928,0.451096198045,-0.00815682724219,-0.177620800935
1588764049996275688,1060,1588764049996179156,,0.569395587241,-4.87239101756,2.62076150087,0.457223672145,-0.00884417163497,-0.173167425443
1588764050002274849,1061,1588764050002180913,,0.568424294824,-5.0051383285,2.66749049963,0.462375192367,-0.00818810174485,-0.171293382732
1588764050005357049,1062,1588764050005277377,,0.5442805742,-4.87284024812,2.7361299272,0.469137425272,-0.00819767272319,-0.166833414196
1588764050008207999,1063,1588764050008119514,,0.520579748392,-4.87289685162,2.7587896445,0.475341802749,-0.007553847436,-0.165092613654
1588764050014355502,1064,1588764050014250191,,0.520526886831,-4.87289570319,2.75880164737,0.475342325103,-0.00755838748538,-0.165090901866
1588764050017285601,1065,1588764050017136903,,0.473751293127,-4.87282136341,2.78114626682,0.48235709549,-0.00691359017268,-0.158951904468
1588764050023239926,1066,1588764050023177992,,0.47341039126,-4.87295098058,2.80422243486,0.484949465077,-0.00691254619278,-0.158923666578
1588764050026195308,1067,1588764050026120765,,0.449717642281,-4.87296087252,2.82707228241,0.492013047937,-0.00626341537229,-0.15444623187
1588764050029400445,1068,1588764050029296331,,0.449760928421,-4.87293579516,2.82710862125,0.492013681113,-0.00625910158759,-0.154444389656
1588764050035231927,1069,1588764050035151352,,0.449831619268,-4.87293589565,2.82709720102,0.492885631481,-0.00626042958028,-0.152634839806
1588764050038243623,1070,1588764050038095999,,0.44939200968,-4.87305425081,2.850212456,0.49634669076,-0.00626719261527,-0.150766542201
1588764050041170551,1071,1588764050041105705,,0.449230629104,-5.00555272462,2.85064607319,0.497222931059,-0.00560051204579,-0.148948205715
1588764050047279391,1072,1588764050047205446,,0.425415325892,-4.87314550864,2.89614094438,0.500503710577,-0.00560885929345,-0.145421177694
1588764050050245606,1073,1588764050050162109,,0.425360374982,-4.87311927817,2.89619315132,0.500503082514,-0.00561723856059,-0.145423015888
1588764050053296921,1074,1588764050053207089,,0.448340467176,-5.00568265104,2.89705794847,0.502305146052,-0.00562317292556,-0.144340247658
1588764050059519694,1075,1588764050059430127,,0.424700097655,-5.00565828988,2.91997848659,0.504886078517,-0.00563344445513,-0.143544803831
1588764050062501210,1076,1588764050062393903,,0.401411475302,-5.00562057691,2.91950300412,0.509399388907,-0.00564121881708,-0.140912913366
1588764050065148288,1077,1588764050065084295,,0.4010041399,-5.00569180751,2.94269334819,0.51465493012,-0.00500322783752,-0.137225066718
1588764050071215544,1078,1588764050071079609,,0.401032876622,-5.00561254118,2.9428242647,0.514652721741,-0.00500886656788,-0.13723314316
1588764050074196377,1079,1588764050074104804,,0.377536515224,-4.87319499532,2.96504721723,0.518086714071,-0.00502667972145,-0.133704661165
1588764050077184140,1080,1588764050077080700,,0.353582654293,-5.00571908962,2.98821639227,0.520645338012,-0.00436809978968,-0.131992355125
1588764050083326484,1081,1588764050083198924,,0.376924627099,-5.00579602224,2.98861574751,0.522488231065,-0.00437141225332,-0.132737911221
1588764050086131040,1082,1588764050086075064,,0.352378614201,-5.00602746604,3.05773666756,0.529288532622,-0.00505839893226,-0.129172190689
1588764050089149058,1083,1588764050089097513,,0.352348416046,-5.0060014742,3.05778270004,0.531985023614,-0.00440305817338,-0.127317809002
1588764050095273007,1084,1588764050095192802,,0.328728945339,-5.00599794699,3.08067314724,0.534575537898,-0.00507973450206,-0.126523705149
1588764050098109133,1085,1588764050098010340,,0.328349542715,-5.00606039515,3.1038790245,0.537998210676,-0.00508976282068,-0.122852481902
1588764050101189084,1086,1588764050101064686,,0.327892470772,-5.00614359756,3.12706011753,0.539646216865,-0.00443153717444,-0.121009566659
1588764050107107615,1087,1588764050107036309,,0.327904645295,-5.0061034137,3.1271231708,0.540553390256,-0.00443897789596,-0.121004879388
1588764050110083316,1088,1588764050110004789,,0.304743729775,-5.00603852459,3.12669974923,0.542343678812,-0.00444213001715,-0.119319962374
1588764050113192705,1089,1588764050113125126,,0.304277229156,-5.00610870248,3.14990234282,0.544932355948,-0.0037841828465,-0.118373511023
1588764050119231761,1090,1588764050119160446,,0.304256389373,-5.00606044914,3.14998104306,0.545822022917,-0.00378905515235,-0.1174536778
1588764050122218026,1091,1588764050122139353,,0.280782077864,-5.13851636015,3.14994683081,0.549420924481,-0.00379229688701,-0.114824473675
1588764050125188271,1092,1588764050125123022,,0.280792632152,-5.13854357878,3.14990148773,0.549420468883,-0.00379151217838,-0.114826679546
1588764050131531389,1093,1588764050131462602,,0.28034800649,-5.13857157972,3.1732678523,0.553837750287,-0.00381023942676,-0.113863003428
1588764050134293119,1094,1588764050134223191,,0.280405855654,-5.13857649597,3.17325477991,0.553837440592,-0.0038047711657,-0.113864692648
1588764050137451908,1095,1588764050137279334,,0.280407478597,-5.1385776462,3.17325277389,0.553837742712,-0.00380365010461,-0.113863260583
1588764050143260672,1096,1588764050143193218,,0.279984987002,-5.13862690099,3.19648268321,0.555494383552,-0.00381341016906,-0.112939317693
1588764050146217807,1097,1588764050146084458,,0.28006099653,-5.13862785636,3.19647448867,0.557281329862,-0.00381569224182,-0.111103490288
1588764050149170493,1098,1588764050149101624,,0.256856511516,-5.13857567977,3.19603929698,0.55724461621,-0.00381805123318,-0.109443039823
1588764050155321508,1099,1588764050155248635,,0.256910324314,-5.13860302452,3.19599100652,0.558163106047,-0.00381562491549,-0.10943355856
1588764050158482284,1100,1588764050158399728,,0.280034457745,-5.13865618608,3.19643127071,0.559081784173,-0.00316370641862,-0.109257315554
1588764050161615021,1101,1588764050161532788,,0.256407765397,-5.13866533531,3.21920689266,0.560741909843,-0.00382667456844,-0.108471740591
1588764050167394663,1102,1588764050167274871,,0.279608597806,-5.13871962337,3.21963917345,0.560760453254,-0.00316614785009,-0.109226869499
1588764050170067954,1103,1588764050170006270,,0.279220646951,-5.13880594611,3.24280782634,0.560617464429,-0.00382397741348,-0.109232425214
1588764050173068554,1104,1588764050173016033,,0.279258848633,-5.138812437,3.24279425076,0.560618885425,-0.00316098394815,-0.109232073401
1588764050179087941,1105,1588764050179023472,,0.279527943028,-5.00635059272,3.24231776347,0.559680255279,-0.00315506930152,-0.108340278498
1588764050182102171,1106,1588764050182043583,,0.279511153912,-5.00635105457,3.24231849772,0.559680211579,-0.0031570726714,-0.108340445887
1588764050185139982,1107,1588764050185028533,,0.279485868806,-5.00637629306,3.24228170719,0.55968065812,-0.00315755921876,-0.108338124883
1588764050191101674,1108,1588764050191044580,,0.279281754697,-5.13888127059,3.24268319579,0.559660513508,-0.00315511187369,-0.107436861563
1588764050194061245,1109,1588764050194009659,,0.279711405325,-5.13877236074,3.21954607002,0.559848764887,-0.00381311952566,-0.109246218318
1588764050197114901,1110,1588764050197025267,,0.27994313809,-5.00626799619,3.21913740479,0.558910441816,-0.00381158581855,-0.108352712251
1588764050203449676,1111,1588764050203367422,,0.27997119867,-5.00628003724,3.21911623864,0.558910234657,-0.00380874865497,-0.10835388059
1588764050206308792,1112,1588764050206222323,,0.279949787396,-5.00628638587,3.2191082275,0.558910735462,-0.00380926017477,-0.108351279327
1588764050209242438,1113,1588764050209168907,,0.279960637012,-5.0062913269,3.21909959974,0.558910180904,-0.00380971843124,-0.108354123765
1588764050215143962,1114,1588764050215091151,,0.280415655166,-5.00619376433,3.19593959657,0.558142222457,-0.0031483082773,-0.108370580256
1588764050218106193,1115,1588764050218044807,,0.280453410342,-5.00618846604,3.19594458302,0.558140857275,-0.00314876669185,-0.108377597816
1588764050221085068,1116,1588764050221016764,,0.28005835752,-5.00631379218,3.21905616164,0.558907378381,-0.00380735621958,-0.1083686617
1588764050227270725,1117,1588764050227200810,,0.280432473832,-5.00622273999,3.19589273221,0.558138984113,-0.00381000679453,-0.108380383771
1588764050230125757,1118,1588764050230068543,,0.280850571033,-5.00615681405,3.17268670139,0.557370025853,-0.0038087449467,-0.108395145241
1588764050236137278,1119,1588764050236072562,,0.280867528204,-5.00615061504,3.17269498163,0.557369838349,-0.00380768611853,-0.108396146583
1588764050239204288,1120,1588764050239123740,,0.281095964386,-4.8736870321,3.17223148223,0.557369612812,-0.00380932077295,-0.10839724885
1588764050242315600,1121,1588764050242246862,,0.281079975081,-4.87366782575,3.17226240666,0.557369265747,-0.00381295069652,-0.108398905791
1588764050248191257,1122,1588764050248077693,,0.281076805447,-4.87367523608,3.17225130271,0.557368148311,-0.00381677694723,-0.108404516655
1588764050251199091,1123,1588764050251138775,,0.280851487982,-5.00615768479,3.17268524629,0.554640239595,-0.00315365789181,-0.10935432631
1588764050254146550,1124,1588764050254062258,,0.280845244673,-5.00617404272,3.17265998775,0.554640502142,-0.00315294197711,-0.109353015318
1588764050260225179,1125,1588764050260172875,,0.28108615912,-4.87370580399,3.17220351052,0.553711037651,-0.00315353404377,-0.108465197526
1588764050263160785,1126,1588764050263106506,,0.281066657362,-4.87371180876,3.17219601289,0.553728905234,-0.00381447002382,-0.109371296338
1588764050266288463,1127,1588764050266234165,,0.281259910921,-5.00606298969,3.14942621499,0.553867267751,-0.00315682587661,-0.109372594672
1588764050272227987,1128,1588764050272158883,,0.281484924776,-4.87358805405,3.148977221,0.552938238116,-0.00315801533546,-0.10848257431
1588764050275273608,1129,1588764050275220313,,0.281500026242,-4.87359635094,3.14896303013,0.551107567944,-0.00381305415954,-0.108513496244
1588764050278249538,1130,1588764050278192739,,0.281922937493,-4.87351824492,3.12577400506,0.550359572027,-0.00315272756794,-0.109432217674
1588764050287365944,1131,1588764050287276542,,0.281916663323,-4.87353459005,3.12574908644,0.548538952746,-0.00380874871291,-0.110376209976
1588764050290149469,1132,1588764050290075192,,0.281941991668,-4.87354023454,3.12573800126,0.548538854561,-0.00380602140114,-0.110376792007
1588764050296124305,1133,1588764050296072772,,0.282354036976,-4.87342889469,3.10260243768,0.547770543285,-0.00380467236513,-0.110388252766
1588764050299191695,1134,1588764050299122749,,0.282556613137,-4.74097653242,3.10212857257,0.54688188336,-0.00380355090655,-0.111301126596
1588764050302189138,1135,1588764050302134715,,0.28296048964,-4.74087012475,3.07898307565,0.546113998948,-0.00380152478077,-0.111310548153
1588764050308126953,1136,1588764050308052215,,0.282948533034,-4.74086401463,3.07899358249,0.545197063688,-0.0031402606572,-0.111319326479
1588764050311288697,1137,1588764050311206119,,0.282638257745,-4.87332303394,3.07947128109,0.542479125417,-0.0037962106561,-0.112256833955
1588764050314148108,1138,1588764050314095894,,0.306567775981,-4.74081296682,3.0561924677,0.539907445302,-0.00378735357796,-0.113963663641
1588764050320179720,1139,1588764050320121650,,0.306535586492,-4.74080774466,3.05620379715,0.539908747807,-0.00378723620705,-0.113957496697
1588764050323241675,1140,1588764050323178599,,0.306943976306,-4.74070391243,3.03305663779,0.534595350101,-0.00377412672598,-0.114935290782
1588764050326178158,1141,1588764050326098617,,0.306949898241,-4.740689567,3.03307846044,0.534595920621,-0.00377230297329,-0.114932696975
1588764050332249640,1142,1588764050332177792,,0.307161984103,-4.60824046241,3.03260059404,0.53365804745,-0.00376964882699,-0.114036341969
1588764050335412892,1143,1588764050335321755,,0.330331018092,-4.60828251159,3.03305928622,0.531866813465,-0.00376724329174,-0.115723847209
1588764050341105300,1144,1588764050341027321,,0.307549004704,-4.60813154206,3.00946062078,0.531082552572,-0.00376375207924,-0.114973030516
1588764050347215918,1145,1588764050347149677,,0.30773555671,-4.47569136692,3.00898267293,0.527447991835,-0.00375598204128,-0.11592076254
1588764050353168625,1146,1588764050353102487,,0.331091894742,-4.60809718513,2.98663306092,0.525776569126,-0.00309244913402,-0.116699490322
1588764050356250029,1147,1588764050356188517,,0.354678803354,-4.60804368382,2.96393352897,0.524157171564,-0.00308862737211,-0.119298093767
1588764050359596710,1148,1588764050359529163,,0.35464107732,-4.60804647976,2.96393369635,0.524158854288,-0.00308804566756,-0.119290715241
1588764050365297566,1149,1588764050365202402,,0.354828035076,-4.47560467771,2.96345158517,0.521394333409,-0.00241496327539,-0.11840851572
1588764050368197702,1150,1588764050368141457,,0.354976842374,-4.60793612627,2.94080654162,0.520666868419,-0.00308111276484,-0.120231514433
1588764050371224695,1151,1588764050371137693,,0.332003360912,-4.47543435525,2.93988324373,0.518802831804,-0.00307577279405,-0.118589178127
1588764050377275960,1152,1588764050377091605,,0.331970091283,-4.47543457938,2.93988665951,0.517884783367,-0.00307500778288,-0.118597896173
1588764050380136965,1153,1588764050380084697,,0.309177221974,-4.47526380748,2.91631741021,0.516191205803,-0.00372647766209,-0.117854855891
1588764050383365452,1154,1588764050383299960,,0.355920093049,-4.47528634803,2.89393124948,0.511790186169,-0.00306073832742,-0.119430724215
1588764050389315629,1155,1588764050389235994,,0.355915545213,-4.47528680971,2.89393109486,0.511790951384,-0.00305909978878,-0.119427487014
1588764050392298383,1156,1588764050392226107,,0.356309424109,-4.4751725355,2.87080254518,0.508286612728,-0.00305253869614,-0.119473943039
1588764050398277202,1157,1588764050398184218,,0.355875419794,-4.4752859795,2.89393731334,0.509055129442,-0.00305520335917,-0.11946109457
1588764050401248605,1158,1588764050401109036,,0.355863577892,-4.4752799675,2.89394806668,0.506329841704,-0.00304807329762,-0.120398546286
1588764050407157919,1159,1588764050407082547,,0.356236939686,-4.47518304013,2.87079516539,0.50373654473,-0.00237641715052,-0.12042955138
1588764050413350014,1160,1588764050413273868,,0.357293914097,-4.34253638924,2.82400299885,0.500369973087,-0.00369168850495,-0.120476700894
1588764050416277868,1161,1588764050416201280,,0.357280559281,-4.34253165344,2.8240119708,0.500370317844,-0.00369250446488,-0.120475244018
1588764050419226169,1162,1588764050419137716,,0.38034983646,-4.47503342416,2.82494696082,0.500407731637,-0.00369265634504,-0.122142758745
1588764050425370603,1163,1588764050425282495,,0.380352525343,-4.47503509607,2.8249439503,0.500407771291,-0.00369217537082,-0.122142610824
1588764050428348761,1164,1588764050428249372,,0.38055626603,-4.34259824687,2.82444308795,0.498621572803,-0.00368935535515,-0.12398477791
1588764050434231821,1165,1588764050434158357,,0.404363212342,-4.47487243586,2.7790221571,0.492527588205,-0.00301687803293,-0.124824643829
1588764050437158704,1166,1588764050437089514,,0.404400417268,-4.47487906911,2.77900606219,0.492526128458,-0.00301605086054,-0.12483042348
1588764050440278114,1167,1588764050440190227,,0.381900651264,-4.34225462602,2.75493944797,0.491759169267,-0.00301425896604,-0.124995485799
1588764050446171011,1168,1588764050446095717,,0.405157306237,-4.34231884219,2.75536135988,0.490853185201,-0.00366815304507,-0.125779389143
1588764050449417352,1169,1588764050449324976,,0.404804670924,-4.34243367971,2.77848056603,0.488893911127,-0.00366173095005,-0.126715977852
1588764050452158395,1170,1588764050452069623,,0.404845453637,-4.34242743177,2.77848438875,0.488892181166,-0.00366168883464,-0.126722653395
1588764050458463769,1171,1588764050458405793,,0.404881163736,-4.34242548448,2.77848222868,0.488891193768,-0.00366016461193,-0.126726506717
1588764050461488435,1172,1588764050461397414,,0.40551834429,-4.20990043136,2.75481179615,0.486336779681,-0.00365385075091,-0.128581887086
1588764050464354305,1173,1588764050464276520,,0.382413825821,-4.20983956818,2.75436433216,0.486316829677,-0.00365226980103,-0.127832860691
1588764050470426056,1174,1588764050470302794,,0.42886223124,-4.2099802763,2.75521367932,0.486350413599,-0.00365425151392,-0.129358405091
1588764050473460146,1175,1588764050473347649,,0.406430633035,-4.20968938587,2.7084078901,0.482964557652,-0.00431263214352,-0.128643917969
1588764050476408549,1176,1588764050476326705,,0.406465259702,-4.20969200127,2.70839862857,0.481157495214,-0.00430627417436,-0.129573828287
1588764050482435628,1177,1588764050482335282,,0.406487743081,-4.20970188545,2.70837989111,0.481156608876,-0.00430534057331,-0.129577150579
1588764050485383599,1178,1588764050485268476,,0.429770024164,-4.20978192006,2.70878959127,0.479325513268,-0.00430051132232,-0.129461088809
1588764050488552931,1179,1588764050488435290,,0.407129142591,-4.07721149565,2.68465943327,0.476713578495,-0.0036264593759,-0.128735491652
1588764050494519742,1180,1588764050494412193,,0.407156651211,-4.07724011948,2.68461178965,0.476712575144,-0.00362429988277,-0.128739267866
1588764050497650740,1181,1588764050497561347,,0.407362070159,-4.20957099596,2.66195859209,0.47137297084,-0.00360915084224,-0.128804226993
1588764050500413441,1182,1588764050500321959,,0.430658610539,-4.20970974726,2.66227243767,0.469605889557,-0.00359813463435,-0.131395355969
1588764050506402204,1183,1588764050506327373,,0.430648610381,-4.20977382949,2.66217272286,0.469607594786,-0.00359215795881,-0.131389424878
1588764050509437432,1184,1588764050509352624,,0.408381238834,-4.07708458314,2.61482131434,0.464377132344,-0.00357805438903,-0.129786865115
1588764050512378963,1185,1588764050512302011,,0.408395210387,-4.0770957706,2.61480168841,0.464378192524,-0.00357337216376,-0.129783200737
1588764050518502434,1186,1588764050518409820,,0.409198363466,-4.07687996546,2.56851927947,0.459203003361,-0.00290287175426,-0.130746972402
1588764050521521117,1187,1588764050521380133,,0.409159080357,-4.07688207312,2.5685221921,0.459203940038,-0.00290518927013,-0.13074363113
1588764050524670774,1188,1588764050524574563,,0.409740397734,-3.94436856856,2.54474791942,0.452953285654,-0.00289173648822,-0.130819425827
1588764050530463134,1189,1588764050530312961,,0.409718087252,-3.94437570306,2.5447404531,0.452954510037,-0.00289119116644,-0.130815198465
1588764050533397757,1190,1588764050533304147,,0.410102582934,-3.94428502264,2.52157334091,0.449421433216,-0.00288235424807,-0.129952462214
1588764050536504161,1191,1588764050536393450,,0.410462381529,-3.9441782428,2.49843647902,0.445001889353,-0.0028746639715,-0.130002370715
1588764050542482533,1192,1588764050542387634,,0.410645018053,-3.81182023357,2.49783951292,0.444084413744,-0.00286934872344,-0.130010878294
1588764050545356206,1193,1588764050545268140,,0.457421990469,-3.81183926219,2.47558830084,0.439725683206,-0.00219157805291,-0.132477902767
1588764050548385589,1194,1588764050548280458,,0.411573982233,-3.67921406959,2.45092335748,0.437999978006,-0.00285506395372,-0.130976397228
1588764050554334095,1195,1588764050554226171,,0.457763666939,-3.81172386541,2.45236709546,0.437131211152,-0.00218736854632,-0.132500590728
1588764050557464467,1196,1588764050557270313,,0.458304265992,-3.67924448778,2.42866480821,0.43364299855,-0.00217923855666,-0.133450169306
1588764050560627991,1197,1588764050560545280,,0.458281772635,-3.67925119543,2.42865889114,0.433642688747,-0.00218234071313,-0.133451125307
1588764050566245816,1198,1588764050566162226,,0.458434586599,-3.5469285519,2.4280473199,0.430908212087,-0.00217733828852,-0.13348406698
1588764050569235165,1199,1588764050569170773,,0.459236697633,-3.54664057391,2.38185212913,0.42758004692,-0.00283701523922,-0.135329684342
1588764050572175490,1200,1588764050572094123,,0.459270124059,-3.54660461967,2.38189922014,0.427580077386,-0.00283477392492,-0.135329635051
1588764050578521244,1201,1588764050578434520,,0.460243200732,-3.41399539958,2.33499148444,0.424239067752,-0.0028251157943,-0.136269605528
1588764050581437798,1202,1588764050581359014,,0.460252693,-3.41396021585,2.33504105482,0.424239555816,-0.00282484277148,-0.136268091721
1588764050590353469,1203,1588764050590188991,,0.460788377695,-3.28151508936,2.31131705377,0.420738202912,-0.00347253688861,-0.136305950474
1588764050593216014,1204,1588764050593139800,,0.461179268744,-3.28136789563,2.28822205586,0.417229354622,-0.00346207535864,-0.136340352702
1588764050596278466,1205,1588764050596181778,,0.484501058801,-3.14921495734,2.28796571617,0.416309086222,-0.00280695454677,-0.136209438116
1588764050602525735,1206,1588764050602412701,,0.461706553247,-3.14897820126,2.26433160756,0.413692396145,-0.00345599437467,-0.135480162613
1588764050605213239,1207,1588764050605137514,,0.462081174854,-3.14882238305,2.24124844631,0.411125193766,-0.0027954828539,-0.136406005825
1588764050608458081,1208,1588764050608375894,,0.462102907943,-3.14881692563,2.24125163282,0.410161806422,-0.00279193371232,-0.134614314486
1588764050614453577,1209,1588764050614369758,,0.462502673516,-3.1486662673,2.21815831207,0.407591729822,-0.00278647480228,-0.135545295496
1588764050617540700,1210,1588764050617381453,,0.462640355068,-3.01645410254,2.21743356073,0.405765743573,-0.00278117677333,-0.13556718082
1588764050623409423,1211,1588764050623319757,,0.462625010893,-3.01645834724,2.21743098783,0.405767097173,-0.00211862781471,-0.135566819249
1588764050626404556,1212,1588764050626305635,,0.463038088447,-3.01629038867,2.19435251035,0.404068655374,-0.00211567016364,-0.134686921848
1588764050629374392,1213,1588764050629292600,,0.463528651257,-2.88398378046,2.17038250696,0.402379453458,-0.00277674061831,-0.13470553715
1588764050635452468,1214,1588764050635323719,,0.46352053549,-2.8839727706,2.17039886993,0.400554036159,-0.00277506224532,-0.13472570521
1588764050638239449,1215,1588764050638153570,,0.440815796792,-2.88372541429,2.14687500216,0.398827519147,-0.00277351091066,-0.133086280919
1588764050641452201,1216,1588764050641339020,,0.464275235559,-2.88364869085,2.12423443981,0.396231793676,-0.00276933099573,-0.13295860443
1588764050647536761,1217,1588764050647382522,,0.464265733688,-2.88363954757,2.12424892845,0.396232128867,-0.00277050559312,-0.132957581047
1588764050650447269,1218,1588764050650343625,,0.441554221671,-2.88339242981,2.10063055079,0.392734165434,-0.00276413079287,-0.133146583547
1588764050653366223,1219,1588764050653251504,,0.441543850768,-2.88338411442,2.10064414465,0.392733953204,-0.00276662981846,-0.133147157643
1588764050659667687,1220,1588764050659574431,,0.417955345327,-2.88344409081,2.1234111074,0.391627905224,-0.00210320633362,-0.131487628078
1588764050662695819,1221,1588764050662598156,,0.417955233563,-2.88343058917,2.12342946357,0.391628259678,-0.00210323919651,-0.131486571829
1588764050665380204,1222,1588764050665287556,,0.41795179878,-2.88342520049,2.12343745696,0.391629106045,-0.00210210831682,-0.131484069009
1588764050671405787,1223,1588764050671300968,,0.441628226025,-2.75122056871,2.09988948591,0.389076697047,-0.00209625367916,-0.13318137636
1588764050674415834,1224,1588764050674307304,,0.441627636928,-2.75121220385,2.09990056918,0.389076604334,-0.00209709143197,-0.133181634023
1588764050677608613,1225,1588764050677506278,,0.441537287541,-2.88331408133,2.10074164952,0.388145685913,-0.00209540124296,-0.132280770149
1588764050683608433,1226,1588764050683480462,,0.441633272223,-2.75118878954,2.09993006024,0.387252335215,-0.00209227004553,-0.133198838246
1588764050686375955,1227,1588764050686296675,,0.441632224753,-2.75117882527,2.09994333499,0.386344700209,-0.00209153670637,-0.133208804822
1588764050689457816,1228,1588764050689365384,,0.464711873613,-2.75126023802,2.10039283397,0.385495165995,-0.00142402332419,-0.135774342125
1588764050695327231,1229,1588764050695211070,,0.464695002448,-2.75124958526,2.10041052037,0.385495622945,-0.00142618064172,-0.135773022087
1588764050698481026,1230,1588764050698360949,,0.464695409653,-2.75124918248,2.10041095786,0.383692625347,-0.00208679580165,-0.136693721245
1588764050701428091,1231,1588764050701303427,,0.464687865058,-2.75124234412,2.10042158429,0.383693069766,-0.00208734727174,-0.136692465356
